Timestamp;NavState;SecurityLevel;Heading;Declination;Pitch;Roll;Depth;Temperature;Pa;Lat;Lon;DeadReckoning;DesiredH;BallastCmd;BallastPos;LinCmd;LinPos;AngCmd;AngPos;Voltage;Altitude;
14/02/2025 18:38:39;119;0;284.97;-4;-54.84;-10.38;-0.4;17.50;75845;2836.640;-1758.036;0;326;500;504.8;100.0;100.7;0;0.5;28.6;-1.0;
14/02/2025 18:38:49;116;0;301.65;-4;-52.42;-12.89;-0.4;17.50;75868;2836.641;-1758.037;0;326;500;504.8;100.0;100.7;0;0.5;28.6;-1.0;
14/02/2025 18:39:14;116;0;311.52;-4;-53.60;-9.26;-0.3;17.60;75877;2836.642;-1758.037;0;326;500;506.5;100.0;100.9;0;0.5;28.6;-1.0;
14/02/2025 18:39:40;116;0;307.98;-4;-51.20;-11.82;-0.2;17.70;75884;2836.644;-1758.037;0;326;500;504.8;100.0;100.9;0;0.5;28.4;-1.0;
14/02/2025 18:39:52;116;0;287.90;-4;-57.87;-13.13;-0.2;17.70;75888;2836.645;-1758.038;0;326;500;504.8;100.0;100.9;0;0.5;28.6;-1.0;
14/02/2025 18:40:55;116;0;279.28;-4;-54.61;-7.94;-0.2;17.90;75906;2836.652;-1758.043;0;326;500;504.8;100.0;100.7;0;0.5;28.6;-1.0;
14/02/2025 18:41:57;116;0;310.90;-4;-52.31;-18.17;-0.2;18.20;75939;2836.657;-1758.045;0;326;500;504.8;100.0;100.7;0;0.5;28.6;-1.0;
14/02/2025 18:42:29;116;0;314.98;-4;-54.26;-9.52;-0.3;18.30;75950;2836.660;-1758.045;0;326;500;504.8;100.0;100.7;0;0.5;28.6;-1.0;
14/02/2025 18:42:49;110;0;296.45;-4;-55.61;-16.82;0.1;18.40;75957;2836.660;-1758.045;0;326;-50;388.7;100.0;99.9;-7;-7.2;28.6;-1.0;
14/02/2025 18:42:59;110;0;303.88;-4;-49.04;-19.17;0.3;18.50;76307;2836.660;-1758.044;1;326;-50;240.3;100.0;99.9;-7;-7.2;28.5;-1.0;
14/02/2025 18:43:09;110;0;301.22;-4;-62.41;-17.42;0.7;18.50;76549;2836.659;-1758.044;1;326;-50;83.9;100.0;99.9;-7;-7.7;28.5;-1.0;
14/02/2025 18:43:19;110;0;322.64;-4;-64.89;-14.36;1.0;18.60;76882;2836.659;-1758.044;1;326;-50;-48.4;100.0;99.9;-7;-7.2;28.6;-1.0;
14/02/2025 18:43:29;110;0;337.76;-4;-70.69;-12.46;1.2;18.60;77155;2836.659;-1758.044;1;326;-50;-48.4;42.6;42.6;-7;-7.7;28.6;-1.0;
14/02/2025 18:43:49;100;0;353.53;-4;-23.47;-15.52;3.8;18.70;77125;2836.661;-1758.043;1;325;-50;-43.5;42.6;42.3;-7;-7.7;28.6;-1.0;
14/02/2025 18:44:09;100;0;351.64;-4;-17.64;-16.17;5.8;18.80;77126;2836.663;-1758.043;1;325;-50;-41.9;43.3;43.4;43;42.9;28.6;-1.0;
14/02/2025 18:44:29;100;0;351.02;-4;-23.23;9.39;7.7;18.80;77131;2836.664;-1758.043;1;325;-50;-41.9;42.3;42.3;41;40.6;28.6;-1.0;
14/02/2025 18:44:49;100;0;344.13;-4;-19.79;7.93;10.0;18.80;77132;2836.666;-1758.043;1;325;-50;-41.9;42.3;42.0;30;29.3;28.6;-1.0;
14/02/2025 18:45:09;100;0;337.82;-4;-20.09;2.38;12.1;18.90;77134;2836.668;-1758.044;1;325;-50;-41.9;42.3;42.0;20;19.9;28.6;-1.0;
14/02/2025 18:45:29;100;0;335.57;-4;-20.17;-2.60;14.3;18.90;77144;2836.669;-1758.044;1;325;-50;-41.9;42.3;42.0;18;18.1;28.6;0.0;
14/02/2025 18:45:49;100;0;335.22;-4;-19.16;-3.35;16.5;18.90;77140;2836.671;-1758.045;1;325;-50;-41.9;42.3;42.0;18;17.6;28.6;0.0;
14/02/2025 18:46:09;100;0;333.58;-4;-19.02;-3.43;18.6;18.90;77145;2836.673;-1758.046;1;325;-50;-41.9;42.3;42.0;18;18.1;28.6;0.0;
14/02/2025 18:46:29;100;0;333.85;-4;-18.83;-3.40;20.7;19.00;77152;2836.674;-1758.046;1;325;-50;-43.5;42.7;42.9;18;17.6;28.6;0.0;
14/02/2025 18:46:49;100;0;333.51;-4;-20.47;-3.36;23.0;19.00;77142;2836.676;-1758.047;1;325;-50;-43.5;42.7;43.2;18;17.6;28.6;0.0;
14/02/2025 18:47:09;100;0;329.85;-4;-20.90;-3.33;25.3;19.00;77155;2836.678;-1758.048;1;325;-50;-41.9;42.7;43.2;15;14.4;28.6;0.0;
14/02/2025 18:47:29;100;0;325.99;-4;-20.85;-5.16;27.8;19.00;77138;2836.679;-1758.049;1;325;-50;-41.9;42.7;43.2;15;14.0;28.6;0.0;
14/02/2025 18:47:49;100;0;325.13;-4;-20.58;-5.14;30.3;19.00;77160;2836.681;-1758.051;1;325;-50;-41.9;42.7;43.2;15;14.0;28.6;0.0;
14/02/2025 18:48:09;100;0;325.08;-4;-20.64;-5.16;32.8;19.10;77164;2836.683;-1758.052;1;325;-50;-41.9;42.7;43.2;15;14.0;28.6;0.0;
14/02/2025 18:48:29;100;0;322.83;-4;-21.56;-5.19;35.3;19.10;77158;2836.684;-1758.053;1;325;-50;-41.9;42.7;43.2;15;14.0;28.6;0.0;
14/02/2025 18:48:49;100;0;321.56;-4;-20.57;-5.14;37.7;19.10;77159;2836.686;-1758.055;1;325;-50;-43.5;42.7;43.3;15;14.0;28.6;0.0;
14/02/2025 18:49:09;100;0;319.92;-4;-20.28;-5.18;40.3;19.10;77159;2836.687;-1758.056;1;325;-50;-41.9;42.7;43.2;15;14.0;28.6;0.0;
14/02/2025 18:49:29;100;0;321.42;-4;-20.08;-5.21;42.7;19.10;77167;2836.689;-1758.058;1;325;-50;-41.9;42.7;43.3;15;14.4;28.6;0.0;
14/02/2025 18:49:49;100;0;319.67;-4;-20.40;-5.18;45.1;19.10;77166;2836.690;-1758.059;1;325;-50;-41.9;42.7;43.2;15;14.4;28.6;0.0;
14/02/2025 18:50:09;100;0;318.50;-4;-20.69;-5.19;47.6;19.10;77165;2836.692;-1758.061;1;325;-50;-41.9;42.7;43.2;15;14.0;28.6;0.0;
14/02/2025 18:50:29;100;0;318.87;-4;-20.25;-5.14;50.0;19.20;77173;2836.693;-1758.063;1;325;-50;-41.9;42.7;43.2;15;14.4;28.6;0.0;
14/02/2025 18:50:49;100;0;319.46;-4;-19.84;-5.22;52.5;19.20;77173;2836.695;-1758.064;1;325;-50;-43.5;42.7;43.2;15;14.0;28.6;0.0;
14/02/2025 18:51:09;100;0;319.90;-4;-20.31;-5.18;54.9;19.20;77178;2836.696;-1758.066;1;325;-50;-41.9;42.7;43.2;15;14.0;28.6;0.0;
14/02/2025 18:51:29;100;0;319.65;-4;-20.37;-5.24;57.4;19.20;77184;2836.698;-1758.068;1;325;-50;-43.5;42.7;43.0;15;14.0;28.6;0.0;
14/02/2025 18:51:49;100;0;319.58;-4;-20.10;-5.14;59.9;19.20;77184;2836.699;-1758.069;1;325;-50;-41.9;42.7;43.2;15;14.0;28.6;0.0;
14/02/2025 18:52:09;100;0;319.64;-4;-20.22;-5.20;62.3;19.20;77189;2836.701;-1758.071;1;325;-50;-41.9;42.7;43.2;15;14.0;28.6;0.0;
14/02/2025 18:52:29;100;0;319.75;-4;-20.17;-5.14;64.8;19.20;77197;2836.702;-1758.073;1;325;-50;-45.2;42.7;43.2;15;14.0;28.6;0.0;
14/02/2025 18:52:49;100;0;320.15;-4;-19.87;-5.13;67.2;19.20;77205;2836.704;-1758.074;1;325;-50;-41.9;42.7;43.2;15;14.0;28.6;0.0;
14/02/2025 18:53:09;100;0;318.15;-4;-20.47;-5.26;69.8;19.20;77202;2836.705;-1758.076;1;325;-50;-41.9;42.7;43.2;13;12.6;28.6;0.0;
14/02/2025 18:53:29;100;0;317.67;-4;-20.08;-6.00;72.2;19.20;77198;2836.707;-1758.078;1;325;-50;-41.9;42.7;43.0;13;12.2;28.6;0.0;
14/02/2025 18:53:49;100;0;316.95;-4;-19.95;-6.05;74.7;19.20;77202;2836.708;-1758.079;1;325;-50;-43.5;42.7;43.2;13;12.6;28.6;0.0;
14/02/2025 18:54:09;100;0;316.40;-4;-20.17;-5.97;77.3;19.30;77215;2836.710;-1758.081;1;325;-50;-41.9;42.7;43.2;13;12.6;28.6;0.0;
14/02/2025 18:54:29;100;0;317.94;-4;-20.03;-6.01;79.7;19.30;77203;2836.711;-1758.083;1;325;-50;-41.9;42.7;43.2;13;12.6;28.6;0.0;
14/02/2025 18:54:49;100;0;319.90;-4;-20.01;-6.04;82.2;19.30;77211;2836.713;-1758.085;1;326;-50;-41.9;42.7;43.2;13;12.2;28.6;0.0;
14/02/2025 18:55:09;100;0;321.84;-4;-19.92;-6.06;84.7;19.30;77220;2836.715;-1758.086;1;326;-50;-41.9;42.7;43.2;13;12.6;28.6;0.0;
14/02/2025 18:55:29;100;0;322.44;-4;-19.95;-6.02;87.1;19.30;77217;2836.716;-1758.088;1;326;-50;-41.9;42.7;43.2;13;12.6;28.6;0.0;
14/02/2025 18:55:49;100;0;322.89;-4;-20.16;-6.00;89.6;19.30;77210;2836.718;-1758.089;1;326;-50;-41.9;42.7;43.2;13;12.6;28.6;0.0;
14/02/2025 18:56:09;100;0;323.58;-4;-20.04;-6.00;91.9;19.30;77217;2836.719;-1758.090;1;326;-50;-41.9;42.7;43.2;13;12.2;28.6;0.0;
14/02/2025 18:56:29;100;0;323.14;-4;-19.99;-6.03;94.4;19.30;77219;2836.721;-1758.092;1;326;-50;-41.9;42.7;43.2;13;12.6;28.6;0.0;
14/02/2025 18:56:49;100;0;322.62;-4;-19.93;-6.02;96.7;19.30;77219;2836.722;-1758.093;1;326;-50;-41.9;42.7;43.2;13;12.6;28.6;0.0;
14/02/2025 18:57:09;100;0;320.75;-4;-19.59;-5.99;99.0;19.30;77225;2836.724;-1758.095;1;326;-50;-41.9;42.7;43.2;13;12.6;28.6;0.0;
14/02/2025 18:57:29;100;0;322.65;-4;-20.28;-5.96;101.3;19.30;77218;2836.725;-1758.096;1;326;-50;-41.9;42.7;43.2;13;12.6;28.6;0.0;
14/02/2025 18:57:49;100;0;324.15;-4;-19.90;-6.06;103.6;19.30;77225;2836.727;-1758.097;1;326;-50;-41.9;42.7;43.2;13;12.6;28.6;0.0;
14/02/2025 18:58:09;100;0;325.73;-4;-19.89;-5.97;105.8;19.30;77226;2836.728;-1758.098;1;326;-50;-43.5;42.7;43.2;13;12.6;28.6;0.0;
14/02/2025 18:58:29;100;0;326.43;-4;-19.57;-6.01;108.2;19.30;77238;2836.730;-1758.100;1;326;-50;-41.9;42.7;43.2;13;12.2;28.6;0.0;
14/02/2025 18:58:49;100;0;328.84;-4;-20.06;-5.97;110.5;19.30;77244;2836.732;-1758.101;1;326;-50;-41.9;42.7;43.2;13;12.6;28.6;0.0;
14/02/2025 18:59:09;100;0;329.64;-4;-19.83;-6.01;112.7;19.30;77237;2836.733;-1758.102;1;326;-50;-41.9;42.7;43.3;13;12.6;28.6;0.0;
14/02/2025 18:59:29;100;0;328.25;-4;-19.95;-5.99;115.0;19.30;77242;2836.735;-1758.103;1;326;-50;-43.5;42.7;43.2;13;12.6;28.6;0.0;
14/02/2025 18:59:49;100;0;327.19;-4;-19.97;-6.08;117.1;19.30;77238;2836.736;-1758.104;1;326;-50;-43.5;42.7;43.2;13;12.2;28.6;0.0;
14/02/2025 19:00:09;100;0;327.30;-4;-19.75;-6.07;119.3;19.30;77244;2836.738;-1758.105;1;326;-50;-41.9;42.7;43.2;13;12.6;28.6;0.0;
14/02/2025 19:00:29;100;0;327.87;-4;-19.98;-6.00;121.4;19.30;77245;2836.739;-1758.106;1;326;-50;-41.9;42.7;43.2;13;12.6;28.6;0.0;
14/02/2025 19:00:49;100;0;329.18;-4;-20.01;-5.77;123.7;19.30;77257;2836.741;-1758.107;1;326;-50;-43.5;42.7;43.2;13;12.6;28.6;0.0;
14/02/2025 19:01:09;100;0;330.78;-4;-20.14;-5.85;126.0;19.30;77246;2836.742;-1758.108;1;326;-50;-43.5;42.7;43.2;13;12.2;28.6;0.0;
14/02/2025 19:01:29;100;0;330.62;-4;-19.84;-5.98;128.2;19.30;77259;2836.744;-1758.108;1;325;-50;-41.9;42.7;43.2;15;14.9;28.6;0.0;
14/02/2025 19:01:49;100;0;331.82;-4;-20.02;-4.54;130.3;19.30;77251;2836.746;-1758.109;1;325;-50;-43.5;42.7;43.2;15;15.3;28.6;0.0;
14/02/2025 19:02:09;100;0;335.15;-4;-19.77;-4.51;132.5;19.30;77257;2836.747;-1758.110;1;325;-50;-43.5;42.7;43.2;17;17.1;28.6;0.0;
14/02/2025 19:02:29;100;0;335.79;-4;-20.33;-3.37;134.6;19.30;77221;2836.749;-1758.110;1;325;-50;-41.9;42.7;43.2;17;17.6;28.6;0.0;
14/02/2025 19:02:49;100;0;329.78;-4;-19.67;-3.49;136.6;19.30;77198;2836.750;-1758.111;1;325;-50;-43.5;42.7;43.2;15;14.4;28.6;0.0;
14/02/2025 19:03:09;100;0;331.95;-4;-19.65;-5.14;138.5;19.30;77167;2836.751;-1758.112;1;325;-70;-71.0;42.7;43.2;15;14.4;28.6;0.0;
14/02/2025 19:03:29;100;0;336.78;-4;-18.63;-5.06;140.6;19.30;77219;2836.753;-1758.112;1;325;-70;-72.6;43.1;43.2;19;19.0;28.6;0.0;
14/02/2025 19:03:49;100;0;335.76;-4;-18.87;-2.38;142.6;19.30;77200;2836.755;-1758.113;1;325;-70;-72.6;43.4;43.6;19;19.4;28.6;0.0;
14/02/2025 19:04:09;100;0;333.33;-4;-20.11;-2.40;144.7;19.20;77192;2836.756;-1758.114;1;325;-70;-72.6;43.4;43.7;16;15.3;28.6;0.0;
14/02/2025 19:04:29;100;0;334.11;-4;-20.68;-4.26;147.0;19.20;77182;2836.758;-1758.114;1;325;-70;-72.6;43.4;43.7;16;15.8;28.6;0.0;
14/02/2025 19:04:49;100;0;327.94;-4;-21.23;-4.23;149.6;19.20;77149;2836.760;-1758.116;1;325;-70;-72.6;43.4;43.7;16;15.8;28.6;0.0;
14/02/2025 19:05:09;100;0;325.64;-4;-20.68;-4.18;152.5;19.20;77114;2836.762;-1758.117;1;325;-70;-72.6;43.4;43.7;14;14.0;28.6;0.0;
14/02/2025 19:05:29;100;0;323.64;-4;-20.66;-5.27;155.3;19.10;77112;2836.764;-1758.119;1;325;-70;-74.2;43.4;43.7;14;14.0;28.6;0.0;
14/02/2025 19:05:49;100;0;321.02;-4;-20.75;-5.03;158.2;19.10;77094;2836.766;-1758.121;1;325;-70;-72.6;43.4;43.7;14;13.5;28.6;0.0;
14/02/2025 19:06:09;100;0;319.08;-4;-20.62;-5.11;161.1;19.10;77087;2836.767;-1758.123;1;325;-70;-74.2;43.4;43.7;14;14.0;28.6;0.0;
14/02/2025 19:06:29;100;0;316.43;-4;-20.39;-5.10;164.1;19.00;77071;2836.769;-1758.125;1;325;-70;-74.2;43.4;43.7;12;12.2;28.6;0.0;
14/02/2025 19:06:49;100;0;316.30;-4;-20.35;-6.25;167.1;19.00;77068;2836.771;-1758.127;1;325;-70;-74.2;43.4;43.7;12;11.3;28.6;0.0;
14/02/2025 19:07:09;100;0;317.11;-4;-20.34;-6.24;170.0;19.00;77060;2836.773;-1758.130;1;325;-70;-72.6;43.4;43.7;12;11.7;28.6;0.0;
14/02/2025 19:07:29;100;0;317.86;-4;-20.18;-6.25;173.0;18.90;77040;2836.775;-1758.132;1;325;-70;-74.2;43.4;43.7;12;11.7;28.6;0.0;
14/02/2025 19:07:49;100;0;317.10;-4;-19.98;-6.32;175.9;18.90;77024;2836.777;-1758.134;1;325;-70;-74.2;43.4;43.7;12;11.7;28.6;0.0;
14/02/2025 19:08:09;100;0;318.56;-4;-19.87;-6.32;178.8;18.90;77016;2836.779;-1758.136;1;326;-70;-72.6;43.4;43.7;12;11.7;28.6;0.0;
14/02/2025 19:08:29;100;0;322.82;-4;-19.77;-6.33;181.7;18.90;77004;2836.781;-1758.138;1;326;-70;-74.2;43.4;43.7;14;14.0;28.6;0.0;
14/02/2025 19:08:49;100;0;326.59;-4;-20.11;-4.83;184.4;18.80;76982;2836.783;-1758.139;1;326;-70;-72.6;43.4;43.7;14;14.4;28.6;0.0;
14/02/2025 19:09:09;100;0;330.48;-4;-20.10;-4.82;187.3;18.80;76967;2836.785;-1758.141;1;325;-70;-72.6;43.4;43.7;14;14.4;28.6;0.0;
14/02/2025 19:09:29;100;0;333.35;-4;-20.18;-4.82;190.0;18.80;76960;2836.788;-1758.142;1;325;-70;-72.6;43.4;43.7;16;15.8;28.6;0.0;
14/02/2025 19:09:49;100;0;332.58;-4;-20.14;-3.97;192.8;18.70;76935;2836.790;-1758.143;1;325;-70;-74.2;43.4;43.7;16;15.8;28.6;0.0;
14/02/2025 19:10:09;100;0;331.24;-4;-20.00;-3.99;195.5;18.70;76928;2836.792;-1758.144;1;325;-70;-74.2;43.4;43.7;16;16.2;28.6;0.0;
14/02/2025 19:10:29;100;0;333.02;-4;-19.84;-3.96;198.1;18.60;76920;2836.794;-1758.145;1;325;-70;-71.0;43.4;43.7;16;16.2;28.6;0.0;
14/02/2025 19:10:49;100;0;335.93;-4;-19.59;-4.01;200.5;18.60;76902;2836.796;-1758.146;1;325;-70;-74.2;43.4;43.7;18;18.1;28.6;0.0;
14/02/2025 19:11:09;100;0;335.73;-4;-20.30;-2.82;202.9;18.50;76886;2836.798;-1758.147;1;325;-70;-74.2;43.4;43.7;18;18.5;28.6;0.0;
14/02/2025 19:11:30;100;0;334.54;-4;-20.24;-2.74;205.3;18.50;76886;2836.800;-1758.148;1;325;-70;-72.6;43.4;43.7;18;18.5;28.6;0.0;
14/02/2025 19:11:50;100;0;333.50;-4;-20.18;-2.76;207.7;18.50;76877;2836.802;-1758.148;1;325;-70;-75.8;43.4;43.7;16;15.8;28.6;0.0;
14/02/2025 19:12:10;100;0;332.71;-4;-19.82;-4.39;210.1;18.40;76868;2836.804;-1758.149;1;325;-70;-72.6;43.4;43.7;16;15.3;28.6;0.0;
14/02/2025 19:12:30;100;0;331.71;-4;-19.98;-4.53;212.5;18.40;76859;2836.805;-1758.150;1;325;-70;-72.6;43.4;43.7;16;15.3;28.6;0.0;
14/02/2025 19:12:50;100;0;332.12;-4;-20.58;-4.35;214.8;18.40;76859;2836.807;-1758.151;1;325;-70;-72.6;43.4;43.7;16;15.3;28.6;0.0;
14/02/2025 19:13:10;100;0;331.50;-4;-20.17;-4.46;217.3;18.30;76861;2836.809;-1758.152;1;325;-70;-72.6;43.4;43.9;16;15.3;28.6;0.0;
14/02/2025 19:13:30;100;0;329.64;-4;-20.09;-4.40;219.8;18.30;76843;2836.811;-1758.153;1;324;-70;-72.6;43.4;43.7;16;15.3;28.6;0.0;
14/02/2025 19:13:50;100;0;324.21;-4;-19.88;-4.46;222.4;18.20;76840;2836.813;-1758.155;1;325;-70;-74.2;43.4;43.7;16;15.3;28.6;0.0;
14/02/2025 19:14:10;100;0;321.09;-4;-20.14;-4.45;224.9;18.20;76834;2836.814;-1758.156;1;325;-70;-72.6;43.4;43.7;14;14.0;28.6;0.0;
14/02/2025 19:14:30;100;0;318.79;-4;-19.71;-5.24;227.4;18.20;76824;2836.816;-1758.158;1;325;-70;-74.2;43.4;43.7;14;13.5;28.6;0.0;
14/02/2025 19:14:50;100;0;316.32;-4;-19.92;-5.25;229.9;18.10;76803;2836.817;-1758.160;1;325;-70;-74.2;43.4;43.7;12;12.2;28.6;0.0;
14/02/2025 19:15:10;100;0;312.86;-4;-20.00;-6.00;232.4;18.10;76796;2836.819;-1758.162;1;325;-70;-72.6;43.4;43.7;9;8.6;28.6;0.0;
14/02/2025 19:15:30;100;0;314.54;-4;-19.57;-7.79;235.0;18.00;76801;2836.820;-1758.164;1;325;-70;-72.6;43.4;43.7;11;10.8;28.6;0.0;
14/02/2025 19:15:50;100;0;317.53;-4;-19.85;-6.34;237.5;18.00;76782;2836.822;-1758.166;1;325;-70;-72.6;43.4;43.7;13;13.1;28.6;0.0;
14/02/2025 19:16:10;100;0;317.87;-4;-19.75;-5.28;240.1;18.00;76766;2836.823;-1758.168;1;325;-70;-72.6;43.4;43.7;13;13.5;28.6;0.0;
14/02/2025 19:16:30;100;0;316.68;-4;-19.80;-5.25;242.7;17.90;76764;2836.825;-1758.169;1;325;-70;-74.2;43.4;43.7;13;13.5;28.6;0.0;
14/02/2025 19:16:50;100;0;315.76;-4;-20.27;-5.27;245.3;17.90;76745;2836.826;-1758.171;1;325;-70;-74.2;43.4;43.7;13;13.5;28.6;0.0;
14/02/2025 19:17:10;100;0;316.73;-4;-20.11;-5.14;248.0;17.90;76741;2836.828;-1758.173;1;325;-70;-72.6;43.4;43.7;13;13.5;28.6;0.0;
14/02/2025 19:17:30;100;0;318.74;-4;-20.13;-5.23;250.8;17.80;76731;2836.830;-1758.175;1;325;-70;-72.6;43.4;43.9;13;13.1;28.6;0.0;
14/02/2025 19:17:50;100;0;319.63;-4;-20.00;-5.25;253.5;17.80;76725;2836.832;-1758.177;1;326;-70;-72.6;43.4;43.7;13;13.5;28.6;0.0;
14/02/2025 19:18:10;100;0;321.38;-4;-19.73;-5.25;256.0;17.70;76718;2836.833;-1758.179;1;326;-70;-74.2;43.4;43.7;13;13.5;28.6;0.0;
14/02/2025 19:18:30;100;0;322.19;-4;-19.86;-5.20;258.5;17.70;76715;2836.835;-1758.180;1;326;-70;-74.2;43.4;43.7;13;13.5;28.6;0.0;
14/02/2025 19:18:50;100;0;322.86;-4;-19.79;-5.29;261.0;17.70;76705;2836.837;-1758.182;1;326;-70;-72.6;43.4;43.7;13;13.5;28.6;0.0;
14/02/2025 19:19:10;100;0;324.26;-4;-19.50;-5.35;263.5;17.60;76702;2836.838;-1758.183;1;326;-70;-74.2;43.4;43.7;13;13.5;28.6;0.0;
14/02/2025 19:19:30;100;0;325.88;-4;-19.97;-5.32;266.0;17.60;76697;2836.840;-1758.185;1;326;-70;-74.2;43.4;43.7;13;13.5;28.6;0.0;
14/02/2025 19:19:50;100;0;327.50;-4;-20.12;-5.17;268.6;17.60;76694;2836.842;-1758.186;1;326;-70;-74.2;43.4;43.7;13;13.5;28.6;0.0;
14/02/2025 19:20:10;100;0;327.80;-4;-19.85;-5.22;271.3;17.50;76687;2836.844;-1758.188;1;326;-70;-74.2;43.4;43.7;13;13.5;28.6;0.0;
14/02/2025 19:20:30;100;0;328.83;-4;-19.99;-5.25;273.9;17.50;76675;2836.846;-1758.189;1;326;-70;-72.6;43.4;43.7;13;13.5;28.6;0.0;
14/02/2025 19:20:50;100;0;329.25;-4;-19.86;-5.25;276.7;17.40;76682;2836.848;-1758.190;1;325;-70;-74.2;43.4;43.7;15;15.3;28.6;0.0;
14/02/2025 19:21:10;100;0;328.83;-4;-20.20;-4.15;279.3;17.40;76673;2836.850;-1758.191;1;325;-70;-72.6;43.4;43.7;15;15.3;28.6;0.0;
14/02/2025 19:21:30;100;0;329.08;-4;-20.37;-4.12;282.0;17.40;76672;2836.852;-1758.193;1;325;-70;-74.2;43.4;43.7;15;15.8;28.6;0.0;
14/02/2025 19:21:50;100;0;328.18;-4;-20.54;-4.20;284.7;17.30;76665;2836.854;-1758.194;1;325;-70;-72.6;43.4;43.7;15;15.8;28.6;0.0;
14/02/2025 19:22:10;100;0;328.42;-4;-19.35;-4.18;287.4;17.30;76663;2836.857;-1758.196;1;325;-70;-72.6;43.4;43.7;15;15.8;28.6;0.0;
14/02/2025 19:22:30;100;0;325.90;-4;-19.97;-4.24;290.0;17.30;76662;2836.858;-1758.197;1;325;-70;-74.2;43.4;43.7;15;15.8;28.6;0.0;
14/02/2025 19:22:50;100;0;327.28;-4;-20.38;-4.11;292.4;17.20;76653;2836.860;-1758.198;1;325;-70;-74.2;43.4;43.7;15;15.8;28.6;0.0;
14/02/2025 19:23:10;100;0;325.47;-4;-19.95;-4.20;295.0;17.20;76640;2836.862;-1758.200;1;325;-70;-74.2;43.4;43.7;15;15.8;28.6;0.0;
14/02/2025 19:23:30;100;0;325.04;-4;-19.64;-4.26;297.5;17.20;76634;2836.864;-1758.201;1;325;-70;-74.2;43.4;43.7;15;15.3;28.6;0.0;
14/02/2025 19:23:50;100;0;324.58;-4;-19.70;-4.24;299.7;17.10;76627;2836.865;-1758.202;1;325;-70;-72.6;43.4;43.9;15;15.3;28.6;0.0;
14/02/2025 19:24:10;100;0;320.02;-4;-19.73;-4.23;302.1;17.10;76618;2836.867;-1758.204;1;325;-70;-74.2;43.4;43.7;15;15.8;28.6;0.0;
14/02/2025 19:24:30;100;0;317.66;-4;-19.57;-4.26;304.4;17.10;76602;2836.868;-1758.205;1;325;-70;-74.2;43.4;43.7;13;13.1;28.6;0.0;
14/02/2025 19:24:50;100;0;316.62;-4;-19.91;-5.65;306.7;17.10;76606;2836.869;-1758.207;1;326;-70;-74.2;43.4;43.7;13;13.1;28.6;0.0;
14/02/2025 19:25:10;100;0;311.52;-4;-20.03;-5.53;308.9;17.00;76591;2836.870;-1758.209;1;326;-70;-74.2;43.4;43.9;6;5.4;28.6;0.0;
14/02/2025 19:25:30;100;0;312.05;-4;-19.49;-9.42;311.3;17.00;76581;2836.872;-1758.211;1;326;-70;-72.6;43.4;43.9;6;5.0;28.6;0.0;
14/02/2025 19:25:50;100;0;314.78;-4;-19.35;-9.54;313.7;16.90;76566;2836.873;-1758.213;1;326;-70;-74.2;43.4;43.7;10;9.9;28.6;0.0;
14/02/2025 19:26:10;100;0;314.16;-4;-19.46;-6.72;316.1;16.90;76560;2836.874;-1758.214;1;326;-70;-72.6;43.4;43.7;10;10.4;28.6;0.0;
14/02/2025 19:26:30;100;0;313.95;-4;-19.51;-6.72;318.4;16.90;76553;2836.875;-1758.216;1;326;-70;-74.2;43.4;43.7;10;10.4;28.6;0.0;
14/02/2025 19:26:50;100;0;313.63;-4;-19.56;-6.77;320.6;16.80;76551;2836.877;-1758.218;1;326;-70;-74.2;43.4;43.9;10;10.4;28.6;0.0;
14/02/2025 19:27:10;100;0;314.39;-4;-19.63;-6.74;323.0;16.80;76547;2836.878;-1758.220;1;327;-70;-72.6;43.4;43.7;10;10.4;28.6;0.0;
14/02/2025 19:27:30;100;0;314.32;-4;-19.28;-6.73;325.3;16.80;76540;2836.879;-1758.221;1;327;-70;-72.6;43.4;43.7;10;10.4;28.6;0.0;
14/02/2025 19:27:50;100;0;315.61;-4;-19.73;-6.74;327.6;16.70;76539;2836.880;-1758.223;1;327;-70;-74.2;43.4;43.7;10;10.4;28.6;0.0;
14/02/2025 19:28:10;100;0;316.92;-4;-19.58;-6.78;329.8;16.70;76532;2836.882;-1758.225;1;327;-70;-74.2;43.4;43.7;10;10.4;28.6;0.0;
14/02/2025 19:28:30;100;0;318.20;-4;-19.58;-6.86;332.1;16.70;76523;2836.883;-1758.226;1;327;-70;-72.6;43.4;43.7;12;12.2;28.6;0.0;
14/02/2025 19:28:50;100;0;319.89;-4;-19.82;-5.71;334.4;16.60;76519;2836.884;-1758.228;1;327;-70;-74.2;43.4;43.7;12;12.6;28.6;0.0;
14/02/2025 19:29:10;100;0;322.17;-4;-19.65;-5.71;336.7;16.60;76512;2836.886;-1758.229;1;327;-70;-75.8;43.4;43.7;14;14.0;28.6;0.0;
14/02/2025 19:29:30;100;0;322.95;-4;-19.85;-4.66;338.9;16.60;76508;2836.887;-1758.230;1;327;-70;-74.2;43.4;43.7;14;14.9;28.6;0.0;
14/02/2025 19:29:50;100;0;325.41;-4;-19.91;-4.62;341.2;16.50;76512;2836.889;-1758.231;1;327;-70;-72.6;43.4;43.7;14;14.9;28.6;0.0;
14/02/2025 19:30:10;100;0;325.94;-4;-20.01;-4.62;343.6;16.50;76519;2836.890;-1758.233;1;327;-70;-74.2;43.4;43.7;14;14.4;28.6;0.0;
14/02/2025 19:30:30;100;0;322.14;-4;-20.51;-4.64;346.0;16.50;76493;2836.892;-1758.234;1;327;-70;-74.2;43.4;43.9;14;14.9;28.6;0.0;
14/02/2025 19:30:50;100;0;322.04;-4;-20.05;-4.65;348.5;16.50;76484;2836.893;-1758.236;1;327;-70;-74.2;43.4;43.7;14;14.4;28.6;0.0;
14/02/2025 19:31:10;100;0;320.93;-4;-19.76;-4.67;351.0;16.40;76482;2836.895;-1758.237;1;328;-70;-72.6;43.4;43.7;14;14.9;28.6;0.0;
14/02/2025 19:31:30;100;0;321.05;-4;-19.69;-4.65;353.4;16.40;76481;2836.896;-1758.239;1;328;-70;-74.2;43.4;43.7;14;14.9;28.6;0.0;
14/02/2025 19:31:50;100;0;321.80;-4;-19.70;-4.70;355.7;16.40;76477;2836.898;-1758.240;1;328;-70;-74.2;43.4;43.9;14;14.9;28.6;0.0;
14/02/2025 19:32:10;100;0;323.01;-4;-19.72;-4.69;358.3;16.30;76462;2836.900;-1758.242;1;328;-70;-74.2;43.4;43.9;14;14.9;28.6;0.0;
14/02/2025 19:32:30;100;0;324.03;-4;-19.52;-4.67;360.7;16.30;76458;2836.901;-1758.243;1;328;-70;-74.2;43.4;43.7;14;14.9;28.6;0.0;
14/02/2025 19:32:50;100;0;324.84;-4;-19.47;-4.67;363.1;16.30;76453;2836.903;-1758.244;1;328;-70;-74.2;43.4;43.7;14;14.9;28.6;0.0;
14/02/2025 19:33:10;100;0;326.00;-4;-19.55;-4.64;365.6;16.30;76438;2836.905;-1758.246;1;328;-70;-74.2;43.4;43.7;14;14.9;28.6;0.0;
14/02/2025 19:33:30;100;0;327.28;-4;-19.64;-4.67;368.1;16.20;76448;2836.907;-1758.247;1;328;-70;-72.6;43.4;43.9;14;14.4;28.6;0.0;
14/02/2025 19:33:50;100;0;328.06;-4;-19.61;-4.63;370.7;16.20;76432;2836.909;-1758.248;1;328;-70;-74.2;43.4;43.7;14;14.9;28.6;0.0;
14/02/2025 19:34:10;100;0;327.65;-4;-19.59;-4.63;373.2;16.20;76428;2836.911;-1758.250;1;328;-70;-72.6;43.4;43.7;14;14.4;28.6;0.0;
14/02/2025 19:34:30;100;0;327.42;-4;-19.78;-4.69;375.9;16.10;76427;2836.913;-1758.251;1;328;-70;-74.2;43.4;43.7;14;14.9;28.6;0.0;
14/02/2025 19:34:50;100;0;327.33;-4;-19.35;-4.68;378.4;16.10;76429;2836.914;-1758.252;1;328;-70;-72.6;43.4;43.7;14;14.9;28.6;0.0;
14/02/2025 19:35:10;100;0;326.98;-4;-19.56;-4.67;380.9;16.10;76425;2836.916;-1758.254;1;328;-70;-74.2;43.4;43.9;14;14.9;28.6;0.0;
14/02/2025 19:35:30;100;0;327.68;-4;-19.64;-4.68;383.4;16.00;76421;2836.918;-1758.255;1;328;-70;-74.2;43.4;43.7;14;14.9;28.6;0.0;
14/02/2025 19:35:50;100;0;329.74;-4;-19.31;-4.66;385.9;16.00;76413;2836.920;-1758.256;1;328;-70;-74.2;43.4;43.9;14;14.9;28.6;0.0;
14/02/2025 19:36:10;100;0;329.27;-4;-19.63;-4.69;388.5;16.00;76395;2836.922;-1758.257;1;328;-70;-74.2;43.4;43.7;14;14.9;28.6;0.0;
14/02/2025 19:36:30;100;0;329.33;-4;-19.53;-4.67;391.0;16.00;76393;2836.924;-1758.259;1;328;-70;-74.2;43.4;43.7;14;14.9;28.6;0.0;
14/02/2025 19:36:50;100;0;329.70;-4;-19.62;-4.66;393.5;15.90;76380;2836.926;-1758.260;1;328;-70;-72.6;43.4;43.7;14;14.4;28.6;0.0;
14/02/2025 19:37:10;100;0;330.21;-4;-19.53;-4.65;395.9;15.90;76387;2836.928;-1758.261;1;327;-70;-72.6;43.4;43.7;14;14.9;28.6;0.0;
14/02/2025 19:37:30;100;0;329.27;-4;-19.21;-4.67;398.3;15.90;76375;2836.930;-1758.262;1;327;-70;-74.2;43.4;43.7;14;14.4;28.6;0.0;
14/02/2025 19:37:50;100;0;326.61;-4;-19.60;-4.69;400.5;15.90;76371;2836.931;-1758.263;1;327;-70;-74.2;43.4;43.7;14;14.9;28.6;0.0;
14/02/2025 19:38:10;100;0;328.62;-4;-19.79;-4.43;402.9;15.80;76373;2836.933;-1758.264;1;327;-70;-72.6;43.4;43.7;14;14.9;28.6;0.0;
14/02/2025 19:38:30;100;0;329.62;-4;-19.62;-4.79;405.3;15.80;76357;2836.935;-1758.265;1;327;-70;-74.2;43.4;43.9;14;14.4;28.6;0.0;
14/02/2025 19:38:50;100;0;326.39;-4;-19.99;-4.80;407.6;15.80;76361;2836.936;-1758.266;1;327;-70;-72.6;43.4;43.7;14;14.9;28.6;0.0;
14/02/2025 19:39:10;100;0;328.34;-4;-19.49;-4.47;409.9;15.80;76362;2836.938;-1758.267;1;327;-70;-74.2;43.4;43.7;14;14.9;28.6;0.0;
14/02/2025 19:39:30;100;0;326.81;-4;-20.27;-4.60;412.3;15.70;76347;2836.940;-1758.269;1;327;-70;-72.6;43.4;43.7;14;14.9;28.6;0.0;
14/02/2025 19:39:50;100;0;327.79;-4;-19.73;-4.56;414.8;15.70;76340;2836.941;-1758.270;1;327;-70;-74.2;43.4;43.9;14;14.9;28.6;0.0;
14/02/2025 19:40:10;100;0;327.65;-4;-19.56;-4.64;417.1;15.70;76344;2836.943;-1758.271;1;327;-70;-74.2;43.4;43.7;14;14.9;28.6;0.0;
14/02/2025 19:40:30;100;0;327.39;-4;-19.50;-4.62;419.4;15.60;76328;2836.945;-1758.272;1;327;-70;-74.2;43.4;43.7;14;14.9;28.6;0.0;
14/02/2025 19:40:50;100;0;324.41;-4;-19.57;-4.64;421.7;15.60;76316;2836.946;-1758.273;1;327;-70;-74.2;43.4;43.7;14;14.9;28.6;0.0;
14/02/2025 19:41:10;100;0;323.72;-4;-19.34;-4.87;423.9;15.60;76317;2836.948;-1758.275;1;327;-70;-72.6;43.4;43.7;14;14.4;28.6;0.0;
14/02/2025 19:41:30;100;0;324.50;-4;-19.34;-4.73;426.1;15.60;76316;2836.949;-1758.276;1;327;-70;-72.6;43.4;43.7;14;14.9;28.6;0.0;
14/02/2025 19:41:50;100;0;326.21;-4;-19.38;-4.64;428.4;15.50;76303;2836.951;-1758.277;1;327;-70;-74.2;43.4;43.7;14;14.9;28.6;0.0;
14/02/2025 19:42:10;100;0;327.36;-4;-19.45;-4.70;430.7;15.50;76306;2836.953;-1758.278;1;327;-70;-74.2;43.4;43.7;14;14.9;28.6;0.0;
14/02/2025 19:42:30;100;0;326.92;-4;-19.32;-4.69;433.1;15.50;76297;2836.954;-1758.280;1;327;-70;-74.2;43.4;43.7;14;14.4;28.6;0.0;
14/02/2025 19:42:50;100;0;327.50;-4;-19.52;-4.70;435.5;15.50;76293;2836.956;-1758.281;1;327;-70;-72.6;43.4;43.9;14;14.9;28.6;0.0;
14/02/2025 19:43:10;100;0;328.19;-4;-19.46;-4.67;438.1;15.40;76287;2836.958;-1758.282;1;327;-70;-74.2;43.4;43.7;14;14.9;28.6;0.0;
14/02/2025 19:43:30;100;0;328.15;-4;-19.36;-4.66;440.6;15.40;76284;2836.960;-1758.283;1;327;-70;-74.2;43.4;43.7;14;14.9;28.6;0.0;
14/02/2025 19:43:50;100;0;327.53;-4;-19.38;-4.72;443.2;15.40;76285;2836.962;-1758.285;1;327;-70;-74.2;43.4;43.7;14;14.9;28.6;0.0;
14/02/2025 19:44:10;100;0;327.58;-4;-19.44;-4.63;445.7;15.40;76277;2836.964;-1758.286;1;327;-70;-74.2;43.4;43.7;14;14.9;28.6;0.0;
14/02/2025 19:44:30;100;0;327.94;-4;-19.46;-4.76;448.3;15.30;76268;2836.966;-1758.288;1;327;-70;-74.2;43.4;43.7;14;14.9;28.6;0.0;
14/02/2025 19:44:50;100;0;327.35;-4;-19.51;-4.70;450.9;15.30;76273;2836.968;-1758.289;1;327;-70;-72.6;43.4;43.7;14;14.9;28.6;0.0;
14/02/2025 19:45:10;100;0;327.00;-4;-19.33;-4.71;453.5;15.30;76270;2836.970;-1758.290;1;327;-70;-74.2;43.4;43.7;14;14.9;28.6;0.0;
14/02/2025 19:45:30;100;0;327.49;-4;-19.26;-4.67;456.1;15.30;76266;2836.972;-1758.292;1;327;-70;-74.2;43.4;43.9;14;14.9;28.6;0.0;
14/02/2025 19:45:50;100;0;327.49;-4;-19.20;-4.71;458.7;15.20;76269;2836.974;-1758.293;1;327;-70;-74.2;43.4;43.7;14;14.9;28.6;0.0;
14/02/2025 19:46:10;100;0;324.62;-4;-19.44;-4.62;461.2;15.20;76260;2836.976;-1758.295;1;327;-70;-72.6;43.4;43.7;14;14.9;28.6;0.0;
14/02/2025 19:46:30;100;0;325.05;-4;-19.34;-4.58;463.6;15.20;76249;2836.978;-1758.296;1;327;-70;-72.6;43.4;43.7;14;14.9;28.6;0.0;
14/02/2025 19:46:51;100;0;325.45;-4;-19.37;-4.74;465.9;15.20;76261;2836.979;-1758.297;1;327;-70;-72.6;43.4;43.7;14;14.9;28.6;0.0;
14/02/2025 19:47:11;100;0;322.34;-4;-19.20;-4.56;468.0;15.20;76254;2836.981;-1758.299;1;327;-70;-72.6;43.4;43.7;14;14.9;28.6;0.0;
14/02/2025 19:47:31;100;0;319.50;-4;-19.27;-4.73;470.1;15.10;76260;2836.982;-1758.300;1;327;-70;-74.2;43.4;43.7;14;14.9;28.6;0.0;
14/02/2025 19:47:51;100;0;319.04;-4;-19.67;-4.61;472.3;15.10;76248;2836.983;-1758.301;1;328;-70;-74.2;43.4;43.7;12;12.2;28.6;0.0;
14/02/2025 19:48:11;100;0;320.32;-4;-19.64;-6.25;474.3;15.10;76236;2836.984;-1758.303;1;328;-90;-91.9;43.4;43.7;12;11.7;28.6;0.0;
14/02/2025 19:48:31;100;0;322.52;-4;-18.20;-6.02;476.4;15.10;76289;2836.986;-1758.304;1;328;-90;-93.5;44.0;44.2;12;11.7;28.6;0.0;
14/02/2025 19:48:51;100;0;325.78;-4;-20.09;-6.19;478.6;15.10;76282;2836.987;-1758.305;1;328;-90;-93.5;44.0;44.3;14;14.0;28.6;0.0;
14/02/2025 19:49:11;100;0;328.26;-4;-20.73;-4.60;480.9;15.00;76283;2836.989;-1758.306;1;328;-90;-93.5;44.0;44.3;14;14.4;28.6;0.0;
14/02/2025 19:49:31;100;0;328.90;-4;-20.16;-4.61;483.1;15.00;76278;2836.990;-1758.307;1;328;-90;-96.8;44.0;44.3;14;14.4;28.6;0.0;
14/02/2025 19:49:51;100;0;329.78;-4;-21.01;-4.59;485.5;15.00;76266;2836.992;-1758.308;1;328;-90;-95.2;44.0;44.3;14;14.4;28.6;0.0;
14/02/2025 19:50:11;100;0;332.60;-4;-20.91;-4.64;488.1;15.00;76264;2836.994;-1758.309;1;328;-90;-96.8;44.0;44.3;14;14.4;28.6;0.0;
14/02/2025 19:50:31;100;0;333.06;-4;-20.84;-4.65;491.0;15.00;76262;2836.996;-1758.310;1;327;-90;-100.0;44.0;44.3;14;14.4;28.6;0.0;
14/02/2025 19:50:51;100;0;331.61;-4;-20.72;-4.76;493.8;14.90;76263;2836.998;-1758.311;1;327;-90;-96.8;44.0;44.3;14;14.4;28.6;0.0;
14/02/2025 19:51:11;100;0;331.75;-4;-20.63;-4.62;496.6;14.90;76250;2837.001;-1758.313;1;327;-90;-96.8;44.0;44.3;14;14.4;28.5;0.0;
14/02/2025 19:51:31;100;0;331.59;-4;-20.29;-4.60;499.4;14.90;76259;2837.003;-1758.314;1;327;-90;-96.8;44.0;44.5;14;14.4;28.6;0.0;
14/02/2025 19:51:51;100;0;331.69;-4;-21.21;-4.76;502.2;14.90;76249;2837.005;-1758.315;1;326;-90;-96.8;44.0;44.3;14;14.4;28.6;0.0;
14/02/2025 19:52:11;100;0;332.28;-4;-20.78;-4.75;505.2;14.90;76237;2837.007;-1758.316;1;326;-90;-96.8;44.0;44.5;14;14.4;28.6;0.0;
14/02/2025 19:52:31;100;0;331.96;-4;-21.18;-4.75;508.1;14.80;76230;2837.010;-1758.317;1;326;-90;-96.8;44.0;44.3;14;14.4;28.6;0.0;
14/02/2025 19:52:51;100;0;333.77;-4;-20.64;-4.72;511.3;14.80;76229;2837.012;-1758.319;1;325;-90;-96.8;44.0;44.5;16;15.8;28.6;0.0;
14/02/2025 19:53:11;100;0;336.77;-4;-20.88;-4.06;514.5;14.80;76227;2837.015;-1758.320;1;325;-90;-95.2;44.0;44.3;19;19.0;28.6;0.0;
14/02/2025 19:53:31;100;0;336.09;-4;-20.29;-2.21;517.7;14.80;76211;2837.018;-1758.321;1;324;-90;-96.8;44.0;44.3;19;19.4;28.6;0.0;
14/02/2025 19:53:51;100;0;336.73;-4;-21.01;-2.12;520.8;14.70;76201;2837.021;-1758.322;1;323;-90;-100.0;44.0;44.3;19;19.4;28.6;0.0;
14/02/2025 19:54:11;100;0;334.19;-4;-20.33;-2.11;523.8;14.70;76189;2837.023;-1758.323;1;323;-90;-96.8;44.0;44.5;17;17.1;28.6;0.0;
14/02/2025 19:54:31;100;0;331.94;-4;-20.20;-3.32;526.7;14.70;76179;2837.026;-1758.324;1;322;-90;-96.8;44.0;44.5;17;17.1;28.6;0.0;
14/02/2025 19:54:51;100;0;329.59;-4;-20.29;-3.36;529.4;14.70;76182;2837.028;-1758.326;1;322;-90;-96.8;44.0;44.3;15;14.9;28.6;0.0;
14/02/2025 19:55:11;100;0;329.33;-4;-20.54;-3.94;532.0;14.60;76166;2837.030;-1758.327;1;322;-90;-96.8;44.0;44.3;15;16.2;28.6;0.0;
14/02/2025 19:55:31;100;0;327.95;-4;-20.32;-3.89;534.7;14.60;76176;2837.032;-1758.328;1;321;-90;-96.8;44.0;44.5;15;16.2;28.6;0.0;
14/02/2025 19:55:51;100;0;326.84;-4;-20.39;-3.93;537.2;14.60;76158;2837.034;-1758.330;1;321;-90;-96.8;44.0;44.5;15;16.2;28.6;0.0;
14/02/2025 19:56:11;100;0;324.55;-4;-21.38;-3.91;540.0;14.60;76153;2837.036;-1758.331;1;321;-90;-96.8;44.0;44.5;15;16.2;28.6;0.0;
14/02/2025 19:56:31;100;0;323.17;-4;-20.33;-3.95;542.8;14.50;76139;2837.038;-1758.333;1;321;-90;-96.8;44.0;44.5;15;16.2;28.6;0.0;
14/02/2025 19:56:51;100;0;323.76;-4;-20.72;-3.97;545.5;14.50;76139;2837.039;-1758.335;1;321;-90;-96.8;44.0;44.5;15;16.2;28.6;0.0;
14/02/2025 19:57:11;100;0;323.26;-4;-19.88;-3.83;548.2;14.50;76140;2837.041;-1758.336;1;320;-90;-96.8;44.0;44.5;15;16.2;28.6;0.0;
14/02/2025 19:57:31;100;0;322.75;-4;-19.66;-3.94;550.7;14.50;76137;2837.043;-1758.338;1;320;-90;-96.8;44.0;44.5;15;16.2;28.6;0.0;
14/02/2025 19:57:51;100;0;322.54;-4;-20.92;-4.04;553.1;14.40;76122;2837.044;-1758.339;1;320;-90;-96.8;44.0;44.5;15;15.8;28.6;0.0;
14/02/2025 19:58:11;100;0;323.95;-4;-20.28;-4.03;555.7;14.40;76123;2837.046;-1758.341;1;320;-90;-96.8;44.0;44.3;15;16.2;28.6;0.0;
14/02/2025 19:58:31;100;0;322.41;-4;-20.30;-4.00;558.4;14.40;76110;2837.048;-1758.342;1;320;-90;-96.8;44.0;44.5;15;16.2;28.6;0.0;
14/02/2025 19:58:51;100;0;320.66;-4;-20.11;-3.99;560.9;14.40;76100;2837.050;-1758.344;1;320;-90;-96.8;44.0;44.5;15;16.2;28.6;0.0;
14/02/2025 19:59:11;100;0;322.28;-4;-19.73;-4.01;563.5;14.30;76092;2837.052;-1758.346;1;320;-90;-96.8;44.0;44.5;15;16.2;28.6;0.0;
14/02/2025 19:59:31;100;0;322.69;-4;-20.08;-3.93;566.1;14.30;76096;2837.053;-1758.347;1;320;-90;-96.8;44.0;44.5;15;16.2;28.6;0.0;
14/02/2025 19:59:51;100;0;325.01;-4;-19.74;-3.93;568.6;14.30;76082;2837.055;-1758.349;1;320;-90;-96.8;44.0;44.5;15;16.2;28.6;0.0;
14/02/2025 20:00:11;100;0;325.90;-4;-19.95;-4.05;571.0;14.30;76088;2837.057;-1758.350;1;319;-90;-95.2;44.0;44.3;15;16.2;28.6;0.0;
14/02/2025 20:00:31;100;0;324.05;-4;-19.67;-3.98;573.5;14.20;76075;2837.058;-1758.351;1;319;-90;-96.8;44.0;44.5;15;16.2;28.6;0.0;
14/02/2025 20:00:51;100;0;324.57;-4;-20.38;-3.88;576.2;14.20;76066;2837.060;-1758.353;1;318;-90;-95.2;44.0;44.3;15;16.2;28.6;0.0;
14/02/2025 20:01:11;100;0;323.60;-4;-20.07;-4.02;578.9;14.20;76061;2837.062;-1758.355;1;317;-90;-96.8;44.0;44.5;15;16.2;28.6;0.0;
14/02/2025 20:01:31;100;0;322.07;-4;-20.17;-3.95;581.8;14.20;76054;2837.064;-1758.356;1;316;-90;-96.8;44.0;44.5;15;16.2;28.6;0.0;
14/02/2025 20:01:51;100;0;320.13;-4;-20.65;-4.01;584.7;14.10;76046;2837.066;-1758.358;1;316;-90;-96.8;44.0;44.3;15;16.2;28.6;0.0;
14/02/2025 20:02:11;100;0;319.41;-4;-20.10;-3.87;587.7;14.10;76034;2837.068;-1758.361;1;315;-90;-96.8;44.0;44.3;15;16.2;28.6;0.0;
14/02/2025 20:02:31;100;0;320.91;-4;-19.87;-3.88;590.6;14.10;76029;2837.070;-1758.363;1;313;-90;-100.0;44.0;44.3;15;16.2;28.6;0.0;
14/02/2025 20:02:51;100;0;319.80;-4;-19.74;-4.01;593.7;14.10;76033;2837.072;-1758.365;1;308;-90;-96.8;44.0;44.3;15;16.2;28.6;0.0;
14/02/2025 20:03:11;100;0;320.79;-4;-20.07;-4.01;596.7;14.00;76016;2837.075;-1758.367;1;198;-90;-96.8;44.0;44.3;70;69.9;28.6;0.0;
14/02/2025 20:03:31;100;0;314.00;-4;-21.90;23.04;599.9;14.00;76014;2837.076;-1758.369;1;139;-90;-98.4;44.0;44.5;70;69.9;28.6;0.0;
14/02/2025 20:03:51;100;0;299.92;-4;-22.12;23.24;603.1;14.00;76013;2837.077;-1758.372;1;126;-90;-96.8;43.3;43.2;70;69.9;28.6;0.0;
14/02/2025 20:04:11;100;0;284.95;-4;-19.47;23.11;605.9;13.90;76011;2837.077;-1758.376;1;114;-90;-96.8;43.3;43.2;70;69.9;28.6;0.0;
14/02/2025 20:04:31;100;0;273.62;-4;-19.52;23.04;608.7;13.90;75999;2837.077;-1758.379;1;105;-90;-96.8;43.3;43.0;70;69.9;28.6;0.0;
14/02/2025 20:04:51;100;0;262.00;-4;-19.40;22.85;611.5;13.90;75992;2837.075;-1758.383;1;96;-90;-96.8;43.3;43.0;70;69.9;28.6;0.0;
14/02/2025 20:05:11;100;0;250.15;-4;-19.21;22.88;614.3;13.80;75987;2837.073;-1758.386;1;87;-90;-96.8;43.3;43.0;70;69.9;28.6;0.0;
14/02/2025 20:05:31;100;0;236.60;-4;-19.09;22.89;617.0;13.80;75985;2837.070;-1758.389;1;79;-90;-96.8;43.3;43.0;70;69.9;28.6;0.0;
14/02/2025 20:05:51;100;0;222.99;-4;-18.73;22.70;619.5;13.80;75983;2837.067;-1758.391;1;71;-90;-98.4;43.7;43.9;70;70.4;28.6;0.0;
14/02/2025 20:06:11;100;0;210.46;-4;-20.74;22.96;622.2;13.80;75982;2837.063;-1758.392;1;64;-90;-98.4;43.7;44.2;70;69.9;28.6;0.0;
14/02/2025 20:06:31;100;0;197.94;-4;-20.90;23.10;625.0;13.80;75972;2837.059;-1758.392;1;56;-90;-96.8;43.7;44.2;70;69.9;28.6;0.0;
14/02/2025 20:06:51;100;0;184.99;-4;-20.81;23.03;627.9;13.70;75971;2837.055;-1758.392;1;49;-90;-96.8;43.7;44.0;70;69.9;28.6;0.0;
14/02/2025 20:07:11;100;0;173.40;-4;-21.39;23.00;630.9;13.70;75964;2837.050;-1758.391;1;41;-90;-98.4;43.7;44.2;70;69.9;28.6;0.0;
14/02/2025 20:07:31;100;0;161.34;-4;-21.35;23.44;633.7;13.70;75968;2837.046;-1758.389;1;34;-90;-98.4;43.7;44.2;70;69.9;28.6;0.0;
14/02/2025 20:07:51;100;0;147.88;-4;-20.86;22.93;636.6;13.70;75963;2837.042;-1758.386;1;27;-90;-98.4;43.7;44.0;70;69.9;28.6;0.0;
14/02/2025 20:08:11;100;0;134.95;-4;-20.82;23.12;639.5;13.60;75950;2837.039;-1758.382;1;21;-90;-96.8;43.7;44.0;70;69.9;28.6;0.0;
14/02/2025 20:08:31;100;0;122.17;-4;-20.86;22.93;642.5;13.60;75941;2837.036;-1758.378;1;14;-90;-98.4;43.7;44.2;70;69.9;28.6;0.0;
14/02/2025 20:08:51;100;0;110.19;-4;-20.77;22.96;645.3;13.60;75931;2837.034;-1758.374;1;8;-90;-96.8;43.7;44.0;70;69.9;28.6;0.0;
14/02/2025 20:09:11;100;0;99.35;-4;-20.79;22.93;648.2;13.50;75927;2837.032;-1758.369;1;2;-90;-96.8;43.7;44.0;70;69.9;28.6;0.0;
14/02/2025 20:09:31;100;0;89.60;-4;-21.05;23.01;651.0;13.50;75919;2837.032;-1758.364;1;357;-90;-96.8;43.7;44.2;70;69.9;28.6;0.0;
14/02/2025 20:09:51;100;0;79.22;-4;-21.23;23.06;653.9;13.50;75915;2837.031;-1758.360;1;351;-90;-96.8;43.7;44.2;70;69.9;28.6;0.0;
14/02/2025 20:10:11;100;0;67.83;-4;-20.51;22.97;657.0;13.50;75910;2837.032;-1758.355;1;346;-90;-98.4;43.7;44.0;70;69.9;28.6;0.0;
14/02/2025 20:10:31;100;0;57.47;-4;-20.78;23.06;659.7;13.40;75901;2837.033;-1758.351;1;341;-90;-96.8;43.7;44.0;70;69.9;28.6;0.0;
14/02/2025 20:10:51;100;0;47.09;-4;-20.35;22.98;662.7;13.40;75904;2837.035;-1758.347;1;336;-90;-98.4;43.7;44.0;70;69.9;28.6;0.0;
14/02/2025 20:11:11;100;0;35.77;-4;-21.13;23.12;665.5;13.40;75889;2837.036;-1758.344;1;332;-90;-98.4;43.7;44.0;70;69.9;28.6;0.0;
14/02/2025 20:11:31;100;0;22.86;-4;-20.95;23.12;668.3;13.40;75899;2837.039;-1758.342;1;328;-90;-96.8;43.7;44.2;70;69.9;28.6;0.0;
14/02/2025 20:11:51;100;0;8.71;-4;-20.68;23.09;671.1;13.30;75879;2837.041;-1758.341;1;325;-90;-96.8;43.7;44.2;67;66.3;28.6;0.0;
14/02/2025 20:12:11;100;0;356.82;-4;-20.45;20.76;674.0;13.30;75877;2837.044;-1758.340;1;322;-90;-96.8;43.7;44.0;54;54.2;28.6;0.0;
14/02/2025 20:12:31;100;0;346.13;-4;-20.22;14.83;676.7;13.30;75870;2837.047;-1758.340;1;319;-90;-96.8;43.7;44.0;40;39.7;28.6;0.0;
14/02/2025 20:12:51;100;0;337.97;-4;-19.41;7.46;679.4;13.30;75865;2837.049;-1758.341;1;318;-90;-96.8;43.7;44.0;28;28.0;28.6;0.0;
14/02/2025 20:13:11;100;0;332.59;-4;-19.10;1.84;682.1;13.30;75858;2837.051;-1758.342;1;316;-90;-96.8;43.7;44.2;22;21.7;28.6;0.0;
14/02/2025 20:13:31;100;0;328.87;-4;-18.96;-1.30;684.6;13.20;75851;2837.053;-1758.344;1;315;-90;-96.8;44.0;44.0;19;19.0;28.6;0.0;
14/02/2025 20:13:51;100;0;327.14;-4;-18.98;-2.32;687.2;13.20;75841;2837.055;-1758.345;1;314;-90;-96.8;44.3;44.3;19;19.4;28.6;0.0;
14/02/2025 20:14:11;100;0;325.33;-4;-19.39;-2.43;689.7;13.20;75842;2837.057;-1758.347;1;313;-90;-96.8;44.3;44.6;17;17.1;28.6;0.0;
14/02/2025 20:14:31;100;0;325.06;-4;-19.72;-3.75;692.3;13.20;75837;2837.059;-1758.348;1;312;-90;-96.8;44.3;44.6;17;16.7;28.6;0.0;
14/02/2025 20:14:51;100;0;324.24;-4;-19.55;-3.80;694.9;13.10;75827;2837.061;-1758.350;1;310;-90;-96.8;44.3;44.6;17;16.7;28.6;0.0;
14/02/2025 20:15:11;100;0;324.15;-4;-19.37;-3.93;697.3;13.10;75826;2837.063;-1758.351;1;309;-90;-96.8;44.3;44.6;17;16.7;28.6;0.0;
14/02/2025 20:15:23;118;0;323.60;-4;-19.20;-3.82;698.7;13.10;75813;2837.064;-1758.352;1;308;150;-93.5;18.6;18.6;7;7.2;28.6;0.0;
14/02/2025 20:15:33;118;0;28.63;-4;-3.01;-9.63;699.6;13.10;75796;2837.064;-1758.351;1;306;150;37.1;18.6;18.3;7;6.8;27.6;-1.0;
14/02/2025 20:15:43;118;0;23.69;-4;28.38;-9.52;699.4;13.10;75519;2837.064;-1758.351;1;306;150;153.2;18.6;18.7;7;6.8;27.7;-1.0;
14/02/2025 20:15:53;118;0;331.67;-4;35.96;-8.91;698.2;13.10;75285;2837.064;-1758.351;1;305;150;153.2;18.6;18.7;7;6.8;28.5;-1.0;
14/02/2025 20:16:03;118;0;328.72;-4;35.32;-9.34;696.8;13.10;75302;2837.064;-1758.351;1;304;150;153.2;18.6;18.7;7;6.8;28.6;-1.0;
14/02/2025 20:16:23;117;0;322.53;-4;35.51;-9.59;693.7;13.10;75298;2837.065;-1758.352;1;303;150;151.6;18.6;18.7;7;6.8;28.6;-1.0;
14/02/2025 20:16:43;117;0;317.44;-4;35.46;-9.58;690.1;13.10;75293;2837.066;-1758.353;1;302;150;151.6;23.2;23.4;29;28.9;28.6;-1.0;
14/02/2025 20:17:03;117;0;317.16;-4;29.88;2.80;687.2;13.10;75297;2837.067;-1758.355;1;301;150;153.2;26.2;26.2;29;29.8;28.5;-1.0;
14/02/2025 20:17:23;117;0;317.09;-4;23.22;2.81;684.8;13.00;75292;2837.068;-1758.356;1;300;150;151.6;27.2;27.1;29;29.3;28.6;-1.0;
14/02/2025 20:17:43;117;0;314.78;-4;20.49;2.93;683.0;13.00;75288;2837.069;-1758.357;1;299;150;151.6;27.2;27.1;29;29.3;28.6;-1.0;
14/02/2025 20:18:03;117;0;316.12;-4;19.81;2.76;681.2;13.00;75283;2837.070;-1758.358;1;298;150;151.6;27.2;27.2;29;29.3;28.6;-1.0;
14/02/2025 20:18:23;117;0;316.27;-4;20.11;2.88;679.7;13.00;75277;2837.071;-1758.359;1;297;150;153.2;27.2;27.2;29;29.3;28.6;-1.0;
14/02/2025 20:18:43;117;0;316.14;-4;19.77;2.79;678.2;13.00;75289;2837.071;-1758.360;1;295;150;153.2;27.2;27.2;29;29.3;28.6;-1.0;
14/02/2025 20:19:03;117;0;315.55;-4;19.98;2.90;676.8;12.90;75276;2837.071;-1758.361;1;295;150;151.6;27.2;27.2;29;29.3;28.6;-1.0;
14/02/2025 20:19:23;117;0;314.97;-4;20.23;2.93;675.5;12.90;75273;2837.072;-1758.361;1;294;150;151.6;27.2;27.2;29;29.3;28.5;-1.0;
14/02/2025 20:19:43;117;0;315.84;-4;19.61;2.88;674.2;12.90;75273;2837.072;-1758.362;1;293;150;151.6;27.2;27.2;29;29.3;28.6;-1.0;
14/02/2025 20:20:03;117;0;316.55;-4;20.40;2.85;673.0;12.90;75281;2837.072;-1758.362;1;293;170;171.0;27.2;27.2;29;29.8;28.6;-1.0;
14/02/2025 20:20:24;117;0;318.24;-4;19.97;2.90;671.7;12.90;75229;2837.073;-1758.363;1;290;190;193.5;27.2;27.2;29;29.3;28.6;-1.0;
14/02/2025 20:20:44;117;0;318.09;-4;19.29;2.91;670.3;12.90;75185;2837.073;-1758.364;1;285;210;212.9;27.2;27.2;25;24.8;28.6;-1.0;
14/02/2025 20:21:04;117;0;316.01;-4;18.78;0.43;668.8;12.90;75142;2837.074;-1758.365;1;276;230;232.3;26.8;26.8;18;18.1;28.6;-1.0;
14/02/2025 20:21:24;117;0;315.49;-4;18.22;-3.23;667.2;12.80;75104;2837.074;-1758.366;1;247;250;253.2;26.2;26.5;-19;-19.4;28.6;-1.0;
14/02/2025 20:21:44;117;0;299.41;-4;15.00;-22.62;665.5;12.80;75059;2837.075;-1758.368;1;149;270;272.6;24.7;24.9;-70;-69.9;28.6;-1.0;
14/02/2025 20:22:04;117;0;287.34;-4;12.71;-47.52;663.7;12.80;75019;2837.075;-1758.370;1;108;290;293.5;22.6;22.7;70;69.9;28.6;-1.0;
14/02/2025 20:22:24;117;0;296.61;-4;25.99;24.63;661.7;12.80;74979;2837.075;-1758.371;1;103;310;314.5;24.4;24.4;70;69.9;28.6;-1.0;
14/02/2025 20:22:44;117;0;306.29;-4;25.19;25.39;658.6;12.80;74932;2837.076;-1758.374;1;109;310;312.9;25.9;25.9;70;70.4;28.6;-1.0;
14/02/2025 20:23:04;117;0;318.21;-4;20.20;25.08;655.9;12.80;74946;2837.078;-1758.376;1;116;310;311.3;25.9;26.1;70;70.4;28.6;-1.0;
14/02/2025 20:23:24;117;0;330.33;-4;19.09;24.55;653.5;12.80;74935;2837.079;-1758.377;1;123;310;312.9;25.9;26.2;70;70.4;28.6;-1.0;
14/02/2025 20:23:44;117;0;342.10;-4;18.58;24.70;651.3;12.80;74947;2837.082;-1758.377;1;131;310;309.7;25.5;25.5;70;69.9;28.6;-1.0;
14/02/2025 20:24:04;117;0;353.63;-4;20.58;24.68;649.0;12.80;74945;2837.083;-1758.377;1;138;310;312.9;25.5;24.9;70;69.9;28.6;-1.0;
14/02/2025 20:24:24;117;0;4.46;-4;21.77;24.65;646.5;12.80;74945;2837.085;-1758.376;1;146;310;312.9;25.5;24.9;70;70.4;28.6;-1.0;
14/02/2025 20:24:44;117;0;15.50;-4;21.45;24.85;644.0;12.80;74957;2837.088;-1758.374;1;156;310;312.9;25.5;24.9;70;70.4;28.6;-1.0;
14/02/2025 20:25:04;117;0;27.45;-4;21.38;24.83;641.3;12.70;74947;2837.090;-1758.372;1;166;310;312.9;25.5;24.9;70;69.9;28.6;-1.0;
14/02/2025 20:25:24;117;0;38.51;-4;21.13;24.65;638.7;12.70;74949;2837.091;-1758.369;1;175;310;311.3;25.5;24.9;70;69.9;28.6;-1.0;
14/02/2025 20:25:44;117;0;50.25;-4;21.27;24.72;636.1;12.70;74954;2837.093;-1758.365;1;185;310;312.9;25.5;24.9;70;70.4;28.6;-1.0;
14/02/2025 20:26:04;117;0;61.50;-4;21.27;24.78;633.5;12.70;74946;2837.093;-1758.361;1;195;310;311.3;25.5;24.9;70;69.9;28.6;-1.0;
14/02/2025 20:26:24;117;0;73.32;-4;21.63;24.78;630.8;12.70;74957;2837.093;-1758.357;1;205;310;312.9;25.5;24.9;70;69.9;28.6;-1.0;
14/02/2025 20:26:44;117;0;84.62;-4;21.45;24.68;628.1;12.70;74952;2837.093;-1758.352;1;214;310;312.9;25.5;24.9;70;69.9;28.6;-1.0;
14/02/2025 20:27:04;117;0;96.20;-4;21.47;24.76;625.4;12.70;74942;2837.091;-1758.348;1;224;310;312.9;25.5;24.9;70;70.4;28.6;-1.0;
14/02/2025 20:27:24;117;0;108.22;-4;20.81;24.52;622.6;12.70;74942;2837.090;-1758.344;1;233;310;311.3;25.5;25.0;70;70.4;28.6;-1.0;
14/02/2025 20:27:44;117;0;118.17;-4;21.27;24.81;619.9;12.70;74940;2837.087;-1758.340;1;242;310;312.9;25.5;24.9;70;69.9;28.6;-1.0;
14/02/2025 20:28:04;117;0;129.66;-4;21.57;24.84;617.2;12.70;74949;2837.084;-1758.336;1;250;310;311.3;25.5;24.9;70;69.9;28.6;-1.0;
14/02/2025 20:28:24;117;0;141.67;-4;21.32;24.78;614.4;12.60;74944;2837.081;-1758.333;1;258;310;312.9;25.5;24.9;70;69.9;28.6;-1.0;
14/02/2025 20:28:44;117;0;152.65;-4;21.12;24.95;611.7;12.60;74944;2837.077;-1758.330;1;265;310;312.9;25.5;24.9;70;69.9;28.6;-1.0;
14/02/2025 20:29:04;117;0;162.99;-4;20.56;24.84;608.9;12.60;74944;2837.073;-1758.329;1;272;310;312.9;25.5;25.0;70;69.9;28.6;-1.0;
14/02/2025 20:29:24;117;0;171.26;-4;21.13;24.71;606.2;12.60;74942;2837.068;-1758.327;1;279;310;312.9;25.5;24.9;70;70.4;28.6;-1.0;
14/02/2025 20:29:44;117;0;181.51;-4;21.32;24.62;603.5;12.60;74944;2837.064;-1758.327;1;286;310;312.9;25.5;24.9;70;70.4;28.6;-1.0;
14/02/2025 20:30:04;117;0;194.13;-4;20.95;24.80;600.7;12.60;74944;2837.060;-1758.327;1;292;310;311.3;25.5;24.9;70;70.4;28.6;-1.0;
14/02/2025 20:30:24;117;0;204.66;-4;20.99;24.81;598.0;12.60;74939;2837.056;-1758.328;1;298;310;312.9;25.5;24.9;70;69.9;28.6;-1.0;
14/02/2025 20:30:44;117;0;215.77;-4;21.17;24.82;595.2;12.60;74948;2837.052;-1758.329;1;303;310;311.3;25.5;24.9;70;69.9;28.6;-1.0;
14/02/2025 20:31:04;117;0;226.77;-4;20.94;24.84;592.4;12.60;74946;2837.049;-1758.332;1;309;310;311.3;25.5;24.9;70;69.9;28.6;-1.0;
14/02/2025 20:31:24;117;0;238.48;-4;20.95;24.70;589.7;12.60;74959;2837.047;-1758.334;1;314;310;309.7;25.5;24.7;70;69.9;28.6;-1.0;
14/02/2025 20:31:44;117;0;250.92;-4;21.08;24.80;586.9;12.60;74949;2837.045;-1758.337;1;318;310;312.9;25.5;24.9;70;69.9;28.6;-1.0;
14/02/2025 20:32:04;117;0;262.47;-4;21.26;24.80;584.1;12.60;74954;2837.043;-1758.341;1;323;310;312.9;25.5;24.9;70;69.9;28.6;-1.0;
14/02/2025 20:32:24;117;0;273.14;-4;20.93;24.64;581.2;12.60;74954;2837.043;-1758.344;1;327;310;312.9;25.5;24.9;70;70.4;28.6;-1.0;
14/02/2025 20:32:44;117;0;286.04;-4;20.85;24.88;578.4;12.60;74957;2837.043;-1758.347;1;331;310;312.9;25.5;24.9;70;70.4;28.6;-1.0;
14/02/2025 20:33:04;117;0;295.66;-4;20.91;24.80;575.7;12.60;74948;2837.043;-1758.350;1;334;310;312.9;25.5;24.9;70;69.9;28.6;-1.0;
14/02/2025 20:33:24;117;0;308.43;-4;21.15;24.89;572.9;12.60;74952;2837.044;-1758.352;1;336;310;311.3;25.5;25.6;53;52.8;28.6;-1.0;
14/02/2025 20:33:44;117;0;316.03;-4;20.54;15.02;570.2;12.60;74962;2837.046;-1758.354;1;338;310;309.7;25.5;25.6;42;42.0;28.6;-1.0;
14/02/2025 20:34:04;117;0;319.88;-4;19.78;9.17;567.5;12.60;74963;2837.048;-1758.356;1;339;310;312.9;25.5;25.6;38;37.9;28.6;-1.0;
14/02/2025 20:34:24;117;0;321.56;-4;19.65;7.04;565.0;12.60;74973;2837.049;-1758.357;1;341;310;312.9;25.5;25.6;38;37.5;28.6;-1.0;
14/02/2025 20:34:44;117;0;322.31;-4;19.32;7.05;562.4;12.60;74960;2837.051;-1758.359;1;343;310;312.9;25.5;25.6;38;37.5;28.6;-1.0;
14/02/2025 20:35:04;117;0;323.19;-4;19.30;7.00;559.8;12.60;74967;2837.053;-1758.361;1;345;310;311.3;25.5;25.6;38;37.5;28.6;-1.0;
14/02/2025 20:35:24;117;0;325.29;-4;19.53;6.81;557.2;12.60;74962;2837.055;-1758.362;1;348;310;312.9;25.5;25.6;38;37.5;28.6;-1.0;
14/02/2025 20:35:44;117;0;327.02;-4;19.46;6.96;554.6;12.60;74967;2837.057;-1758.364;1;350;310;312.9;25.5;25.6;38;37.5;28.6;-1.0;
14/02/2025 20:36:04;117;0;329.13;-4;19.52;6.96;551.9;12.60;74962;2837.059;-1758.365;1;353;310;312.9;25.5;25.6;38;37.5;28.6;-1.0;
14/02/2025 20:36:24;117;0;331.54;-4;19.53;6.97;549.2;12.60;74972;2837.061;-1758.366;1;357;310;312.9;25.5;25.6;40;40.2;28.6;-1.0;
14/02/2025 20:36:44;117;0;334.66;-4;19.35;8.61;546.5;12.60;74980;2837.064;-1758.367;1;1;310;311.3;25.5;25.8;40;40.2;28.6;-1.0;
14/02/2025 20:37:04;117;0;337.38;-4;19.27;8.67;543.9;12.60;74977;2837.066;-1758.368;1;7;310;312.9;25.5;25.6;42;42.0;28.6;-1.0;
14/02/2025 20:37:24;117;0;339.10;-4;19.25;9.66;541.0;12.60;74971;2837.069;-1758.369;1;18;310;312.9;25.5;25.8;56;56.0;28.6;-1.0;
14/02/2025 20:37:44;117;0;346.07;-4;19.38;17.15;538.4;12.70;74982;2837.071;-1758.369;1;35;310;311.3;25.5;25.6;66;65.9;28.6;-1.0;
14/02/2025 20:38:04;117;0;355.98;-4;19.79;22.66;535.5;12.60;74983;2837.074;-1758.369;1;92;310;312.9;25.5;25.6;70;69.9;28.6;-1.0;
14/02/2025 20:38:24;117;0;7.72;-4;19.72;24.99;532.6;12.70;74993;2837.077;-1758.368;1;171;310;312.9;25.5;25.6;70;70.4;28.6;-1.0;
14/02/2025 20:38:44;117;0;19.34;-4;19.61;24.88;529.7;12.70;74982;2837.079;-1758.365;1;194;310;312.9;25.5;25.5;-70;-69.9;28.6;-1.0;
14/02/2025 20:39:04;117;0;3.89;-4;10.67;-47.95;526.9;12.70;74979;2837.083;-1758.364;1;194;310;312.9;22.7;22.5;-70;-70.4;28.6;-1.0;
14/02/2025 20:39:24;117;0;353.98;-4;13.80;-47.38;524.6;12.70;74987;2837.085;-1758.364;1;192;310;312.9;20.8;20.8;-70;-70.4;28.6;-1.0;
14/02/2025 20:39:44;117;0;345.13;-4;18.87;-47.50;521.9;12.70;74975;2837.088;-1758.365;1;189;310;312.9;20.5;20.6;-70;-70.4;28.6;-1.0;
14/02/2025 20:40:04;117;0;335.50;-4;19.65;-47.52;518.9;12.70;74983;2837.091;-1758.366;1;184;310;312.9;20.5;20.6;-70;-70.4;28.6;-1.0;
14/02/2025 20:40:24;117;0;328.20;-4;19.45;-46.99;515.9;12.70;74988;2837.093;-1758.367;1;179;310;314.5;20.5;20.6;-70;-70.4;28.6;-1.0;
14/02/2025 20:40:44;117;0;318.54;-4;19.54;-47.52;513.0;12.70;74983;2837.095;-1758.369;1;174;310;314.5;20.5;20.8;-70;-70.4;28.6;-1.0;
14/02/2025 20:41:04;117;0;308.88;-4;19.35;-47.68;510.0;12.70;74990;2837.097;-1758.372;1;169;310;312.9;20.5;20.6;-70;-70.4;28.6;-1.0;
14/02/2025 20:41:24;117;0;299.43;-4;19.75;-47.72;507.1;12.70;74993;2837.098;-1758.375;1;163;310;312.9;20.5;20.6;-70;-70.4;28.6;-1.0;
14/02/2025 20:41:44;117;0;289.65;-4;19.40;-47.38;504.2;12.70;74995;2837.098;-1758.379;1;157;310;312.9;20.5;20.6;-70;-70.4;28.6;-1.0;
14/02/2025 20:42:04;117;0;279.60;-4;20.01;-47.59;501.3;12.70;74996;2837.098;-1758.382;1;151;310;312.9;20.5;20.6;-70;-70.4;28.6;-1.0;
14/02/2025 20:42:24;117;0;270.27;-4;19.51;-47.46;498.2;12.70;75005;2837.097;-1758.386;1;144;310;312.9;20.5;20.8;-70;-70.4;28.6;-1.0;
14/02/2025 20:42:44;117;0;259.92;-4;19.86;-47.63;495.2;12.70;74998;2837.095;-1758.390;1;137;310;312.9;20.5;20.8;-70;-70.4;28.6;-1.0;
14/02/2025 20:43:04;117;0;249.54;-4;19.61;-47.81;492.3;12.70;75002;2837.093;-1758.393;1;130;310;312.9;20.5;20.6;-70;-70.4;28.6;-1.0;
14/02/2025 20:43:24;117;0;238.97;-4;19.36;-47.64;489.2;12.70;75002;2837.090;-1758.396;1;122;310;312.9;20.5;20.6;-70;-70.4;28.6;-1.0;
14/02/2025 20:43:44;117;0;229.56;-4;18.94;-47.52;486.3;12.80;75009;2837.087;-1758.399;1;115;310;309.7;20.2;20.2;-70;-70.4;28.6;-1.0;
14/02/2025 20:44:04;117;0;220.05;-4;20.24;-47.58;483.3;12.80;75007;2837.083;-1758.401;1;107;310;314.5;20.2;19.7;-70;-70.4;28.6;-1.0;
14/02/2025 20:44:24;117;0;210.73;-4;20.47;-47.63;480.2;12.80;75009;2837.079;-1758.403;1;99;310;312.9;20.2;19.9;-70;-70.4;28.6;-1.0;
14/02/2025 20:44:44;117;0;201.11;-4;20.52;-47.71;477.2;12.80;75002;2837.074;-1758.403;1;91;310;312.9;20.2;19.9;-70;-70.4;28.6;-1.0;
14/02/2025 20:45:04;117;0;191.95;-4;20.83;-47.74;474.1;12.80;75011;2837.070;-1758.404;1;82;310;314.5;20.2;19.9;-70;-70.4;28.6;-1.0;
14/02/2025 20:45:24;117;0;182.28;-4;20.44;-47.92;471.0;12.80;75018;2837.065;-1758.403;1;74;310;312.9;20.2;19.9;-70;-70.4;28.6;-1.0;
14/02/2025 20:45:44;117;0;174.38;-4;20.47;-47.51;467.9;12.80;75026;2837.060;-1758.402;1;66;310;312.9;20.2;19.9;-70;-70.4;28.6;-1.0;
14/02/2025 20:46:04;117;0;165.74;-4;20.43;-47.38;464.9;12.80;75029;2837.055;-1758.400;1;58;310;314.5;20.2;19.7;-70;-70.4;28.6;-1.0;
14/02/2025 20:46:24;117;0;157.41;-4;20.22;-47.54;461.8;12.80;75039;2837.051;-1758.398;1;49;310;314.5;20.2;19.9;-70;-70.4;28.6;-1.0;
14/02/2025 20:46:44;117;0;148.91;-4;20.39;-47.56;458.7;12.80;75039;2837.047;-1758.395;1;42;310;312.9;20.2;19.9;-70;-70.4;28.6;-1.0;
14/02/2025 20:47:04;117;0;138.89;-4;20.49;-47.62;455.7;12.90;75046;2837.043;-1758.391;1;34;310;312.9;20.2;19.9;-70;-70.4;28.6;-1.0;
14/02/2025 20:47:24;117;0;129.81;-4;20.32;-47.33;452.7;12.90;75048;2837.040;-1758.387;1;27;310;312.9;20.2;19.7;-70;-70.4;28.6;-1.0;
14/02/2025 20:47:44;117;0;119.70;-4;20.61;-47.66;449.7;12.90;75051;2837.037;-1758.383;1;20;310;312.9;20.2;19.9;-70;-70.4;28.6;-1.0;
14/02/2025 20:48:04;117;0;110.18;-4;20.59;-47.56;446.8;12.90;75055;2837.035;-1758.378;1;14;310;312.9;20.2;19.9;-70;-70.4;28.6;-1.0;
14/02/2025 20:48:24;117;0;100.91;-4;20.64;-47.60;443.9;12.90;75055;2837.033;-1758.373;1;8;310;314.5;20.2;19.9;-70;-70.4;28.6;-1.0;
14/02/2025 20:48:44;117;0;91.23;-4;20.67;-47.73;440.9;12.90;75057;2837.032;-1758.369;1;2;310;314.5;20.2;19.7;-70;-70.4;28.6;-1.0;
14/02/2025 20:49:04;117;0;81.73;-4;21.01;-47.31;437.7;12.90;75068;2837.032;-1758.364;1;356;310;312.9;20.2;19.9;-70;-70.4;28.6;-1.0;
14/02/2025 20:49:24;117;0;74.22;-4;20.46;-47.46;434.5;12.90;75067;2837.032;-1758.358;1;350;310;312.9;20.2;19.9;-70;-70.4;28.6;-1.0;
14/02/2025 20:49:44;117;0;63.65;-4;20.47;-47.27;431.3;12.90;75064;2837.033;-1758.353;1;344;310;314.5;20.2;19.9;-70;-70.4;28.6;-1.0;
14/02/2025 20:50:04;117;0;53.38;-4;20.62;-47.59;428.2;13.00;75069;2837.035;-1758.349;1;338;310;314.5;20.2;19.7;-65;-64.5;28.6;-1.0;
14/02/2025 20:50:24;117;0;42.89;-4;21.35;-44.75;424.9;13.00;75073;2837.037;-1758.345;1;333;310;314.5;20.2;19.9;-57;-56.9;28.6;-1.0;
14/02/2025 20:50:44;117;0;32.34;-4;21.29;-40.43;421.4;13.00;75079;2837.039;-1758.342;1;328;310;314.5;20.2;19.9;-49;-49.2;28.6;-1.0;
14/02/2025 20:51:04;117;0;19.52;-4;21.70;-36.65;418.2;13.00;75087;2837.042;-1758.340;1;323;310;314.5;20.2;19.9;-37;-37.0;28.6;-1.0;
14/02/2025 20:51:24;117;0;8.58;-4;22.81;-30.43;414.7;13.00;75088;2837.045;-1758.338;1;319;310;312.9;21.0;21.4;-28;-27.5;28.6;-1.0;
14/02/2025 20:51:44;117;0;355.18;-4;21.32;-25.23;411.3;13.00;75090;2837.049;-1758.338;1;315;310;312.9;21.0;21.4;-15;-14.9;28.6;-1.0;
14/02/2025 20:52:04;117;0;344.16;-4;23.45;-19.16;408.0;13.00;75087;2837.051;-1758.339;1;312;310;314.5;22.1;22.4;-1;-0.5;28.6;-1.0;
14/02/2025 20:52:24;117;0;334.33;-4;22.17;-12.01;404.8;13.00;75092;2837.054;-1758.340;1;310;310;314.5;22.7;22.8;12;12.2;28.6;-1.0;
14/02/2025 20:52:44;117;0;328.40;-4;21.92;-5.72;401.8;13.10;75100;2837.056;-1758.341;1;308;310;312.9;22.7;22.8;20;19.9;28.6;-1.0;
14/02/2025 20:53:04;117;0;324.81;-4;23.05;-1.65;399.0;13.10;75100;2837.058;-1758.343;1;307;310;312.9;23.6;23.7;24;23.9;28.6;-1.0;
14/02/2025 20:53:24;117;0;324.04;-4;22.85;0.25;396.1;13.10;75102;2837.060;-1758.344;1;306;310;314.5;24.5;24.4;24;24.4;28.6;-1.0;
14/02/2025 20:53:44;117;0;322.92;-4;21.12;0.46;393.2;13.10;75098;2837.062;-1758.346;1;304;310;314.5;24.5;24.6;24;24.4;28.6;-1.0;
14/02/2025 20:54:05;117;0;320.78;-4;21.05;0.54;390.4;13.10;75107;2837.063;-1758.348;1;302;310;312.9;24.5;24.6;24;24.4;28.6;-1.0;
14/02/2025 20:54:25;117;0;318.86;-4;20.87;0.54;387.6;13.10;75117;2837.065;-1758.350;1;300;310;314.5;24.5;24.4;24;24.4;28.6;-1.0;
14/02/2025 20:54:45;117;0;317.12;-4;20.67;0.55;384.8;13.10;75105;2837.067;-1758.352;1;298;310;312.9;24.5;24.6;24;24.4;28.6;-1.0;
14/02/2025 20:55:05;117;0;315.17;-4;20.79;0.55;382.1;13.10;75117;2837.068;-1758.354;1;296;310;312.9;24.5;24.4;26;26.6;28.6;-1.0;
14/02/2025 20:55:25;117;0;314.44;-4;20.80;1.86;379.3;13.20;75109;2837.070;-1758.356;1;293;310;314.5;24.5;24.6;24;23.9;28.6;-1.0;
14/02/2025 20:55:45;117;0;312.77;-4;20.59;0.10;376.5;13.20;75114;2837.071;-1758.358;1;288;310;311.3;24.5;24.6;22;22.1;28.6;-1.0;
14/02/2025 20:56:05;117;0;311.11;-4;20.50;-0.51;373.7;13.20;75124;2837.073;-1758.360;1;282;310;311.3;24.5;24.6;17;16.7;28.6;-1.0;
14/02/2025 20:56:25;117;0;307.04;-4;19.71;-3.68;370.9;13.20;75124;2837.074;-1758.363;1;270;310;314.5;24.5;24.6;7;7.2;28.5;-1.0;
14/02/2025 20:56:45;117;0;301.31;-4;18.75;-8.86;368.4;13.20;75118;2837.075;-1758.365;1;236;310;314.5;24.1;24.0;-28;-28.0;28.6;-1.0;
14/02/2025 20:57:05;117;0;286.40;-4;15.90;-26.91;365.8;13.20;75139;2837.075;-1758.369;1;126;310;314.5;22.9;22.5;-70;-69.9;28.6;-1.0;
14/02/2025 20:57:25;117;0;272.89;-4;14.34;-47.84;363.4;13.20;75138;2837.074;-1758.372;1;95;310;314.5;21.2;21.4;70;69.9;28.6;-1.0;
14/02/2025 20:57:45;117;0;279.38;-4;26.75;25.13;360.7;13.30;75148;2837.074;-1758.375;1;90;310;314.5;23.2;23.3;70;70.4;28.6;-1.0;
14/02/2025 20:58:05;117;0;286.71;-4;25.99;25.59;357.2;13.30;75151;2837.074;-1758.378;1;91;310;311.3;25.0;25.0;70;70.4;28.6;-1.0;
14/02/2025 20:58:25;117;0;296.75;-4;21.72;25.54;353.9;13.30;75158;2837.075;-1758.381;1;95;310;314.5;25.0;25.2;70;70.4;28.6;-1.0;
14/02/2025 20:58:45;117;0;307.37;-4;20.08;25.33;350.8;13.30;75165;2837.077;-1758.384;1;100;310;312.9;25.0;25.3;70;70.4;28.6;-1.0;
14/02/2025 20:59:05;117;0;318.78;-4;20.01;24.94;348.2;13.30;75169;2837.078;-1758.386;1;104;310;314.5;25.0;25.3;70;70.4;28.6;-1.0;
14/02/2025 20:59:25;117;0;333.01;-4;20.19;25.18;345.5;13.30;75166;2837.080;-1758.387;1;110;310;314.5;25.0;25.3;70;70.4;28.6;-1.0;
14/02/2025 20:59:45;117;0;346.35;-4;20.63;25.03;342.9;13.30;75188;2837.083;-1758.387;1;116;310;314.5;25.0;25.3;70;70.4;28.6;-1.0;
14/02/2025 21:00:05;117;0;359.43;-4;20.62;25.17;340.2;13.40;75184;2837.085;-1758.386;1;123;310;314.5;25.0;25.2;70;70.4;28.6;-1.0;
14/02/2025 21:00:25;117;0;11.00;-4;20.41;25.04;337.4;13.40;75202;2837.088;-1758.385;1;131;310;314.5;25.0;25.3;70;70.4;28.6;-1.0;
14/02/2025 21:00:45;117;0;21.98;-4;20.23;25.04;334.7;13.40;75208;2837.090;-1758.383;1;139;310;314.5;25.0;25.2;70;70.4;28.6;-1.0;
14/02/2025 21:01:05;117;0;33.50;-4;20.34;25.15;332.1;13.40;75220;2837.092;-1758.380;1;148;310;312.9;25.0;25.3;70;70.4;28.6;-1.0;
14/02/2025 21:01:25;117;0;45.77;-4;20.24;25.07;329.4;13.40;75211;2837.094;-1758.376;1;157;310;312.9;25.0;25.3;70;70.4;28.6;-1.0;
14/02/2025 21:01:45;117;0;58.07;-4;20.36;24.99;326.6;13.50;75213;2837.095;-1758.372;1;167;310;312.9;25.0;25.3;70;70.4;28.6;-1.0;
14/02/2025 21:02:05;117;0;69.93;-4;20.27;24.97;323.8;13.50;75227;2837.095;-1758.368;1;178;310;312.9;25.0;25.3;70;70.4;28.6;-1.0;
14/02/2025 21:02:25;117;0;81.30;-4;20.29;25.01;321.1;13.50;75227;2837.095;-1758.363;1;189;310;314.5;25.0;25.3;70;70.4;28.6;-1.0;
14/02/2025 21:02:45;117;0;93.64;-4;20.19;24.81;318.4;13.50;75231;2837.094;-1758.359;1;201;310;314.5;25.0;25.3;70;70.4;28.6;-1.0;
14/02/2025 21:03:05;117;0;104.75;-4;20.15;24.93;315.7;13.50;75230;2837.092;-1758.354;1;213;310;311.3;25.0;25.3;70;70.4;28.6;-1.0;
14/02/2025 21:03:25;117;0;119.37;-4;20.20;24.93;313.1;13.60;75257;2837.089;-1758.350;1;224;310;314.5;25.0;25.3;70;70.4;28.6;-1.0;
14/02/2025 21:03:45;117;0;133.67;-4;20.37;25.23;310.6;13.60;75257;2837.086;-1758.347;1;236;310;314.5;25.0;25.3;70;70.4;28.6;-1.0;
14/02/2025 21:04:05;117;0;147.25;-4;20.25;25.08;308.1;13.60;75262;2837.083;-1758.344;1;247;310;312.9;25.0;25.3;70;70.4;28.6;-1.0;
14/02/2025 21:04:25;117;0;160.29;-4;20.23;25.07;305.5;13.60;75273;2837.079;-1758.342;1;258;310;314.5;25.0;25.3;70;70.4;28.6;-1.0;
14/02/2025 21:04:45;117;0;172.04;-4;20.09;25.02;303.1;13.60;75275;2837.075;-1758.341;1;268;310;314.5;25.0;25.3;70;70.4;28.6;-1.0;
14/02/2025 21:05:05;117;0;183.34;-4;20.16;24.91;300.6;13.70;75287;2837.071;-1758.340;1;278;310;314.5;25.0;25.3;70;70.4;28.6;-1.0;
14/02/2025 21:05:25;117;0;195.19;-4;20.14;25.02;298.2;13.70;75289;2837.067;-1758.341;1;287;310;312.9;25.0;25.3;70;70.4;28.6;-1.0;
14/02/2025 21:05:45;117;0;207.42;-4;20.20;24.94;295.7;13.70;75302;2837.063;-1758.342;1;296;310;312.9;25.0;25.2;70;70.4;28.5;-1.0;
14/02/2025 21:06:05;117;0;220.80;-4;20.05;25.10;293.3;13.70;75305;2837.060;-1758.343;1;304;310;314.5;25.0;25.3;70;70.4;28.6;-1.0;
14/02/2025 21:06:25;117;0;233.75;-4;20.23;25.11;290.7;13.80;75314;2837.057;-1758.345;1;312;310;314.5;25.0;25.2;70;70.4;28.6;-1.0;
14/02/2025 21:06:45;117;0;247.24;-4;20.10;25.04;288.2;13.80;75323;2837.055;-1758.348;1;319;310;314.5;25.0;25.3;70;70.4;28.6;-1.0;
14/02/2025 21:07:05;117;0;261.57;-4;20.12;25.30;285.6;13.80;75324;2837.054;-1758.351;1;326;310;314.5;25.0;25.3;70;70.4;28.6;-1.0;
14/02/2025 21:07:25;117;0;275.73;-4;20.03;25.23;283.0;13.80;75335;2837.053;-1758.354;1;332;310;312.9;25.0;25.3;70;70.4;28.6;-1.0;
14/02/2025 21:07:45;117;0;287.73;-4;20.02;24.97;280.3;13.90;75342;2837.053;-1758.357;1;338;310;314.5;25.0;25.3;70;70.4;28.6;-1.0;
14/02/2025 21:08:05;117;0;301.28;-4;19.91;25.03;277.7;13.90;75341;2837.054;-1758.360;1;343;310;314.5;25.0;25.3;70;70.4;28.6;-1.0;
14/02/2025 21:08:25;117;0;314.06;-4;19.91;25.06;275.2;13.90;75365;2837.055;-1758.362;1;346;310;312.9;25.0;25.3;54;54.2;28.6;-1.0;
14/02/2025 21:08:45;117;0;323.91;-4;20.20;15.85;272.7;13.90;75378;2837.057;-1758.363;1;349;310;314.5;25.0;25.3;41;41.1;28.6;-1.0;
14/02/2025 21:09:05;117;0;326.26;-4;20.30;9.03;270.3;14.00;75389;2837.059;-1758.365;1;352;310;309.7;25.0;25.3;41;40.6;28.6;-1.0;
14/02/2025 21:09:25;117;0;331.55;-4;19.30;8.63;267.9;14.00;75392;2837.061;-1758.366;1;355;310;314.5;25.0;25.3;36;36.1;28.6;-1.0;
14/02/2025 21:09:45;117;0;333.31;-4;19.16;6.24;265.7;14.00;75395;2837.062;-1758.366;1;358;310;312.9;25.0;25.3;36;36.1;28.6;-1.0;
14/02/2025 21:10:05;117;0;335.47;-4;19.29;6.14;263.5;14.00;75392;2837.064;-1758.367;1;1;310;312.9;25.0;25.3;36;36.1;28.6;-1.0;
14/02/2025 21:10:25;117;0;337.33;-4;19.11;6.18;261.2;14.10;75398;2837.066;-1758.368;1;5;310;314.5;25.0;25.3;36;36.1;28.6;-1.0;
14/02/2025 21:10:45;117;0;338.83;-4;19.00;6.24;259.1;14.10;75416;2837.068;-1758.368;1;10;310;314.5;25.0;25.3;40;40.2;28.6;-1.0;
14/02/2025 21:11:05;117;0;341.27;-4;19.38;8.76;256.8;14.10;75409;2837.070;-1758.369;1;19;310;314.5;25.0;25.3;47;46.9;28.6;-1.0;
14/02/2025 21:11:25;117;0;345.23;-4;19.40;12.33;254.5;14.20;75429;2837.072;-1758.369;1;39;310;314.5;25.0;25.3;70;69.9;28.6;-1.0;
14/02/2025 21:11:45;117;0;355.44;-4;19.59;24.85;252.2;14.20;75428;2837.074;-1758.368;1;95;310;314.5;25.0;25.3;70;69.9;28.6;-1.0;
