Timestamp;NavState;SecurityLevel;Heading;Declination;Pitch;Roll;Depth;Temperature;Pa;Lat;Lon;DeadReckoning;DesiredH;BallastCmd;BallastPos;LinCmd;LinPos;AngCmd;AngPos;Voltage;Altitude;
01/01/1970 00:00:00;97;0;0.00;0;0.00;0.00;11.1;0.00;0;0.000;0.000;0;-9999;500;772.6;100.0;129.3;0;-234.2;16.9;0.0;
01/01/1970 00:01:37;105;0;151.05;0;6.56;-0.07;9.0;21.00;78038;0.000;0.000;0;-9999;500;182.3;100.0;100.1;0;-0.5;29.2;-1.0;
01/01/1970 00:01:57;105;0;141.39;0;8.84;-1.11;9.0;21.10;77580;0.000;0.000;0;-9999;500;425.8;100.0;100.3;0;-0.5;29.1;-1.0;
01/01/1970 00:02:17;105;0;141.24;0;8.75;-0.64;9.1;21.10;77060;0.000;0.000;0;-9999;500;508.1;100.0;100.4;0;-0.5;29.0;-1.0;
01/01/1970 00:02:37;105;0;150.37;0;5.40;-0.12;9.1;21.20;76965;0.000;0.000;0;-9999;500;508.1;100.0;100.3;0;-0.5;29.2;-1.0;
01/01/1970 00:02:57;115;0;146.35;0;8.00;0.82;9.2;21.30;76971;0.000;0.000;0;-9999;500;509.7;100.0;100.3;0;-0.5;29.3;-1.0;
01/01/1970 00:03:07;115;0;150.26;0;8.61;0.93;9.0;21.30;76983;0.000;0.000;0;-9999;500;508.1;100.0;100.3;0;-0.5;29.2;-1.0;
01/01/1970 00:03:27;119;0;153.01;0;8.59;0.88;9.0;21.40;76983;0.000;0.000;0;-9999;500;506.5;100.0;100.3;0;-0.5;29.2;-1.0;
01/01/1970 00:03:37;119;0;151.82;-4;8.03;0.98;9.2;21.40;76982;2838.767;-1756.611;0;-9999;500;508.1;100.0;100.3;0;-0.5;29.2;-1.0;
01/01/1970 00:03:47;119;0;147.12;-4;7.49;0.94;9.2;21.40;76989;2838.767;-1756.612;0;-9999;500;509.7;100.0;100.3;0;-0.5;29.2;-1.0;
12/02/2025 10:43:52;116;0;144.93;-4;8.15;0.92;9.1;21.50;77000;2838.768;-1756.611;0;-9999;500;509.7;100.0;100.4;0;-0.5;29.2;-1.0;
12/02/2025 10:44:24;116;0;154.86;-4;6.79;0.57;9.2;21.60;77021;2838.767;-1756.610;0;-9999;500;508.1;100.0;100.3;0;-0.5;29.2;-1.0;
12/02/2025 10:44:44;116;0;140.86;-4;6.58;0.44;9.2;21.70;77034;2838.767;-1756.610;0;-9999;500;509.7;100.0;100.4;0;-0.5;29.2;-1.0;
12/02/2025 10:45:04;116;0;147.35;-4;6.93;0.24;9.2;21.80;77040;2838.767;-1756.609;0;-9999;500;509.7;100.0;100.4;0;-0.5;29.2;-1.0;
12/02/2025 10:45:24;116;0;153.52;-4;6.94;0.43;9.3;21.80;77047;2838.767;-1756.609;0;-9999;500;506.5;100.0;100.3;0;-0.5;29.3;-1.0;
12/02/2025 10:45:44;116;0;155.68;-4;6.94;0.50;9.3;21.90;77059;2838.768;-1756.609;0;-9999;500;509.7;100.0;100.3;0;-0.5;29.2;-1.0;
12/02/2025 10:46:04;116;0;152.43;-4;6.87;0.49;9.4;22.00;77075;2838.768;-1756.609;0;-9999;500;509.7;100.0;100.3;0;-0.5;29.2;-1.0;
12/02/2025 10:46:24;116;0;149.49;-4;6.59;0.55;9.4;22.10;77082;2838.768;-1756.609;0;-9999;500;508.1;100.0;100.3;0;-0.5;29.2;-1.0;
12/02/2025 10:46:43;116;0;154.23;-4;7.03;0.39;9.3;22.10;77093;2838.768;-1756.610;0;-9999;500;508.1;100.0;100.3;0;-0.5;29.2;-1.0;
12/02/2025 10:47:11;116;0;155.73;-4;6.97;0.47;9.4;22.20;77108;2838.768;-1756.610;0;-9999;500;509.7;100.0;100.3;0;-0.5;29.2;-1.0;
12/02/2025 10:47:41;116;0;153.81;-4;6.87;0.45;9.4;22.40;77135;2838.768;-1756.610;0;-9999;500;509.7;100.0;100.3;0;-0.5;29.2;-1.0;
12/02/2025 10:48:07;116;0;156.10;-4;6.91;0.36;9.3;22.50;77141;2838.768;-1756.610;0;-9999;500;509.7;100.0;100.3;0;-0.5;29.2;-1.0;
12/02/2025 10:48:41;116;0;150.55;-4;7.29;0.53;9.4;22.60;77160;2838.768;-1756.610;0;-9999;500;508.1;100.0;100.4;0;-0.5;29.2;-1.0;
12/02/2025 10:49:01;116;0;153.20;-4;6.81;0.39;9.5;22.70;77179;2838.768;-1756.610;0;-9999;500;508.1;100.0;100.3;0;-0.5;29.2;-1.0;
12/02/2025 10:49:21;116;0;146.53;-4;5.91;0.61;9.5;22.80;77184;2838.768;-1756.610;0;-9999;500;508.1;100.0;100.3;0;-0.5;29.2;-1.0;
12/02/2025 10:49:41;116;0;152.69;-4;5.23;0.56;9.4;22.90;77197;2838.768;-1756.610;0;-9999;500;508.1;100.0;100.3;0;-0.5;29.2;-1.0;
12/02/2025 10:50:01;116;0;147.63;-4;5.32;0.52;9.6;22.90;77208;2838.768;-1756.610;0;-9999;500;509.7;100.0;100.4;0;-0.5;29.2;-1.0;
12/02/2025 10:50:21;116;0;148.96;-4;5.71;-0.15;9.6;23.00;77219;2838.768;-1756.610;0;-9999;500;509.7;100.0;100.3;0;-0.5;29.3;-1.0;
12/02/2025 10:50:41;116;0;142.69;-4;5.59;1.15;9.6;23.10;77228;2838.768;-1756.610;0;-9999;500;509.7;100.0;100.3;0;-0.5;29.2;-1.0;
12/02/2025 10:51:01;116;0;149.63;-4;5.44;1.03;9.6;23.10;77235;2838.767;-1756.610;0;-9999;500;509.7;100.0;100.3;0;-0.5;29.2;-1.0;
12/02/2025 10:51:21;116;0;150.05;-4;5.36;1.18;9.6;23.20;77254;2838.767;-1756.611;0;-9999;500;509.7;100.0;100.3;0;-0.5;29.2;-1.0;
12/02/2025 10:51:41;116;0;151.31;-4;5.22;0.70;9.6;23.30;77262;2838.767;-1756.611;0;-9999;500;509.7;100.0;100.3;0;-0.5;29.2;-1.0;
12/02/2025 10:52:01;116;0;145.14;-4;4.55;2.47;9.7;23.40;77271;2838.767;-1756.611;0;-9999;500;509.7;100.0;100.4;0;-0.5;29.1;-1.0;
12/02/2025 10:52:21;116;0;147.36;-4;5.76;3.24;9.6;23.50;77282;2838.767;-1756.611;0;-9999;500;509.7;100.0;100.4;0;-0.5;29.2;-1.0;
12/02/2025 10:52:41;116;0;147.94;-4;5.85;3.31;9.7;23.50;77295;2838.767;-1756.611;0;-9999;500;508.1;100.0;100.4;0;-0.5;29.2;-1.0;
12/02/2025 10:53:01;116;0;150.17;-4;5.98;3.16;9.7;23.60;77301;2838.767;-1756.611;0;-9999;500;509.7;100.0;100.3;0;-0.5;29.2;-1.0;
12/02/2025 10:53:21;116;0;145.86;-4;6.10;3.39;9.8;23.70;77311;2838.767;-1756.611;0;-9999;500;509.7;100.0;100.3;0;-0.5;29.2;-1.0;
12/02/2025 10:53:41;116;0;149.50;-4;6.13;3.53;9.7;23.70;77314;2838.767;-1756.611;0;-9999;500;508.1;100.0;100.3;0;-0.5;29.2;-1.0;
12/02/2025 10:54:01;116;0;155.34;-4;5.99;3.30;9.8;23.80;77334;2838.767;-1756.611;0;-9999;500;511.3;100.0;100.3;0;-0.5;29.2;-1.0;
12/02/2025 10:54:21;116;0;143.01;-4;6.59;4.20;9.8;23.90;77351;2838.767;-1756.611;0;-9999;500;509.7;100.0;100.3;0;-0.5;29.1;-1.0;
12/02/2025 10:54:41;116;0;139.73;-4;5.68;3.27;9.8;24.00;77353;2838.767;-1756.611;0;-9999;500;509.7;100.0;100.3;0;-0.5;29.2;-1.0;
12/02/2025 10:55:01;116;0;210.19;-4;4.94;3.13;9.8;24.00;77364;2838.767;-1756.613;0;-9999;500;509.7;100.0;100.3;0;-0.5;29.2;-1.0;
12/02/2025 10:55:21;116;0;244.38;-4;5.57;3.53;9.8;24.10;77383;2838.755;-1756.610;0;-9999;500;509.7;100.0;100.4;0;0.0;29.2;-1.0;
12/02/2025 10:55:42;116;0;243.76;-4;4.91;3.81;9.9;24.20;77385;2838.746;-1756.605;0;-9999;500;509.7;100.0;100.3;0;0.0;29.2;-1.0;
12/02/2025 10:55:58;116;0;248.14;-4;4.60;3.65;9.9;24.20;77393;2838.735;-1756.598;0;-9999;500;508.1;100.0;100.4;0;-0.5;29.2;-1.0;
12/02/2025 10:56:18;116;0;260.64;-4;4.43;3.68;9.9;24.30;77408;2838.720;-1756.593;0;-9999;500;509.7;100.0;100.4;0;-0.5;29.2;-1.0;
12/02/2025 10:56:39;116;0;278.72;-4;4.54;3.98;10.0;24.40;77416;2838.703;-1756.594;0;-9999;500;508.1;100.0;100.4;0;-0.5;29.2;-1.0;
12/02/2025 10:56:59;116;0;258.43;-4;4.38;4.22;10.0;24.50;77424;2838.687;-1756.594;0;-9999;500;509.7;100.0;100.4;0;-0.5;29.2;-1.0;
12/02/2025 10:57:19;116;0;235.85;-4;4.53;4.11;10.0;24.50;77435;2838.670;-1756.586;0;-9999;500;509.7;100.0;100.4;0;-0.5;29.2;-1.0;
12/02/2025 10:57:39;116;0;234.69;-4;5.50;4.04;9.9;24.60;77441;2838.640;-1756.566;0;-9999;500;509.7;100.0;100.4;0;-0.5;29.2;-1.0;
12/02/2025 10:57:58;116;0;244.31;-4;4.80;3.54;10.0;24.60;77469;2838.625;-1756.558;0;-9999;500;508.1;100.0;100.4;0;-0.5;29.2;-1.0;
12/02/2025 10:58:18;116;0;259.96;-4;6.85;7.56;10.1;24.70;77476;2838.620;-1756.556;0;-9999;500;509.7;100.0;100.3;0;-0.5;29.2;-1.0;
12/02/2025 10:58:39;116;0;300.85;-4;4.78;11.07;10.1;24.70;77488;2838.591;-1756.572;0;-9999;500;509.7;100.0;100.4;0;-0.5;29.2;-1.0;
12/02/2025 10:58:59;116;0;262.41;-4;4.89;13.44;10.1;24.80;77494;2838.545;-1756.574;0;-9999;500;509.7;100.0;100.3;0;0.0;29.2;-1.0;
12/02/2025 10:59:24;116;0;270.15;-4;6.37;10.12;10.2;24.80;77478;2838.487;-1756.568;0;-9999;500;509.7;100.0;100.3;0;-0.5;29.2;-1.0;
12/02/2025 10:59:44;116;0;280.66;-4;7.24;12.91;10.2;24.90;77490;2838.439;-1756.574;0;-9999;500;508.1;100.0;100.3;0;-0.5;29.2;-1.0;
12/02/2025 11:00:04;116;0;290.99;-4;3.16;9.76;10.3;24.90;77488;2838.381;-1756.593;0;-9999;500;508.1;100.0;100.3;0;-0.5;29.2;-1.0;
12/02/2025 11:00:24;116;0;299.08;-4;3.61;9.12;10.3;25.00;77484;2838.292;-1756.644;0;-9999;500;508.1;100.0;100.3;0;-0.5;29.2;-1.0;
12/02/2025 11:00:42;116;0;304.07;-4;3.27;10.65;10.2;25.00;77477;2838.226;-1756.698;0;-9999;500;509.7;100.0;100.4;0;-0.5;29.2;-1.0;
12/02/2025 11:01:08;116;0;325.81;-4;7.60;10.86;10.2;25.00;77480;2838.220;-1756.706;0;-9999;500;509.7;100.0;100.4;0;-0.5;29.2;-1.0;
12/02/2025 11:01:28;116;0;338.23;-4;4.83;7.35;10.0;25.10;77487;2838.187;-1756.772;0;-9999;500;509.7;100.0;100.4;0;0.0;29.2;-1.0;
12/02/2025 11:01:48;116;0;354.40;-4;8.92;18.80;10.0;25.10;77463;2838.166;-1756.849;0;-9999;500;509.7;100.0;100.3;0;-0.5;29.2;-1.0;
12/02/2025 11:02:05;116;0;327.65;-4;4.40;8.78;10.0;25.10;77468;2838.146;-1756.910;0;-9999;500;509.7;100.0;100.4;0;-0.5;29.2;-1.0;
12/02/2025 11:02:25;116;0;323.12;-4;4.90;6.51;10.0;25.10;77463;2838.104;-1756.978;0;-9999;500;511.3;100.0;100.7;0;-0.5;29.2;-1.0;
12/02/2025 11:02:45;116;0;317.95;-4;5.89;14.57;9.9;25.20;77456;2838.056;-1757.040;0;-9999;500;509.7;100.0;100.7;0;0.0;29.2;-1.0;
12/02/2025 11:03:05;116;0;313.00;-4;7.61;11.62;9.9;25.20;77453;2838.008;-1757.103;0;-9999;500;511.3;100.0;100.7;0;0.0;29.3;-1.0;
12/02/2025 11:03:25;116;0;322.06;-4;6.76;11.77;9.9;25.20;77449;2837.929;-1757.202;0;-9999;500;509.7;100.0;100.4;0;0.0;29.2;-1.0;
12/02/2025 11:03:41;116;0;309.50;-4;1.86;9.08;9.9;25.20;77443;2837.920;-1757.210;0;-9999;500;509.7;100.0;100.4;0;-0.5;29.2;-1.0;
12/02/2025 11:04:01;116;0;310.20;-4;10.74;9.55;9.8;25.20;77445;2837.857;-1757.267;0;-9999;500;511.3;100.0;100.7;0;0.0;29.2;-1.0;
12/02/2025 11:04:21;116;0;308.26;-4;7.79;16.65;9.8;25.20;77447;2837.797;-1757.330;0;-9999;500;509.7;100.0;100.4;0;0.0;29.2;-1.0;
12/02/2025 11:04:41;116;0;310.10;-4;6.59;9.48;9.8;25.20;77427;2837.745;-1757.391;0;-9999;500;509.7;100.0;100.3;0;0.0;29.1;-1.0;
12/02/2025 11:05:01;116;0;300.31;-4;8.24;12.50;9.7;25.20;77418;2837.682;-1757.454;0;-9999;500;509.7;100.0;100.4;0;0.0;29.2;-1.0;
12/02/2025 11:05:21;116;0;311.52;-4;5.86;9.41;9.7;25.20;77420;2837.621;-1757.513;0;-9999;500;508.1;100.0;100.4;0;0.0;29.2;-1.0;
12/02/2025 11:05:41;116;0;314.31;-4;7.11;11.78;9.8;25.30;77423;2837.567;-1757.583;0;-9999;500;511.3;100.0;100.4;0;0.0;29.2;-1.0;
12/02/2025 11:06:02;116;0;333.98;-4;4.66;5.60;9.7;25.30;77425;2837.560;-1757.600;0;-9999;500;509.7;100.0;100.4;0;0.0;29.2;-1.0;
12/02/2025 11:06:22;116;0;343.02;-4;5.42;4.04;9.7;25.30;77432;2837.553;-1757.621;0;-9999;500;509.7;100.0;100.4;0;0.0;29.2;-1.0;
12/02/2025 11:06:42;116;0;322.88;-4;4.67;4.86;9.6;25.30;77434;2837.545;-1757.642;0;-9999;500;508.1;100.0;100.4;0;0.0;29.2;-1.0;
12/02/2025 11:07:02;116;0;316.64;-4;5.42;5.11;9.7;25.30;77436;2837.533;-1757.659;0;-9999;500;511.3;100.0;100.4;0;0.0;29.2;-1.0;
12/02/2025 11:07:18;116;0;312.13;-4;4.53;6.46;9.7;25.40;77441;2837.524;-1757.672;0;-9999;500;511.3;100.0;100.6;0;0.0;29.2;-1.0;
12/02/2025 11:07:38;116;0;311.50;-4;6.32;5.11;9.8;25.40;77428;2837.511;-1757.688;0;-9999;500;509.7;100.0;100.4;0;0.0;29.2;-1.0;
12/02/2025 11:07:58;116;0;311.94;-4;5.02;2.90;9.7;25.40;77436;2837.487;-1757.720;0;-9999;500;511.3;100.0;100.4;0;0.0;29.2;-1.0;
12/02/2025 11:08:22;116;0;315.03;-4;5.06;3.96;9.7;25.40;77437;2837.473;-1757.740;0;-9999;500;509.7;100.0;100.4;0;0.0;29.2;-1.0;
12/02/2025 11:08:48;116;0;327.13;-4;3.05;5.33;9.6;25.50;77427;2837.461;-1757.765;0;-9999;500;509.7;100.0;100.4;0;0.0;29.2;-1.0;
12/02/2025 11:09:15;116;0;320.21;-4;6.53;4.28;9.7;25.50;77451;2837.440;-1757.794;0;-9999;500;511.3;100.0;100.4;0;0.0;29.2;-1.0;
12/02/2025 11:09:58;116;0;311.65;-4;8.19;2.39;9.6;25.50;77442;2837.429;-1757.803;0;-9999;500;509.7;100.0;100.4;0;0.0;29.2;-1.0;
12/02/2025 11:10:21;116;0;304.42;-4;7.76;-0.74;9.6;25.50;77432;2837.428;-1757.806;0;-9999;500;509.7;100.0;100.4;0;0.0;29.2;-1.0;
12/02/2025 11:10:41;116;0;295.77;-4;5.63;3.40;9.8;25.60;77439;2837.417;-1757.814;0;-9999;500;509.7;100.0;100.4;0;0.0;29.2;-1.0;
12/02/2025 11:11:01;116;0;296.12;-4;6.19;2.10;9.8;25.60;77453;2837.407;-1757.821;0;-9999;500;509.7;100.0;100.4;0;0.0;29.2;-1.0;
12/02/2025 11:11:21;116;0;293.98;-4;7.53;2.18;9.7;25.60;77460;2837.398;-1757.827;0;-9999;500;509.7;100.0;100.4;0;0.0;29.2;-1.0;
12/02/2025 11:11:41;116;0;288.15;-4;5.48;1.57;9.7;25.60;77459;2837.388;-1757.833;0;-9999;500;509.7;100.0;100.4;0;0.0;29.2;-1.0;
12/02/2025 11:12:01;116;0;326.52;-4;3.58;2.05;9.7;25.70;77466;2837.378;-1757.840;0;-9999;500;509.7;100.0;100.3;0;0.0;29.2;-1.0;
12/02/2025 11:12:19;116;0;79.10;-4;2.30;2.02;9.8;25.70;77480;2837.383;-1757.851;0;-9999;500;511.3;100.0;100.4;0;0.0;29.2;-1.0;
12/02/2025 11:12:35;116;0;153.16;-4;1.70;3.55;9.7;25.70;77484;2837.383;-1757.851;0;-9999;500;511.3;100.0;100.4;0;0.0;29.2;-1.0;
12/02/2025 11:12:55;116;0;175.74;-4;1.49;0.56;9.8;25.70;77489;2837.386;-1757.850;0;-9999;500;509.7;100.0;100.4;0;0.0;29.2;-1.0;
12/02/2025 11:13:15;116;0;183.84;-4;3.75;4.32;9.8;25.80;77491;2837.387;-1757.850;0;-9999;500;511.3;100.0;100.4;0;0.0;29.2;-1.0;
12/02/2025 11:13:35;116;0;183.60;-4;2.38;1.51;9.8;25.80;77499;2837.389;-1757.851;0;-9999;500;511.3;100.0;100.4;0;0.0;29.2;-1.0;
12/02/2025 11:13:55;116;0;173.93;-4;2.09;2.48;9.8;25.80;77497;2837.392;-1757.851;0;-9999;500;509.7;100.0;100.4;0;0.0;29.2;-1.0;
12/02/2025 11:14:15;116;0;169.72;-4;4.25;1.49;9.8;25.80;77502;2837.393;-1757.852;0;-9999;500;509.7;100.0;100.4;0;0.0;29.2;-1.0;
12/02/2025 11:14:35;116;0;160.75;-4;5.31;0.09;9.8;25.80;77507;2837.395;-1757.855;0;-9999;500;509.7;100.0;100.4;0;0.0;29.2;-1.0;
12/02/2025 11:14:55;116;0;164.17;-4;4.84;2.18;9.8;25.80;77509;2837.396;-1757.855;0;-9999;500;511.3;100.0;100.4;0;0.0;29.2;-1.0;
12/02/2025 11:15:15;116;0;170.26;-4;5.17;0.77;9.9;25.80;77517;2837.397;-1757.856;0;-9999;500;509.7;100.0;100.4;0;0.0;29.2;-1.0;
12/02/2025 11:15:35;116;0;172.90;-4;1.24;4.68;9.8;25.80;77528;2837.399;-1757.857;0;-9999;500;509.7;100.0;101.0;0;0.0;29.2;-1.0;
12/02/2025 11:15:55;116;0;159.44;-4;-35.71;10.34;9.9;25.80;77523;2837.400;-1757.858;0;-9999;500;509.7;100.0;101.3;0;0.0;29.2;-1.0;
12/02/2025 11:16:15;116;0;191.23;-4;-65.56;-27.62;9.6;25.80;77385;2837.400;-1757.859;0;-9999;500;509.7;100.0;101.6;0;0.0;29.2;-1.0;
12/02/2025 11:16:35;116;0;174.27;-4;-51.42;-21.83;9.2;25.80;77321;2837.401;-1757.860;0;-9999;500;509.7;100.0;101.5;0;0.0;29.2;-1.0;
12/02/2025 11:16:55;116;0;183.47;-4;-56.97;-11.67;8.9;25.80;77286;2837.402;-1757.861;0;-9999;500;509.7;100.0;101.5;0;0.0;29.2;-1.0;
12/02/2025 11:17:15;116;0;197.39;-4;-55.77;-9.44;8.7;25.80;77276;2837.403;-1757.861;0;-9999;500;509.7;100.0;101.5;0;0.0;29.2;-1.0;
12/02/2025 11:17:35;116;0;195.62;-4;-50.09;-12.23;8.6;25.70;77251;2837.405;-1757.863;0;-9999;500;511.3;100.0;101.5;0;0.0;29.2;-1.0;
12/02/2025 11:17:52;116;0;195.02;-4;-48.92;-23.16;8.5;25.70;77234;2837.405;-1757.865;0;-9999;500;511.3;100.0;101.5;0;0.0;29.2;-1.0;
12/02/2025 11:17:58;116;0;184.22;-4;-49.55;-11.67;8.4;25.70;77235;2837.405;-1757.866;0;-9999;500;511.3;100.0;101.5;0;0.0;29.2;-1.0;
12/02/2025 11:18:18;116;0;199.58;-4;-50.90;-15.38;8.4;25.70;77222;2837.406;-1757.866;0;-9999;500;509.7;100.0;101.5;0;0.0;29.2;-1.0;
12/02/2025 11:18:35;116;0;204.24;-4;-46.03;-23.36;8.3;25.70;77214;2837.406;-1757.867;0;-9999;500;509.7;100.0;101.5;0;0.0;29.2;-1.0;
12/02/2025 11:18:53;116;0;203.53;-4;-55.93;-6.35;8.4;25.60;77204;2837.407;-1757.868;0;-9999;500;511.3;100.0;101.5;0;0.0;29.2;-1.0;
12/02/2025 11:19:13;116;0;202.83;-4;-50.94;-19.57;8.3;25.60;77186;2837.408;-1757.869;0;-9999;500;509.7;100.0;101.5;0;0.0;29.2;-1.0;
12/02/2025 11:19:33;116;0;201.60;-4;-51.11;-11.81;8.4;25.60;77181;2837.410;-1757.870;0;-9999;500;508.1;100.0;101.5;0;0.0;29.2;-1.0;
12/02/2025 11:19:53;116;0;215.56;-4;-51.39;-20.32;8.2;25.50;77171;2837.411;-1757.871;0;-9999;500;509.7;100.0;101.5;0;0.0;29.2;-1.0;
12/02/2025 11:20:07;116;0;196.36;-4;-50.17;-9.90;8.2;25.50;77158;2837.412;-1757.872;0;-9999;500;509.7;100.0;101.5;0;0.0;29.2;-1.0;
12/02/2025 11:20:27;110;0;197.88;-4;-57.68;-15.99;0.0;25.50;77160;2837.412;-1757.872;0;-9999;-500;383.9;100.0;101.5;0;0.0;29.2;-1.0;
12/02/2025 11:20:37;110;0;191.06;-4;-54.82;-13.30;0.2;25.50;77513;2837.412;-1757.872;1;-9999;-500;238.7;100.0;101.5;0;0.0;29.2;-1.0;
12/02/2025 11:20:47;110;0;184.79;-4;-54.68;-8.98;0.3;25.50;77760;2837.412;-1757.872;1;-9999;-500;82.3;100.0;101.5;0;0.0;29.2;-1.0;
12/02/2025 11:20:57;110;0;180.18;-4;-65.73;-11.85;0.9;25.40;78086;2837.411;-1757.872;1;-9999;-500;-77.4;100.0;101.5;0;0.0;29.2;-1.0;
12/02/2025 11:21:07;110;0;174.66;-4;-67.34;-6.10;1.0;25.40;78414;2837.411;-1757.872;1;-9999;-500;-241.9;50.0;49.9;0;0.0;29.2;-1.0;
12/02/2025 11:21:17;110;0;167.46;-4;-48.60;-11.79;2.0;25.40;78781;2837.411;-1757.872;1;-9999;-500;-435.5;50.0;49.6;0;0.0;29.2;-1.0;
12/02/2025 11:21:27;110;0;176.24;-4;-32.14;-10.83;3.9;25.40;79224;2837.409;-1757.871;1;-9999;-500;-501.6;50.0;49.6;0;0.0;29.2;-1.0;
12/02/2025 11:21:37;110;0;182.22;-4;-27.49;-11.00;6.4;25.30;79338;2837.407;-1757.872;1;-9999;-500;-503.2;50.0;49.5;0;0.0;29.2;-1.0;
12/02/2025 11:21:58;100;0;186.78;-4;-25.31;-9.48;12.2;25.30;79319;2837.401;-1757.872;1;-9999;-500;-503.2;50.0;49.5;0;0.0;29.2;-1.0;
12/02/2025 11:22:18;100;0;190.52;-4;-24.60;-9.95;18.6;25.20;79299;2837.394;-1757.874;1;-9999;-500;-503.2;48.6;48.6;0;0.0;29.2;0.0;
12/02/2025 11:22:38;100;0;181.60;-4;-19.57;-10.13;22.3;25.10;79291;2837.389;-1757.874;1;-9999;-500;-503.2;48.6;48.5;0;0.0;29.2;0.0;
12/02/2025 11:22:58;100;0;195.66;-4;-16.11;-9.32;25.1;25.00;79283;2837.385;-1757.875;1;-9999;-500;-503.2;49.8;49.8;0;0.0;29.2;0.0;
12/02/2025 11:23:17;118;0;188.94;-4;-21.99;-5.73;27.3;25.00;79277;2837.383;-1757.876;1;-9999;500;-500.0;34.0;34.0;0;0.0;29.2;0.0;
12/02/2025 11:23:27;118;0;166.49;-4;-5.13;-11.62;28.3;24.90;79249;2837.382;-1757.875;1;-9999;500;-375.8;34.0;33.4;0;0.0;29.0;-1.0;
12/02/2025 11:23:37;118;0;157.65;-4;5.14;-10.89;29.2;24.90;78983;2837.380;-1757.875;1;-9999;500;-258.1;34.0;34.0;0;0.0;29.0;-1.0;
12/02/2025 11:23:47;118;0;152.63;-4;2.28;-10.04;29.8;24.80;78695;2837.380;-1757.875;1;-9999;500;-133.9;34.0;34.3;0;0.0;29.0;-1.0;
12/02/2025 11:23:57;118;0;154.12;-4;-0.21;-12.07;30.5;24.80;78436;2837.380;-1757.875;1;-9999;500;-14.5;34.0;34.2;0;0.0;29.0;-1.0;
12/02/2025 11:24:07;118;0;163.53;-4;-0.14;-10.95;30.9;24.80;78180;2837.380;-1757.874;1;-9999;500;106.5;34.0;34.3;0;0.0;29.0;-1.0;
12/02/2025 11:24:17;118;0;173.19;-4;-1.43;-12.66;31.0;24.70;77917;2837.380;-1757.874;1;-9999;500;229.0;34.0;34.5;0;0.0;29.0;-1.0;
12/02/2025 11:24:27;118;0;176.79;-4;-1.47;-10.28;30.6;24.70;77656;2837.379;-1757.874;1;-9999;500;350.0;34.0;34.3;0;0.0;29.0;-1.0;
12/02/2025 11:24:37;118;0;169.75;-4;1.38;-13.05;30.0;24.60;77398;2837.379;-1757.874;1;-9999;500;459.7;34.0;34.3;0;0.0;29.0;-1.0;
12/02/2025 11:24:47;118;0;155.06;-4;-5.25;-12.87;29.3;24.60;77147;2837.378;-1757.874;1;-9999;500;504.8;34.0;34.3;0;0.0;29.0;-1.0;
12/02/2025 11:24:57;118;0;149.80;-4;-4.05;-12.48;28.1;24.60;77037;2837.377;-1757.873;1;-9999;500;504.8;34.0;34.6;0;0.0;29.2;-1.0;
12/02/2025 11:25:17;117;0;180.62;-4;-16.36;-13.30;25.9;24.50;77031;2837.374;-1757.873;1;-9999;500;508.1;34.0;35.1;0;0.0;29.2;-1.0;
12/02/2025 11:25:37;117;0;235.54;-4;2.83;-12.90;23.9;24.40;77046;2837.373;-1757.875;1;-9999;500;508.1;28.8;28.7;0;0.0;29.2;-1.0;
12/02/2025 11:25:57;117;0;236.27;-4;2.32;-13.51;21.9;24.40;77026;2837.373;-1757.876;1;-9999;500;509.7;23.5;23.6;0;0.0;29.2;-1.0;
12/02/2025 11:26:17;117;0;230.22;-4;9.89;-13.06;19.9;24.30;77028;2837.371;-1757.879;1;-9999;500;506.5;20.5;20.5;0;0.0;29.2;-1.0;
12/02/2025 11:26:37;117;0;231.10;-4;5.16;-12.81;17.7;24.20;77033;2837.369;-1757.881;1;-9999;500;509.7;16.1;16.1;0;0.0;29.2;-1.0;
12/02/2025 11:26:57;117;0;232.71;-4;18.73;-12.27;15.8;24.10;77030;2837.367;-1757.884;1;-9999;500;509.7;15.7;15.8;0;0.0;29.2;-1.0;
12/02/2025 11:27:17;117;0;221.68;-4;26.16;-10.72;12.4;24.00;77026;2837.365;-1757.886;1;-9999;500;509.7;17.5;17.5;0;0.0;29.2;-1.0;
12/02/2025 11:27:37;117;0;210.00;-4;25.65;-11.41;8.1;23.90;77026;2837.361;-1757.889;1;-9999;500;508.1;19.2;19.3;0;0.0;29.2;-1.0;
12/02/2025 11:27:57;117;0;196.63;-4;22.84;-11.19;4.1;23.90;77019;2837.357;-1757.890;1;-9999;500;509.7;20.1;20.2;0;0.0;29.2;-1.0;
12/02/2025 11:28:05;115;0;192.98;-4;21.78;-11.63;2.8;23.80;77015;2837.355;-1757.891;1;-9999;500;511.3;100.0;68.2;0;0.0;29.2;-1.0;
12/02/2025 11:28:15;115;0;188.18;-4;3.79;-11.73;1.5;23.80;77015;2837.354;-1757.891;1;-9999;500;509.7;100.0;100.1;0;0.0;29.2;-1.0;
12/02/2025 11:28:25;115;0;199.83;-4;-70.94;-24.43;0.8;23.80;77014;2837.353;-1757.891;1;-9999;500;509.7;100.0;100.7;0;0.0;29.2;-1.0;
12/02/2025 11:28:45;119;0;190.62;-4;-56.67;-8.79;-0.1;23.80;77019;2837.353;-1757.891;1;-9999;500;511.3;100.0;100.6;0;0.0;29.2;-1.0;
12/02/2025 11:28:55;119;0;211.55;-4;-49.10;-6.18;0.0;23.70;77022;2837.409;-1757.894;0;-9999;500;509.7;100.0;100.6;0;0.0;29.2;-1.0;
