Timestamp;NavState;SecurityLevel;Heading;Declination;Pitch;Roll;Depth;Temperature;Pa;Lat;Lon;DeadReckoning;DesiredH;BallastCmd;BallastPos;LinCmd;LinPos;AngCmd;AngPos;Voltage;Altitude;
19/02/2025 17:26:07;119;0;282.05;-4;-53.34;-12.59;-0.0;17.30;75673;2839.109;-1759.627;0;164;500;509.7;100.0;100.6;0;0.5;27.7;-1.0;
19/02/2025 17:26:17;116;0;280.31;-4;-60.53;-20.75;-0.0;17.30;75663;2839.106;-1759.628;0;164;500;509.7;100.0;100.6;0;0.5;27.7;-1.0;
19/02/2025 17:26:50;116;0;300.22;-4;-56.61;-5.38;-0.2;17.40;75684;2839.105;-1759.626;0;164;500;509.7;100.0;100.6;0;0.5;27.7;-1.0;
19/02/2025 17:27:08;116;0;291.34;-4;-48.40;-12.45;-0.1;17.40;75689;2839.105;-1759.626;0;-9999;500;509.7;100.0;100.6;0;0.5;27.6;-1.0;
19/02/2025 17:27:26;116;0;293.86;-4;-55.48;-14.98;-0.0;17.50;75693;2839.106;-1759.626;0;164;500;509.7;100.0;100.6;0;0.5;27.7;-1.0;
19/02/2025 17:28:28;116;0;306.26;-4;-53.49;-17.03;-0.1;17.60;75707;2839.104;-1759.621;0;164;500;509.7;100.0;100.6;0;0.5;27.7;-1.0;
19/02/2025 17:29:58;116;0;250.78;-4;-57.75;-25.99;-0.0;18.00;75751;2839.104;-1759.617;0;165;500;509.7;100.0;100.6;0;0.5;27.7;-1.0;
19/02/2025 17:30:09;116;0;260.82;-4;-50.88;-4.04;-0.1;18.10;75759;2839.104;-1759.616;0;-9999;500;509.7;100.0;100.6;0;0.5;27.5;-1.0;
19/02/2025 17:30:25;116;0;270.88;-4;-53.88;-8.66;0.1;18.20;75772;2839.103;-1759.615;0;165;500;509.7;100.0;100.6;0;0.5;27.7;-1.0;
19/02/2025 17:31:28;116;0;305.19;-4;-50.37;-9.98;-0.1;18.40;75781;2839.103;-1759.614;0;165;500;511.3;100.0;100.6;0;0.5;27.5;-1.0;
19/02/2025 17:33:22;116;0;304.87;-4;-54.14;-23.64;-0.1;18.90;75829;2839.104;-1759.608;0;166;500;508.1;100.0;100.6;0;0.5;27.7;-1.0;
19/02/2025 17:33:33;116;0;310.43;-4;-56.33;-9.29;-0.2;18.90;75833;2839.104;-1759.606;0;166;500;509.7;100.0;100.6;0;0.5;27.7;-1.0;
19/02/2025 17:33:53;110;0;288.30;-4;-59.81;-10.39;0.0;19.00;75840;2839.104;-1759.606;0;167;-50;396.8;100.0;100.6;-9;-9.0;27.6;-1.0;
19/02/2025 17:34:03;110;0;276.57;-4;-47.59;-8.77;-0.1;19.10;76175;2839.104;-1759.606;1;167;-50;250.0;100.0;100.6;-9;-9.5;27.6;-1.0;
19/02/2025 17:34:13;110;0;281.97;-4;-58.03;-22.40;0.5;19.10;76417;2839.104;-1759.607;1;166;-50;87.1;100.0;100.6;-9;-9.5;27.6;-1.0;
19/02/2025 17:34:23;110;0;287.86;-4;-63.14;-19.28;1.2;19.20;76749;2839.104;-1759.607;1;166;-50;-50.0;100.0;100.6;-9;-9.5;27.6;-1.0;
19/02/2025 17:34:33;110;0;291.51;-4;-60.83;-6.99;1.6;19.20;77032;2839.104;-1759.607;1;166;-50;-50.0;50.0;49.9;-9;-9.0;27.7;-1.0;
19/02/2025 17:34:53;100;0;303.79;-4;-37.41;-17.88;4.7;19.30;76999;2839.105;-1759.609;1;166;-50;-48.4;50.0;49.6;-9;-9.5;27.7;-1.0;
19/02/2025 17:35:13;100;0;310.47;-4;-32.90;-16.12;8.6;19.30;77011;2839.108;-1759.612;1;166;-50;-48.4;49.1;49.0;70;69.9;27.7;-1.0;
19/02/2025 17:35:33;100;0;305.60;-4;-38.11;23.21;12.5;19.30;77012;2839.109;-1759.614;1;166;-50;-46.8;46.7;46.7;70;70.4;27.7;-1.0;
19/02/2025 17:35:53;100;0;300.83;-4;-34.12;23.91;16.4;19.30;77022;2839.111;-1759.617;1;165;-50;-46.8;45.5;45.5;70;70.4;27.7;0.0;
19/02/2025 17:36:13;100;0;288.88;-4;-30.48;23.61;20.1;19.40;77027;2839.112;-1759.621;1;165;-50;-46.8;45.5;45.4;70;70.4;27.7;0.0;
19/02/2025 17:36:33;100;0;276.47;-4;-31.66;23.85;23.8;19.40;77033;2839.112;-1759.624;1;165;-50;-50.0;45.5;45.4;70;70.4;27.6;0.0;
19/02/2025 17:36:53;100;0;267.94;-4;-31.59;23.13;27.3;19.40;77030;2839.112;-1759.628;1;164;-50;-48.4;45.5;45.4;70;70.4;27.7;0.0;
19/02/2025 17:37:13;100;0;260.38;-4;-30.81;23.60;31.0;19.40;77029;2839.112;-1759.631;1;164;-50;-48.4;45.5;45.4;70;70.4;27.7;0.0;
19/02/2025 17:37:33;100;0;253.91;-4;-31.43;23.63;34.6;19.40;77034;2839.111;-1759.635;1;164;-50;-48.4;45.5;45.4;70;70.4;27.7;0.0;
19/02/2025 17:37:53;100;0;244.51;-4;-31.21;23.65;38.4;19.40;77049;2839.110;-1759.638;1;163;-50;-48.4;45.5;45.4;70;70.4;27.7;0.0;
19/02/2025 17:38:13;100;0;236.68;-4;-30.23;23.80;42.0;19.40;77043;2839.108;-1759.641;1;163;-50;-48.4;45.5;45.4;70;70.4;27.7;0.0;
19/02/2025 17:38:33;100;0;228.30;-4;-30.80;23.43;45.6;19.40;77051;2839.106;-1759.644;1;162;-50;-46.8;45.5;45.4;70;70.4;27.7;0.0;
19/02/2025 17:38:53;100;0;219.39;-4;-30.75;23.49;49.2;19.40;77054;2839.104;-1759.646;1;162;-50;-48.4;45.5;45.4;70;70.4;27.7;0.0;
19/02/2025 17:39:13;100;0;207.67;-4;-30.56;23.70;52.7;19.40;77051;2839.101;-1759.647;1;162;-50;-50.0;45.5;45.4;67;66.3;27.7;0.0;
19/02/2025 17:39:33;100;0;197.41;-4;-29.83;21.12;56.3;19.40;77051;2839.098;-1759.649;1;162;-50;-48.4;45.5;45.4;54;54.2;27.7;0.0;
19/02/2025 17:39:53;100;0;186.66;-4;-28.72;14.88;59.7;19.40;77066;2839.095;-1759.649;1;161;-50;-51.6;45.8;46.2;39;38.8;27.7;0.0;
19/02/2025 17:40:13;100;0;178.56;-4;-28.13;7.18;63.1;19.40;77060;2839.092;-1759.649;1;161;-50;-48.4;46.4;46.5;25;24.8;27.7;0.0;
19/02/2025 17:40:33;100;0;177.15;-4;-28.55;0.43;66.4;19.40;77059;2839.089;-1759.649;1;161;-50;-48.4;46.8;47.0;23;23.0;27.7;0.0;
19/02/2025 17:40:53;100;0;173.20;-4;-29.11;-0.33;69.9;19.40;77070;2839.086;-1759.648;1;161;-50;-46.8;46.8;47.1;18;18.1;27.7;0.0;
19/02/2025 17:41:13;100;0;168.23;-4;-29.01;-3.02;73.3;19.40;77070;2839.083;-1759.648;1;161;-50;-46.8;46.8;47.1;14;14.0;27.7;0.0;
19/02/2025 17:41:33;100;0;166.79;-4;-28.73;-4.90;76.7;19.40;77070;2839.080;-1759.647;1;161;-50;-50.0;47.2;47.3;14;13.5;27.6;0.0;
19/02/2025 17:41:53;100;0;167.49;-4;-29.09;-4.85;80.0;19.40;77069;2839.077;-1759.646;1;161;-50;-45.2;47.2;47.4;14;13.5;27.7;0.0;
19/02/2025 17:42:13;100;0;164.22;-4;-29.26;-4.89;83.4;19.40;77077;2839.074;-1759.645;1;161;-50;-48.4;47.2;47.4;14;14.0;27.7;0.0;
19/02/2025 17:42:33;100;0;164.95;-4;-29.35;-4.90;86.8;19.40;77061;2839.072;-1759.644;1;161;-50;-48.4;47.2;47.6;14;13.5;27.7;0.0;
19/02/2025 17:42:53;100;0;163.13;-4;-29.27;-4.95;90.4;19.40;77064;2839.068;-1759.643;1;161;-50;-48.4;47.2;47.4;14;13.5;27.7;0.0;
19/02/2025 17:43:13;100;0;161.72;-4;-29.12;-4.92;93.9;19.40;77070;2839.065;-1759.642;1;161;-50;-48.4;47.2;47.3;14;13.5;27.7;0.0;
19/02/2025 17:43:33;100;0;163.75;-4;-29.60;-4.85;97.4;19.40;77071;2839.063;-1759.641;1;161;-50;-46.8;47.2;47.4;14;13.5;27.6;0.0;
19/02/2025 17:43:53;100;0;160.64;-4;-28.73;-4.92;101.0;19.40;77064;2839.060;-1759.640;1;161;-50;-48.4;47.6;47.6;14;13.5;27.7;0.0;
19/02/2025 17:44:13;100;0;157.19;-4;-29.74;-4.81;104.5;19.40;77049;2839.057;-1759.638;1;161;-50;-48.4;47.6;47.9;14;13.5;27.7;0.0;
19/02/2025 17:44:33;100;0;156.85;-4;-29.66;-4.97;108.1;19.40;77044;2839.054;-1759.637;1;161;-50;-48.4;47.6;47.9;14;13.5;27.7;0.0;
19/02/2025 17:44:53;100;0;158.31;-4;-29.93;-4.94;111.7;19.40;77039;2839.051;-1759.636;1;161;-50;-46.8;47.6;47.9;14;13.5;27.7;0.0;
19/02/2025 17:45:13;100;0;164.81;-4;-30.32;-4.74;115.2;19.40;77017;2839.048;-1759.635;1;161;-50;-48.4;47.6;47.9;14;13.5;27.7;0.0;
19/02/2025 17:45:33;100;0;161.75;-4;-30.05;-4.79;118.9;19.40;77002;2839.045;-1759.634;1;161;-50;-46.8;47.6;47.9;14;13.5;27.7;0.0;
19/02/2025 17:45:53;100;0;153.38;-4;-28.43;-5.28;122.2;19.40;76989;2839.042;-1759.632;1;161;-50;-46.8;48.1;48.5;11;10.8;27.7;0.0;
19/02/2025 17:46:13;100;0;154.56;-4;-30.01;-6.59;125.4;19.30;76981;2839.040;-1759.631;1;161;-50;-46.8;48.1;48.5;11;10.4;27.7;0.0;
19/02/2025 17:46:33;100;0;150.03;-4;-30.37;-6.87;128.7;19.30;76976;2839.038;-1759.629;1;161;-50;-46.8;48.1;48.5;9;9.0;27.7;0.0;
19/02/2025 17:46:53;100;0;151.46;-4;-30.79;-7.30;132.2;19.30;76953;2839.035;-1759.627;1;161;-50;-46.8;48.1;48.5;9;8.6;27.7;0.0;
19/02/2025 17:47:13;100;0;149.42;-4;-30.45;-7.33;135.8;19.30;76956;2839.032;-1759.626;1;161;-50;-48.4;48.1;48.3;9;8.6;27.7;0.0;
19/02/2025 17:47:33;100;0;148.77;-4;-30.25;-7.34;139.6;19.20;76929;2839.030;-1759.624;1;161;-50;-48.4;48.1;48.5;7;7.2;27.7;0.0;
19/02/2025 17:47:53;100;0;146.55;-4;-29.28;-8.28;143.1;19.20;76924;2839.027;-1759.622;1;162;-50;-46.8;48.1;48.3;3;3.2;27.7;0.0;
19/02/2025 17:48:13;100;0;150.64;-4;-29.07;-10.40;146.5;19.20;76906;2839.024;-1759.620;1;162;-50;-46.8;48.1;48.5;8;8.1;27.7;0.0;
19/02/2025 17:48:33;100;0;149.58;-4;-29.56;-7.41;149.8;19.20;76876;2839.022;-1759.618;1;162;-50;-46.8;48.1;48.3;8;8.6;27.7;0.0;
19/02/2025 17:48:53;100;0;144.45;-4;-29.81;-7.51;153.1;19.10;76844;2839.020;-1759.616;1;162;-50;-48.4;48.1;48.5;0;0.0;27.6;0.0;
19/02/2025 17:49:13;100;0;144.59;-4;-29.61;-11.84;156.3;19.10;76837;2839.017;-1759.614;1;162;-50;-48.4;48.1;48.5;0;-0.5;27.6;0.0;
19/02/2025 17:49:33;100;0;151.47;-4;-29.81;-11.95;159.7;19.00;76819;2839.015;-1759.613;1;162;-50;-48.4;48.1;48.3;9;9.0;27.7;0.0;
19/02/2025 17:49:53;100;0;155.25;-4;-29.52;-6.93;162.9;19.00;76798;2839.012;-1759.612;1;162;-50;-48.4;48.1;48.5;11;10.8;27.7;0.0;
19/02/2025 17:50:13;100;0;158.70;-4;-29.99;-6.30;166.1;19.00;76791;2839.010;-1759.610;1;162;-50;-46.8;48.1;48.5;11;11.3;27.7;0.0;
19/02/2025 17:50:33;100;0;163.30;-4;-29.80;-5.90;169.3;18.90;76788;2839.007;-1759.609;1;162;-50;-46.8;48.1;48.5;11;10.8;27.7;0.0;
19/02/2025 17:50:53;100;0;166.65;-4;-29.87;-6.07;172.3;18.90;76778;2839.005;-1759.609;1;162;-50;-48.4;48.1;48.5;13;13.1;27.7;0.0;
19/02/2025 17:51:13;100;0;174.29;-4;-30.03;-4.92;175.4;18.90;76774;2839.002;-1759.608;1;162;-50;-48.4;48.1;48.3;18;18.1;27.7;0.0;
19/02/2025 17:51:33;100;0;178.67;-4;-30.67;-2.68;178.5;18.80;76759;2838.999;-1759.608;1;162;-50;-46.8;48.1;48.3;24;23.9;27.6;0.0;
19/02/2025 17:51:53;100;0;179.63;-4;-30.76;0.63;181.9;18.80;76760;2838.997;-1759.608;1;162;-50;-48.4;48.1;48.5;24;24.4;27.7;0.0;
19/02/2025 17:52:13;100;0;178.67;-4;-31.40;0.44;185.4;18.70;76740;2838.994;-1759.608;1;162;-50;-48.4;48.1;48.5;24;24.4;27.7;0.0;
19/02/2025 17:52:33;100;0;170.99;-4;-29.99;0.64;188.8;18.70;76733;2838.991;-1759.608;1;162;-50;-48.4;48.1;48.5;15;14.4;27.6;0.0;
19/02/2025 17:52:53;100;0;163.10;-4;-29.91;-4.67;192.1;18.70;76720;2838.988;-1759.607;1;162;-50;-48.4;48.1;48.3;13;12.6;27.7;0.0;
19/02/2025 17:53:13;100;0;160.63;-4;-30.12;-5.50;195.2;18.60;76703;2838.986;-1759.606;1;162;-50;-46.8;48.1;48.5;13;12.6;27.6;0.0;
19/02/2025 17:53:33;100;0;160.03;-4;-30.09;-5.52;198.3;18.60;76708;2838.983;-1759.605;1;162;-50;-48.4;48.1;48.5;13;12.6;27.7;0.0;
19/02/2025 17:53:37;118;0;161.33;-4;-30.24;-5.49;199.0;18.60;76705;2838.983;-1759.605;1;162;150;-41.9;34.0;34.0;9;8.6;27.7;0.0;
19/02/2025 17:53:47;118;0;143.48;-4;-20.73;-8.15;200.1;18.50;76675;2838.981;-1759.604;1;162;150;85.5;34.0;33.9;9;9.0;27.2;-1.0;
19/02/2025 17:53:57;118;0;141.51;-4;-7.64;-7.87;200.8;18.50;76397;2838.981;-1759.603;1;162;150;154.8;34.0;33.7;9;8.6;27.2;-1.0;
19/02/2025 17:54:07;118;0;164.01;-4;-3.82;-8.01;201.0;18.50;76269;2838.980;-1759.603;1;162;150;154.8;34.0;33.7;9;8.6;27.6;-1.0;
19/02/2025 17:54:27;117;0;161.06;-4;-2.54;-8.02;200.6;18.50;76267;2838.980;-1759.603;1;162;150;154.8;34.0;33.6;9;8.6;27.7;-1.0;
19/02/2025 17:54:47;117;0;156.48;-4;-3.36;-8.23;200.0;18.50;76266;2838.980;-1759.602;1;162;150;154.8;24.0;23.9;31;31.6;27.7;-1.0;
19/02/2025 17:55:07;117;0;154.20;-4;26.07;4.71;199.1;18.40;76260;2838.979;-1759.602;1;162;150;156.5;22.8;22.8;31;31.1;27.7;-1.0;
19/02/2025 17:55:27;117;0;151.10;-4;27.42;4.06;197.4;18.40;76250;2838.978;-1759.601;1;162;150;158.1;22.0;21.9;34;33.8;27.7;-1.0;
19/02/2025 17:55:47;117;0;150.85;-4;30.01;5.71;195.2;18.30;76258;2838.976;-1759.600;1;162;150;158.1;22.0;21.9;34;34.3;27.7;-1.0;
19/02/2025 17:56:07;117;0;152.78;-4;29.31;5.66;192.9;18.30;76240;2838.974;-1759.599;1;162;150;158.1;22.0;21.9;32;32.0;27.7;-1.0;
19/02/2025 17:56:27;117;0;152.80;-4;29.17;3.88;190.6;18.20;76246;2838.972;-1759.598;1;162;150;158.1;22.0;21.9;32;31.1;27.7;-1.0;
19/02/2025 17:56:47;117;0;155.20;-4;29.62;3.82;188.1;18.20;76231;2838.971;-1759.597;1;162;150;158.1;22.0;21.8;32;31.1;27.6;-1.0;
19/02/2025 17:57:07;117;0;156.27;-4;29.16;3.81;185.6;18.10;76238;2838.969;-1759.596;1;162;150;158.1;22.0;21.8;32;31.1;27.7;-1.0;
19/02/2025 17:57:27;117;0;158.48;-4;29.32;3.88;183.1;18.10;76249;2838.967;-1759.595;1;162;150;158.1;22.0;21.9;30;29.8;27.7;-1.0;
19/02/2025 17:57:47;117;0;157.32;-4;29.02;2.94;180.8;18.10;76243;2838.965;-1759.594;1;162;150;156.5;22.0;21.8;30;29.8;27.7;-1.0;
19/02/2025 17:58:07;117;0;152.99;-4;29.49;3.09;178.5;18.00;76252;2838.963;-1759.593;1;162;150;158.1;22.0;21.9;32;32.0;27.7;-1.0;
19/02/2025 17:58:27;117;0;145.79;-4;29.53;4.37;176.2;18.00;76244;2838.961;-1759.592;1;162;150;158.1;22.0;21.9;41;41.1;27.7;-1.0;
19/02/2025 17:58:47;117;0;137.54;-4;31.20;9.63;173.9;18.00;76249;2838.960;-1759.590;1;163;150;158.1;22.0;21.9;56;56.0;27.7;-1.0;
19/02/2025 17:59:07;117;0;139.39;-4;30.77;17.58;171.3;18.00;76257;2838.958;-1759.588;1;163;150;158.1;22.0;21.8;53;52.3;27.7;-1.0;
19/02/2025 17:59:27;117;0;143.60;-4;31.68;15.24;168.6;17.90;76255;2838.957;-1759.587;1;163;150;158.1;22.0;21.8;46;46.0;27.6;-1.0;
19/02/2025 17:59:47;117;0;134.26;-4;31.59;11.82;165.9;17.90;76251;2838.955;-1759.585;1;163;150;158.1;22.0;21.8;62;61.8;27.7;-1.0;
19/02/2025 18:00:07;117;0;136.16;-4;30.42;21.20;163.2;17.90;76255;2838.954;-1759.583;1;163;150;158.1;22.0;21.9;59;59.1;27.7;-1.0;
19/02/2025 18:00:27;117;0;140.47;-4;32.07;18.79;160.8;17.90;76256;2838.952;-1759.582;1;164;150;158.1;22.7;22.8;53;52.8;27.6;-1.0;
19/02/2025 18:00:47;117;0;141.10;-4;30.51;15.69;158.3;17.80;76249;2838.950;-1759.580;1;164;150;158.1;22.7;22.8;53;52.8;27.7;-1.0;
19/02/2025 18:01:07;117;0;139.27;-4;30.30;15.73;155.9;17.80;76251;2838.949;-1759.579;1;164;150;156.5;22.7;22.7;55;55.1;27.7;-1.0;
19/02/2025 18:01:27;117;0;138.11;-4;29.90;17.03;153.6;17.80;76257;2838.948;-1759.577;1;164;150;159.7;22.7;22.8;57;56.9;27.7;-1.0;
19/02/2025 18:01:47;117;0;142.58;-4;30.35;18.12;151.3;17.80;76257;2838.946;-1759.576;1;164;150;158.1;22.7;22.8;49;49.2;27.7;-1.0;
19/02/2025 18:02:07;117;0;145.83;-4;30.14;13.72;148.9;17.80;76269;2838.944;-1759.575;1;164;150;158.1;22.7;22.8;44;44.2;27.6;-1.0;
19/02/2025 18:02:27;117;0;147.88;-4;29.02;10.52;146.6;17.70;76271;2838.943;-1759.573;1;165;150;159.7;22.7;22.8;42;42.0;27.6;-1.0;
19/02/2025 18:02:47;117;0;150.66;-4;29.24;9.27;144.3;17.70;76283;2838.941;-1759.572;1;165;150;158.1;22.7;22.8;38;37.5;27.7;-1.0;
19/02/2025 18:03:08;117;0;149.42;-4;28.62;7.18;141.9;17.70;76303;2838.939;-1759.571;1;165;150;158.1;22.2;22.1;40;40.2;27.7;-1.0;
19/02/2025 18:03:28;117;0;146.22;-4;29.93;9.08;139.6;17.70;76310;2838.937;-1759.570;1;165;150;158.1;22.2;22.1;45;45.6;27.6;-1.0;
19/02/2025 18:03:48;117;0;151.47;-4;30.72;11.82;137.2;17.70;76319;2838.936;-1759.568;1;165;150;158.1;22.2;22.1;37;37.0;27.7;-1.0;
19/02/2025 18:04:08;117;0;151.77;-4;29.29;6.73;134.7;17.70;76351;2838.934;-1759.567;1;165;150;158.1;22.2;22.1;37;36.6;27.7;-1.0;
19/02/2025 18:04:28;117;0;151.37;-4;29.10;6.70;132.5;17.70;76350;2838.932;-1759.566;1;165;150;159.7;22.2;22.1;37;36.6;27.7;-1.0;
19/02/2025 18:04:48;117;0;156.53;-4;28.99;6.72;130.3;17.70;76358;2838.930;-1759.565;1;165;150;158.1;21.9;21.6;33;32.9;27.7;-1.0;
19/02/2025 18:05:08;117;0;157.66;-4;30.29;4.65;128.0;17.70;76384;2838.929;-1759.564;1;165;150;158.1;21.9;21.6;33;32.5;27.7;-1.0;
19/02/2025 18:05:28;117;0;158.30;-4;29.88;4.33;125.7;17.70;76393;2838.927;-1759.563;1;165;150;158.1;21.9;21.6;33;32.5;27.6;-1.0;
19/02/2025 18:05:48;117;0;153.46;-4;30.50;4.48;123.5;17.70;76392;2838.925;-1759.563;1;166;150;159.7;21.9;21.6;36;36.1;27.7;-1.0;
19/02/2025 18:06:08;117;0;162.26;-4;30.97;6.58;121.1;17.70;76415;2838.923;-1759.562;1;166;150;158.1;21.9;21.6;31;31.1;27.7;-1.0;
19/02/2025 18:06:28;117;0;162.81;-4;29.59;3.33;118.6;17.80;76420;2838.921;-1759.561;1;166;150;158.1;21.9;21.6;31;30.7;27.7;-1.0;
19/02/2025 18:06:48;117;0;168.93;-4;29.53;3.39;116.1;17.80;76430;2838.919;-1759.561;1;166;150;156.5;21.9;21.6;31;30.2;27.7;-1.0;
19/02/2025 18:07:08;117;0;169.12;-4;29.54;3.39;113.9;17.80;76439;2838.917;-1759.560;1;166;150;158.1;21.9;21.6;31;30.7;27.7;-1.0;
19/02/2025 18:07:28;117;0;167.55;-4;29.72;3.37;111.6;17.80;76450;2838.915;-1759.560;1;166;150;158.1;21.9;21.6;31;30.7;27.7;-1.0;
19/02/2025 18:07:48;117;0;159.17;-4;28.66;3.57;109.4;17.80;76469;2838.914;-1759.559;1;166;150;158.1;21.5;21.5;31;30.7;27.7;-1.0;
19/02/2025 18:08:08;117;0;155.44;-4;31.51;3.47;107.2;17.80;76483;2838.912;-1759.558;1;166;150;159.7;21.5;21.2;34;33.8;27.7;-1.0;
19/02/2025 18:08:28;117;0;149.59;-4;29.85;5.80;104.9;17.80;76493;2838.910;-1759.557;1;166;150;158.1;21.5;21.2;42;42.0;27.7;-1.0;
19/02/2025 18:08:48;117;0;150.52;-4;32.23;10.40;102.6;17.90;76515;2838.909;-1759.556;1;166;150;158.1;22.2;22.2;40;39.7;27.7;-1.0;
19/02/2025 18:09:08;117;0;151.33;-4;29.05;8.44;100.3;17.90;76523;2838.907;-1759.555;1;166;150;158.1;22.2;22.4;40;39.7;27.7;-1.0;
19/02/2025 18:09:28;117;0;152.71;-4;28.93;8.49;98.1;17.90;76523;2838.905;-1759.554;1;166;150;159.7;21.9;21.9;37;37.0;27.7;-1.0;
19/02/2025 18:09:48;117;0;150.68;-4;30.54;6.87;95.7;17.90;76531;2838.904;-1759.553;1;166;150;158.1;21.9;21.6;40;40.2;27.7;-1.0;
19/02/2025 18:10:08;117;0;143.10;-4;30.42;9.18;93.3;17.90;76544;2838.902;-1759.551;1;167;150;158.1;21.9;21.6;54;54.2;27.7;-1.0;
19/02/2025 18:10:28;117;0;146.95;-4;30.44;16.77;90.9;17.90;76563;2838.900;-1759.550;1;167;150;158.1;21.9;21.6;48;47.8;27.7;-1.0;
19/02/2025 18:10:48;117;0;146.44;-4;30.92;12.55;88.4;18.00;76571;2838.899;-1759.549;1;167;150;158.1;21.9;21.6;48;46.9;27.7;-1.0;
19/02/2025 18:11:08;117;0;149.47;-4;30.86;12.48;86.1;18.00;76581;2838.897;-1759.547;1;167;150;158.1;21.9;21.6;44;44.2;27.7;-1.0;
19/02/2025 18:11:28;117;0;151.39;-4;30.51;10.59;83.7;18.00;76597;2838.895;-1759.546;1;167;150;158.1;21.9;21.6;41;41.1;27.7;-1.0;
19/02/2025 18:11:48;117;0;151.73;-4;30.02;9.01;81.3;18.00;76599;2838.894;-1759.545;1;167;150;158.1;21.9;21.6;41;40.6;27.7;-1.0;
19/02/2025 18:12:08;117;0;150.18;-4;30.40;8.96;79.0;18.00;76604;2838.892;-1759.544;1;167;150;159.7;21.9;21.6;43;42.9;27.7;-1.0;
19/02/2025 18:12:28;117;0;148.51;-4;30.46;10.39;76.6;18.10;76621;2838.890;-1759.543;1;168;150;158.1;21.9;21.6;47;46.9;27.7;-1.0;
19/02/2025 18:12:48;117;0;151.97;-4;30.50;12.58;74.2;18.10;76620;2838.888;-1759.542;1;168;150;158.1;21.9;21.6;42;42.0;27.6;-1.0;
19/02/2025 18:13:08;117;0;154.28;-4;30.33;9.35;71.8;18.10;76630;2838.887;-1759.541;1;168;150;158.1;21.9;21.6;38;37.9;27.7;-1.0;
19/02/2025 18:13:28;117;0;153.65;-4;30.06;6.99;69.4;18.20;76629;2838.885;-1759.540;1;168;150;158.1;21.9;21.8;38;37.0;27.7;-1.0;
19/02/2025 18:13:48;117;0;151.44;-4;29.98;7.15;67.1;18.20;76639;2838.883;-1759.539;1;168;150;158.1;21.9;21.6;42;42.0;27.6;-1.0;
19/02/2025 18:14:08;117;0;150.83;-4;30.69;9.68;64.7;18.20;76644;2838.881;-1759.537;1;168;150;158.1;21.9;21.6;42;42.0;27.7;-1.0;
19/02/2025 18:14:28;117;0;152.79;-4;30.37;9.74;62.4;18.20;76656;2838.880;-1759.536;1;169;150;158.1;21.9;21.6;42;42.0;27.7;-1.0;
19/02/2025 18:14:48;117;0;154.83;-4;30.30;9.72;59.9;18.30;76669;2838.878;-1759.535;1;169;150;159.7;21.9;21.6;39;38.8;27.7;-1.0;
19/02/2025 18:15:08;117;0;153.50;-4;30.01;7.46;57.5;18.30;76671;2838.876;-1759.534;1;169;150;154.8;21.9;21.6;41;41.1;27.7;-1.0;
19/02/2025 18:15:28;117;0;155.66;-4;30.25;9.48;55.1;18.30;76667;2838.874;-1759.533;1;169;150;159.7;21.9;21.6;38;37.9;27.7;-1.0;
19/02/2025 18:15:48;117;0;156.53;-4;29.98;7.11;52.8;18.30;76690;2838.872;-1759.532;1;169;150;159.7;21.9;21.6;38;37.5;27.6;-1.0;
19/02/2025 18:16:08;117;0;158.17;-4;29.38;7.13;50.5;18.40;76684;2838.870;-1759.531;1;169;150;158.1;21.9;21.6;35;34.7;27.6;-1.0;
19/02/2025 18:16:28;117;0;159.47;-4;29.44;5.47;48.1;18.40;76695;2838.868;-1759.531;1;169;150;158.1;21.9;21.6;35;34.3;27.7;-1.0;
19/02/2025 18:16:48;117;0;158.72;-4;30.27;5.53;45.9;18.40;76705;2838.867;-1759.530;1;170;150;159.7;21.9;21.6;35;34.3;27.7;-1.0;
19/02/2025 18:17:08;117;0;157.15;-4;29.25;5.58;43.6;18.40;76704;2838.865;-1759.529;1;170;150;159.7;21.9;21.6;38;37.9;27.7;-1.0;
19/02/2025 18:17:28;117;0;156.68;-4;30.50;7.65;41.4;18.50;76714;2838.863;-1759.528;1;170;150;158.1;21.9;21.6;38;38.4;27.7;-1.0;
19/02/2025 18:17:48;117;0;157.04;-4;29.56;7.70;39.2;18.50;76716;2838.861;-1759.527;1;170;150;159.7;21.9;21.6;38;38.4;27.7;-1.0;
19/02/2025 18:18:08;117;0;157.99;-4;30.50;7.76;37.0;18.50;76720;2838.860;-1759.526;1;170;150;156.5;21.9;21.6;38;37.9;27.7;-1.0;
19/02/2025 18:18:28;117;0;156.35;-4;29.85;7.63;34.8;18.50;76724;2838.858;-1759.526;1;170;150;158.1;21.9;21.6;38;38.4;27.7;-1.0;
19/02/2025 18:18:48;117;0;155.33;-4;29.43;7.74;32.6;18.50;76732;2838.856;-1759.525;1;170;150;159.7;21.9;21.5;40;40.2;27.7;-1.0;
19/02/2025 18:19:08;117;0;155.12;-4;30.37;9.24;30.3;18.50;76728;2838.855;-1759.524;1;171;150;158.1;21.9;21.6;42;42.4;27.6;-1.0;
19/02/2025 18:19:28;117;0;155.83;-4;30.61;10.29;28.1;18.60;76738;2838.853;-1759.523;1;171;150;158.1;21.9;21.6;42;42.9;27.7;-1.0;
19/02/2025 18:19:48;117;0;158.61;-4;29.70;10.25;26.0;18.60;76749;2838.851;-1759.522;1;171;150;159.7;21.9;21.6;37;37.0;27.7;-1.0;
19/02/2025 18:20:08;117;0;160.91;-4;30.37;7.04;23.8;18.60;76742;2838.850;-1759.521;1;171;150;158.1;21.9;21.6;35;35.2;27.7;-1.0;
19/02/2025 18:20:28;117;0;162.36;-4;29.93;5.65;21.7;18.70;76749;2838.848;-1759.521;1;171;150;159.7;21.9;21.6;35;34.7;27.7;-1.0;
19/02/2025 18:20:48;117;0;162.46;-4;29.90;5.54;19.6;18.70;76771;2838.846;-1759.520;1;171;150;158.1;21.9;21.6;35;34.7;27.7;-1.0;
19/02/2025 18:21:08;117;0;161.50;-4;30.29;5.68;17.4;18.70;76771;2838.844;-1759.519;1;171;150;158.1;21.9;21.6;35;34.3;27.7;-1.0;
19/02/2025 18:21:28;117;0;161.19;-4;29.65;5.69;15.3;18.70;76761;2838.843;-1759.519;1;171;150;158.1;21.9;21.6;35;34.3;27.7;-1.0;
19/02/2025 18:21:48;117;0;161.55;-4;28.92;5.32;13.0;18.70;76772;2838.841;-1759.518;1;172;150;158.1;21.6;21.5;35;34.7;27.7;-1.0;
19/02/2025 18:22:08;117;0;161.69;-4;29.05;5.57;10.9;18.80;76776;2838.839;-1759.517;1;172;150;158.1;21.6;21.2;35;34.3;27.7;-1.0;
19/02/2025 18:22:28;117;0;162.98;-4;28.73;5.71;8.8;18.80;76783;2838.837;-1759.517;1;172;150;159.7;21.2;21.2;35;34.7;27.7;-1.0;
19/02/2025 18:22:48;117;0;163.25;-4;29.09;5.69;6.8;18.80;76796;2838.836;-1759.516;1;172;170;175.8;21.2;21.2;35;34.3;27.7;-1.0;
19/02/2025 18:23:08;117;0;164.05;-4;29.15;5.69;4.7;18.80;76766;2838.834;-1759.515;1;172;170;175.8;21.2;21.2;35;34.7;27.6;-1.0;
19/02/2025 18:23:23;115;0;164.97;-4;29.82;6.25;3.0;18.90;76774;2838.833;-1759.515;1;172;500;182.3;100.0;63.2;0;-0.5;27.7;-1.0;
19/02/2025 18:23:33;115;0;148.28;-4;9.41;-12.38;2.1;18.90;76738;2838.831;-1759.514;1;172;500;300.0;100.0;100.0;0;-0.5;27.4;-1.0;
19/02/2025 18:23:43;115;0;151.23;-4;-62.50;-8.22;2.6;18.90;76478;2838.831;-1759.514;1;172;500;422.6;100.0;100.4;0;-0.5;27.4;-1.0;
19/02/2025 18:23:53;115;0;123.91;-4;-74.53;-2.66;2.1;18.90;76221;2838.831;-1759.514;1;172;500;509.7;100.0;100.4;0;-0.5;27.4;-1.0;
19/02/2025 18:24:03;115;0;136.55;-4;-28.72;-1.99;-0.2;18.90;76049;2838.829;-1759.512;1;173;500;509.7;100.0;100.4;0;-0.5;27.6;-1.0;
19/02/2025 18:24:23;119;0;156.62;-4;-57.06;-11.33;0.1;19.00;76064;2838.829;-1759.512;1;173;500;509.7;100.0;100.4;0;-0.5;27.7;-1.0;
19/02/2025 18:24:33;119;0;138.57;-4;-60.60;-3.34;-0.1;19.00;76066;2838.956;-1759.555;0;173;500;509.7;100.0;100.4;0;-0.9;27.6;-1.0;
19/02/2025 18:24:43;119;0;149.80;-4;-55.03;-25.09;0.1;19.00;76054;2838.956;-1759.555;0;168;500;509.7;100.0;100.4;0;-0.5;27.7;-1.0;
