Timestamp;NavState;SecurityLevel;Heading;Declination;Pitch;Roll;Depth;Temperature;Pa;Lat;Lon;DeadReckoning;DesiredH;BallastCmd;BallastPos;LinCmd;LinPos;AngCmd;AngPos;Voltage;Altitude;
17/02/2025 17:19:45;119;0;81.08;-4;-64.81;-30.26;-0.1;18.70;76082;2837.524;-1758.642;0;152;500;509.7;100.0;100.6;0;-0.5;28.1;-1.0;
17/02/2025 17:19:55;116;0;60.65;-4;-60.17;-18.04;-0.1;18.80;76090;2837.525;-1758.641;0;152;500;509.7;100.0;100.7;0;-0.5;28.1;-1.0;
17/02/2025 17:20:20;116;0;48.88;-4;-53.70;-17.01;-0.1;18.80;76101;2837.525;-1758.641;0;152;500;511.3;100.0;100.6;0;-0.5;28.1;-1.0;
17/02/2025 17:20:45;116;0;44.75;-4;-51.60;-13.29;-0.1;18.90;76101;2837.524;-1758.640;0;152;500;506.5;100.0;100.6;0;-0.5;28.1;-1.0;
17/02/2025 17:21:02;116;0;55.28;-4;-55.04;-15.88;-0.0;18.90;76112;2837.524;-1758.640;0;152;500;509.7;100.0;100.6;0;-0.5;28.1;-1.0;
17/02/2025 17:21:22;116;0;53.80;-4;-52.55;-19.90;-0.1;18.90;76108;2837.523;-1758.640;0;152;500;509.7;100.0;100.6;0;-0.5;28.0;-1.0;
17/02/2025 17:22:02;116;0;60.29;-4;-53.53;-7.86;-0.2;19.10;76133;2837.522;-1758.640;0;152;500;509.7;100.0;100.6;0;-0.5;28.1;-1.0;
17/02/2025 17:22:51;116;0;53.73;-4;-49.47;-13.02;-0.1;19.20;76146;2837.520;-1758.637;0;152;500;508.1;100.0;100.6;0;-0.5;28.1;-1.0;
17/02/2025 17:23:04;116;0;59.99;-4;-57.82;-11.36;0.1;19.20;76141;2837.520;-1758.636;0;152;500;508.1;100.0;100.6;0;-0.5;28.1;-1.0;
17/02/2025 17:23:24;110;0;62.24;-4;-54.49;-21.30;-0.2;19.30;76147;2837.520;-1758.636;0;152;-50;396.8;100.0;100.6;-11;-11.3;28.1;-1.0;
17/02/2025 17:23:34;110;0;62.36;-4;-57.59;-9.17;0.1;19.30;76485;2837.520;-1758.636;1;152;-50;250.0;100.0;100.6;-11;-11.3;28.1;-1.0;
17/02/2025 17:23:44;110;0;65.45;-4;-57.84;-24.00;0.4;19.40;76739;2837.520;-1758.636;1;152;-50;91.9;100.0;100.6;-11;-11.3;28.1;-1.0;
17/02/2025 17:23:54;110;0;66.51;-4;-67.47;-18.34;0.8;19.40;77057;2837.520;-1758.636;1;152;-50;-50.0;100.0;100.6;-11;-11.7;28.1;-1.0;
17/02/2025 17:24:04;110;0;46.98;-4;-68.80;-11.89;1.0;19.40;77359;2837.520;-1758.636;1;152;-50;-50.0;48.1;48.0;-11;-11.7;28.1;-1.0;
17/02/2025 17:24:24;100;0;65.96;-4;-34.90;-18.19;4.1;19.50;77335;2837.520;-1758.633;1;152;-50;-46.8;48.1;47.9;-11;-11.3;28.1;-1.0;
17/02/2025 17:24:44;100;0;74.13;-4;-30.51;-16.91;7.9;19.50;77328;2837.521;-1758.630;1;153;-50;-46.8;48.1;48.2;-70;-70.4;28.1;-1.0;
17/02/2025 17:25:04;100;0;83.89;-4;-31.51;-45.13;11.7;19.60;77341;2837.521;-1758.626;1;153;-50;-45.2;48.1;48.5;-70;-70.4;28.1;-1.0;
17/02/2025 17:25:24;100;0;93.02;-4;-31.29;-44.82;15.8;19.60;77343;2837.521;-1758.623;1;153;-50;-45.2;48.1;48.5;-59;-59.1;28.1;0.0;
17/02/2025 17:25:44;100;0;103.10;-4;-30.57;-39.30;19.9;19.70;77355;2837.520;-1758.619;1;154;-50;-43.5;48.1;48.5;-48;-47.8;28.1;0.0;
17/02/2025 17:26:04;100;0;112.50;-4;-30.72;-33.71;24.0;19.70;77360;2837.519;-1758.615;1;154;-50;-45.2;48.1;48.5;-36;-36.1;28.1;0.0;
17/02/2025 17:26:24;100;0;125.86;-4;-30.09;-27.92;28.1;19.70;77368;2837.517;-1758.612;1;154;-50;-45.2;48.1;48.6;-17;-16.7;28.1;0.0;
17/02/2025 17:26:44;100;0;127.46;-4;-31.12;-18.89;32.3;19.70;77356;2837.514;-1758.609;1;154;-50;-45.2;48.1;48.5;-14;-14.0;28.1;0.0;
17/02/2025 17:27:04;100;0;135.39;-4;-30.55;-17.38;36.6;19.70;77355;2837.512;-1758.606;1;154;-50;-45.2;48.1;48.6;-1;-0.9;28.1;0.0;
17/02/2025 17:27:24;100;0;137.92;-4;-30.91;-11.69;40.8;19.70;77341;2837.509;-1758.603;1;154;-50;-45.2;48.1;48.6;3;3.2;28.2;0.0;
17/02/2025 17:27:44;100;0;137.52;-4;-30.48;-9.70;45.1;19.70;77335;2837.506;-1758.601;1;155;-50;-46.8;48.1;48.6;1;0.9;28.1;0.0;
17/02/2025 17:28:04;100;0;139.53;-4;-30.94;-11.51;49.2;19.70;77344;2837.503;-1758.598;1;155;-50;-45.2;48.1;48.6;4;4.5;28.2;0.0;
17/02/2025 17:28:24;100;0;141.37;-4;-30.84;-9.21;53.3;19.80;77343;2837.500;-1758.596;1;155;-50;-45.2;48.1;48.6;6;5.9;28.1;0.0;
17/02/2025 17:28:44;100;0;139.92;-4;-30.88;-8.36;57.6;19.70;77335;2837.497;-1758.593;1;155;-50;-45.2;48.1;48.6;4;4.1;28.1;0.0;
17/02/2025 17:29:04;100;0;141.34;-4;-31.01;-10.05;61.8;19.80;77349;2837.494;-1758.591;1;155;-50;-46.8;48.1;48.7;6;5.9;28.1;0.0;
17/02/2025 17:29:24;100;0;143.28;-4;-31.00;-8.53;66.1;19.80;77359;2837.491;-1758.588;1;155;-50;-45.2;48.1;48.6;6;6.3;28.1;0.0;
17/02/2025 17:29:44;100;0;144.13;-4;-31.23;-8.50;70.5;19.80;77354;2837.488;-1758.586;1;155;-50;-45.2;48.1;48.6;8;8.6;28.1;0.0;
17/02/2025 17:30:04;100;0;142.64;-4;-31.13;-7.13;74.9;19.80;77351;2837.485;-1758.583;1;155;-50;-45.2;48.1;48.6;8;9.0;28.1;0.0;
17/02/2025 17:30:24;100;0;141.73;-4;-30.28;-7.20;79.2;19.80;77354;2837.482;-1758.581;1;155;-50;-45.2;48.1;48.6;6;5.9;28.1;0.0;
17/02/2025 17:30:44;100;0;143.20;-4;-31.06;-9.02;83.5;19.80;77342;2837.479;-1758.578;1;155;-50;-45.2;48.1;48.6;6;5.4;28.1;0.0;
17/02/2025 17:31:04;100;0;144.44;-4;-30.94;-9.00;87.9;19.80;77339;2837.476;-1758.576;1;155;-50;-45.2;48.1;48.5;8;8.1;28.1;0.0;
17/02/2025 17:31:24;100;0;146.92;-4;-30.66;-7.22;92.2;19.80;77316;2837.473;-1758.574;1;155;-50;-45.2;48.1;48.6;8;8.6;28.1;0.0;
17/02/2025 17:31:44;100;0;152.83;-4;-30.34;-7.39;96.4;19.80;77308;2837.469;-1758.572;1;156;-50;-46.8;48.1;48.6;10;9.9;28.1;0.0;
17/02/2025 17:32:04;100;0;156.33;-4;-30.05;-6.42;100.2;19.70;77289;2837.466;-1758.571;1;155;-50;-45.2;48.1;48.6;10;10.4;28.1;0.0;
17/02/2025 17:32:24;100;0;152.79;-4;-30.26;-6.52;104.0;19.70;77272;2837.463;-1758.569;1;155;-50;-45.2;48.1;48.6;10;10.4;28.1;0.0;
17/02/2025 17:32:44;100;0;146.51;-4;-30.42;-6.53;107.8;19.70;77255;2837.460;-1758.567;1;156;-50;-45.2;48.1;48.6;10;9.9;28.1;0.0;
17/02/2025 17:33:04;100;0;141.71;-4;-30.81;-6.45;111.5;19.70;77238;2837.457;-1758.565;1;156;-50;-45.2;48.1;48.6;5;5.0;28.1;0.0;
17/02/2025 17:33:24;100;0;139.21;-4;-29.79;-9.27;115.4;19.70;77233;2837.455;-1758.563;1;156;-50;-46.8;48.1;48.6;1;0.9;28.1;0.0;
17/02/2025 17:33:44;100;0;139.65;-4;-29.57;-11.53;118.9;19.70;77205;2837.452;-1758.560;1;156;-50;-45.2;48.1;48.6;1;0.5;28.1;0.0;
17/02/2025 17:34:04;100;0;138.25;-4;-30.03;-11.51;122.3;19.70;77189;2837.450;-1758.558;1;156;-50;-45.2;48.1;48.6;1;0.5;28.1;0.0;
17/02/2025 17:34:24;100;0;144.12;-4;-30.01;-11.54;125.9;19.60;77170;2837.447;-1758.556;1;156;-50;-46.8;48.1;48.6;7;7.2;28.1;0.0;
17/02/2025 17:34:44;100;0;152.39;-4;-30.72;-7.84;129.6;19.60;77145;2837.444;-1758.555;1;156;-50;-45.2;48.1;48.6;10;10.4;28.1;0.0;
17/02/2025 17:35:04;100;0;149.59;-4;-31.03;-6.25;133.3;19.60;77139;2837.441;-1758.553;1;156;-50;-45.2;48.1;48.6;10;10.8;28.1;0.0;
17/02/2025 17:35:24;100;0;147.72;-4;-30.62;-6.26;137.2;19.50;77110;2837.439;-1758.551;1;156;-50;-45.2;48.1;48.7;10;10.8;28.1;0.0;
17/02/2025 17:35:44;100;0;143.72;-4;-30.08;-6.33;140.9;19.50;77086;2837.436;-1758.549;1;156;-50;-43.5;48.1;48.6;6;5.9;28.1;0.0;
17/02/2025 17:36:04;100;0;141.86;-4;-29.76;-8.88;144.5;19.50;77074;2837.433;-1758.547;1;156;-50;-43.5;48.1;48.6;6;5.9;28.1;0.0;
17/02/2025 17:36:24;100;0;137.89;-4;-29.27;-8.99;148.1;19.40;77070;2837.431;-1758.544;1;156;-50;-45.2;48.1;48.6;-1;-0.9;28.1;0.0;
17/02/2025 17:36:44;100;0;138.16;-4;-29.43;-12.24;151.5;19.40;77057;2837.428;-1758.542;1;157;-50;-48.4;48.1;48.6;-1;-1.4;28.1;0.0;
17/02/2025 17:37:04;100;0;140.38;-4;-29.96;-12.28;155.1;19.40;77038;2837.426;-1758.540;1;157;-50;-45.2;48.1;48.6;1;1.4;28.1;0.0;
17/02/2025 17:37:24;100;0;144.91;-4;-30.18;-10.85;158.9;19.30;77031;2837.423;-1758.538;1;157;-50;-46.8;48.1;48.6;6;6.3;28.1;0.0;
17/02/2025 17:37:44;100;0;150.22;-4;-30.63;-8.52;162.9;19.30;77011;2837.420;-1758.536;1;157;-50;-46.8;48.1;48.6;9;9.0;28.1;0.0;
17/02/2025 17:38:04;100;0;150.28;-4;-30.65;-6.76;167.0;19.20;76990;2837.417;-1758.534;1;157;-50;-45.2;48.1;48.6;9;9.5;28.1;0.0;
17/02/2025 17:38:24;100;0;148.59;-4;-30.61;-6.86;171.0;19.20;76974;2837.413;-1758.532;1;157;-50;-45.2;48.1;48.7;9;9.5;28.1;0.0;
17/02/2025 17:38:44;100;0;148.23;-4;-29.91;-6.71;175.0;19.20;76967;2837.410;-1758.530;1;157;-50;-45.2;48.1;48.6;9;9.5;28.1;0.0;
17/02/2025 17:39:04;100;0;146.88;-4;-29.02;-6.83;178.8;19.10;76944;2837.407;-1758.528;1;157;-50;-45.2;48.1;48.6;9;9.5;28.1;0.0;
17/02/2025 17:39:24;100;0;143.78;-4;-29.46;-6.76;182.3;19.10;76925;2837.405;-1758.526;1;157;-50;-43.5;48.1;48.6;5;5.0;28.1;0.0;
17/02/2025 17:39:44;100;0;144.63;-4;-29.51;-9.43;185.8;19.00;76906;2837.402;-1758.524;1;157;-50;-45.2;48.1;48.6;5;4.5;28.1;0.0;
17/02/2025 17:40:04;100;0;142.66;-4;-29.20;-9.63;189.2;19.00;76899;2837.399;-1758.522;1;157;-50;-45.2;48.1;48.6;5;4.5;28.1;0.0;
17/02/2025 17:40:24;100;0;144.16;-4;-29.02;-9.46;192.7;18.90;76884;2837.397;-1758.520;1;157;-50;-45.2;48.1;48.6;5;4.5;28.1;0.0;
17/02/2025 17:40:44;100;0;148.83;-4;-29.27;-9.57;196.0;18.90;76870;2837.394;-1758.518;1;157;-50;-46.8;48.1;48.6;9;9.0;28.1;0.0;
17/02/2025 17:41:00;118;0;148.84;-4;-30.42;-7.07;198.9;18.80;76861;2837.392;-1758.517;1;157;150;-40.3;22.5;22.5;11;11.3;28.1;0.0;
17/02/2025 17:41:10;118;0;131.41;-4;-16.98;-6.64;200.3;18.80;76833;2837.390;-1758.515;1;158;150;87.1;22.5;22.2;11;11.3;27.7;-1.0;
17/02/2025 17:41:20;118;0;126.81;-4;9.79;-6.53;200.8;18.80;76564;2837.390;-1758.515;1;158;150;153.2;22.5;22.5;11;11.3;27.7;-1.0;
17/02/2025 17:41:30;118;0;151.15;-4;21.95;-6.77;200.2;18.80;76423;2837.389;-1758.514;1;158;150;153.2;22.5;22.7;11;11.3;28.1;-1.0;
17/02/2025 17:41:50;117;0;150.90;-4;26.91;-6.75;198.3;18.70;76411;2837.387;-1758.513;1;158;150;154.8;22.5;22.7;11;11.3;28.1;-1.0;
17/02/2025 17:42:10;117;0;146.06;-4;27.65;-6.79;196.4;18.70;76421;2837.386;-1758.512;1;158;150;154.8;21.8;21.5;33;33.4;28.1;-1.0;
17/02/2025 17:42:30;117;0;143.54;-4;31.78;5.25;194.4;18.70;76417;2837.384;-1758.511;1;158;150;154.8;21.8;21.5;36;36.1;28.1;-1.0;
17/02/2025 17:42:50;117;0;143.23;-4;31.66;6.92;192.0;18.60;76422;2837.383;-1758.510;1;158;150;154.8;21.8;21.5;36;37.0;28.1;-1.0;
17/02/2025 17:43:10;117;0;144.68;-4;31.73;6.89;189.8;18.50;76419;2837.381;-1758.509;1;158;150;154.8;21.8;21.5;36;36.6;28.1;-1.0;
17/02/2025 17:43:30;117;0;146.13;-4;31.66;6.91;187.3;18.50;76419;2837.379;-1758.508;1;158;150;154.8;21.8;21.5;34;32.9;28.1;-1.0;
17/02/2025 17:43:50;117;0;145.68;-4;31.68;4.65;185.0;18.50;76415;2837.378;-1758.507;1;158;150;153.2;21.8;21.4;34;32.9;28.1;-1.0;
17/02/2025 17:44:10;117;0;145.03;-4;31.09;4.81;182.8;18.40;76406;2837.376;-1758.506;1;158;150;154.8;21.8;21.5;34;32.9;28.1;-1.0;
17/02/2025 17:44:30;117;0;146.08;-4;31.89;4.81;180.5;18.40;76411;2837.374;-1758.505;1;158;150;154.8;21.8;21.5;34;32.9;28.1;-1.0;
17/02/2025 17:44:50;117;0;146.79;-4;31.50;4.78;178.2;18.40;76409;2837.373;-1758.503;1;158;150;154.8;21.8;21.5;34;32.9;28.1;-1.0;
17/02/2025 17:45:10;117;0;147.48;-4;31.12;4.80;175.9;18.30;76406;2837.371;-1758.502;1;158;150;154.8;21.8;21.5;34;32.9;28.1;-1.0;
17/02/2025 17:45:30;117;0;148.31;-4;31.03;4.72;173.7;18.30;76416;2837.369;-1758.501;1;158;150;151.6;21.8;21.5;34;32.9;28.1;-1.0;
17/02/2025 17:45:50;117;0;145.40;-4;31.08;4.83;171.5;18.20;76418;2837.368;-1758.500;1;158;150;154.8;21.8;21.6;34;32.9;28.1;-1.0;
17/02/2025 17:46:10;117;0;144.94;-4;30.93;4.73;169.6;18.20;76425;2837.366;-1758.499;1;158;170;175.8;21.8;21.5;34;32.9;28.1;-1.0;
17/02/2025 17:46:30;117;0;145.50;-4;30.79;4.80;167.5;18.20;76389;2837.364;-1758.498;1;158;170;174.2;21.8;21.5;34;32.9;28.1;-1.0;
17/02/2025 17:46:50;117;0;146.33;-4;30.53;4.79;165.3;18.20;76385;2837.363;-1758.497;1;158;170;174.2;21.8;21.5;34;32.9;28.1;-1.0;
17/02/2025 17:47:10;117;0;145.20;-4;30.34;4.78;163.0;18.10;76381;2837.361;-1758.496;1;158;170;172.6;21.8;21.5;34;32.9;28.1;-1.0;
17/02/2025 17:47:30;117;0;142.28;-4;30.65;4.85;160.9;18.10;76379;2837.359;-1758.495;1;159;170;174.2;21.8;21.5;38;37.9;28.1;-1.0;
17/02/2025 17:47:50;117;0;139.77;-4;30.86;7.74;158.8;18.10;76396;2837.358;-1758.494;1;159;170;174.2;21.8;21.5;42;42.0;28.1;-1.0;
17/02/2025 17:48:10;117;0;140.74;-4;31.33;9.95;156.4;18.10;76395;2837.356;-1758.492;1;159;170;174.2;21.8;21.5;40;40.2;28.1;-1.0;
17/02/2025 17:48:30;117;0;141.72;-4;31.20;8.37;154.1;18.10;76404;2837.355;-1758.491;1;159;170;174.2;21.8;21.5;40;39.7;28.1;-1.0;
17/02/2025 17:48:51;117;0;143.60;-4;31.28;8.34;151.7;18.00;76400;2837.353;-1758.490;1;159;170;174.2;21.8;21.5;37;37.0;28.1;-1.0;
17/02/2025 17:49:11;117;0;143.67;-4;31.15;6.85;149.2;18.00;76403;2837.351;-1758.488;1;159;170;174.2;21.8;21.5;37;36.6;28.1;-1.0;
17/02/2025 17:49:31;117;0;149.38;-4;31.11;6.82;146.9;18.00;76407;2837.349;-1758.487;1;159;170;174.2;21.8;21.5;33;32.9;28.1;-1.0;
17/02/2025 17:49:51;117;0;152.21;-4;30.80;4.83;144.4;18.00;76430;2837.347;-1758.486;1;159;170;174.2;21.8;21.5;33;32.9;28.1;-1.0;
17/02/2025 17:50:11;117;0;154.00;-4;30.89;4.80;141.9;18.00;76425;2837.345;-1758.485;1;159;170;172.6;21.8;21.5;33;32.9;28.1;-1.0;
17/02/2025 17:50:31;117;0;154.86;-4;30.64;4.75;139.4;18.00;76428;2837.343;-1758.485;1;159;170;172.6;21.8;21.5;33;32.9;28.1;-1.0;
17/02/2025 17:50:51;117;0;148.77;-4;30.86;4.92;136.9;18.00;76437;2837.341;-1758.483;1;159;170;174.2;21.8;21.5;33;32.9;28.1;-1.0;
17/02/2025 17:51:11;117;0;147.05;-4;30.32;4.78;134.5;18.00;76451;2837.339;-1758.482;1;159;170;174.2;21.8;21.5;35;35.2;28.1;-1.0;
17/02/2025 17:51:31;117;0;146.20;-4;30.90;6.39;132.0;18.00;76450;2837.338;-1758.481;1;159;170;174.2;21.8;21.5;35;35.6;28.1;-1.0;
17/02/2025 17:51:51;117;0;136.61;-4;31.38;6.54;129.5;18.00;76465;2837.336;-1758.479;1;159;170;174.2;21.8;21.5;49;49.2;28.1;-1.0;
17/02/2025 17:52:11;117;0;134.11;-4;31.77;13.99;126.9;18.00;76467;2837.334;-1758.478;1;160;170;174.2;21.8;21.5;55;55.1;28.1;-1.0;
17/02/2025 17:52:31;117;0;138.48;-4;32.06;17.16;124.2;18.00;76470;2837.333;-1758.476;1;160;170;174.2;22.4;22.5;47;46.9;28.1;-1.0;
17/02/2025 17:52:51;117;0;143.01;-4;30.22;12.25;121.6;18.00;76490;2837.331;-1758.475;1;160;170;174.2;22.4;22.5;41;41.1;28.1;-1.0;
17/02/2025 17:53:11;117;0;145.33;-4;29.86;8.79;119.2;18.00;76506;2837.329;-1758.473;1;160;170;174.2;22.4;22.5;37;37.0;28.1;-1.0;
17/02/2025 17:53:31;117;0;148.19;-4;28.40;6.71;116.7;18.00;76526;2837.327;-1758.472;1;160;170;174.2;21.9;21.9;35;35.2;28.1;-1.0;
17/02/2025 17:53:51;117;0;148.75;-4;29.61;5.81;114.6;18.00;76534;2837.325;-1758.471;1;160;170;172.6;21.9;21.8;35;35.2;28.1;-1.0;
17/02/2025 17:54:11;117;0;149.30;-4;29.71;5.81;112.4;18.00;76546;2837.323;-1758.470;1;160;170;174.2;21.9;21.8;35;35.2;28.1;-1.0;
17/02/2025 17:54:31;117;0;150.63;-4;29.78;5.76;110.4;18.00;76564;2837.321;-1758.469;1;160;170;174.2;21.9;21.8;35;35.2;28.1;-1.0;
17/02/2025 17:54:51;117;0;149.84;-4;30.06;5.73;108.3;18.00;76574;2837.320;-1758.468;1;160;170;172.6;21.9;21.8;35;35.2;28.1;-1.0;
17/02/2025 17:55:11;117;0;148.88;-4;29.97;5.85;106.1;18.00;76577;2837.318;-1758.467;1;160;170;174.2;21.9;21.8;35;35.2;28.1;-1.0;
17/02/2025 17:55:31;117;0;151.79;-4;29.41;5.77;104.0;18.00;76588;2837.316;-1758.466;1;160;170;172.6;21.9;21.8;35;34.7;28.1;-1.0;
17/02/2025 17:55:51;117;0;154.68;-4;29.78;5.80;101.9;18.00;76592;2837.314;-1758.466;1;160;170;172.6;21.9;21.8;33;32.9;28.1;-1.0;
17/02/2025 17:56:11;117;0;157.99;-4;29.57;4.31;99.9;18.00;76601;2837.313;-1758.465;1;160;190;195.2;21.9;21.8;33;32.5;28.1;-1.0;
17/02/2025 17:56:31;117;0;156.70;-4;29.56;4.41;97.7;18.00;76555;2837.311;-1758.464;1;160;190;195.2;21.9;21.8;33;32.5;28.1;-1.0;
17/02/2025 17:56:51;117;0;158.12;-4;28.99;4.42;95.5;18.10;76567;2837.309;-1758.463;1;160;190;195.2;21.6;21.6;33;32.5;28.1;-1.0;
17/02/2025 17:57:11;117;0;159.32;-4;29.89;4.40;93.3;18.10;76582;2837.307;-1758.463;1;160;190;195.2;21.6;21.6;33;32.5;28.1;-1.0;
17/02/2025 17:57:31;117;0;155.67;-4;29.94;4.39;91.0;18.10;76590;2837.305;-1758.462;1;160;190;196.8;21.6;21.6;33;32.5;28.1;-1.0;
17/02/2025 17:57:51;117;0;151.82;-4;29.81;4.44;88.8;18.10;76603;2837.303;-1758.461;1;160;190;195.2;21.6;21.5;33;32.5;28.1;-1.0;
17/02/2025 17:58:11;117;0;147.35;-4;29.83;4.48;86.5;18.20;76618;2837.301;-1758.460;1;160;190;193.5;21.6;21.6;35;35.2;28.1;-1.0;
17/02/2025 17:58:31;117;0;139.56;-4;30.33;6.50;84.3;18.20;76618;2837.300;-1758.458;1;160;190;195.2;21.6;21.6;44;44.2;28.1;-1.0;
17/02/2025 17:58:51;117;0;142.06;-4;30.64;11.23;82.0;18.20;76633;2837.298;-1758.457;1;161;190;196.8;21.6;21.5;42;42.0;28.1;-1.0;
17/02/2025 17:59:11;117;0;143.79;-4;30.31;9.31;79.8;18.20;76646;2837.296;-1758.456;1;161;190;195.2;21.6;21.6;40;40.2;28.1;-1.0;
17/02/2025 17:59:31;117;0;141.67;-4;30.06;8.34;77.7;18.20;76663;2837.295;-1758.455;1;161;190;195.2;21.6;21.5;43;42.9;28.1;-1.0;
17/02/2025 17:59:51;117;0;139.21;-4;30.73;10.45;75.5;18.20;76682;2837.293;-1758.454;1;161;190;195.2;21.6;21.5;47;46.9;28.1;-1.0;
17/02/2025 18:00:11;117;0;138.73;-4;30.74;12.75;73.3;18.30;76705;2837.292;-1758.452;1;161;190;195.2;21.6;21.6;47;47.4;28.1;-1.0;
17/02/2025 18:00:31;117;0;140.85;-4;30.76;12.79;71.1;18.30;76718;2837.290;-1758.451;1;161;190;195.2;21.6;21.6;44;44.2;28.1;-1.0;
17/02/2025 18:00:51;117;0;142.66;-4;30.14;10.44;68.8;18.30;76728;2837.288;-1758.450;1;161;190;196.8;21.6;21.5;42;42.0;28.1;-1.0;
17/02/2025 18:01:11;117;0;142.88;-4;30.25;9.41;66.7;18.30;76742;2837.287;-1758.448;1;161;190;195.2;21.6;21.5;42;41.5;28.1;-1.0;
17/02/2025 18:01:31;117;0;143.00;-4;30.11;9.46;64.6;18.40;76746;2837.285;-1758.447;1;162;190;191.9;21.6;21.5;42;41.5;28.1;-1.0;
17/02/2025 18:01:51;117;0;144.14;-4;30.42;9.45;62.4;18.40;76753;2837.283;-1758.446;1;162;190;195.2;21.6;21.5;42;41.5;28.1;-1.0;
17/02/2025 18:02:11;117;0;145.36;-4;30.11;9.43;60.2;18.40;76764;2837.282;-1758.445;1;162;190;195.2;21.6;21.5;40;40.2;28.1;-1.0;
17/02/2025 18:02:31;117;0;146.30;-4;30.30;8.42;58.1;18.50;76768;2837.280;-1758.444;1;162;190;195.2;21.6;21.5;40;39.7;28.1;-1.0;
17/02/2025 18:02:51;117;0;146.49;-4;30.09;8.42;55.9;18.50;76771;2837.278;-1758.443;1;162;190;195.2;21.6;21.5;38;37.9;28.1;-1.0;
17/02/2025 18:03:11;117;0;145.53;-4;30.10;7.23;53.6;18.50;76791;2837.277;-1758.442;1;162;190;195.2;21.6;21.6;38;37.5;28.1;-1.0;
17/02/2025 18:03:31;117;0;146.35;-4;30.12;7.27;51.3;18.50;76779;2837.275;-1758.440;1;162;190;195.2;21.6;21.6;38;37.0;28.1;-1.0;
17/02/2025 18:03:51;117;0;147.74;-4;29.83;7.12;49.0;18.60;76794;2837.273;-1758.439;1;162;190;191.9;21.6;21.5;38;37.0;28.1;-1.0;
17/02/2025 18:04:11;117;0;146.70;-4;29.94;7.08;46.7;18.60;76798;2837.271;-1758.438;1;162;190;195.2;21.6;21.5;38;37.0;28.1;-1.0;
17/02/2025 18:04:31;117;0;142.51;-4;29.27;7.20;44.5;18.60;76809;2837.269;-1758.437;1;163;190;195.2;21.6;21.5;47;46.9;28.1;-1.0;
17/02/2025 18:04:51;117;0;143.92;-4;30.26;12.76;42.2;18.60;76814;2837.268;-1758.436;1;163;190;195.2;21.6;21.6;43;42.9;28.1;-1.0;
17/02/2025 18:05:11;117;0;146.65;-4;30.54;9.93;39.9;18.70;76820;2837.266;-1758.435;1;163;190;195.2;21.6;21.5;40;39.7;28.1;-1.0;
17/02/2025 18:05:31;117;0;148.37;-4;29.84;8.09;37.7;18.70;76828;2837.264;-1758.433;1;163;190;191.9;21.6;21.6;38;37.5;28.1;-1.0;
17/02/2025 18:05:51;117;0;147.01;-4;30.02;7.07;35.4;18.70;76835;2837.262;-1758.432;1;163;190;195.2;21.6;21.5;38;37.0;28.1;-1.0;
17/02/2025 18:06:11;117;0;143.47;-4;29.50;7.23;33.1;18.80;76846;2837.261;-1758.431;1;163;190;193.5;21.6;21.5;45;45.1;28.1;-1.0;
17/02/2025 18:06:31;117;0;144.87;-4;30.22;11.73;30.8;18.80;76860;2837.259;-1758.430;1;163;190;195.2;21.6;21.5;43;42.9;28.1;-1.0;
17/02/2025 18:06:51;117;0;146.04;-4;29.91;9.77;28.5;18.80;76867;2837.257;-1758.429;1;164;190;196.8;21.6;21.5;43;42.0;28.1;-1.0;
17/02/2025 18:07:11;117;0;147.22;-4;30.25;9.79;26.1;18.80;76866;2837.255;-1758.427;1;164;190;193.5;21.6;21.5;43;42.0;28.1;-1.0;
17/02/2025 18:07:31;117;0;148.37;-4;30.25;9.81;23.6;18.90;76881;2837.253;-1758.426;1;164;190;195.2;21.6;21.6;40;40.2;28.1;-1.0;
17/02/2025 18:07:51;117;0;147.47;-4;29.85;8.57;21.3;18.90;76878;2837.251;-1758.425;1;164;190;196.8;21.6;21.5;40;39.7;28.1;-1.0;
17/02/2025 18:08:11;117;0;147.20;-4;30.22;8.39;18.9;18.90;76889;2837.249;-1758.424;1;164;190;195.2;21.6;21.5;42;42.4;28.1;-1.0;
17/02/2025 18:08:31;117;0;148.08;-4;29.56;10.06;16.4;19.00;76889;2837.247;-1758.423;1;164;190;191.9;21.6;21.6;42;42.4;28.1;-1.0;
17/02/2025 18:08:51;117;0;147.22;-4;31.02;10.21;13.9;19.00;76890;2837.246;-1758.421;1;164;190;195.2;21.6;21.5;42;42.4;28.1;-1.0;
17/02/2025 18:09:11;117;0;147.19;-4;30.38;10.17;11.4;19.00;76898;2837.244;-1758.420;1;165;190;195.2;21.6;21.5;42;42.4;28.1;-1.0;
17/02/2025 18:09:31;117;0;146.41;-4;30.63;10.12;8.9;19.00;76893;2837.242;-1758.419;1;165;190;195.2;21.6;21.5;44;44.2;28.2;-1.0;
17/02/2025 18:09:51;117;0;146.89;-4;30.33;11.35;6.4;19.10;76900;2837.240;-1758.418;1;165;190;195.2;21.6;21.5;44;44.7;28.1;-1.0;
17/02/2025 18:10:11;117;0;149.28;-4;30.23;10.30;3.8;19.10;76919;2837.238;-1758.416;1;165;190;193.5;21.6;21.5;41;41.1;28.1;-1.0;
17/02/2025 18:10:17;115;0;150.83;-4;29.73;9.00;3.0;19.10;76907;2837.237;-1758.416;1;165;500;201.6;100.0;63.2;0;-0.5;28.1;-1.0;
17/02/2025 18:10:27;115;0;133.47;-4;11.51;-13.45;1.9;19.10;76884;2837.236;-1758.415;1;165;500;319.4;100.0;100.0;0;-0.5;27.9;-1.0;
17/02/2025 18:10:37;115;0;130.78;-4;-60.69;-13.69;2.6;19.10;76635;2837.236;-1758.415;1;165;500;438.7;100.0;100.4;0;-0.5;27.9;-1.0;
17/02/2025 18:10:47;115;0;109.95;-4;-69.04;-5.96;2.4;19.10;76370;2837.235;-1758.415;1;165;500;508.1;100.0;100.6;0;-0.5;27.9;-1.0;
17/02/2025 18:10:57;115;0;105.15;-4;-40.34;-7.56;-0.4;19.20;76238;2837.235;-1758.413;1;166;500;508.1;100.0;100.6;0;-0.5;28.1;-1.0;
17/02/2025 18:11:17;119;0;95.74;-4;-62.73;-26.25;-0.1;19.20;76251;2837.235;-1758.413;1;166;500;509.7;100.0;100.7;0;-0.5;28.1;-1.0;
17/02/2025 18:11:27;119;0;87.12;-4;-49.33;-17.28;-0.2;19.20;76248;2837.248;-1758.369;0;166;500;509.7;100.0;100.6;0;-0.5;28.1;-1.0;
