Timestamp;NavState;SecurityLevel;Heading;Declination;Pitch;Roll;Depth;Temperature;Pa;Lat;Lon;DeadReckoning;DesiredH;BallastCmd;BallastPos;LinCmd;LinPos;AngCmd;AngPos;Voltage;Altitude;
05/03/2025 12:38:51;119;0;134.81;-4;-54.19;-11.97;-0.4;20.80;76661;2837.878;-1758.001;0;200;500;504.8;100.0;100.7;0;-0.5;24.7;-1.0;
05/03/2025 12:39:01;116;0;127.72;-4;-60.93;-7.49;-0.6;20.80;76675;2837.882;-1758.005;0;200;500;504.8;100.0;100.7;0;-0.5;24.7;-1.0;
05/03/2025 12:39:29;116;0;50.15;-4;-56.22;-7.42;-0.5;20.80;76673;2837.885;-1758.006;0;200;500;504.8;100.0;100.7;0;-0.5;24.7;-1.0;
05/03/2025 12:39:56;116;0;325.20;-4;-61.22;-10.53;-0.3;20.80;76679;2837.887;-1758.007;0;121;500;504.8;100.0;100.7;0;-0.5;24.7;-1.0;
05/03/2025 12:40:10;116;0;336.09;-4;-45.92;-12.68;-0.4;20.90;76684;2837.889;-1758.009;0;121;500;504.8;100.0;100.7;0;-0.5;24.7;-1.0;
05/03/2025 12:40:24;116;0;332.01;-4;-60.40;-9.45;-0.3;20.90;76681;2837.891;-1758.010;0;121;500;504.8;100.0;100.7;0;-0.5;24.7;-1.0;
05/03/2025 12:40:44;116;0;335.20;-4;-50.12;-8.04;-0.1;20.90;76685;2837.894;-1758.012;0;121;500;504.8;100.0;100.7;0;-0.5;24.7;-1.0;
05/03/2025 12:40:57;116;0;324.41;-4;-47.10;-12.97;-0.3;20.90;76688;2837.895;-1758.013;0;121;500;504.8;100.0;100.7;0;-0.5;24.7;-1.0;
05/03/2025 12:41:17;110;0;330.23;-4;-50.93;-10.26;-0.1;20.90;76682;2837.895;-1758.013;0;121;-500;388.7;100.0;99.9;-13;-13.1;24.7;-1.0;
05/03/2025 12:41:27;110;0;331.28;-4;-54.75;-23.51;0.1;20.90;77033;2837.896;-1758.013;1;121;-500;240.3;100.0;99.7;-13;-13.5;24.6;-1.0;
05/03/2025 12:41:37;110;0;335.60;-4;-55.29;-15.17;0.6;20.90;77280;2837.897;-1758.014;1;121;-500;82.3;100.0;99.9;-13;-13.5;24.6;-1.0;
05/03/2025 12:41:47;110;0;326.35;-4;-68.57;-15.79;0.8;20.90;77622;2837.898;-1758.015;1;121;-500;-79.0;100.0;99.7;-13;-13.5;24.6;-1.0;
05/03/2025 12:41:57;110;0;321.48;-4;-63.48;-11.38;1.2;20.90;77964;2837.899;-1758.015;1;121;-500;-254.8;51.6;54.5;-13;-13.5;24.6;-1.0;
05/03/2025 12:42:07;110;0;324.42;-4;-53.44;-15.97;2.9;21.00;78370;2837.901;-1758.017;1;121;-500;-491.9;51.6;51.4;-13;-13.5;24.6;-1.0;
05/03/2025 12:42:17;110;0;340.44;-4;-41.65;-15.95;6.3;21.00;78898;2837.904;-1758.018;1;121;-500;-501.6;51.6;51.1;-13;-13.5;24.7;-1.0;
05/03/2025 12:42:37;100;0;352.59;-4;-36.71;-13.91;16.4;21.00;78858;2837.912;-1758.020;1;121;-500;-500.0;51.6;51.1;-13;-13.5;24.6;-1.0;
05/03/2025 12:42:57;100;0;359.91;-4;-35.58;-14.28;28.3;21.00;78851;2837.923;-1758.021;1;121;-500;-501.6;51.6;51.0;-70;-69.9;24.7;0.0;
05/03/2025 12:43:17;100;0;16.10;-4;-30.64;-39.57;38.6;21.00;78854;2837.934;-1758.020;1;121;-500;-501.6;52.9;52.9;-70;-69.9;24.7;0.0;
05/03/2025 12:43:37;100;0;35.72;-4;-29.35;-40.22;47.5;21.00;78845;2837.942;-1758.016;1;121;-500;-501.6;54.6;54.6;-70;-69.9;24.7;0.0;
05/03/2025 12:43:57;100;0;53.81;-4;-31.45;-40.60;56.2;21.00;78866;2837.948;-1758.010;1;121;-500;-501.6;55.7;55.7;-70;-70.4;24.7;0.0;
05/03/2025 12:44:17;100;0;76.54;-4;-32.70;-39.90;65.1;21.00;78865;2837.952;-1758.003;1;121;-500;-501.6;56.4;56.7;-52;-51.9;24.6;0.0;
05/03/2025 12:44:37;100;0;94.58;-4;-35.46;-31.05;74.8;21.00;78865;2837.953;-1757.996;1;121;-500;-504.8;56.4;56.7;-29;-28.4;24.7;0.0;
05/03/2025 12:44:57;100;0;108.51;-4;-38.48;-19.99;85.4;21.00;78868;2837.953;-1757.990;1;121;-500;-504.8;55.3;55.2;-7;-7.2;24.7;0.0;
05/03/2025 12:45:17;100;0;116.57;-4;-40.38;-9.85;96.7;21.00;78860;2837.952;-1757.984;1;121;-500;-504.8;53.7;53.6;5;5.0;24.7;0.0;
05/03/2025 12:45:37;100;0;112.03;-4;-39.45;-5.34;108.0;21.00;78840;2837.951;-1757.977;1;121;-500;-504.8;52.4;52.3;-1;-0.9;24.7;0.0;
05/03/2025 12:45:57;100;0;119.07;-4;-39.08;-7.84;119.4;21.00;78836;2837.949;-1757.971;1;121;-500;-506.5;51.2;50.8;8;8.1;24.7;0.0;
05/03/2025 12:46:17;100;0;114.82;-4;-39.13;-2.59;130.9;20.90;78823;2837.948;-1757.965;1;121;-500;-506.5;49.9;49.8;3;3.2;24.7;0.0;
05/03/2025 12:46:37;100;0;112.30;-4;-37.37;-6.93;142.5;20.90;78794;2837.947;-1757.957;1;121;-500;-506.5;49.2;49.2;1;0.9;24.7;0.0;
05/03/2025 12:46:57;100;0;110.61;-4;-33.64;-7.72;153.7;20.90;78767;2837.946;-1757.949;1;121;-500;-506.5;49.6;49.6;-2;-2.3;24.7;0.0;
05/03/2025 12:47:17;100;0;101.73;-4;-37.08;-8.50;165.4;20.90;78742;2837.946;-1757.941;1;121;-500;-506.5;49.0;48.7;-17;-17.1;24.7;0.0;
05/03/2025 12:47:37;100;0;101.76;-4;-32.71;-17.15;177.1;20.80;78660;2837.946;-1757.932;1;121;-500;-506.5;49.7;49.6;-17;-17.1;24.7;0.0;
05/03/2025 12:47:57;100;0;112.46;-4;-30.07;-16.18;188.1;20.80;78601;2837.945;-1757.923;1;121;-500;-504.8;51.2;51.4;2;1.8;24.7;0.0;
05/03/2025 12:48:16;118;0;111.82;-4;-32.72;-7.71;198.9;20.70;78569;2837.943;-1757.915;1;121;500;-506.5;14.0;14.7;13;13.1;24.6;0.0;
05/03/2025 12:48:26;118;0;108.81;-4;-27.09;-1.91;203.6;20.70;78537;2837.943;-1757.911;1;121;500;-379.0;14.0;14.0;13;13.1;24.2;-1.0;
05/03/2025 12:48:36;118;0;101.93;-4;-2.34;-2.28;207.8;20.70;78238;2837.943;-1757.908;1;121;500;-248.4;14.0;13.5;13;13.1;24.2;-1.0;
05/03/2025 12:48:46;118;0;99.44;-4;16.94;-5.15;209.6;20.60;77960;2837.944;-1757.906;1;121;500;-117.7;14.0;14.0;13;13.1;24.2;-1.0;
05/03/2025 12:48:56;118;0;93.99;-4;38.20;-5.57;211.1;20.60;77693;2837.944;-1757.906;1;121;500;3.2;14.0;14.0;13;13.1;24.2;-1.0;
05/03/2025 12:49:06;118;0;90.90;-4;46.61;-5.91;213.0;20.60;77428;2837.945;-1757.905;1;121;500;125.8;14.0;14.0;13;13.1;24.2;-1.0;
05/03/2025 12:49:16;118;0;98.27;-4;43.20;-6.22;215.3;20.50;77160;2837.946;-1757.904;1;121;500;250.0;14.0;14.0;13;13.1;24.2;-1.0;
05/03/2025 12:49:26;118;0;104.78;-4;43.21;-6.96;217.0;20.50;76894;2837.947;-1757.904;1;121;500;372.6;14.0;14.0;13;13.1;24.2;-1.0;
05/03/2025 12:49:36;118;0;113.07;-4;39.40;-6.77;218.1;20.50;76634;2837.948;-1757.904;1;121;500;477.4;14.0;14.0;13;13.1;24.1;-1.0;
05/03/2025 12:49:46;118;0;116.75;-4;36.29;-5.05;218.0;20.50;76379;2837.949;-1757.904;1;121;500;504.8;14.0;14.0;13;13.1;24.1;-1.0;
05/03/2025 12:49:56;118;0;147.19;-4;37.90;-6.30;217.1;20.40;76335;2837.949;-1757.904;1;121;500;504.8;14.0;14.0;13;13.1;24.6;-1.0;
05/03/2025 12:50:16;117;0;140.58;-4;32.22;-1.26;214.6;20.40;76334;2837.949;-1757.904;1;121;500;504.8;14.0;14.0;13;13.1;24.7;-1.0;
05/03/2025 12:50:36;117;0;124.75;-4;37.44;-1.92;210.3;20.30;76306;2837.950;-1757.903;1;121;500;504.8;14.7;14.9;58;58.7;24.6;-1.0;
05/03/2025 12:50:56;117;0;137.98;-4;35.16;19.50;207.2;20.30;76294;2837.950;-1757.902;1;121;500;504.8;14.7;14.9;44;44.2;24.6;-1.0;
05/03/2025 12:51:16;117;0;141.47;-4;35.64;18.80;204.0;20.20;76292;2837.950;-1757.902;1;121;500;504.8;14.7;14.9;42;42.0;24.6;-1.0;
05/03/2025 12:51:36;117;0;140.44;-4;32.74;10.12;200.8;20.20;76283;2837.950;-1757.901;1;121;500;504.8;14.0;14.0;40;39.3;24.7;-1.0;
05/03/2025 12:51:56;117;0;138.85;-4;36.57;11.70;197.6;20.10;76273;2837.951;-1757.900;1;121;500;504.8;14.0;13.7;45;45.1;24.7;-1.0;
05/03/2025 12:52:16;117;0;137.19;-4;36.24;12.90;192.6;20.00;76259;2837.950;-1757.899;1;121;500;504.8;14.0;13.7;39;38.8;24.6;-1.0;
05/03/2025 12:52:36;117;0;131.09;-4;40.67;12.94;187.6;20.00;76258;2837.950;-1757.897;1;121;500;504.8;15.7;15.9;44;44.7;24.7;-1.0;
05/03/2025 12:52:56;117;0;134.33;-4;34.75;14.03;182.3;19.90;76249;2837.949;-1757.895;1;121;500;504.8;15.7;16.1;39;38.8;24.6;-1.0;
05/03/2025 12:53:16;117;0;128.05;-4;34.84;10.19;177.9;19.90;76224;2837.949;-1757.894;1;121;500;504.8;15.7;16.1;45;45.1;24.6;-1.0;
05/03/2025 12:53:36;117;0;127.53;-4;34.36;13.80;173.3;19.80;76224;2837.949;-1757.892;1;121;500;504.8;15.7;16.1;45;45.1;24.7;-1.0;
05/03/2025 12:53:56;117;0;128.76;-4;30.93;12.31;168.5;19.80;76221;2837.948;-1757.889;1;121;500;506.5;14.5;14.6;41;41.1;24.7;-1.0;
05/03/2025 12:54:16;117;0;132.07;-4;36.72;12.49;164.2;19.80;76234;2837.948;-1757.888;1;121;500;506.5;14.5;14.4;44;44.2;24.6;-1.0;
05/03/2025 12:54:36;117;0;130.10;-4;35.95;14.72;158.7;19.70;76219;2837.947;-1757.886;1;121;500;504.8;14.5;14.4;41;41.1;24.6;-1.0;
05/03/2025 12:54:56;117;0;136.07;-4;35.79;10.03;153.3;19.70;76233;2837.947;-1757.884;1;121;500;504.8;14.5;14.4;39;38.8;24.7;-1.0;
05/03/2025 12:55:16;117;0;146.49;-4;35.89;12.06;147.4;19.60;76238;2837.945;-1757.882;1;121;500;504.8;14.5;14.4;37;37.0;24.7;-1.0;
05/03/2025 12:55:36;117;0;146.92;-4;35.02;9.63;142.1;19.60;76293;2837.944;-1757.881;1;121;500;504.8;14.5;14.4;37;37.0;24.7;-1.0;
05/03/2025 12:55:56;117;0;142.58;-4;35.25;8.52;137.4;19.60;76348;2837.943;-1757.880;1;121;500;504.8;14.5;14.4;39;38.8;24.7;-1.0;
05/03/2025 12:56:16;117;0;140.42;-4;32.80;13.18;132.8;19.60;76363;2837.942;-1757.878;1;121;500;504.8;13.9;13.8;39;39.3;24.7;-1.0;
05/03/2025 12:56:36;117;0;139.36;-4;36.99;10.74;128.9;19.60;76374;2837.942;-1757.877;1;121;500;504.8;13.9;13.7;39;39.3;24.6;-1.0;
05/03/2025 12:56:56;117;0;136.93;-4;36.64;10.00;123.0;19.60;76379;2837.941;-1757.875;1;121;500;506.5;13.9;13.8;39;39.3;24.6;-1.0;
05/03/2025 12:57:16;117;0;133.98;-4;36.01;11.32;118.1;19.60;76375;2837.940;-1757.874;1;121;500;504.8;13.9;13.7;39;39.3;24.7;-1.0;
05/03/2025 12:57:36;117;0;127.61;-4;36.64;11.28;112.7;19.60;76411;2837.940;-1757.871;1;121;500;503.2;13.9;13.7;44;44.2;24.7;-1.0;
05/03/2025 12:57:56;117;0;125.13;-4;37.25;12.75;107.4;19.60;76431;2837.940;-1757.869;1;121;500;504.8;14.5;14.7;47;47.4;24.7;-1.0;
