Timestamp;NavState;SecurityLevel;Heading;Declination;Pitch;Roll;Depth;Temperature;Pa;Lat;Lon;DeadReckoning;DesiredH;BallastCmd;BallastPos;LinCmd;LinPos;AngCmd;AngPos;Voltage;Altitude;
13/02/2025 00:32:05;119;0;242.02;-4;-58.07;-21.93;-0.0;18.00;76160;2834.647;-1757.423;0;293;500;509.7;100.0;100.7;0;-0.5;28.8;-1.0;
13/02/2025 00:32:15;116;0;246.70;-4;-53.89;-15.96;-0.1;18.10;76163;2834.642;-1757.416;0;293;500;509.7;100.0;100.7;0;-0.5;28.9;-1.0;
13/02/2025 00:32:41;116;0;255.28;-4;-52.78;-6.48;-0.1;18.20;76182;2834.639;-1757.415;0;293;500;511.3;100.0;100.7;0;-0.5;28.9;-1.0;
13/02/2025 00:33:05;116;0;273.48;-4;-54.02;-10.88;0.1;18.30;76182;2834.639;-1757.414;0;293;500;509.7;100.0;100.7;0;-0.5;28.9;-1.0;
13/02/2025 00:33:18;116;0;281.19;-4;-51.65;-13.53;0.0;18.30;76193;2834.639;-1757.414;0;293;500;509.7;100.0;100.9;0;-0.5;28.8;-1.0;
13/02/2025 00:33:37;116;0;285.95;-4;-59.49;-10.95;-0.1;18.40;76194;2834.636;-1757.412;0;293;500;509.7;100.0;100.7;0;-0.5;28.9;-1.0;
13/02/2025 00:33:57;116;0;292.48;-4;-53.13;-13.97;-0.1;18.50;76205;2834.635;-1757.410;0;293;500;509.7;100.0;100.7;0;-0.5;28.9;-1.0;
13/02/2025 00:34:50;116;0;280.17;-4;-52.53;-10.64;0.0;18.80;76231;2834.629;-1757.407;0;293;500;509.7;100.0;100.7;0;-0.5;28.9;-1.0;
13/02/2025 00:35:10;116;0;287.11;-4;-53.59;-12.84;-0.0;19.00;76222;2834.626;-1757.406;0;293;500;509.7;100.0;100.7;0;-0.5;28.9;-1.0;
13/02/2025 00:35:30;116;0;306.06;-4;-53.65;-11.72;-0.0;19.10;76249;2834.626;-1757.403;0;293;500;511.3;100.0;100.7;0;-0.5;28.9;-1.0;
13/02/2025 00:36:33;116;0;282.73;-4;-53.99;-9.26;0.1;19.50;76258;2834.620;-1757.398;0;293;500;509.7;100.0;100.7;0;-0.5;28.9;-1.0;
13/02/2025 00:36:44;116;0;281.99;-4;-54.61;-10.85;-0.0;19.60;76265;2834.619;-1757.398;0;294;500;509.7;100.0;100.7;0;-0.5;28.9;-1.0;
13/02/2025 00:37:04;110;0;279.28;-4;-51.57;-12.93;0.1;19.70;76278;2834.619;-1757.398;0;294;-100;396.8;100.0;100.0;-2;-2.3;28.8;-1.0;
13/02/2025 00:37:14;110;0;274.49;-4;-55.25;-12.63;0.2;19.80;76619;2834.619;-1757.398;1;294;-100;246.8;100.0;99.7;-2;-2.3;28.8;-1.0;
13/02/2025 00:37:24;110;0;286.08;-4;-57.51;-15.25;0.7;19.80;76867;2834.619;-1757.398;1;294;-100;88.7;100.0;99.7;-2;-2.3;28.8;-1.0;
13/02/2025 00:37:34;110;0;287.11;-4;-69.46;-20.70;0.9;19.90;77194;2834.619;-1757.398;1;294;-100;-71.0;100.0;99.7;-2;-2.3;28.8;-1.0;
13/02/2025 00:37:44;110;0;298.46;-4;-66.60;-15.24;1.1;19.90;77545;2834.619;-1757.398;1;294;-100;-100.0;49.2;49.2;-2;-2.3;28.8;-1.0;
13/02/2025 00:37:54;110;0;311.43;-4;-55.76;-11.73;2.8;19.90;77561;2834.619;-1757.399;1;294;-100;-100.0;49.2;48.9;-2;-2.3;28.9;-1.0;
13/02/2025 00:38:14;100;0;322.39;-4;-30.06;-12.96;6.8;20.00;77567;2834.622;-1757.401;1;294;-100;-98.4;49.2;48.9;-2;-2.3;28.9;-1.0;
13/02/2025 00:38:34;100;0;327.12;-4;-29.46;-12.84;11.3;20.00;77562;2834.625;-1757.403;1;293;-100;-98.4;49.2;48.7;52;51.9;28.9;-1.0;
13/02/2025 00:38:54;100;0;323.83;-4;-33.37;14.09;15.7;20.00;77564;2834.628;-1757.405;1;293;-100;-98.4;48.2;48.0;48;47.8;28.9;0.0;
13/02/2025 00:39:14;100;0;315.58;-4;-32.76;11.59;20.3;20.10;77566;2834.630;-1757.407;1;293;-100;-96.8;47.4;47.1;34;33.8;28.8;0.0;
13/02/2025 00:39:34;100;0;308.79;-4;-30.85;4.65;25.0;20.10;77569;2834.633;-1757.410;1;293;-100;-98.4;47.4;47.1;23;22.6;28.9;0.0;
13/02/2025 00:39:54;100;0;306.17;-4;-29.61;-0.67;29.5;20.10;77563;2834.635;-1757.414;1;293;-100;-96.8;47.4;47.1;19;19.0;28.9;0.0;
13/02/2025 00:40:14;100;0;303.40;-4;-29.06;-2.46;33.9;20.10;77566;2834.637;-1757.417;1;293;-100;-96.8;47.4;47.1;16;15.8;28.9;0.0;
13/02/2025 00:40:34;100;0;299.20;-4;-28.81;-4.19;38.3;20.00;77567;2834.639;-1757.421;1;293;-100;-98.4;47.7;47.7;13;12.6;28.8;0.0;
13/02/2025 00:40:54;100;0;297.11;-4;-28.74;-5.53;42.9;20.10;77572;2834.641;-1757.424;1;293;-100;-96.8;48.1;48.3;13;12.2;28.9;0.0;
13/02/2025 00:41:14;100;0;293.92;-4;-30.02;-5.62;47.4;20.00;77570;2834.642;-1757.428;1;293;-100;-98.4;48.1;48.6;11;10.8;28.9;0.0;
13/02/2025 00:41:34;100;0;292.95;-4;-30.29;-6.07;52.1;20.10;77569;2834.644;-1757.432;1;293;-100;-96.8;48.1;48.6;11;10.8;28.9;0.0;
13/02/2025 00:41:54;100;0;291.90;-4;-30.84;-6.11;56.9;20.00;77576;2834.645;-1757.436;1;293;-100;-96.8;48.1;48.6;11;11.3;28.9;0.0;
13/02/2025 00:42:14;100;0;292.02;-4;-30.39;-6.05;61.9;20.00;77582;2834.647;-1757.440;1;293;-100;-96.8;48.1;48.6;11;11.3;28.9;0.0;
13/02/2025 00:42:34;100;0;292.40;-4;-30.26;-6.16;66.9;20.00;77580;2834.648;-1757.444;1;293;-100;-96.8;48.1;48.6;11;11.3;28.9;0.0;
13/02/2025 00:42:54;100;0;292.80;-4;-30.36;-6.14;71.6;20.00;77585;2834.650;-1757.448;1;293;-100;-96.8;48.1;48.6;11;11.3;28.9;0.0;
13/02/2025 00:43:14;100;0;293.22;-4;-30.21;-6.14;76.5;20.00;77591;2834.652;-1757.453;1;293;-100;-96.8;48.1;48.6;11;11.3;28.9;0.0;
13/02/2025 00:43:34;100;0;294.41;-4;-30.31;-6.09;81.4;20.00;77595;2834.653;-1757.457;1;293;-100;-96.8;48.1;48.6;11;11.3;28.8;0.0;
13/02/2025 00:43:54;100;0;295.22;-4;-30.33;-6.10;86.3;20.00;77598;2834.655;-1757.461;1;293;-100;-100.0;48.1;48.6;11;11.3;28.9;0.0;
13/02/2025 00:44:14;100;0;297.24;-4;-30.32;-6.11;91.2;20.00;77592;2834.657;-1757.465;1;293;-100;-96.8;48.1;48.6;11;11.3;28.9;0.0;
13/02/2025 00:44:34;100;0;301.05;-4;-29.01;-6.15;96.1;20.00;77584;2834.659;-1757.469;1;293;-100;-96.8;48.1;48.6;14;14.0;28.9;0.0;
13/02/2025 00:44:54;100;0;304.39;-4;-29.26;-4.50;100.6;20.00;77550;2834.661;-1757.472;1;293;-100;-96.8;48.1;48.6;17;17.6;28.8;0.0;
13/02/2025 00:45:14;100;0;304.12;-4;-30.06;-2.90;104.9;20.00;77521;2834.663;-1757.475;1;293;-100;-96.8;48.1;48.6;17;17.6;28.9;0.0;
13/02/2025 00:45:34;100;0;307.50;-4;-30.82;-2.85;109.5;19.90;77505;2834.666;-1757.478;1;293;-100;-96.8;48.1;48.6;21;21.2;28.9;0.0;
13/02/2025 00:45:54;100;0;309.13;-4;-30.69;-0.84;114.2;19.90;77478;2834.668;-1757.481;1;293;-100;-98.4;48.1;48.6;24;23.9;28.9;0.0;
13/02/2025 00:46:14;100;0;295.14;-4;-29.46;0.36;118.8;19.90;77442;2834.670;-1757.485;1;293;-100;-96.8;48.1;48.6;12;12.2;28.8;0.0;
13/02/2025 00:46:34;100;0;290.61;-4;-29.41;-6.07;122.9;19.80;77415;2834.671;-1757.489;1;293;-100;-100.0;48.1;48.6;12;11.7;28.9;0.0;
13/02/2025 00:46:54;100;0;287.65;-4;-29.95;-5.81;127.2;19.80;77386;2834.672;-1757.493;1;293;-100;-96.8;48.1;48.6;12;11.7;28.9;0.0;
13/02/2025 00:47:14;100;0;280.33;-4;-29.79;-5.91;131.5;19.80;77354;2834.673;-1757.497;1;293;-100;-96.8;48.1;48.6;7;6.8;28.9;0.0;
13/02/2025 00:47:34;100;0;280.05;-4;-29.19;-8.33;135.9;19.70;77339;2834.673;-1757.501;1;293;-100;-96.8;48.1;48.6;7;6.3;28.9;0.0;
13/02/2025 00:47:54;100;0;279.25;-4;-29.43;-8.40;140.1;19.70;77318;2834.674;-1757.505;1;293;-100;-96.8;48.1;48.6;7;6.3;28.9;0.0;
13/02/2025 00:48:14;100;0;279.35;-4;-30.05;-8.38;144.6;19.60;77303;2834.674;-1757.509;1;293;-100;-96.8;48.1;48.6;7;6.8;28.9;0.0;
13/02/2025 00:48:34;100;0;277.86;-4;-29.86;-8.35;149.1;19.60;77282;2834.675;-1757.513;1;293;-100;-96.8;48.1;48.6;4;4.1;28.9;0.0;
13/02/2025 00:48:54;100;0;282.34;-4;-29.31;-9.82;153.6;19.50;77255;2834.676;-1757.517;1;293;-100;-96.8;48.1;48.6;9;9.5;28.9;0.0;
13/02/2025 00:49:14;100;0;288.68;-4;-29.61;-6.81;158.0;19.50;77241;2834.677;-1757.521;1;293;-100;-98.4;48.1;48.6;11;10.8;28.9;0.0;
13/02/2025 00:49:34;100;0;291.75;-4;-30.12;-5.90;162.5;19.40;77222;2834.678;-1757.524;1;293;-100;-96.8;48.1;48.6;11;11.3;28.9;0.0;
13/02/2025 00:49:54;100;0;289.97;-4;-29.69;-5.95;167.0;19.40;77205;2834.679;-1757.528;1;293;-100;-100.0;48.1;48.6;11;11.3;28.9;0.0;
13/02/2025 00:50:14;100;0;290.20;-4;-29.65;-6.00;171.4;19.30;77181;2834.681;-1757.532;1;293;-100;-96.8;48.1;48.6;11;11.3;28.9;0.0;
13/02/2025 00:50:34;100;0;289.19;-4;-29.85;-5.92;175.8;19.30;77162;2834.682;-1757.536;1;293;-100;-98.4;48.1;48.6;11;11.3;28.9;0.0;
13/02/2025 00:50:54;100;0;284.29;-4;-29.47;-5.94;180.2;19.20;77150;2834.683;-1757.540;1;293;-100;-96.8;48.1;48.6;11;11.3;28.8;0.0;
13/02/2025 00:51:14;100;0;281.26;-4;-29.37;-5.93;184.5;19.20;77141;2834.683;-1757.544;1;293;-100;-96.8;48.1;48.6;7;7.2;28.9;0.0;
13/02/2025 00:51:34;100;0;284.61;-4;-29.01;-8.03;188.7;19.10;77131;2834.684;-1757.548;1;293;-100;-96.8;48.1;48.6;10;9.9;28.9;0.0;
13/02/2025 00:51:54;100;0;285.80;-4;-29.32;-6.64;193.1;19.10;77110;2834.685;-1757.552;1;293;-100;-98.4;48.1;48.6;10;10.4;28.9;0.0;
13/02/2025 00:52:14;100;0;284.39;-4;-29.31;-6.59;197.5;19.00;77101;2834.686;-1757.556;1;293;-100;-98.4;48.1;48.6;10;10.4;28.8;0.0;
13/02/2025 00:52:34;100;0;279.59;-4;-29.09;-6.68;201.6;19.00;77080;2834.687;-1757.559;1;293;-100;-98.4;48.1;48.6;6;5.9;28.9;0.0;
13/02/2025 00:52:54;100;0;279.87;-4;-28.27;-9.09;205.7;18.90;77072;2834.687;-1757.563;1;293;-100;-98.4;48.6;48.6;6;5.4;28.9;0.0;
13/02/2025 00:53:14;100;0;286.17;-4;-28.82;-9.07;209.7;18.90;77060;2834.688;-1757.567;1;293;-100;-96.8;49.0;49.3;10;9.9;28.9;0.0;
13/02/2025 00:53:34;100;0;291.44;-4;-31.50;-6.49;214.0;18.80;77037;2834.689;-1757.570;1;293;-100;-96.8;49.0;49.3;10;10.4;28.9;0.0;
13/02/2025 00:53:54;100;0;295.16;-4;-31.83;-6.29;218.9;18.80;77015;2834.691;-1757.574;1;293;-100;-96.8;49.0;49.3;10;10.4;28.9;0.0;
13/02/2025 00:54:14;100;0;296.77;-4;-31.42;-6.46;223.6;18.70;77004;2834.693;-1757.578;1;293;-100;-96.8;49.0;49.3;10;10.4;28.9;0.0;
13/02/2025 00:54:34;100;0;302.48;-4;-31.53;-6.32;228.4;18.60;76985;2834.695;-1757.581;1;293;-100;-98.4;49.0;49.3;15;14.9;28.9;0.0;
13/02/2025 00:54:54;100;0;306.95;-4;-31.44;-4.07;233.3;18.60;76970;2834.697;-1757.585;1;293;-100;-98.4;49.0;49.5;20;19.9;28.9;0.0;
13/02/2025 00:55:14;100;0;304.21;-4;-31.09;-1.71;238.1;18.50;76950;2834.699;-1757.588;1;293;-100;-96.8;49.0;49.5;16;15.8;28.9;0.0;
13/02/2025 00:55:34;100;0;303.03;-4;-30.88;-4.14;242.7;18.50;76930;2834.701;-1757.591;1;293;-100;-98.4;49.0;49.5;16;15.3;28.9;0.0;
13/02/2025 00:55:54;100;0;300.30;-4;-30.22;-4.23;247.2;18.40;76911;2834.703;-1757.595;1;293;-100;-100.0;49.0;49.5;13;13.1;28.8;0.0;
13/02/2025 00:56:14;100;0;296.72;-4;-30.18;-5.37;251.6;18.30;76908;2834.705;-1757.598;1;293;-100;-96.8;49.0;49.5;13;13.1;28.9;0.0;
13/02/2025 00:56:34;100;0;294.14;-4;-30.56;-5.17;255.9;18.30;76900;2834.706;-1757.602;1;293;-100;-96.8;49.0;49.5;11;10.4;28.9;0.0;
13/02/2025 00:56:54;100;0;293.22;-4;-31.70;-6.25;260.5;18.20;76880;2834.708;-1757.605;1;293;-100;-96.8;49.0;49.5;11;10.8;28.9;0.0;
13/02/2025 00:57:14;100;0;292.59;-4;-31.20;-6.30;265.3;18.20;76861;2834.709;-1757.609;1;293;-100;-96.8;49.0;49.5;11;10.8;28.9;0.0;
13/02/2025 00:57:34;100;0;290.85;-4;-30.89;-6.31;270.0;18.10;76843;2834.711;-1757.613;1;293;-100;-96.8;49.0;49.5;11;10.8;28.9;0.0;
13/02/2025 00:57:54;100;0;289.44;-4;-30.50;-6.46;274.7;18.00;76838;2834.712;-1757.617;1;293;-100;-96.8;49.0;49.5;11;10.8;28.9;0.0;
13/02/2025 00:58:14;100;0;287.21;-4;-30.19;-6.33;279.4;18.00;76821;2834.713;-1757.621;1;293;-100;-96.8;49.0;49.5;11;10.8;28.9;0.0;
13/02/2025 00:58:34;100;0;284.44;-4;-30.44;-6.17;284.0;17.90;76815;2834.714;-1757.625;1;293;-100;-98.4;49.0;49.5;11;10.8;28.9;0.0;
13/02/2025 00:58:54;100;0;284.44;-4;-30.60;-6.44;288.5;17.90;76796;2834.715;-1757.629;1;293;-100;-96.8;49.0;49.5;11;10.8;28.8;0.0;
13/02/2025 00:59:14;100;0;286.07;-4;-30.54;-6.28;293.3;17.80;76788;2834.716;-1757.633;1;293;-100;-96.8;49.0;49.5;11;10.8;28.9;0.0;
13/02/2025 00:59:34;100;0;286.06;-4;-30.31;-6.37;297.9;17.80;76770;2834.717;-1757.637;1;293;-100;-96.8;49.0;49.5;11;10.8;28.9;0.0;
13/02/2025 00:59:55;100;0;284.59;-4;-30.93;-6.37;302.6;17.70;76762;2834.718;-1757.641;1;293;-100;-98.4;49.0;49.5;11;10.8;28.9;0.0;
13/02/2025 01:00:15;100;0;283.77;-4;-30.17;-6.27;307.1;17.60;76736;2834.719;-1757.645;1;293;-100;-98.4;49.0;49.5;9;9.0;28.9;0.0;
13/02/2025 01:00:35;100;0;284.68;-4;-29.67;-7.33;311.6;17.60;76722;2834.719;-1757.649;1;293;-100;-96.8;49.0;49.5;9;8.6;28.9;0.0;
13/02/2025 01:00:55;100;0;286.76;-4;-30.16;-7.49;316.0;17.50;76705;2834.720;-1757.653;1;293;-100;-96.8;49.0;49.5;11;10.8;28.9;0.0;
13/02/2025 01:01:15;100;0;287.02;-4;-30.69;-6.04;320.6;17.40;76683;2834.721;-1757.657;1;293;-100;-96.8;49.0;49.5;11;11.3;28.9;0.0;
13/02/2025 01:01:35;100;0;289.08;-4;-30.66;-6.05;325.3;17.40;76680;2834.723;-1757.661;1;293;-100;-96.8;49.0;49.5;11;11.3;28.9;0.0;
13/02/2025 01:01:55;100;0;290.45;-4;-30.55;-5.93;330.1;17.30;76663;2834.724;-1757.665;1;293;-100;-98.4;49.0;49.3;11;11.3;28.9;0.0;
13/02/2025 01:02:15;100;0;288.67;-4;-30.76;-6.05;334.9;17.30;76651;2834.725;-1757.669;1;293;-100;-96.8;49.0;49.5;11;11.3;28.8;0.0;
13/02/2025 01:02:35;100;0;289.13;-4;-31.17;-6.00;339.8;17.20;76652;2834.727;-1757.673;1;293;-100;-96.8;49.0;49.5;11;11.3;28.9;0.0;
13/02/2025 01:02:55;100;0;292.20;-4;-30.99;-6.08;344.8;17.10;76637;2834.728;-1757.677;1;293;-100;-96.8;49.0;49.5;11;11.3;28.9;0.0;
13/02/2025 01:03:15;100;0;295.84;-4;-30.78;-5.79;349.7;17.10;76629;2834.730;-1757.681;1;293;-100;-96.8;49.0;49.5;11;11.3;28.8;0.0;
13/02/2025 01:03:35;100;0;298.23;-4;-31.12;-5.98;354.6;17.00;76614;2834.732;-1757.684;1;293;-100;-96.8;49.0;49.5;11;11.3;28.8;0.0;
13/02/2025 01:03:55;100;0;304.65;-4;-30.01;-5.73;359.5;17.00;76611;2834.734;-1757.688;1;293;-100;-96.8;49.0;49.3;17;17.1;28.9;0.0;
13/02/2025 01:04:15;100;0;303.81;-4;-30.41;-3.07;363.9;16.90;76588;2834.736;-1757.691;1;293;-100;-96.8;49.0;49.3;17;17.6;28.9;0.0;
13/02/2025 01:04:35;100;0;301.76;-4;-30.56;-3.16;368.5;16.90;76577;2834.738;-1757.695;1;293;-100;-98.4;49.0;49.3;14;14.0;28.9;0.0;
13/02/2025 01:04:55;100;0;299.75;-4;-29.57;-4.81;372.9;16.80;76573;2834.740;-1757.698;1;293;-100;-96.8;49.0;49.5;14;14.0;28.9;0.0;
13/02/2025 01:05:15;100;0;297.87;-4;-30.54;-4.82;377.3;16.80;76559;2834.742;-1757.702;1;293;-100;-96.8;49.0;49.5;12;12.2;28.9;0.0;
13/02/2025 01:05:35;100;0;296.35;-4;-30.68;-5.83;381.8;16.70;76553;2834.743;-1757.705;1;293;-100;-98.4;49.0;49.3;12;11.7;28.8;0.0;
13/02/2025 01:05:55;100;0;292.93;-4;-30.50;-5.90;386.3;16.60;76532;2834.745;-1757.709;1;293;-100;-96.8;49.0;49.5;12;11.7;28.9;0.0;
13/02/2025 01:06:15;100;0;287.60;-4;-29.77;-5.88;390.6;16.60;76519;2834.746;-1757.712;1;293;-100;-98.4;49.0;49.5;12;11.7;28.9;0.0;
13/02/2025 01:06:35;100;0;284.38;-4;-29.89;-5.91;394.8;16.50;76514;2834.746;-1757.716;1;293;-100;-95.2;49.0;49.3;10;9.9;28.9;0.0;
13/02/2025 01:06:55;100;0;283.40;-4;-30.04;-6.43;398.9;16.50;76499;2834.747;-1757.720;1;293;-100;-98.4;49.0;49.5;10;10.8;28.9;0.0;
13/02/2025 01:07:15;100;0;282.62;-4;-29.93;-6.41;403.1;16.40;76497;2834.748;-1757.723;1;293;-100;-96.8;49.0;49.5;8;8.1;28.9;0.0;
13/02/2025 01:07:35;100;0;283.39;-4;-29.89;-7.74;407.1;16.40;76493;2834.749;-1757.727;1;293;-100;-98.4;49.0;49.3;8;8.1;28.9;0.0;
13/02/2025 01:07:55;100;0;284.64;-4;-29.71;-7.88;411.3;16.30;76481;2834.749;-1757.731;1;293;-100;-96.8;49.0;49.3;10;9.9;28.8;0.0;
13/02/2025 01:08:15;100;0;284.23;-4;-30.22;-6.65;415.3;16.20;76470;2834.750;-1757.734;1;293;-100;-98.4;49.0;49.5;10;10.4;28.8;0.0;
13/02/2025 01:08:35;100;0;286.24;-4;-30.37;-6.57;419.6;16.20;76464;2834.751;-1757.738;1;293;-100;-96.8;49.0;49.5;10;10.4;28.9;0.0;
13/02/2025 01:08:55;100;0;288.46;-4;-30.40;-6.59;423.8;16.10;76460;2834.752;-1757.741;1;294;-100;-98.4;49.0;49.5;10;9.9;28.9;0.0;
13/02/2025 01:09:15;100;0;287.06;-4;-30.90;-6.54;428.0;16.10;76449;2834.753;-1757.745;1;294;-100;-96.8;49.0;49.5;10;9.9;28.8;0.0;
13/02/2025 01:09:35;100;0;284.28;-4;-30.28;-6.58;432.3;16.00;76435;2834.754;-1757.749;1;294;-100;-96.8;49.0;49.5;10;9.9;28.9;0.0;
13/02/2025 01:09:55;100;0;285.04;-4;-30.33;-6.64;436.5;16.00;76420;2834.755;-1757.752;1;294;-100;-96.8;49.0;49.5;10;9.9;28.9;0.0;
13/02/2025 01:10:15;100;0;287.62;-4;-30.81;-6.54;440.8;15.90;76408;2834.756;-1757.756;1;294;-100;-96.8;49.0;49.5;10;9.9;28.8;0.0;
13/02/2025 01:10:35;100;0;292.26;-4;-30.56;-6.61;445.0;15.90;76408;2834.757;-1757.759;1;294;-100;-96.8;49.0;49.3;10;9.9;28.9;0.0;
13/02/2025 01:10:55;100;0;290.92;-4;-30.70;-6.66;449.2;15.90;76402;2834.758;-1757.763;1;294;-100;-95.2;49.0;49.3;10;9.9;28.8;0.0;
13/02/2025 01:11:15;100;0;287.29;-4;-30.90;-6.63;453.5;15.80;76391;2834.759;-1757.766;1;294;-100;-100.0;49.0;49.5;10;9.9;28.9;0.0;
13/02/2025 01:11:35;100;0;290.97;-4;-30.79;-6.59;457.9;15.70;76369;2834.761;-1757.770;1;294;-100;-96.8;49.0;49.5;10;10.4;28.8;0.0;
13/02/2025 01:11:55;100;0;292.73;-4;-30.59;-6.63;462.1;15.70;76363;2834.762;-1757.773;1;294;-100;-96.8;49.0;49.5;10;9.9;28.9;0.0;
13/02/2025 01:12:15;100;0;295.34;-4;-30.28;-6.63;466.4;15.70;76359;2834.763;-1757.777;1;294;-100;-96.8;49.0;49.5;10;9.9;28.9;0.0;
13/02/2025 01:12:35;100;0;297.16;-4;-30.15;-6.47;470.7;15.60;76343;2834.765;-1757.780;1;294;-100;-96.8;49.0;49.5;10;9.9;28.9;0.0;
13/02/2025 01:12:55;100;0;295.98;-4;-29.51;-6.65;474.7;15.60;76336;2834.767;-1757.783;1;294;-100;-98.4;49.0;49.5;10;9.9;28.8;0.0;
13/02/2025 01:13:15;100;0;293.69;-4;-29.70;-6.70;478.6;15.50;76316;2834.768;-1757.786;1;294;-100;-96.8;49.0;49.5;10;9.9;28.8;0.0;
13/02/2025 01:13:35;100;0;292.84;-4;-29.71;-6.71;482.6;15.40;76307;2834.769;-1757.790;1;294;-100;-98.4;49.0;49.5;10;9.9;28.8;0.0;
13/02/2025 01:13:55;100;0;292.76;-4;-29.53;-6.68;486.5;15.40;76300;2834.770;-1757.793;1;294;-100;-98.4;49.0;49.5;10;9.9;28.9;0.0;
13/02/2025 01:14:15;100;0;291.91;-4;-29.77;-6.68;490.4;15.40;76299;2834.772;-1757.796;1;294;-100;-96.8;49.0;49.5;10;9.9;28.9;0.0;
13/02/2025 01:14:35;100;0;292.04;-4;-29.83;-6.66;494.3;15.30;76286;2834.773;-1757.799;1;294;-100;-98.4;49.0;49.3;10;10.4;28.9;0.0;
13/02/2025 01:14:55;100;0;290.35;-4;-29.64;-6.72;498.4;15.30;76279;2834.774;-1757.803;1;294;-100;-96.8;49.0;49.5;10;9.9;28.8;0.0;
13/02/2025 01:14:58;118;0;290.34;-4;-29.57;-6.72;498.9;15.30;76291;2834.774;-1757.803;1;294;220;-91.9;20.4;20.5;2;1.4;28.9;0.0;
13/02/2025 01:15:08;118;0;317.62;-4;-15.64;-11.85;500.4;15.30;76257;2834.776;-1757.805;1;294;220;37.1;20.4;20.2;2;1.4;28.2;-1.0;
13/02/2025 01:15:18;118;0;358.72;-4;13.69;-11.93;500.7;15.20;75974;2834.776;-1757.805;1;294;220;164.5;20.4;20.6;2;1.4;28.2;-1.0;
13/02/2025 01:15:28;118;0;358.93;-4;27.58;-12.79;499.8;15.20;75716;2834.777;-1757.804;1;293;220;222.6;20.4;20.8;2;1.4;28.2;-1.0;
13/02/2025 01:15:38;118;0;300.53;-4;29.65;-12.48;498.5;15.20;75613;2834.777;-1757.805;1;293;220;222.6;20.4;20.8;2;1.4;28.8;-1.0;
13/02/2025 01:15:58;117;0;294.73;-4;30.00;-12.42;495.4;15.20;75622;2834.778;-1757.808;1;293;220;222.6;20.4;20.9;2;1.4;28.8;-1.0;
13/02/2025 01:16:18;117;0;287.40;-4;29.96;-12.48;491.8;15.10;75607;2834.779;-1757.811;1;293;220;224.2;20.4;20.9;15;14.9;28.8;-1.0;
13/02/2025 01:16:38;117;0;283.93;-4;31.19;-4.70;488.5;15.10;75596;2834.780;-1757.813;1;294;220;222.6;20.4;20.8;17;17.1;28.9;-1.0;
13/02/2025 01:16:58;117;0;279.77;-4;31.61;-3.59;485.1;15.00;75587;2834.780;-1757.816;1;294;220;222.6;20.4;20.8;21;21.2;28.8;-1.0;
13/02/2025 01:17:18;117;0;275.82;-4;32.03;-1.31;481.6;15.00;75574;2834.780;-1757.819;1;294;220;222.6;21.0;21.2;26;26.6;28.9;-1.0;
13/02/2025 01:17:38;117;0;272.91;-4;32.03;1.44;478.0;15.00;75588;2834.781;-1757.822;1;294;220;222.6;21.6;21.9;31;31.1;28.8;-1.0;
13/02/2025 01:17:58;117;0;271.06;-4;31.20;3.85;474.5;14.90;75571;2834.781;-1757.825;1;294;220;222.6;21.6;21.8;34;33.8;28.8;-1.0;
13/02/2025 01:18:18;117;0;270.43;-4;31.14;5.29;471.0;14.90;75565;2834.780;-1757.828;1;294;220;222.6;21.6;21.8;36;36.1;28.9;-1.0;
13/02/2025 01:18:38;117;0;270.91;-4;31.34;6.55;467.6;14.80;75558;2834.780;-1757.831;1;294;220;222.6;21.6;21.9;36;36.6;28.8;-1.0;
13/02/2025 01:18:58;117;0;267.58;-4;31.51;6.74;464.1;14.80;75558;2834.780;-1757.834;1;294;220;222.6;21.6;21.9;41;41.1;28.9;-1.0;
13/02/2025 01:19:18;117;0;267.46;-4;31.07;9.35;460.8;14.80;75551;2834.780;-1757.837;1;294;220;222.6;21.6;21.9;41;41.5;28.9;-1.0;
13/02/2025 01:19:38;117;0;267.96;-4;31.20;9.40;457.4;14.70;75562;2834.780;-1757.839;1;294;220;222.6;21.6;21.9;41;41.5;28.9;-1.0;
13/02/2025 01:19:58;117;0;268.45;-4;31.55;9.23;454.2;14.70;75560;2834.780;-1757.842;1;294;220;222.6;21.6;21.9;39;38.4;28.8;-1.0;
13/02/2025 01:20:18;117;0;267.14;-4;31.09;7.36;451.0;14.70;75567;2834.779;-1757.845;1;294;220;224.2;21.6;21.9;41;41.5;28.8;-1.0;
13/02/2025 01:20:38;117;0;268.49;-4;31.38;9.30;447.8;14.60;75547;2834.779;-1757.847;1;294;220;224.2;21.6;21.9;39;38.8;28.8;-1.0;
13/02/2025 01:20:58;117;0;271.28;-4;31.08;7.56;444.7;14.60;75553;2834.779;-1757.850;1;294;220;224.2;21.6;21.9;34;33.8;28.9;-1.0;
13/02/2025 01:21:18;117;0;275.29;-4;30.87;5.01;441.6;14.60;75550;2834.779;-1757.853;1;295;220;222.6;21.6;21.9;29;28.9;28.8;-1.0;
13/02/2025 01:21:38;117;0;276.61;-4;30.45;2.43;438.5;14.60;75550;2834.779;-1757.855;1;295;220;222.6;21.6;21.9;27;27.1;28.8;-1.0;
13/02/2025 01:21:58;117;0;271.46;-4;30.33;1.31;435.4;14.50;75547;2834.779;-1757.858;1;295;220;222.6;21.6;21.8;36;36.1;28.8;-1.0;
13/02/2025 01:22:18;117;0;270.63;-4;29.86;6.31;432.3;14.50;75550;2834.779;-1757.861;1;295;220;222.6;21.6;21.9;36;36.6;28.8;-1.0;
13/02/2025 01:22:38;117;0;269.79;-4;31.01;6.33;429.5;14.50;75552;2834.779;-1757.863;1;295;220;222.6;21.6;21.9;36;36.6;28.9;-1.0;
13/02/2025 01:22:58;117;0;270.00;-4;31.07;6.65;426.6;14.50;75544;2834.779;-1757.865;1;295;220;222.6;21.6;21.9;36;36.6;28.8;-1.0;
13/02/2025 01:23:18;117;0;269.79;-4;30.64;6.45;423.5;14.40;75549;2834.779;-1757.868;1;295;220;222.6;21.6;21.9;39;38.8;28.9;-1.0;
13/02/2025 01:23:38;117;0;272.32;-4;30.99;7.88;420.5;14.40;75539;2834.779;-1757.870;1;295;220;222.6;21.6;21.9;34;33.8;28.8;-1.0;
13/02/2025 01:23:58;117;0;275.30;-4;30.64;5.42;417.5;14.40;75544;2834.779;-1757.873;1;295;220;224.2;21.6;21.9;29;28.9;28.8;-1.0;
13/02/2025 01:24:18;117;0;274.78;-4;30.48;2.28;414.6;14.40;75543;2834.779;-1757.875;1;295;220;224.2;21.6;21.9;29;28.9;28.9;-1.0;
13/02/2025 01:24:38;117;0;270.93;-4;30.36;2.29;411.8;14.40;75539;2834.779;-1757.878;1;295;220;222.6;21.6;21.8;35;35.6;28.8;-1.0;
13/02/2025 01:24:58;117;0;270.42;-4;30.55;6.30;408.9;14.40;75542;2834.779;-1757.880;1;295;220;222.6;21.6;21.8;35;36.1;28.9;-1.0;
13/02/2025 01:25:18;117;0;270.58;-4;31.16;6.30;406.0;14.30;75554;2834.779;-1757.883;1;295;220;222.6;21.6;21.9;35;36.1;28.9;-1.0;
13/02/2025 01:25:38;117;0;270.16;-4;31.07;6.24;402.9;14.30;75552;2834.779;-1757.885;1;295;220;222.6;21.6;21.9;38;38.4;28.8;-1.0;
13/02/2025 01:25:58;117;0;269.82;-4;31.32;7.68;399.8;14.30;75549;2834.779;-1757.888;1;295;220;221.0;21.6;21.9;38;38.8;28.9;-1.0;
13/02/2025 01:26:18;117;0;268.75;-4;31.33;7.66;396.7;14.30;75543;2834.779;-1757.890;1;296;220;222.6;21.6;21.9;41;41.1;28.8;-1.0;
13/02/2025 01:26:38;117;0;268.64;-4;31.41;9.00;393.5;14.30;75543;2834.779;-1757.893;1;296;220;222.6;21.6;21.9;41;41.1;28.8;-1.0;
13/02/2025 01:26:58;117;0;269.03;-4;31.59;9.07;390.2;14.30;75540;2834.778;-1757.896;1;296;220;222.6;21.6;21.9;41;41.1;28.8;-1.0;
13/02/2025 01:27:18;117;0;270.02;-4;31.73;9.08;387.0;14.30;75541;2834.778;-1757.898;1;296;220;224.2;21.6;21.9;39;37.9;28.8;-1.0;
13/02/2025 01:27:38;117;0;272.45;-4;30.95;7.22;383.7;14.20;75542;2834.778;-1757.901;1;296;220;222.6;21.6;22.1;36;34.7;28.8;-1.0;
13/02/2025 01:27:58;117;0;274.70;-4;31.11;6.61;380.5;14.20;75526;2834.779;-1757.904;1;296;220;222.6;21.6;21.9;31;31.1;28.8;-1.0;
13/02/2025 01:28:18;117;0;273.96;-4;30.78;3.48;377.4;14.20;75536;2834.779;-1757.906;1;296;220;222.6;21.6;21.9;31;30.7;28.9;-1.0;
13/02/2025 01:28:38;117;0;272.33;-4;30.53;3.47;374.3;14.20;75541;2834.779;-1757.909;1;296;220;224.2;21.6;21.9;35;35.6;28.9;-1.0;
13/02/2025 01:28:58;117;0;271.49;-4;30.44;6.21;371.2;14.20;75536;2834.779;-1757.912;1;296;220;222.6;21.6;21.9;35;36.1;28.8;-1.0;
13/02/2025 01:29:18;117;0;271.58;-4;30.35;6.33;368.3;14.20;75553;2834.779;-1757.914;1;296;220;222.6;21.6;21.8;35;36.1;28.8;-1.0;
13/02/2025 01:29:38;117;0;270.25;-4;30.82;6.27;365.3;14.20;75545;2834.778;-1757.917;1;296;220;221.0;21.6;21.9;38;38.4;28.8;-1.0;
13/02/2025 01:29:58;117;0;268.32;-4;31.31;7.67;362.2;14.20;75532;2834.778;-1757.919;1;296;220;222.6;21.6;21.8;42;42.0;28.8;-1.0;
13/02/2025 01:30:18;117;0;266.75;-4;30.91;9.52;359.1;14.20;75549;2834.778;-1757.922;1;296;220;222.6;21.6;21.9;44;44.2;28.8;-1.0;
13/02/2025 01:30:38;117;0;265.90;-4;30.97;10.87;356.0;14.20;75546;2834.778;-1757.924;1;297;220;222.6;21.6;21.9;47;46.9;28.8;-1.0;
13/02/2025 01:30:58;117;0;264.60;-4;31.34;12.04;353.1;14.20;75555;2834.777;-1757.927;1;297;220;222.6;21.6;21.9;49;49.2;28.8;-1.0;
13/02/2025 01:31:18;117;0;267.66;-4;30.77;14.00;350.1;14.20;75566;2834.777;-1757.929;1;297;220;222.6;21.6;21.9;45;45.1;28.9;-1.0;
13/02/2025 01:31:38;117;0;266.79;-4;30.72;10.95;347.2;14.10;75567;2834.777;-1757.932;1;297;220;222.6;21.6;21.9;45;44.7;28.8;-1.0;
13/02/2025 01:31:58;117;0;268.03;-4;31.17;10.85;344.5;14.20;75572;2834.777;-1757.934;1;297;220;221.0;21.6;21.9;45;44.7;28.8;-1.0;
13/02/2025 01:32:18;117;0;267.94;-4;31.04;11.12;341.7;14.20;75569;2834.777;-1757.936;1;297;220;222.6;21.6;21.9;45;44.7;28.8;-1.0;
13/02/2025 01:32:38;117;0;268.46;-4;30.94;10.71;338.9;14.10;75567;2834.776;-1757.938;1;297;220;222.6;21.6;21.9;43;42.9;28.8;-1.0;
13/02/2025 01:32:58;117;0;268.06;-4;30.82;9.48;336.1;14.20;75572;2834.776;-1757.941;1;297;220;222.6;21.6;21.9;43;42.4;28.9;-1.0;
13/02/2025 01:33:18;117;0;269.04;-4;30.86;9.43;333.3;14.20;75570;2834.776;-1757.943;1;297;220;222.6;21.6;21.8;43;42.4;28.8;-1.0;
13/02/2025 01:33:38;117;0;271.83;-4;30.96;9.48;330.4;14.10;75562;2834.776;-1757.945;1;297;220;222.6;21.6;21.9;38;37.5;28.8;-1.0;
13/02/2025 01:33:58;117;0;270.84;-4;30.54;6.99;327.8;14.20;75575;2834.776;-1757.948;1;297;220;222.6;21.6;21.9;38;37.5;28.8;-1.0;
13/02/2025 01:34:19;117;0;269.38;-4;30.79;6.95;325.0;14.20;75578;2834.776;-1757.950;1;297;220;224.2;21.6;21.9;42;42.0;28.8;-1.0;
13/02/2025 01:34:39;117;0;269.00;-4;31.12;9.52;322.2;14.20;75572;2834.776;-1757.952;1;298;220;224.2;21.6;21.9;44;44.2;28.8;-1.0;
13/02/2025 01:34:59;117;0;270.20;-4;31.39;10.90;319.4;14.20;75586;2834.776;-1757.955;1;298;220;224.2;21.6;21.9;42;42.0;28.8;-1.0;
13/02/2025 01:35:19;117;0;270.94;-4;31.37;9.13;316.4;14.20;75583;2834.776;-1757.957;1;298;220;222.6;21.6;21.9;42;41.5;28.9;-1.0;
13/02/2025 01:35:39;117;0;271.75;-4;31.26;9.12;313.4;14.20;75601;2834.776;-1757.959;1;298;220;222.6;21.6;21.9;40;40.2;28.9;-1.0;
13/02/2025 01:35:59;117;0;269.88;-4;30.82;8.10;310.4;14.10;75587;2834.776;-1757.962;1;298;220;224.2;21.6;21.9;43;42.9;28.8;-1.0;
13/02/2025 01:36:19;117;0;269.79;-4;30.94;10.08;307.5;14.20;75603;2834.775;-1757.964;1;298;220;224.2;21.6;21.9;43;43.3;28.8;-1.0;
13/02/2025 01:36:39;117;0;269.40;-4;31.20;10.19;304.6;14.20;75606;2834.775;-1757.967;1;298;220;224.2;21.6;21.9;43;43.3;28.8;-1.0;
13/02/2025 01:36:59;117;0;272.06;-4;31.26;10.16;301.6;14.20;75606;2834.775;-1757.969;1;298;220;222.6;21.6;21.9;39;38.8;28.9;-1.0;
13/02/2025 01:37:19;117;0;270.12;-4;30.91;7.47;298.6;14.20;75611;2834.775;-1757.972;1;298;220;224.2;21.6;21.8;42;42.0;28.8;-1.0;
13/02/2025 01:37:39;117;0;272.11;-4;30.77;9.67;295.7;14.20;75622;2834.775;-1757.974;1;298;220;224.2;21.6;21.9;39;38.8;28.8;-1.0;
13/02/2025 01:37:59;117;0;273.32;-4;30.77;7.24;292.8;14.20;75633;2834.775;-1757.977;1;298;220;224.2;21.6;21.9;37;35.2;28.8;-1.0;
13/02/2025 01:38:19;117;0;272.36;-4;30.86;6.60;289.8;14.20;75640;2834.775;-1757.979;1;298;220;224.2;21.6;21.9;39;38.8;28.8;-1.0;
13/02/2025 01:38:39;117;0;271.14;-4;30.52;7.84;286.9;14.20;75638;2834.775;-1757.981;1;299;220;224.2;21.6;21.9;43;42.9;28.8;-1.0;
13/02/2025 01:38:59;117;0;272.85;-4;30.94;10.08;284.0;14.20;75646;2834.775;-1757.984;1;299;220;222.6;21.6;21.9;40;39.7;28.8;-1.0;
13/02/2025 01:39:19;117;0;273.03;-4;30.86;7.96;281.0;14.20;75657;2834.775;-1757.986;1;299;220;224.2;21.6;21.9;40;39.3;28.8;-1.0;
13/02/2025 01:39:39;117;0;273.13;-4;30.58;7.93;278.0;14.30;75671;2834.775;-1757.989;1;299;220;224.2;21.6;21.9;40;39.3;28.8;-1.0;
13/02/2025 01:39:59;117;0;275.45;-4;30.41;7.96;275.2;14.30;75668;2834.775;-1757.991;1;299;220;224.2;21.6;21.9;35;33.4;28.8;-1.0;
13/02/2025 01:40:19;117;0;275.82;-4;30.00;6.28;272.3;14.30;75678;2834.776;-1757.994;1;299;220;222.6;21.6;21.9;35;36.1;28.8;-1.0;
13/02/2025 01:40:39;117;0;276.46;-4;30.58;6.37;269.4;14.30;75684;2834.776;-1757.996;1;299;220;222.6;21.6;21.9;35;36.1;28.8;-1.0;
13/02/2025 01:40:59;117;0;275.67;-4;30.39;6.29;266.5;14.30;75694;2834.776;-1757.999;1;299;220;224.2;21.6;21.9;35;36.6;28.8;-1.0;
13/02/2025 01:41:19;117;0;274.42;-4;30.70;6.24;263.5;14.30;75699;2834.776;-1758.001;1;299;220;224.2;21.6;21.9;37;37.0;28.9;-1.0;
13/02/2025 01:41:39;117;0;273.06;-4;30.69;6.93;260.3;14.30;75701;2834.776;-1758.004;1;299;220;224.2;21.6;21.9;39;39.3;28.8;-1.0;
13/02/2025 01:41:59;117;0;274.37;-4;30.84;8.04;257.3;14.40;75713;2834.776;-1758.006;1;299;220;225.8;21.6;21.9;37;36.6;28.9;-1.0;
13/02/2025 01:42:19;117;0;271.26;-4;30.27;6.60;254.2;14.40;75719;2834.776;-1758.009;1;299;220;222.6;21.6;21.9;43;43.3;28.8;-1.0;
13/02/2025 01:42:39;117;0;269.94;-4;31.06;10.38;251.2;14.40;75732;2834.776;-1758.011;1;299;220;224.2;21.6;21.9;45;45.1;28.9;-1.0;
13/02/2025 01:42:59;117;0;271.24;-4;30.97;11.42;247.9;14.40;75741;2834.776;-1758.014;1;300;220;222.6;21.6;21.9;45;45.6;28.8;-1.0;
13/02/2025 01:43:19;117;0;271.18;-4;30.81;11.45;244.8;14.40;75731;2834.776;-1758.017;1;300;220;222.6;21.6;21.9;45;45.6;28.9;-1.0;
13/02/2025 01:43:39;117;0;272.53;-4;30.91;11.46;241.7;14.40;75750;2834.776;-1758.019;1;300;220;221.0;21.6;21.9;42;41.5;28.8;-1.0;
13/02/2025 01:43:59;117;0;272.57;-4;30.89;8.91;238.5;14.50;75754;2834.776;-1758.022;1;300;220;224.2;21.6;21.9;42;41.1;28.8;-1.0;
13/02/2025 01:44:19;117;0;272.89;-4;30.59;8.99;235.4;14.50;75761;2834.776;-1758.025;1;300;220;222.6;21.6;21.9;42;41.1;28.8;-1.0;
13/02/2025 01:44:39;117;0;273.37;-4;30.44;8.90;232.2;14.50;75764;2834.776;-1758.027;1;300;220;224.2;21.6;21.9;42;41.5;28.8;-1.0;
13/02/2025 01:44:59;117;0;275.54;-4;30.53;8.90;229.1;14.50;75763;2834.776;-1758.030;1;300;220;225.8;21.6;21.9;37;36.6;28.8;-1.0;
13/02/2025 01:45:19;117;0;275.60;-4;30.55;6.53;226.0;14.50;75771;2834.776;-1758.033;1;300;220;224.2;21.6;21.9;37;34.7;28.8;-1.0;
13/02/2025 01:45:39;117;0;275.40;-4;29.97;6.30;223.1;14.50;75781;2834.777;-1758.035;1;300;220;224.2;21.6;21.9;37;34.7;28.8;-1.0;
13/02/2025 01:45:59;117;0;277.81;-4;30.15;6.44;220.1;14.60;75777;2834.777;-1758.038;1;300;220;224.2;21.6;21.8;33;32.9;28.9;-1.0;
13/02/2025 01:46:19;117;0;277.49;-4;29.96;4.27;217.2;14.60;75777;2834.777;-1758.040;1;300;220;224.2;21.6;21.9;33;32.5;28.8;-1.0;
13/02/2025 01:46:39;117;0;273.36;-4;29.89;4.39;214.2;14.60;75804;2834.777;-1758.043;1;301;220;224.2;21.6;21.8;43;42.9;28.8;-1.0;
13/02/2025 01:46:59;117;0;273.51;-4;30.25;9.94;211.4;14.60;75801;2834.777;-1758.045;1;301;220;224.2;21.6;22.1;43;43.3;28.8;-1.0;
13/02/2025 01:47:19;117;0;275.10;-4;31.17;10.02;208.4;14.60;75807;2834.777;-1758.048;1;301;220;224.2;21.6;21.9;40;39.7;28.9;-1.0;
13/02/2025 01:47:39;117;0;278.09;-4;31.20;7.89;205.3;14.60;75807;2834.778;-1758.050;1;301;220;224.2;21.6;21.9;35;32.5;28.9;-1.0;
13/02/2025 01:47:59;117;0;276.54;-4;31.22;6.40;202.0;14.70;75836;2834.778;-1758.053;1;301;220;224.2;21.6;21.9;37;37.0;28.8;-1.0;
13/02/2025 01:48:19;117;0;276.39;-4;30.12;7.04;198.7;14.70;75838;2834.778;-1758.056;1;301;220;224.2;21.6;21.9;37;37.5;28.9;-1.0;
13/02/2025 01:48:39;117;0;276.57;-4;30.40;6.91;195.5;14.70;75848;2834.778;-1758.059;1;301;220;224.2;21.6;21.9;37;37.5;28.8;-1.0;
13/02/2025 01:48:59;117;0;275.59;-4;30.39;6.93;192.3;14.70;75844;2834.778;-1758.061;1;301;220;224.2;21.6;21.9;39;39.3;28.8;-1.0;
13/02/2025 01:49:19;117;0;276.08;-4;30.41;8.01;189.2;14.80;75862;2834.779;-1758.064;1;301;220;224.2;21.6;21.8;39;39.3;28.8;-1.0;
13/02/2025 01:49:39;117;0;275.17;-4;30.18;7.99;186.0;14.80;75861;2834.779;-1758.067;1;301;220;225.8;21.6;21.9;39;39.3;28.8;-1.0;
13/02/2025 01:49:59;117;0;272.98;-4;30.37;8.05;183.0;14.80;75864;2834.779;-1758.070;1;301;220;224.2;21.6;21.9;44;44.2;28.8;-1.0;
13/02/2025 01:50:19;117;0;272.63;-4;30.95;11.17;179.9;14.80;75878;2834.779;-1758.072;1;302;220;224.2;21.6;21.9;46;46.0;28.8;-1.0;
13/02/2025 01:50:39;117;0;279.38;-4;31.08;12.05;176.7;14.90;75888;2834.779;-1758.075;1;302;220;222.6;21.6;21.8;34;33.8;28.8;-1.0;
13/02/2025 01:50:59;117;0;281.85;-4;29.92;4.75;173.5;14.90;75888;2834.780;-1758.078;1;302;220;224.2;21.6;21.9;30;29.8;28.8;-1.0;
13/02/2025 01:51:19;117;0;277.55;-4;29.65;2.63;170.5;14.90;75896;2834.780;-1758.080;1;302;220;224.2;21.6;21.9;38;37.9;28.8;-1.0;
13/02/2025 01:51:39;117;0;279.79;-4;29.77;7.39;167.5;14.90;75907;2834.780;-1758.083;1;302;220;224.2;21.6;21.9;34;33.4;28.8;-1.0;
13/02/2025 01:51:59;117;0;281.80;-4;29.70;4.67;164.7;15.00;75922;2834.781;-1758.085;1;302;220;224.2;21.6;21.8;29;28.9;28.8;-1.0;
13/02/2025 01:52:19;117;0;278.69;-4;29.54;2.12;161.9;15.00;75938;2834.781;-1758.087;1;302;220;225.8;21.6;21.9;34;33.8;28.8;-1.0;
13/02/2025 01:52:39;117;0;278.28;-4;29.83;5.31;159.1;15.00;75937;2834.781;-1758.090;1;302;220;224.2;21.6;21.9;34;34.3;28.8;-1.0;
13/02/2025 01:52:59;117;0;276.35;-4;29.38;5.39;156.2;15.10;75957;2834.781;-1758.092;1;302;220;224.2;21.6;21.9;40;40.2;28.8;-1.0;
13/02/2025 01:53:19;117;0;275.49;-4;29.90;8.82;153.4;15.10;75970;2834.782;-1758.095;1;302;220;225.8;21.6;21.9;40;40.6;28.8;-1.0;
13/02/2025 01:53:39;117;0;279.22;-4;29.93;8.73;150.8;15.10;75974;2834.782;-1758.097;1;302;220;222.6;21.6;21.9;33;32.9;28.8;-1.0;
13/02/2025 01:53:59;117;0;280.94;-4;29.48;4.23;148.0;15.10;75997;2834.782;-1758.099;1;302;220;225.8;21.6;21.9;30;29.3;28.8;-1.0;
13/02/2025 01:54:19;117;0;283.23;-4;29.83;2.25;145.4;15.20;76028;2834.783;-1758.101;1;303;220;224.2;21.6;21.9;28;28.0;28.8;-1.0;
13/02/2025 01:54:39;117;0;282.65;-4;29.54;1.56;142.6;15.20;76033;2834.783;-1758.104;1;303;220;224.2;21.6;21.9;28;27.5;28.8;-1.0;
13/02/2025 01:54:59;117;0;279.96;-4;28.56;1.64;139.8;15.30;76058;2834.783;-1758.106;1;303;220;224.2;21.2;21.1;34;33.8;28.8;-1.0;
13/02/2025 01:55:19;117;0;275.70;-4;30.69;5.25;137.3;15.30;76077;2834.784;-1758.108;1;303;220;224.2;21.2;21.1;41;41.1;28.8;-1.0;
13/02/2025 01:55:39;117;0;276.45;-4;32.19;9.16;134.5;15.30;76095;2834.784;-1758.110;1;303;220;224.2;21.9;21.8;41;41.5;28.8;-1.0;
13/02/2025 01:55:59;117;0;278.22;-4;31.02;9.09;131.3;15.40;76112;2834.784;-1758.113;1;303;220;224.2;21.9;21.9;37;37.0;28.8;-1.0;
13/02/2025 01:56:19;117;0;279.50;-4;29.67;6.92;128.2;15.40;76130;2834.784;-1758.116;1;303;220;224.2;21.9;21.9;37;37.5;28.8;-1.0;
13/02/2025 01:56:39;117;0;281.19;-4;29.61;6.94;125.5;15.50;76149;2834.785;-1758.118;1;303;220;224.2;21.9;21.9;32;31.6;28.8;-1.0;
13/02/2025 01:56:59;117;0;284.62;-4;30.01;3.58;122.7;15.50;76155;2834.785;-1758.120;1;303;220;224.2;21.9;21.9;26;25.7;28.8;-1.0;
13/02/2025 01:57:19;117;0;285.14;-4;29.29;0.70;119.7;15.60;76167;2834.786;-1758.123;1;303;220;224.2;21.9;22.1;26;25.7;28.8;-1.0;
13/02/2025 01:57:39;117;0;283.80;-4;29.31;0.66;116.8;15.60;76174;2834.786;-1758.125;1;303;220;225.8;21.9;21.9;28;28.0;28.8;-1.0;
13/02/2025 01:57:59;117;0;281.32;-4;28.66;2.24;113.9;15.60;76188;2834.787;-1758.128;1;303;220;224.2;21.5;21.2;33;32.9;28.8;-1.0;
13/02/2025 01:58:19;117;0;282.10;-4;29.88;4.71;111.1;15.70;76208;2834.787;-1758.130;1;303;220;224.2;21.5;21.1;30;29.3;28.8;-1.0;
13/02/2025 01:58:39;117;0;279.24;-4;30.23;2.26;108.4;15.70;76232;2834.788;-1758.133;1;304;220;224.2;21.5;21.1;37;37.0;28.8;-1.0;
13/02/2025 01:58:59;117;0;276.16;-4;31.33;7.05;105.6;15.80;76251;2834.788;-1758.135;1;304;220;224.2;21.5;21.1;42;42.0;28.8;-1.0;
13/02/2025 01:59:19;117;0;273.38;-4;30.72;9.64;102.7;15.80;76260;2834.788;-1758.137;1;304;220;225.8;21.5;21.1;47;47.4;28.8;-1.0;
13/02/2025 01:59:39;117;0;273.68;-4;31.08;12.51;100.0;15.90;76297;2834.788;-1758.140;1;304;220;224.2;21.5;21.2;47;47.8;28.8;-1.0;
13/02/2025 01:59:59;117;0;275.06;-4;31.08;12.74;97.2;15.90;76308;2834.788;-1758.142;1;304;220;225.8;21.5;21.1;44;44.2;28.8;-1.0;
13/02/2025 02:00:19;117;0;276.58;-4;31.58;10.28;94.5;16.00;76340;2834.788;-1758.144;1;304;220;225.8;21.5;21.1;42;42.0;28.8;-1.0;
13/02/2025 02:00:39;117;0;275.28;-4;31.07;8.92;91.8;16.00;76371;2834.788;-1758.146;1;304;220;224.2;21.5;21.1;44;44.2;28.8;-1.0;
13/02/2025 02:00:59;117;0;277.44;-4;31.05;10.80;89.0;16.10;76412;2834.788;-1758.148;1;304;220;225.8;21.5;21.1;40;39.7;28.8;-1.0;
13/02/2025 02:01:19;117;0;278.12;-4;30.94;7.80;86.3;16.10;76432;2834.789;-1758.150;1;304;220;225.8;21.5;21.1;40;39.3;28.8;-1.0;
13/02/2025 02:01:39;117;0;277.90;-4;30.98;7.80;83.6;16.20;76445;2834.789;-1758.153;1;304;220;225.8;21.5;21.2;40;39.3;28.8;-1.0;
13/02/2025 02:01:59;117;0;277.47;-4;31.03;7.89;80.9;16.30;76465;2834.789;-1758.155;1;304;220;222.6;21.5;21.1;40;39.3;28.8;-1.0;
13/02/2025 02:02:19;117;0;277.11;-4;31.00;7.93;78.3;16.30;76476;2834.789;-1758.157;1;305;220;225.8;21.5;21.1;43;42.9;28.8;-1.0;
13/02/2025 02:02:39;117;0;276.63;-4;31.40;10.08;75.5;16.40;76492;2834.789;-1758.159;1;305;220;225.8;21.5;21.1;43;43.3;28.8;-1.0;
13/02/2025 02:02:59;117;0;274.77;-4;31.52;10.11;72.6;16.50;76493;2834.789;-1758.162;1;305;220;224.2;21.5;21.1;47;47.4;28.9;-1.0;
13/02/2025 02:03:19;117;0;274.96;-4;31.87;12.71;69.9;16.50;76516;2834.790;-1758.164;1;305;220;225.8;21.5;21.1;47;47.8;28.8;-1.0;
13/02/2025 02:03:39;117;0;277.03;-4;31.74;12.71;66.9;16.60;76522;2834.790;-1758.166;1;305;220;225.8;21.5;21.1;43;42.9;28.9;-1.0;
13/02/2025 02:03:59;117;0;277.92;-4;31.65;9.65;63.9;16.60;76530;2834.790;-1758.168;1;305;220;225.8;21.5;21.1;41;41.1;28.8;-1.0;
13/02/2025 02:04:19;117;0;277.62;-4;31.44;8.67;61.0;16.70;76542;2834.790;-1758.171;1;305;220;225.8;21.5;21.1;41;40.6;28.8;-1.0;
13/02/2025 02:04:39;117;0;275.48;-4;31.23;8.66;58.0;16.70;76556;2834.790;-1758.173;1;305;220;224.2;21.5;21.1;45;45.1;28.8;-1.0;
13/02/2025 02:04:59;117;0;277.97;-4;31.72;11.61;55.0;16.80;76556;2834.791;-1758.176;1;305;220;225.8;21.5;21.1;41;41.1;28.8;-1.0;
13/02/2025 02:05:19;117;0;279.45;-4;31.57;8.46;52.0;16.90;76579;2834.791;-1758.178;1;305;220;225.8;21.5;21.1;39;38.8;28.8;-1.0;
13/02/2025 02:05:39;117;0;277.88;-4;31.27;7.54;48.8;16.90;76571;2834.791;-1758.181;1;306;220;225.8;21.5;21.1;43;42.9;28.8;-1.0;
13/02/2025 02:05:59;117;0;279.45;-4;31.29;10.01;45.7;17.00;76591;2834.792;-1758.183;1;306;220;225.8;21.5;21.1;41;41.1;28.9;-1.0;
13/02/2025 02:06:19;117;0;280.18;-4;31.17;8.41;42.6;17.00;76599;2834.792;-1758.186;1;306;220;227.4;21.5;21.1;39;38.8;28.8;-1.0;
13/02/2025 02:06:39;117;0;280.03;-4;30.79;7.35;39.6;17.10;76600;2834.792;-1758.188;1;306;220;225.8;21.5;21.1;39;38.4;28.8;-1.0;
13/02/2025 02:06:59;117;0;279.72;-4;30.92;7.33;36.6;17.10;76611;2834.793;-1758.191;1;306;220;225.8;21.5;21.1;39;38.4;28.8;-1.0;
13/02/2025 02:07:19;117;0;279.20;-4;30.99;7.32;33.7;17.20;76623;2834.793;-1758.193;1;306;220;224.2;21.5;21.1;41;41.1;28.8;-1.0;
13/02/2025 02:07:39;117;0;278.85;-4;30.99;9.11;30.6;17.20;76632;2834.793;-1758.196;1;306;220;225.8;21.5;21.1;41;41.1;28.8;-1.0;
13/02/2025 02:07:59;117;0;279.68;-4;30.92;9.05;27.7;17.30;76641;2834.794;-1758.198;1;306;220;224.2;21.5;21.1;41;41.5;28.8;-1.0;
13/02/2025 02:08:19;117;0;279.55;-4;31.05;9.06;24.7;17.30;76642;2834.794;-1758.200;1;306;220;225.8;21.5;21.1;41;41.1;28.8;-1.0;
13/02/2025 02:08:39;117;0;280.25;-4;31.08;9.19;21.7;17.40;76654;2834.794;-1758.203;1;307;220;227.4;21.5;21.1;41;41.5;28.9;-1.0;
13/02/2025 02:08:59;117;0;281.11;-4;31.08;9.12;18.7;17.40;76663;2834.795;-1758.205;1;307;220;225.8;21.5;21.1;41;41.1;28.8;-1.0;
13/02/2025 02:09:20;117;0;280.90;-4;31.31;9.15;15.7;17.50;76671;2834.795;-1758.208;1;307;220;225.8;21.5;21.1;41;41.5;28.8;-1.0;
13/02/2025 02:09:40;117;0;280.60;-4;31.08;9.10;12.7;17.50;76664;2834.795;-1758.210;1;307;220;225.8;21.5;21.1;41;41.1;28.8;-1.0;
13/02/2025 02:10:00;117;0;281.58;-4;30.79;9.12;9.7;17.60;76685;2834.796;-1758.213;1;307;220;225.8;21.5;21.2;39;38.4;28.8;-1.0;
13/02/2025 02:10:20;117;0;281.86;-4;30.22;7.16;6.8;17.60;76696;2834.796;-1758.215;1;307;220;225.8;21.5;21.1;39;37.9;28.8;-1.0;
13/02/2025 02:10:40;117;0;274.00;-4;31.39;6.59;3.8;17.70;76696;2834.796;-1758.218;1;307;220;225.8;21.5;21.1;52;51.9;28.8;-1.0;
13/02/2025 02:10:45;115;0;274.06;-4;31.42;15.65;3.0;17.70;76704;2834.796;-1758.218;1;307;500;232.3;100.0;64.8;0;-0.5;28.8;-1.0;
13/02/2025 02:10:55;115;0;265.98;-4;14.29;-12.92;1.8;17.70;76674;2834.796;-1758.220;1;307;500;351.6;100.0;100.0;0;-0.9;28.6;-1.0;
13/02/2025 02:11:05;115;0;227.69;-4;-60.01;-13.18;2.3;17.70;76427;2834.796;-1758.220;1;307;500;464.5;100.0;100.6;0;-0.5;28.6;-1.0;
13/02/2025 02:11:15;115;0;195.59;-4;-69.37;-12.89;2.0;17.80;76168;2834.796;-1758.220;1;307;500;506.5;100.0;100.7;0;-0.5;28.6;-1.0;
13/02/2025 02:11:25;115;0;208.06;-4;-28.46;-11.61;-0.0;17.80;76107;2834.794;-1758.221;1;308;500;506.5;100.0;100.6;0;-0.5;28.8;-1.0;
13/02/2025 02:11:45;119;0;215.56;-4;-60.81;-21.05;0.3;17.90;76126;2834.794;-1758.221;1;308;500;508.1;100.0;100.7;0;-0.5;28.8;-1.0;
13/02/2025 02:11:54;119;0;230.21;-4;-47.75;-8.08;0.2;17.90;76139;2834.500;-1758.065;0;308;500;508.1;100.0;100.7;0;-0.5;28.8;-1.0;
