Timestamp;NavState;SecurityLevel;Heading;Declination;Pitch;Roll;Depth;Temperature;Pa;Lat;Lon;DeadReckoning;DesiredH;BallastCmd;BallastPos;LinCmd;LinPos;AngCmd;AngPos;Voltage;Altitude;
17/02/2025 18:11:37;119;0;78.90;-4;-59.49;-17.95;-0.1;19.30;76256;2837.248;-1758.368;0;180;500;509.7;100.0;100.6;0;-0.5;28.1;-1.0;
17/02/2025 18:11:47;116;0;91.29;-4;-50.74;-6.83;-0.1;19.30;76255;2837.249;-1758.367;0;180;500;509.7;100.0;100.6;0;-0.9;28.1;-1.0;
17/02/2025 18:12:12;116;0;98.11;-4;-56.21;-1.86;-0.1;19.30;76271;2837.249;-1758.366;0;180;500;509.7;100.0;100.6;0;-0.5;28.1;-1.0;
17/02/2025 18:12:39;116;0;113.18;-4;-66.06;-30.74;-0.1;19.40;76283;2837.250;-1758.366;0;180;500;508.1;100.0;100.6;0;-0.5;28.1;-1.0;
17/02/2025 18:12:58;116;0;103.92;-4;-51.16;0.56;-0.1;19.40;76273;2837.250;-1758.365;0;-9999;500;509.7;100.0;100.6;0;-0.5;28.1;-1.0;
17/02/2025 18:13:13;116;0;113.15;-4;-51.97;-9.70;-0.1;19.40;76277;2837.251;-1758.365;0;188;500;509.7;100.0;100.6;0;-0.5;28.1;-1.0;
17/02/2025 18:13:54;116;0;82.86;-4;-51.88;-19.76;-0.1;19.50;76293;2837.253;-1758.363;0;188;500;509.7;100.0;100.6;0;-0.9;28.1;-1.0;
17/02/2025 18:14:56;116;0;79.38;-4;-54.04;-15.96;-0.2;19.70;76304;2837.256;-1758.361;0;188;500;508.1;100.0;100.7;0;-0.5;28.1;-1.0;
17/02/2025 18:15:07;116;0;82.13;-4;-56.15;-19.09;-0.2;19.70;76306;2837.256;-1758.361;0;188;500;509.7;100.0;100.6;0;-0.5;28.1;-1.0;
17/02/2025 18:15:27;110;0;65.26;-4;-49.48;-9.52;0.1;19.80;76313;2837.256;-1758.361;0;188;-50;398.4;100.0;99.9;-13;-13.5;28.1;-1.0;
17/02/2025 18:15:37;110;0;59.40;-4;-54.88;-16.52;0.2;19.80;76654;2837.256;-1758.361;1;188;-50;250.0;100.0;99.9;-13;-13.5;28.1;-1.0;
17/02/2025 18:15:47;110;0;68.03;-4;-55.27;-20.19;0.6;19.80;76895;2837.256;-1758.360;1;188;-50;93.5;100.0;99.9;-13;-13.5;28.1;-1.0;
17/02/2025 18:15:57;110;0;68.05;-4;-66.23;-10.98;1.0;19.90;77215;2837.256;-1758.360;1;188;-50;-48.4;100.0;99.9;-13;-14.0;28.1;-1.0;
17/02/2025 18:16:07;110;0;71.50;-4;-64.20;-3.08;1.2;19.90;77511;2837.256;-1758.360;1;188;-50;-48.4;50.0;49.9;-13;-13.5;28.1;-1.0;
17/02/2025 18:16:27;100;0;90.74;-4;-36.63;-18.21;4.2;20.00;77491;2837.256;-1758.358;1;188;-50;-48.4;50.0;49.8;-13;-14.0;28.1;-1.0;
17/02/2025 18:16:47;100;0;100.01;-4;-32.64;-18.42;8.2;20.00;77492;2837.256;-1758.354;1;188;-50;-46.8;46.2;45.9;-70;-69.9;28.1;-1.0;
17/02/2025 18:17:07;100;0;111.77;-4;-27.44;-45.50;11.9;20.10;77498;2837.254;-1758.350;1;188;-50;-45.2;44.0;44.0;-70;-70.4;28.1;-1.0;
17/02/2025 18:17:27;100;0;123.33;-4;-23.03;-45.72;15.2;20.10;77512;2837.252;-1758.347;1;188;-50;-43.5;43.1;43.0;-70;-70.4;28.1;0.0;
17/02/2025 18:17:47;100;0;134.27;-4;-20.25;-45.98;18.1;20.20;77503;2837.250;-1758.343;1;188;-50;-41.9;43.1;42.9;-56;-56.0;28.1;0.0;
17/02/2025 18:18:07;100;0;145.77;-4;-19.35;-38.08;20.8;20.20;77515;2837.247;-1758.341;1;189;-50;-43.5;43.1;42.9;-44;-43.8;28.1;0.0;
17/02/2025 18:18:27;100;0;156.01;-4;-19.07;-32.38;23.2;20.20;77519;2837.244;-1758.340;1;189;-50;-41.9;43.1;42.9;-30;-29.3;28.1;0.0;
17/02/2025 18:18:47;100;0;165.53;-4;-19.20;-25.24;25.7;20.20;77516;2837.240;-1758.339;1;189;-50;-41.9;43.1;42.9;-15;-14.9;28.1;0.0;
17/02/2025 18:19:07;100;0;172.02;-4;-19.57;-18.29;28.2;20.20;77526;2837.237;-1758.338;1;189;-50;-43.5;43.1;42.9;-4;-4.1;28.1;0.0;
17/02/2025 18:19:27;100;0;176.16;-4;-19.64;-13.36;30.6;20.20;77513;2837.234;-1758.338;1;189;-50;-43.5;43.1;42.9;2;1.8;28.1;0.0;
17/02/2025 18:19:47;100;0;181.48;-4;-19.96;-10.29;33.1;20.20;77529;2837.231;-1758.338;1;189;-50;-41.9;43.1;42.9;7;7.7;28.1;0.0;
17/02/2025 18:20:07;100;0;185.33;-4;-19.95;-7.81;35.7;20.20;77521;2837.228;-1758.338;1;189;-50;-41.9;43.1;42.9;9;9.0;28.1;0.0;
17/02/2025 18:20:27;100;0;190.70;-4;-20.43;-6.90;38.2;20.30;77520;2837.225;-1758.339;1;189;-50;-41.9;43.1;42.9;9;9.5;28.1;0.0;
17/02/2025 18:20:47;100;0;190.74;-4;-20.41;-6.90;40.8;20.20;77521;2837.221;-1758.339;1;189;-50;-43.5;43.1;42.9;9;9.5;28.1;0.0;
17/02/2025 18:21:07;100;0;192.13;-4;-20.04;-6.85;43.3;20.20;77518;2837.218;-1758.340;1;189;-50;-43.5;43.1;43.0;9;9.5;28.1;0.0;
17/02/2025 18:21:27;100;0;193.82;-4;-20.28;-6.97;45.8;20.30;77512;2837.215;-1758.341;1;189;-50;-43.5;43.1;42.9;9;9.5;28.1;0.0;
17/02/2025 18:21:47;100;0;196.15;-4;-19.92;-6.90;48.2;20.20;77502;2837.212;-1758.342;1;189;-50;-43.5;43.1;42.9;9;9.5;28.1;0.0;
17/02/2025 18:22:07;100;0;197.76;-4;-20.06;-6.90;50.6;20.30;77517;2837.209;-1758.343;1;189;-50;-41.9;43.1;42.9;11;11.3;28.1;0.0;
17/02/2025 18:22:27;100;0;197.79;-4;-20.29;-5.79;53.0;20.30;77517;2837.206;-1758.344;1;189;-50;-41.9;43.1;42.9;11;11.7;28.1;0.0;
17/02/2025 18:22:47;100;0;196.42;-4;-19.90;-5.84;55.4;20.20;77509;2837.203;-1758.345;1;189;-50;-41.9;43.1;43.0;11;11.7;28.1;0.0;
17/02/2025 18:23:07;100;0;196.72;-4;-19.98;-5.66;57.9;20.20;77515;2837.200;-1758.346;1;189;-50;-41.9;43.1;42.9;11;11.7;28.2;0.0;
17/02/2025 18:23:27;100;0;196.62;-4;-20.13;-5.84;60.3;20.30;77517;2837.197;-1758.347;1;189;-50;-43.5;43.1;42.9;11;11.7;28.1;0.0;
17/02/2025 18:23:47;100;0;198.51;-4;-20.27;-5.84;62.6;20.20;77521;2837.194;-1758.348;1;189;-50;-43.5;43.1;42.9;11;11.7;28.1;0.0;
17/02/2025 18:24:07;100;0;199.00;-4;-20.14;-5.82;65.1;20.20;77512;2837.191;-1758.349;1;189;-50;-41.9;43.1;42.9;11;11.7;28.1;0.0;
17/02/2025 18:24:27;100;0;198.00;-4;-20.09;-5.80;67.6;20.20;77531;2837.188;-1758.350;1;189;-50;-43.5;43.1;42.9;11;11.7;28.1;0.0;
17/02/2025 18:24:47;100;0;198.56;-4;-20.12;-5.87;70.0;20.20;77515;2837.185;-1758.351;1;189;-50;-43.5;43.1;42.9;11;11.7;28.1;0.0;
17/02/2025 18:25:07;100;0;199.14;-4;-20.11;-5.83;72.5;20.20;77515;2837.182;-1758.352;1;189;-50;-43.5;43.1;42.9;11;11.7;28.1;0.0;
17/02/2025 18:25:27;100;0;199.65;-4;-20.12;-5.80;74.9;20.20;77515;2837.179;-1758.353;1;188;-50;-43.5;43.1;42.9;13;13.5;28.1;0.0;
17/02/2025 18:25:47;100;0;199.21;-4;-20.14;-4.76;77.5;20.20;77516;2837.176;-1758.355;1;188;-50;-41.9;43.1;42.9;13;13.5;28.1;0.0;
17/02/2025 18:26:07;100;0;199.13;-4;-20.15;-4.78;80.0;20.20;77518;2837.173;-1758.356;1;188;-50;-41.9;43.1;42.9;13;13.5;28.1;0.0;
17/02/2025 18:26:27;100;0;197.93;-4;-20.29;-4.80;82.4;20.20;77513;2837.170;-1758.357;1;188;-50;-41.9;43.1;43.0;13;14.0;28.1;0.0;
17/02/2025 18:26:47;100;0;199.91;-4;-19.93;-4.82;85.0;20.20;77497;2837.167;-1758.358;1;188;-50;-41.9;43.1;42.9;13;13.5;28.1;0.0;
17/02/2025 18:27:07;100;0;197.81;-4;-19.94;-4.84;87.5;20.20;77486;2837.164;-1758.359;1;188;-50;-43.5;43.1;42.9;13;14.0;28.1;0.0;
17/02/2025 18:27:27;100;0;199.12;-4;-19.04;-4.67;90.0;20.20;77478;2837.161;-1758.360;1;188;-50;-41.9;43.1;43.0;13;14.0;28.1;0.0;
17/02/2025 18:27:47;100;0;199.57;-4;-19.52;-4.90;92.3;20.20;77461;2837.158;-1758.361;1;188;-50;-43.5;43.1;42.9;13;14.0;28.1;0.0;
17/02/2025 18:28:07;100;0;200.94;-4;-19.39;-4.66;94.5;20.20;77459;2837.155;-1758.363;1;188;-50;-41.9;43.1;42.9;15;14.9;28.1;0.0;
17/02/2025 18:28:27;100;0;194.77;-4;-19.66;-4.10;96.9;20.20;77451;2837.153;-1758.363;1;188;-50;-43.5;43.1;42.9;11;10.8;28.1;0.0;
17/02/2025 18:28:47;100;0;191.45;-4;-19.75;-6.52;99.2;20.20;77428;2837.150;-1758.364;1;188;-50;-43.5;43.1;42.9;11;10.4;28.1;0.0;
17/02/2025 18:29:07;100;0;189.13;-4;-19.71;-6.43;101.6;20.10;77416;2837.147;-1758.365;1;188;-50;-43.5;43.1;42.9;11;10.8;28.1;0.0;
17/02/2025 18:29:27;100;0;184.96;-4;-20.15;-6.42;104.2;20.10;77405;2837.143;-1758.365;1;188;-50;-41.9;43.1;42.9;11;10.8;28.1;0.0;
17/02/2025 18:29:47;100;0;184.87;-4;-19.43;-6.56;106.8;20.10;77380;2837.140;-1758.365;1;188;-50;-41.9;43.1;42.9;11;10.4;28.2;0.0;
17/02/2025 18:30:07;100;0;187.43;-4;-18.94;-6.43;109.2;20.10;77370;2837.137;-1758.366;1;188;-50;-43.5;43.4;43.4;11;10.8;28.1;0.0;
17/02/2025 18:30:27;100;0;189.16;-4;-20.39;-6.44;111.7;20.00;77368;2837.134;-1758.366;1;188;-50;-41.9;43.4;43.6;11;10.8;28.1;0.0;
17/02/2025 18:30:47;100;0;188.84;-4;-20.81;-6.40;114.3;20.00;77351;2837.130;-1758.367;1;188;-50;-43.5;43.4;43.7;11;10.8;28.1;0.0;
17/02/2025 18:31:07;100;0;182.22;-4;-20.14;-6.53;116.8;20.00;77340;2837.127;-1758.367;1;188;-50;-43.5;43.4;43.7;9;9.0;28.1;0.0;
17/02/2025 18:31:27;100;0;181.21;-4;-20.42;-7.29;119.4;19.90;77319;2837.124;-1758.367;1;188;-50;-41.9;43.4;43.7;9;9.0;28.1;0.0;
17/02/2025 18:31:48;100;0;179.41;-4;-20.53;-7.25;122.0;19.90;77297;2837.121;-1758.367;1;188;-50;-41.9;43.4;43.7;7;7.2;28.1;0.0;
17/02/2025 18:32:08;100;0;181.33;-4;-20.34;-8.42;124.5;19.90;77288;2837.117;-1758.367;1;188;-50;-43.5;43.4;43.7;7;6.8;28.1;0.0;
17/02/2025 18:32:28;100;0;184.79;-4;-20.21;-8.40;127.1;19.90;77278;2837.114;-1758.367;1;188;-50;-43.5;43.4;43.7;9;9.0;28.1;0.0;
17/02/2025 18:32:48;100;0;187.92;-4;-19.95;-6.95;129.7;19.80;77260;2837.111;-1758.367;1;188;-50;-43.5;43.4;43.7;9;9.5;28.1;0.0;
17/02/2025 18:33:08;100;0;191.55;-4;-19.48;-7.18;132.0;19.80;77260;2837.108;-1758.368;1;188;-50;-41.9;43.4;43.7;9;9.5;28.1;0.0;
17/02/2025 18:33:28;100;0;195.13;-4;-20.17;-7.03;134.3;19.80;77252;2837.105;-1758.369;1;188;-50;-43.5;43.4;43.7;11;10.8;28.1;0.0;
17/02/2025 18:33:48;100;0;198.13;-4;-20.16;-5.96;136.7;19.70;77243;2837.102;-1758.370;1;188;-50;-41.9;43.4;43.7;11;11.7;28.1;0.0;
17/02/2025 18:34:08;100;0;198.25;-4;-19.92;-5.94;139.1;19.70;77230;2837.099;-1758.371;1;188;-50;-41.9;43.4;43.7;11;11.7;28.2;0.0;
17/02/2025 18:34:28;100;0;199.82;-4;-20.15;-5.97;141.4;19.70;77220;2837.096;-1758.372;1;188;-50;-41.9;43.4;43.7;14;14.4;28.1;0.0;
17/02/2025 18:34:48;100;0;197.78;-4;-20.51;-4.37;143.8;19.60;77204;2837.093;-1758.373;1;188;-50;-41.9;43.4;43.7;12;11.7;28.1;0.0;
17/02/2025 18:35:08;100;0;193.93;-4;-20.61;-5.90;146.3;19.60;77206;2837.090;-1758.374;1;188;-50;-41.9;43.4;43.9;10;9.9;28.1;0.0;
17/02/2025 18:35:28;100;0;190.94;-4;-20.54;-7.01;148.9;19.60;77191;2837.087;-1758.375;1;188;-50;-41.9;43.4;43.7;10;9.5;28.1;0.0;
17/02/2025 18:35:48;100;0;185.77;-4;-20.46;-7.08;151.4;19.50;77178;2837.084;-1758.375;1;188;-50;-41.9;43.4;43.9;10;9.5;28.1;0.0;
17/02/2025 18:36:08;100;0;183.24;-4;-20.45;-7.04;154.0;19.50;77162;2837.081;-1758.375;1;188;-50;-41.9;43.4;43.7;10;9.5;28.1;0.0;
17/02/2025 18:36:28;100;0;182.62;-4;-19.96;-7.02;156.5;19.50;77145;2837.078;-1758.375;1;188;-50;-43.5;43.4;43.7;10;9.5;28.1;0.0;
17/02/2025 18:36:48;100;0;182.40;-4;-19.86;-7.01;159.0;19.40;77134;2837.074;-1758.375;1;188;-50;-43.5;43.4;43.7;10;9.5;28.1;0.0;
17/02/2025 18:37:08;100;0;182.28;-4;-20.16;-7.08;161.4;19.40;77136;2837.071;-1758.375;1;188;-50;-41.9;43.4;43.7;10;9.5;28.1;0.0;
17/02/2025 18:37:28;100;0;184.64;-4;-20.17;-7.02;164.0;19.40;77121;2837.068;-1758.376;1;188;-50;-41.9;43.4;43.7;10;9.5;28.1;0.0;
17/02/2025 18:37:48;100;0;186.60;-4;-20.07;-7.02;166.5;19.30;77128;2837.065;-1758.376;1;188;-50;-43.5;43.4;43.7;10;9.5;28.1;0.0;
17/02/2025 18:38:08;100;0;189.35;-4;-19.81;-7.06;169.0;19.30;77097;2837.062;-1758.377;1;188;-50;-43.5;43.4;43.7;10;9.5;28.1;0.0;
17/02/2025 18:38:28;100;0;191.52;-4;-20.13;-7.02;171.5;19.20;77084;2837.058;-1758.377;1;188;-50;-43.5;43.4;43.7;10;9.5;28.1;0.0;
17/02/2025 18:38:48;100;0;192.49;-4;-20.26;-7.05;174.0;19.20;77078;2837.055;-1758.378;1;188;-50;-43.5;43.4;43.7;10;9.5;28.1;0.0;
17/02/2025 18:39:08;100;0;197.34;-4;-19.75;-7.05;176.6;19.20;77060;2837.052;-1758.379;1;188;-50;-41.9;43.4;43.7;12;12.2;28.1;0.0;
17/02/2025 18:39:28;100;0;193.49;-4;-19.87;-5.42;179.1;19.10;77045;2837.049;-1758.380;1;188;-50;-41.9;43.4;43.7;10;9.9;28.1;0.0;
17/02/2025 18:39:48;100;0;189.87;-4;-19.83;-6.96;181.6;19.10;77046;2837.046;-1758.381;1;188;-50;-41.9;43.4;43.7;10;9.9;28.1;0.0;
17/02/2025 18:40:08;100;0;187.92;-4;-19.94;-6.90;184.0;19.00;77031;2837.043;-1758.381;1;188;-50;-41.9;43.4;43.7;10;9.9;28.1;0.0;
17/02/2025 18:40:28;100;0;186.68;-4;-19.77;-7.02;186.5;19.00;77022;2837.040;-1758.381;1;188;-50;-41.9;43.4;43.9;10;9.9;28.1;0.0;
17/02/2025 18:40:48;100;0;184.62;-4;-19.77;-7.03;189.1;18.90;76998;2837.036;-1758.382;1;188;-50;-43.5;43.4;43.7;10;9.9;28.1;0.0;
17/02/2025 18:41:08;100;0;184.07;-4;-19.86;-6.91;191.6;18.90;76995;2837.033;-1758.382;1;188;-50;-43.5;43.4;43.7;10;9.9;28.1;0.0;
17/02/2025 18:41:28;100;0;181.67;-4;-19.81;-6.95;194.2;18.90;76982;2837.030;-1758.382;1;188;-50;-41.9;43.4;43.7;8;8.1;28.1;0.0;
17/02/2025 18:41:48;100;0;183.40;-4;-19.52;-7.90;196.9;18.80;76970;2837.026;-1758.382;1;188;-50;-41.9;43.4;43.7;8;8.1;28.1;0.0;
17/02/2025 18:42:08;100;0;185.53;-4;-19.50;-7.92;199.3;18.80;76955;2837.023;-1758.382;1;188;-50;-40.3;43.4;43.7;10;9.9;28.1;0.0;
17/02/2025 18:42:28;100;0;188.02;-4;-20.07;-6.34;202.0;18.70;76952;2837.020;-1758.383;1;188;-50;-43.5;43.4;43.7;10;10.8;28.1;0.0;
17/02/2025 18:42:48;100;0;188.68;-4;-20.10;-6.29;204.7;18.70;76939;2837.016;-1758.383;1;188;-50;-41.9;43.4;43.7;10;10.8;28.1;0.0;
17/02/2025 18:43:08;100;0;189.16;-4;-20.13;-6.30;207.4;18.70;76927;2837.013;-1758.384;1;188;-50;-41.9;43.4;43.7;10;10.8;28.1;0.0;
17/02/2025 18:43:28;100;0;191.86;-4;-20.02;-6.34;210.3;18.60;76920;2837.009;-1758.385;1;188;-50;-43.5;43.4;43.7;10;10.8;28.1;0.0;
17/02/2025 18:43:48;100;0;194.87;-4;-19.87;-6.48;213.1;18.60;76902;2837.006;-1758.386;1;188;-50;-41.9;43.4;43.7;10;10.8;28.1;0.0;
17/02/2025 18:44:08;100;0;199.60;-4;-19.80;-6.52;215.8;18.50;76904;2837.002;-1758.387;1;188;-50;-43.5;43.4;43.7;13;13.1;28.1;0.0;
17/02/2025 18:44:28;100;0;201.05;-4;-19.82;-4.95;218.6;18.50;76887;2836.999;-1758.389;1;188;-50;-43.5;43.4;43.7;15;14.9;28.1;0.0;
17/02/2025 18:44:48;100;0;201.23;-4;-20.05;-3.97;221.3;18.40;76886;2836.996;-1758.390;1;188;-50;-41.9;43.4;43.7;15;15.8;28.1;0.0;
17/02/2025 18:45:08;100;0;204.55;-4;-20.08;-3.98;224.1;18.40;76877;2836.993;-1758.392;1;188;-50;-43.5;43.4;43.7;20;19.9;28.1;0.0;
17/02/2025 18:45:28;100;0;207.06;-4;-20.44;-1.64;226.8;18.40;76871;2836.990;-1758.393;1;188;-50;-43.5;43.4;43.7;23;23.0;28.1;0.0;
17/02/2025 18:45:48;100;0;206.28;-4;-20.58;-0.07;229.6;18.30;76869;2836.986;-1758.395;1;188;-50;-41.9;43.4;43.7;23;23.5;28.1;0.0;
17/02/2025 18:46:08;100;0;206.34;-4;-20.53;-0.08;232.4;18.30;76855;2836.983;-1758.397;1;188;-50;-41.9;43.4;43.7;23;23.5;28.1;0.0;
17/02/2025 18:46:28;100;0;202.35;-4;-20.09;-0.07;235.3;18.20;76845;2836.980;-1758.398;1;188;-50;-41.9;43.4;43.7;17;17.1;28.1;0.0;
17/02/2025 18:46:48;100;0;201.24;-4;-19.97;-3.40;238.1;18.20;76836;2836.977;-1758.400;1;188;-50;-43.5;43.4;43.7;15;14.4;28.1;0.0;
17/02/2025 18:47:08;100;0;203.28;-4;-19.83;-4.81;240.8;18.20;76826;2836.973;-1758.401;1;188;-50;-41.9;43.4;43.7;18;18.5;28.1;0.0;
17/02/2025 18:47:28;100;0;203.58;-4;-20.15;-2.36;243.6;18.10;76822;2836.970;-1758.403;1;188;-50;-45.2;43.4;43.7;18;19.0;28.1;0.0;
17/02/2025 18:47:48;100;0;203.10;-4;-20.28;-2.31;246.4;18.10;76813;2836.967;-1758.404;1;188;-50;-41.9;43.4;43.7;18;19.0;28.1;0.0;
17/02/2025 18:48:08;100;0;198.85;-4;-20.56;-2.35;249.3;18.00;76795;2836.963;-1758.406;1;188;-50;-43.5;43.4;43.7;13;12.6;28.1;0.0;
17/02/2025 18:48:28;100;0;194.49;-4;-20.35;-5.61;252.4;18.00;76789;2836.960;-1758.407;1;188;-50;-41.9;43.4;43.7;11;10.4;28.1;0.0;
17/02/2025 18:48:48;100;0;191.71;-4;-19.94;-6.44;255.3;18.00;76780;2836.956;-1758.408;1;188;-50;-41.9;43.4;43.7;11;10.8;28.1;0.0;
17/02/2025 18:49:08;100;0;192.70;-4;-19.90;-6.42;258.4;17.90;76773;2836.952;-1758.409;1;188;-50;-41.9;43.4;43.7;11;10.8;28.1;0.0;
17/02/2025 18:49:28;100;0;194.34;-4;-19.76;-6.42;261.4;17.90;76754;2836.948;-1758.410;1;188;-50;-43.5;43.4;43.7;11;10.8;28.1;0.0;
17/02/2025 18:49:48;100;0;198.14;-4;-19.64;-6.40;264.4;17.90;76755;2836.945;-1758.411;1;188;-50;-41.9;43.4;43.6;13;13.1;28.1;0.0;
17/02/2025 18:50:08;100;0;196.11;-4;-19.99;-5.06;267.4;17.80;76743;2836.941;-1758.412;1;188;-50;-41.9;43.4;43.7;13;13.5;28.1;0.0;
17/02/2025 18:50:28;100;0;194.41;-4;-19.84;-4.97;270.3;17.80;76729;2836.937;-1758.413;1;188;-50;-41.9;43.4;43.7;11;9.5;28.1;0.0;
17/02/2025 18:50:48;100;0;197.31;-4;-19.63;-6.54;273.3;17.70;76727;2836.934;-1758.414;1;188;-50;-43.5;43.4;43.7;11;10.4;28.1;0.0;
17/02/2025 18:51:08;100;0;196.99;-4;-19.67;-6.46;276.1;17.70;76708;2836.930;-1758.416;1;188;-50;-41.9;43.4;43.7;11;10.8;28.1;0.0;
17/02/2025 18:51:28;100;0;196.91;-4;-19.75;-6.54;279.0;17.60;76703;2836.927;-1758.417;1;188;-50;-41.9;43.4;43.7;11;10.8;28.1;0.0;
17/02/2025 18:51:48;100;0;194.75;-4;-19.75;-6.69;281.9;17.60;76689;2836.923;-1758.418;1;188;-50;-43.5;43.4;43.7;11;10.8;28.1;0.0;
17/02/2025 18:52:08;100;0;194.86;-4;-19.68;-6.57;284.7;17.60;76682;2836.920;-1758.419;1;188;-50;-43.5;43.4;43.7;11;10.4;28.1;0.0;
17/02/2025 18:52:28;100;0;192.47;-4;-19.32;-6.66;287.6;17.50;76675;2836.916;-1758.420;1;188;-50;-43.5;43.4;43.7;11;10.4;28.1;0.0;
17/02/2025 18:52:48;100;0;195.46;-4;-19.76;-6.32;290.3;17.50;76674;2836.912;-1758.421;1;188;-50;-43.5;43.4;43.7;11;10.8;28.1;0.0;
17/02/2025 18:53:08;100;0;197.39;-4;-19.45;-6.40;293.1;17.40;76658;2836.909;-1758.422;1;188;-50;-41.9;43.4;43.7;13;13.1;28.1;0.0;
17/02/2025 18:53:28;100;0;198.94;-4;-19.61;-5.00;296.0;17.40;76653;2836.905;-1758.423;1;188;-50;-43.5;43.4;43.7;13;13.1;28.1;0.0;
17/02/2025 18:53:48;100;0;201.49;-4;-19.68;-5.13;298.7;17.40;76649;2836.902;-1758.425;1;188;-50;-41.9;43.4;43.7;16;16.2;28.1;0.0;
17/02/2025 18:54:08;100;0;202.10;-4;-19.88;-3.53;301.4;17.30;76631;2836.899;-1758.426;1;188;-50;-41.9;43.4;43.7;16;16.7;28.1;0.0;
17/02/2025 18:54:28;100;0;201.35;-4;-19.76;-3.54;304.1;17.30;76625;2836.896;-1758.427;1;188;-50;-43.5;43.4;43.7;16;16.7;28.1;0.0;
17/02/2025 18:54:48;100;0;199.05;-4;-19.73;-3.61;306.7;17.30;76621;2836.893;-1758.429;1;188;-50;-41.9;43.4;43.7;14;14.0;28.1;0.0;
17/02/2025 18:55:08;100;0;197.35;-4;-19.59;-4.97;309.4;17.20;76606;2836.889;-1758.430;1;188;-50;-41.9;43.4;43.7;14;14.0;28.1;0.0;
17/02/2025 18:55:28;100;0;196.71;-4;-19.53;-4.89;311.8;17.20;76598;2836.886;-1758.431;1;188;-50;-43.5;43.4;43.7;12;11.7;28.1;0.0;
17/02/2025 18:55:48;100;0;198.77;-4;-19.41;-5.99;314.4;17.10;76598;2836.883;-1758.432;1;188;-50;-41.9;43.4;43.7;14;14.0;28.1;0.0;
17/02/2025 18:56:08;100;0;201.30;-4;-19.64;-4.67;316.7;17.10;76589;2836.880;-1758.433;1;188;-50;-41.9;43.4;43.7;16;15.8;28.1;0.0;
17/02/2025 18:56:28;100;0;204.19;-4;-19.80;-3.62;319.2;17.10;76580;2836.877;-1758.435;1;188;-50;-43.5;43.4;43.7;20;19.9;28.1;0.0;
17/02/2025 18:56:48;100;0;204.11;-4;-20.09;-1.48;321.7;17.00;76568;2836.874;-1758.436;1;188;-50;-41.9;43.4;43.7;20;20.8;28.1;0.0;
17/02/2025 18:57:08;100;0;203.98;-4;-20.00;-1.49;324.1;17.00;76553;2836.872;-1758.437;1;188;-50;-43.5;43.4;43.7;20;20.8;28.1;0.0;
17/02/2025 18:57:28;100;0;202.11;-4;-19.92;-1.51;326.7;16.90;76554;2836.869;-1758.439;1;188;-50;-41.9;43.4;43.7;17;17.1;28.1;0.0;
17/02/2025 18:57:48;100;0;201.64;-4;-19.93;-3.27;329.0;16.90;76553;2836.866;-1758.440;1;188;-50;-41.9;43.4;43.7;17;17.1;28.1;0.0;
17/02/2025 18:58:08;100;0;200.02;-4;-19.94;-3.34;331.2;16.90;76535;2836.863;-1758.441;1;188;-50;-45.2;43.4;43.9;15;14.9;28.1;0.0;
17/02/2025 18:58:28;100;0;199.50;-4;-19.73;-4.71;333.5;16.80;76537;2836.860;-1758.442;1;188;-50;-41.9;43.4;43.7;15;14.0;28.1;0.0;
17/02/2025 18:58:48;100;0;196.57;-4;-19.50;-4.77;335.7;16.80;76511;2836.858;-1758.443;1;188;-50;-43.5;43.4;43.7;13;12.6;28.1;0.0;
17/02/2025 18:59:08;100;0;196.25;-4;-19.53;-5.57;337.8;16.80;76502;2836.855;-1758.444;1;188;-50;-43.5;43.4;43.9;13;12.6;28.1;0.0;
17/02/2025 18:59:28;100;0;194.21;-4;-19.47;-5.54;339.8;16.70;76503;2836.852;-1758.445;1;187;-70;-71.0;43.4;43.7;13;12.6;28.1;0.0;
17/02/2025 18:59:48;100;0;193.29;-4;-18.92;-5.51;341.8;16.70;76554;2836.850;-1758.445;1;187;-70;-72.6;43.7;43.7;13;12.6;28.1;0.0;
17/02/2025 19:00:08;100;0;190.60;-4;-18.87;-5.39;343.9;16.60;76554;2836.847;-1758.446;1;187;-70;-75.8;44.1;44.0;11;9.9;28.1;0.0;
17/02/2025 19:00:28;100;0;189.17;-4;-20.33;-6.27;346.1;16.60;76552;2836.844;-1758.446;1;187;-70;-79.0;44.1;44.3;11;10.8;28.1;0.0;
17/02/2025 19:00:48;100;0;188.01;-4;-20.34;-6.20;348.4;16.60;76551;2836.841;-1758.447;1;187;-70;-79.0;44.1;44.3;11;10.8;28.1;0.0;
17/02/2025 19:01:08;100;0;188.18;-4;-21.21;-6.46;350.8;16.50;76546;2836.838;-1758.447;1;187;-70;-80.6;44.1;44.3;11;10.8;28.1;0.0;
17/02/2025 19:01:28;100;0;186.43;-4;-20.21;-6.06;353.3;16.50;76548;2836.835;-1758.447;1;187;-70;-80.6;44.1;44.3;11;10.8;28.1;0.0;
17/02/2025 19:01:48;100;0;185.17;-4;-20.43;-6.19;355.7;16.50;76536;2836.832;-1758.448;1;187;-70;-80.6;44.1;44.3;11;10.8;28.1;0.0;
17/02/2025 19:02:08;100;0;181.10;-4;-21.27;-6.20;358.1;16.40;76537;2836.829;-1758.448;1;188;-70;-80.6;44.1;44.6;11;10.8;28.1;0.0;
17/02/2025 19:02:28;100;0;181.10;-4;-20.89;-6.04;360.7;16.40;76519;2836.826;-1758.448;1;188;-70;-80.6;44.1;44.3;11;10.8;28.1;0.0;
17/02/2025 19:02:48;100;0;181.37;-4;-19.76;-6.21;363.2;16.40;76498;2836.823;-1758.448;1;188;-70;-80.6;44.1;44.3;11;10.8;28.1;0.0;
17/02/2025 19:03:08;100;0;183.58;-4;-19.95;-6.16;365.3;16.30;76497;2836.820;-1758.448;1;188;-70;-80.6;44.1;44.3;11;10.8;28.1;0.0;
17/02/2025 19:03:28;100;0;185.84;-4;-20.00;-6.27;367.5;16.30;76498;2836.817;-1758.448;1;188;-70;-80.6;44.1;44.3;11;10.8;28.1;0.0;
17/02/2025 19:03:48;100;0;188.77;-4;-20.01;-6.13;369.7;16.30;76483;2836.814;-1758.449;1;188;-70;-79.0;44.1;44.3;11;10.8;28.1;0.0;
17/02/2025 19:04:08;100;0;190.10;-4;-20.27;-6.09;371.9;16.20;76473;2836.812;-1758.449;1;188;-70;-79.0;44.1;44.3;11;10.8;28.1;0.0;
17/02/2025 19:04:28;100;0;190.46;-4;-20.32;-6.20;374.2;16.20;76467;2836.809;-1758.450;1;188;-70;-80.6;44.1;44.3;11;10.8;28.1;0.0;
17/02/2025 19:04:48;100;0;191.17;-4;-20.68;-6.12;376.6;16.10;76466;2836.806;-1758.450;1;188;-70;-80.6;44.1;44.3;11;10.8;28.1;0.0;
17/02/2025 19:05:08;100;0;190.69;-4;-20.34;-6.15;379.0;16.10;76459;2836.803;-1758.451;1;188;-70;-79.0;44.1;44.3;11;10.8;28.1;0.0;
17/02/2025 19:05:28;100;0;193.30;-4;-20.02;-6.19;381.3;16.10;76463;2836.800;-1758.452;1;188;-70;-79.0;44.1;44.3;11;10.8;28.1;0.0;
17/02/2025 19:05:48;100;0;196.28;-4;-20.37;-6.21;383.7;16.10;76453;2836.797;-1758.453;1;187;-70;-80.6;44.1;44.3;13;13.1;28.1;0.0;
17/02/2025 19:06:08;100;0;198.44;-4;-20.38;-4.83;386.1;16.00;76448;2836.794;-1758.454;1;187;-70;-79.0;44.1;44.3;15;15.3;28.1;0.0;
17/02/2025 19:06:29;100;0;199.66;-4;-20.48;-3.74;388.4;16.00;76429;2836.791;-1758.455;1;187;-70;-82.3;44.1;44.3;15;15.8;28.1;0.0;
17/02/2025 19:06:49;100;0;200.18;-4;-20.84;-3.81;390.8;16.00;76425;2836.789;-1758.456;1;187;-70;-80.6;44.1;44.3;17;17.1;28.1;0.0;
17/02/2025 19:07:09;100;0;198.28;-4;-20.99;-2.78;393.2;16.00;76436;2836.786;-1758.457;1;187;-70;-80.6;44.1;44.3;15;14.9;28.1;0.0;
17/02/2025 19:07:29;100;0;197.03;-4;-20.89;-4.36;395.8;15.90;76417;2836.783;-1758.458;1;187;-70;-79.0;44.1;44.3;15;14.4;28.1;0.0;
17/02/2025 19:07:49;100;0;196.59;-4;-20.80;-4.45;398.3;15.90;76429;2836.780;-1758.459;1;187;-70;-80.6;44.1;44.3;15;14.4;28.1;0.0;
17/02/2025 19:08:09;100;0;198.88;-4;-20.96;-4.44;400.8;15.80;76414;2836.777;-1758.460;1;187;-70;-82.3;44.1;44.3;15;14.4;28.1;0.0;
17/02/2025 19:08:29;100;0;200.74;-4;-20.84;-4.40;403.3;15.80;76398;2836.774;-1758.461;1;187;-70;-80.6;44.1;44.5;18;18.1;28.1;0.0;
17/02/2025 19:08:49;100;0;199.69;-4;-21.19;-1.99;405.9;15.80;76397;2836.771;-1758.462;1;187;-70;-80.6;44.1;44.3;16;15.8;28.1;0.0;
17/02/2025 19:09:09;100;0;198.18;-4;-20.98;-3.25;408.5;15.80;76395;2836.768;-1758.463;1;187;-70;-80.6;44.1;44.3;16;16.7;28.1;0.0;
17/02/2025 19:09:29;100;0;194.55;-4;-20.96;-3.31;411.3;15.70;76379;2836.764;-1758.464;1;187;-70;-79.0;44.1;44.5;13;13.1;28.1;0.0;
17/02/2025 19:09:49;100;0;194.75;-4;-20.99;-5.09;414.0;15.70;76371;2836.761;-1758.465;1;187;-70;-80.6;44.1;44.3;13;12.6;28.1;0.0;
17/02/2025 19:10:09;100;0;192.72;-4;-20.57;-5.16;416.8;15.60;76362;2836.758;-1758.466;1;187;-70;-80.6;44.1;44.3;13;12.6;28.1;0.0;
17/02/2025 19:10:29;100;0;191.85;-4;-20.37;-5.22;419.6;15.60;76352;2836.754;-1758.467;1;187;-70;-80.6;44.1;44.3;13;13.1;28.1;0.0;
17/02/2025 19:10:49;100;0;190.56;-4;-20.09;-5.33;422.3;15.60;76341;2836.751;-1758.468;1;187;-70;-80.6;44.1;44.3;13;13.1;28.1;0.0;
17/02/2025 19:11:09;100;0;190.69;-4;-20.36;-5.25;425.2;15.60;76336;2836.747;-1758.468;1;187;-70;-80.6;44.1;44.3;13;13.1;28.1;0.0;
17/02/2025 19:11:29;100;0;189.47;-4;-20.30;-5.31;428.0;15.50;76326;2836.744;-1758.469;1;187;-70;-80.6;44.1;44.5;13;13.1;28.1;0.0;
17/02/2025 19:11:49;100;0;185.96;-4;-20.41;-5.25;430.8;15.50;76322;2836.740;-1758.469;1;187;-70;-80.6;44.1;44.3;13;12.6;28.1;0.0;
17/02/2025 19:12:09;100;0;182.58;-4;-20.50;-5.14;433.7;15.50;76326;2836.737;-1758.470;1;187;-70;-80.6;44.1;44.3;11;10.8;28.1;0.0;
17/02/2025 19:12:29;100;0;182.85;-4;-19.82;-6.14;436.6;15.40;76319;2836.733;-1758.470;1;187;-70;-80.6;44.1;44.3;11;11.3;28.1;0.0;
17/02/2025 19:12:49;100;0;182.30;-4;-19.99;-6.06;439.4;15.40;76309;2836.729;-1758.470;1;187;-70;-79.0;44.1;44.3;11;10.8;28.1;0.0;
17/02/2025 19:13:09;100;0;181.73;-4;-20.07;-6.04;442.4;15.40;76322;2836.725;-1758.470;1;187;-70;-80.6;44.1;44.3;11;11.3;28.1;0.0;
17/02/2025 19:13:29;100;0;181.12;-4;-20.10;-6.04;445.2;15.30;76298;2836.722;-1758.470;1;187;-70;-80.6;44.1;44.3;11;10.8;28.1;0.0;
17/02/2025 19:13:49;100;0;181.66;-4;-20.13;-6.05;448.2;15.30;76292;2836.718;-1758.470;1;187;-70;-80.6;44.1;44.5;11;11.3;28.1;0.0;
17/02/2025 19:14:09;100;0;183.36;-4;-20.28;-6.04;451.2;15.30;76288;2836.714;-1758.470;1;187;-70;-80.6;44.1;44.3;11;10.8;28.1;0.0;
17/02/2025 19:14:29;100;0;184.76;-4;-20.04;-6.08;454.2;15.30;76286;2836.710;-1758.471;1;187;-70;-80.6;44.1;44.5;11;11.3;28.1;0.0;
17/02/2025 19:14:49;100;0;189.46;-4;-20.37;-6.09;457.3;15.20;76276;2836.706;-1758.471;1;187;-70;-80.6;44.1;44.3;11;11.3;28.1;0.0;
17/02/2025 19:15:09;100;0;191.10;-4;-20.28;-6.01;460.3;15.20;76269;2836.703;-1758.472;1;187;-70;-79.0;44.1;44.3;11;11.3;28.1;0.0;
17/02/2025 19:15:29;100;0;194.96;-4;-20.06;-5.94;463.3;15.20;76264;2836.699;-1758.473;1;187;-70;-80.6;44.1;44.3;13;13.1;28.1;0.0;
17/02/2025 19:15:49;100;0;198.67;-4;-20.19;-4.86;466.3;15.10;76260;2836.695;-1758.474;1;187;-70;-80.6;44.1;44.3;15;15.3;28.1;0.0;
17/02/2025 19:16:09;100;0;196.96;-4;-20.36;-3.91;469.3;15.10;76256;2836.691;-1758.476;1;187;-70;-80.6;44.1;44.3;15;15.3;28.1;0.0;
17/02/2025 19:16:29;100;0;191.08;-4;-20.48;-4.11;472.3;15.10;76246;2836.688;-1758.477;1;187;-70;-80.6;44.1;44.3;12;12.2;28.1;0.0;
17/02/2025 19:16:49;100;0;188.99;-4;-20.03;-5.78;475.1;15.10;76236;2836.684;-1758.477;1;187;-70;-80.6;44.1;44.5;12;12.2;28.1;0.0;
17/02/2025 19:17:09;100;0;185.87;-4;-19.94;-5.94;477.9;15.00;76231;2836.681;-1758.477;1;187;-70;-80.6;44.1;44.3;12;12.2;28.1;0.0;
17/02/2025 19:17:29;100;0;185.90;-4;-19.32;-5.56;480.7;15.00;76241;2836.677;-1758.478;1;187;-70;-80.6;44.1;44.3;12;12.2;28.1;0.0;
17/02/2025 19:17:49;100;0;185.50;-4;-19.92;-5.91;483.4;15.00;76223;2836.673;-1758.478;1;187;-70;-79.0;44.1;44.5;12;12.2;28.1;0.0;
17/02/2025 19:18:09;100;0;184.94;-4;-19.56;-5.81;486.2;15.00;76216;2836.670;-1758.479;1;187;-70;-79.0;44.1;44.3;12;12.2;28.1;0.0;
17/02/2025 19:18:29;100;0;186.29;-4;-19.55;-5.90;489.0;14.90;76214;2836.666;-1758.479;1;187;-70;-80.6;44.1;44.3;12;12.2;28.1;0.0;
17/02/2025 19:18:49;100;0;184.80;-4;-19.00;-5.99;491.8;14.90;76218;2836.663;-1758.479;1;187;-70;-79.0;44.1;44.5;12;12.2;28.1;0.0;
17/02/2025 19:19:09;100;0;179.63;-4;-20.21;-5.90;494.4;14.90;76203;2836.659;-1758.479;1;187;-70;-79.0;44.1;44.3;10;9.0;28.1;0.0;
17/02/2025 19:19:29;100;0;180.43;-4;-19.06;-6.30;497.2;14.90;76208;2836.656;-1758.479;1;187;-70;-80.6;44.1;44.3;10;10.8;28.1;0.0;
17/02/2025 19:19:49;100;0;181.56;-4;-19.62;-6.28;499.8;14.80;76200;2836.652;-1758.479;1;187;-70;-80.6;44.1;44.3;10;10.8;28.1;0.0;
17/02/2025 19:20:09;100;0;183.70;-4;-19.55;-6.23;502.3;14.80;76193;2836.649;-1758.479;1;187;-70;-80.6;44.1;44.3;10;10.8;28.1;0.0;
17/02/2025 19:20:29;100;0;187.06;-4;-20.08;-6.17;504.8;14.80;76188;2836.646;-1758.480;1;187;-70;-80.6;44.1;44.3;12;12.6;28.1;0.0;
17/02/2025 19:20:49;100;0;189.65;-4;-20.10;-5.08;507.4;14.70;76178;2836.643;-1758.480;1;187;-70;-79.0;44.1;44.3;12;13.1;28.1;0.0;
17/02/2025 19:21:09;100;0;190.92;-4;-20.15;-5.15;510.0;14.70;76182;2836.639;-1758.481;1;187;-70;-79.0;44.1;44.3;12;13.1;28.1;0.0;
17/02/2025 19:21:29;100;0;192.03;-4;-20.00;-5.08;512.6;14.70;76178;2836.636;-1758.482;1;187;-70;-79.0;44.1;44.3;12;13.1;28.1;0.0;
17/02/2025 19:21:49;100;0;193.55;-4;-20.10;-5.12;515.2;14.70;76176;2836.633;-1758.483;1;187;-70;-80.6;44.1;44.3;12;13.1;28.1;0.0;
17/02/2025 19:22:09;100;0;195.42;-4;-19.89;-4.89;517.8;14.60;76164;2836.630;-1758.484;1;187;-70;-80.6;44.1;44.3;12;13.1;28.1;0.0;
17/02/2025 19:22:29;100;0;199.73;-4;-19.89;-5.09;520.3;14.60;76161;2836.626;-1758.485;1;187;-70;-80.6;44.1;44.3;16;16.2;28.1;0.0;
17/02/2025 19:22:49;100;0;198.49;-4;-20.00;-3.09;522.9;14.60;76154;2836.623;-1758.486;1;187;-70;-80.6;44.1;44.3;16;16.7;28.1;0.0;
17/02/2025 19:23:09;100;0;201.16;-4;-19.98;-3.14;525.4;14.60;76147;2836.620;-1758.487;1;187;-70;-82.3;44.1;44.3;18;18.5;28.1;0.0;
17/02/2025 19:23:29;100;0;200.53;-4;-20.09;-2.11;527.7;14.50;76143;2836.618;-1758.488;1;187;-70;-80.6;44.1;44.3;18;19.0;28.1;0.0;
17/02/2025 19:23:49;100;0;199.60;-4;-20.28;-2.11;530.2;14.50;76139;2836.615;-1758.490;1;187;-70;-82.3;44.1;44.3;16;15.8;28.1;0.0;
17/02/2025 19:24:09;100;0;200.18;-4;-20.17;-3.63;532.6;14.50;76133;2836.612;-1758.491;1;187;-70;-79.0;44.1;44.3;16;16.2;28.1;0.0;
17/02/2025 19:24:29;100;0;200.50;-4;-20.18;-3.57;535.2;14.50;76133;2836.609;-1758.492;1;187;-70;-80.6;44.1;44.3;18;18.1;28.1;0.0;
17/02/2025 19:24:49;100;0;198.98;-4;-20.08;-2.24;537.7;14.50;76117;2836.606;-1758.493;1;187;-70;-80.6;44.1;44.3;16;15.8;28.1;0.0;
17/02/2025 19:25:09;100;0;196.15;-4;-19.95;-3.56;540.2;14.40;76106;2836.602;-1758.494;1;187;-70;-79.0;44.1;44.3;14;14.0;28.1;0.0;
17/02/2025 19:25:29;100;0;194.86;-4;-19.88;-4.98;542.7;14.40;76112;2836.599;-1758.495;1;187;-70;-80.6;44.1;44.5;14;13.5;28.1;0.0;
17/02/2025 19:25:49;100;0;193.57;-4;-19.92;-4.86;545.2;14.40;76107;2836.596;-1758.496;1;187;-70;-80.6;44.1;44.3;14;14.0;28.1;0.0;
17/02/2025 19:26:09;100;0;192.28;-4;-20.12;-4.91;547.9;14.40;76083;2836.593;-1758.497;1;187;-70;-80.6;44.1;44.3;12;11.7;28.1;0.0;
17/02/2025 19:26:29;100;0;193.06;-4;-19.17;-5.79;550.6;14.30;76096;2836.589;-1758.498;1;187;-70;-80.6;44.1;44.3;12;11.3;28.1;0.0;
17/02/2025 19:26:49;100;0;194.91;-4;-19.47;-5.70;553.1;14.30;76086;2836.586;-1758.498;1;187;-70;-80.6;44.1;44.3;12;11.3;28.1;0.0;
17/02/2025 19:27:09;100;0;195.53;-4;-19.67;-6.01;555.8;14.30;76071;2836.583;-1758.499;1;187;-70;-80.6;44.1;44.3;14;14.4;28.1;0.0;
17/02/2025 19:27:29;100;0;196.38;-4;-19.87;-4.31;558.4;14.20;76072;2836.580;-1758.500;1;187;-70;-80.6;44.1;44.5;14;14.4;28.1;0.0;
17/02/2025 19:27:49;100;0;195.60;-4;-19.79;-4.23;561.3;14.20;76065;2836.576;-1758.502;1;187;-70;-80.6;44.1;44.5;14;14.9;28.1;0.0;
17/02/2025 19:28:09;100;0;194.76;-4;-19.23;-4.65;564.2;14.20;76061;2836.572;-1758.503;1;187;-70;-80.6;44.1;44.3;14;14.9;28.1;0.0;
17/02/2025 19:28:29;100;0;194.40;-4;-20.42;-4.05;567.1;14.20;76054;2836.569;-1758.504;1;187;-70;-80.6;44.1;44.3;14;14.4;28.1;0.0;
17/02/2025 19:28:49;100;0;193.36;-4;-19.18;-4.70;570.1;14.10;76055;2836.565;-1758.505;1;187;-70;-79.0;44.1;44.3;14;14.9;28.1;0.0;
17/02/2025 19:29:09;100;0;191.77;-4;-19.98;-4.45;573.1;14.10;76055;2836.561;-1758.506;1;187;-70;-79.0;44.1;44.3;14;14.4;28.1;0.0;
17/02/2025 19:29:29;100;0;190.40;-4;-19.54;-4.43;576.1;14.10;76048;2836.557;-1758.506;1;187;-70;-80.6;44.1;44.5;12;12.2;28.1;0.0;
17/02/2025 19:29:49;100;0;191.35;-4;-19.75;-5.84;579.3;14.10;76036;2836.553;-1758.507;1;187;-70;-79.0;44.1;44.3;12;11.7;28.1;0.0;
17/02/2025 19:30:09;100;0;191.58;-4;-19.51;-5.82;582.5;14.10;76038;2836.549;-1758.508;1;187;-70;-80.6;44.1;44.3;12;11.7;28.1;0.0;
17/02/2025 19:30:29;100;0;191.84;-4;-19.73;-5.82;585.8;14.00;76027;2836.545;-1758.509;1;187;-70;-80.6;44.1;44.3;12;11.7;28.1;0.0;
17/02/2025 19:30:49;100;0;191.56;-4;-19.81;-5.75;589.2;14.00;76030;2836.541;-1758.510;1;187;-70;-79.0;44.1;44.3;12;11.7;28.1;0.0;
17/02/2025 19:31:09;100;0;192.52;-4;-19.73;-5.76;592.5;14.00;76023;2836.537;-1758.511;1;187;-70;-80.6;44.1;44.3;12;11.7;28.1;0.0;
17/02/2025 19:31:29;100;0;194.40;-4;-19.75;-5.83;596.0;14.00;76022;2836.532;-1758.512;1;187;-70;-80.6;44.1;44.3;14;14.0;28.1;0.0;
17/02/2025 19:31:49;100;0;194.14;-4;-20.17;-4.45;599.5;13.90;76017;2836.528;-1758.513;1;187;-70;-80.6;44.1;44.3;14;14.4;28.1;0.0;
17/02/2025 19:32:09;100;0;194.80;-4;-19.94;-4.49;603.0;13.90;76007;2836.524;-1758.515;1;187;-70;-80.6;44.1;44.3;14;14.4;28.1;0.0;
17/02/2025 19:32:29;100;0;193.48;-4;-19.84;-4.47;606.6;13.90;76005;2836.519;-1758.516;1;187;-70;-82.3;44.1;44.3;14;14.4;28.1;0.0;
17/02/2025 19:32:49;100;0;192.35;-4;-19.73;-4.44;610.1;13.90;76003;2836.515;-1758.517;1;187;-70;-80.6;44.1;44.3;14;14.4;28.1;0.0;
17/02/2025 19:33:09;100;0;193.12;-4;-19.91;-4.45;613.6;13.90;76002;2836.510;-1758.518;1;187;-70;-80.6;44.1;44.5;14;14.4;28.1;0.0;
17/02/2025 19:33:29;100;0;192.03;-4;-19.88;-4.42;617.1;13.80;75988;2836.506;-1758.519;1;187;-70;-79.0;44.1;44.3;14;14.4;28.1;0.0;
17/02/2025 19:33:49;100;0;190.63;-4;-19.81;-4.45;620.6;13.80;75991;2836.502;-1758.520;1;187;-70;-80.6;44.1;44.3;14;14.4;28.1;0.0;
17/02/2025 19:34:09;100;0;189.91;-4;-19.70;-4.44;624.0;13.80;75984;2836.497;-1758.521;1;187;-70;-79.0;44.1;44.3;14;14.4;28.1;0.0;
17/02/2025 19:34:29;100;0;187.79;-4;-19.47;-4.45;627.4;13.80;75981;2836.493;-1758.521;1;187;-70;-80.6;44.1;44.3;14;14.4;28.1;0.0;
17/02/2025 19:34:49;100;0;186.10;-4;-19.24;-4.52;630.6;13.80;75981;2836.489;-1758.522;1;187;-70;-80.6;44.1;44.3;14;14.4;28.1;0.0;
17/02/2025 19:35:09;100;0;187.11;-4;-19.35;-4.49;633.7;13.70;75969;2836.484;-1758.522;1;187;-70;-79.0;44.1;44.3;14;14.4;28.1;0.0;
17/02/2025 19:35:29;100;0;188.64;-4;-19.31;-4.49;636.8;13.70;75964;2836.480;-1758.523;1;187;-70;-80.6;44.1;44.3;14;14.4;28.1;0.0;
17/02/2025 19:35:49;100;0;189.56;-4;-19.34;-4.39;639.9;13.70;75956;2836.476;-1758.524;1;187;-70;-80.6;44.1;44.3;14;14.4;28.1;0.0;
17/02/2025 19:36:09;100;0;190.85;-4;-19.34;-4.41;643.1;13.60;75952;2836.472;-1758.525;1;187;-70;-79.0;44.1;44.5;14;14.4;28.1;0.0;
17/02/2025 19:36:29;100;0;191.22;-4;-19.37;-4.44;646.1;13.60;75944;2836.468;-1758.525;1;187;-70;-80.6;44.1;44.3;14;14.4;28.1;0.0;
17/02/2025 19:36:49;100;0;193.68;-4;-19.54;-4.48;649.2;13.60;75937;2836.464;-1758.526;1;187;-70;-80.6;44.1;44.3;14;14.4;28.1;0.0;
17/02/2025 19:37:09;100;0;195.80;-4;-19.85;-4.44;652.2;13.60;75944;2836.461;-1758.528;1;187;-70;-79.0;44.1;44.3;14;14.4;28.1;0.0;
17/02/2025 19:37:29;100;0;196.97;-4;-19.60;-4.42;655.3;13.60;75931;2836.457;-1758.529;1;187;-70;-79.0;44.1;44.3;14;14.4;28.1;0.0;
17/02/2025 19:37:49;100;0;192.69;-4;-18.85;-4.48;658.4;13.50;75915;2836.453;-1758.530;1;187;-70;-79.0;44.4;44.3;14;14.4;28.1;0.0;
17/02/2025 19:38:09;100;0;190.94;-4;-19.23;-4.49;661.2;13.50;75907;2836.449;-1758.531;1;187;-70;-80.6;44.4;44.3;14;14.4;28.1;0.0;
17/02/2025 19:38:29;100;0;189.32;-4;-19.00;-4.53;663.9;13.50;75899;2836.446;-1758.531;1;187;-70;-79.0;44.7;44.6;14;14.4;28.1;0.0;
17/02/2025 19:38:49;100;0;187.80;-4;-20.01;-4.59;666.7;13.50;75896;2836.442;-1758.532;1;187;-70;-80.6;44.7;44.8;14;14.4;28.1;0.0;
17/02/2025 19:39:09;100;0;187.73;-4;-20.08;-4.46;669.4;13.40;75880;2836.439;-1758.532;1;187;-70;-79.0;44.7;44.8;14;14.4;28.1;0.0;
17/02/2025 19:39:29;100;0;187.06;-4;-19.70;-4.58;672.2;13.40;75881;2836.435;-1758.533;1;187;-70;-80.6;44.7;44.8;14;14.4;28.1;0.0;
17/02/2025 19:39:49;100;0;186.73;-4;-20.21;-4.51;674.9;13.40;75866;2836.432;-1758.533;1;187;-70;-80.6;44.7;44.8;14;14.4;28.1;0.0;
17/02/2025 19:40:09;100;0;186.79;-4;-19.64;-4.41;677.6;13.40;75874;2836.428;-1758.534;1;187;-70;-80.6;44.7;44.6;14;14.4;28.1;0.0;
17/02/2025 19:40:29;100;0;186.54;-4;-20.08;-4.48;680.3;13.30;75862;2836.425;-1758.534;1;187;-70;-79.0;44.7;44.8;14;14.4;28.1;0.0;
17/02/2025 19:40:49;100;0;187.63;-4;-19.15;-4.39;683.0;13.30;75861;2836.421;-1758.534;1;187;-70;-80.6;44.7;44.8;14;14.4;28.1;0.0;
17/02/2025 19:41:09;100;0;186.67;-4;-19.87;-4.50;685.6;13.30;75850;2836.418;-1758.535;1;187;-70;-79.0;44.7;44.8;14;14.4;28.1;0.0;
17/02/2025 19:41:30;100;0;182.84;-4;-19.97;-4.42;688.0;13.30;75849;2836.415;-1758.535;1;187;-70;-83.9;44.7;44.8;12;11.7;28.1;0.0;
17/02/2025 19:41:50;100;0;178.94;-4;-19.97;-5.88;690.5;13.30;75846;2836.412;-1758.535;1;187;-70;-79.0;44.7;44.8;10;8.1;28.1;0.0;
17/02/2025 19:42:10;100;0;180.06;-4;-19.66;-6.36;693.1;13.20;75837;2836.408;-1758.535;1;187;-70;-80.6;44.7;44.8;10;10.8;28.1;0.0;
17/02/2025 19:42:30;100;0;182.53;-4;-19.87;-6.36;695.6;13.20;75819;2836.405;-1758.535;1;187;-70;-80.6;44.7;44.8;12;12.2;28.1;0.0;
17/02/2025 19:42:50;100;0;184.97;-4;-19.57;-5.36;698.2;13.20;75828;2836.402;-1758.535;1;187;-70;-80.6;44.7;44.8;12;12.6;28.1;0.0;
17/02/2025 19:43:10;100;0;185.44;-4;-20.17;-5.16;700.6;13.20;75826;2836.399;-1758.536;1;187;-70;-80.6;44.7;44.8;12;12.6;28.1;0.0;
17/02/2025 19:43:30;100;0;184.59;-4;-21.19;-5.46;703.2;13.10;75814;2836.395;-1758.536;1;187;-70;-80.6;44.7;44.8;12;12.6;28.1;0.0;
17/02/2025 19:43:50;100;0;188.75;-4;-19.69;-5.13;706.0;13.10;75823;2836.392;-1758.536;1;187;-70;-83.9;44.7;44.8;12;12.6;28.1;0.0;
17/02/2025 19:44:10;100;0;190.77;-4;-19.96;-5.39;708.7;13.10;75800;2836.388;-1758.537;1;187;-70;-80.6;44.7;44.8;12;12.6;28.1;0.0;
17/02/2025 19:44:30;100;0;192.08;-4;-19.88;-5.28;711.4;13.10;75798;2836.385;-1758.538;1;187;-70;-80.6;44.7;44.8;12;12.6;28.1;0.0;
17/02/2025 19:44:50;100;0;191.44;-4;-20.10;-5.29;714.1;13.00;75788;2836.382;-1758.539;1;187;-70;-79.0;44.7;44.8;12;12.6;28.1;0.0;
17/02/2025 19:45:10;100;0;193.31;-4;-19.95;-5.41;716.7;13.00;75794;2836.378;-1758.539;1;187;-70;-80.6;44.7;44.8;12;12.6;28.1;0.0;
17/02/2025 19:45:30;100;0;195.00;-4;-20.06;-5.34;719.4;13.00;75782;2836.375;-1758.540;1;187;-70;-80.6;44.7;44.8;14;14.0;28.1;0.0;
17/02/2025 19:45:50;100;0;194.14;-4;-20.04;-4.59;722.2;13.00;75774;2836.372;-1758.541;1;187;-70;-80.6;44.7;44.8;14;14.0;28.1;0.0;
17/02/2025 19:46:10;100;0;195.54;-4;-19.92;-4.66;724.8;12.90;75776;2836.368;-1758.542;1;186;-70;-80.6;44.7;44.8;14;14.0;28.1;0.0;
17/02/2025 19:46:30;100;0;197.18;-4;-20.05;-4.71;727.4;12.90;75768;2836.365;-1758.543;1;186;-70;-80.6;44.7;44.8;16;15.8;28.1;0.0;
17/02/2025 19:46:50;100;0;200.23;-4;-20.40;-3.87;730.1;12.90;75778;2836.362;-1758.545;1;186;-70;-80.6;44.7;44.8;19;19.0;28.1;0.0;
17/02/2025 19:47:10;100;0;199.97;-4;-20.71;-1.50;732.6;12.90;75754;2836.359;-1758.546;1;186;-70;-80.6;44.7;44.8;19;20.3;28.1;0.0;
17/02/2025 19:47:30;100;0;198.88;-4;-20.51;-1.45;735.2;12.90;75742;2836.356;-1758.547;1;186;-70;-80.6;44.7;44.8;19;20.3;28.1;0.0;
17/02/2025 19:47:50;100;0;196.59;-4;-20.33;-1.45;737.9;12.80;75730;2836.353;-1758.548;1;186;-70;-80.6;44.7;44.8;16;15.3;28.1;0.0;
17/02/2025 19:48:10;100;0;195.61;-4;-20.33;-3.73;740.4;12.80;75724;2836.350;-1758.549;1;186;-70;-80.6;44.7;44.8;16;15.8;28.1;0.0;
17/02/2025 19:48:30;100;0;196.02;-4;-20.22;-3.68;743.0;12.80;75726;2836.346;-1758.550;1;186;-70;-80.6;44.7;44.8;16;16.2;28.1;0.0;
17/02/2025 19:48:50;100;0;195.14;-4;-20.05;-3.75;745.6;12.70;75721;2836.343;-1758.551;1;186;-70;-80.6;44.7;44.6;16;15.8;28.1;0.0;
17/02/2025 19:49:10;100;0;193.41;-4;-19.87;-3.87;748.2;12.70;75716;2836.340;-1758.552;1;186;-70;-80.6;44.7;44.8;14;14.0;28.1;0.0;
17/02/2025 19:49:30;100;0;191.83;-4;-19.87;-4.72;750.7;12.70;75703;2836.337;-1758.553;1;186;-70;-79.0;44.7;44.8;14;14.0;28.1;0.0;
17/02/2025 19:49:50;100;0;187.75;-4;-19.75;-4.93;753.3;12.70;75696;2836.334;-1758.553;1;186;-70;-80.6;44.7;44.8;14;14.0;28.1;0.0;
17/02/2025 19:50:10;100;0;186.44;-4;-19.73;-4.78;755.9;12.70;75694;2836.330;-1758.553;1;186;-70;-80.6;44.7;44.8;14;14.0;28.1;0.0;
17/02/2025 19:50:30;100;0;184.46;-4;-19.72;-4.91;758.3;12.60;75685;2836.327;-1758.554;1;186;-70;-83.9;44.7;44.9;14;14.0;28.1;0.0;
17/02/2025 19:50:50;100;0;182.98;-4;-19.59;-4.90;760.7;12.60;75677;2836.324;-1758.554;1;186;-70;-79.0;44.7;44.8;14;14.0;28.1;0.0;
17/02/2025 19:51:10;100;0;181.84;-4;-19.44;-4.78;763.2;12.60;75676;2836.321;-1758.554;1;186;-70;-80.6;44.7;44.8;14;14.0;28.1;0.0;
17/02/2025 19:51:30;100;0;180.79;-4;-19.79;-4.85;765.6;12.60;75665;2836.318;-1758.554;1;186;-70;-79.0;44.7;44.8;12;12.2;28.1;0.0;
17/02/2025 19:51:50;100;0;180.55;-4;-19.73;-5.64;768.2;12.50;75661;2836.314;-1758.554;1;186;-70;-80.6;44.7;44.8;12;12.6;28.1;0.0;
17/02/2025 19:52:10;100;0;180.39;-4;-19.64;-5.63;770.7;12.50;75654;2836.311;-1758.554;1;186;-70;-80.6;44.7;44.8;12;12.2;28.1;0.0;
17/02/2025 19:52:30;100;0;180.52;-4;-19.51;-5.57;773.2;12.50;75655;2836.308;-1758.554;1;186;-70;-80.6;44.7;44.8;12;12.2;28.1;0.0;
17/02/2025 19:52:50;100;0;176.76;-4;-19.63;-5.64;775.6;12.50;75647;2836.305;-1758.554;1;186;-70;-79.0;44.7;44.8;10;9.5;28.1;0.0;
17/02/2025 19:53:10;100;0;176.08;-4;-19.56;-6.26;778.0;12.40;75634;2836.302;-1758.553;1;186;-70;-80.6;44.7;44.8;10;10.8;28.1;0.0;
17/02/2025 19:53:30;100;0;175.90;-4;-19.51;-6.48;780.3;12.40;75639;2836.299;-1758.553;1;186;-70;-80.6;44.7;44.8;10;10.8;28.1;0.0;
17/02/2025 19:53:50;100;0;177.14;-4;-19.50;-6.43;782.5;12.40;75629;2836.296;-1758.553;1;186;-70;-80.6;44.7;44.8;10;10.8;28.1;0.0;
17/02/2025 19:54:10;100;0;177.19;-4;-19.33;-6.41;784.8;12.40;75626;2836.293;-1758.553;1;186;-70;-80.6;44.7;44.8;10;10.8;28.1;0.0;
17/02/2025 19:54:30;100;0;177.47;-4;-19.62;-6.53;787.0;12.30;75622;2836.290;-1758.552;1;186;-70;-80.6;44.7;44.8;10;10.8;28.1;0.0;
17/02/2025 19:54:50;100;0;182.41;-4;-19.67;-6.22;789.2;12.30;75617;2836.287;-1758.552;1;187;-70;-80.6;44.7;44.8;12;12.2;28.1;0.0;
17/02/2025 19:55:10;100;0;184.08;-4;-21.37;-5.53;792.0;12.30;75607;2836.284;-1758.553;1;187;-70;-80.6;44.7;44.8;12;12.6;28.1;0.0;
17/02/2025 19:55:30;100;0;182.27;-4;-18.59;-5.06;794.7;12.30;75609;2836.280;-1758.553;1;187;-70;-80.6;45.1;45.1;12;12.6;28.1;0.0;
17/02/2025 19:55:50;100;0;190.49;-4;-21.41;-5.49;797.0;12.30;75604;2836.277;-1758.553;1;187;-70;-82.3;45.1;45.4;12;12.6;28.1;0.0;
17/02/2025 19:56:10;100;0;193.88;-4;-20.95;-5.27;799.8;12.20;75597;2836.274;-1758.554;1;187;-70;-80.6;45.1;45.4;12;12.6;28.1;0.0;
17/02/2025 19:56:30;100;0;191.80;-4;-19.99;-5.13;802.5;12.20;75593;2836.271;-1758.555;1;186;-70;-80.6;45.1;45.4;12;12.6;28.1;0.0;
17/02/2025 19:56:50;100;0;186.65;-4;-22.87;-5.24;805.1;12.20;75592;2836.268;-1758.555;1;186;-70;-80.6;44.3;44.3;12;12.6;28.1;0.0;
17/02/2025 19:57:10;100;0;187.89;-4;-18.96;-5.30;807.8;12.10;75579;2836.264;-1758.556;1;186;-70;-80.6;44.6;44.6;12;12.6;28.1;0.0;
17/02/2025 19:57:30;100;0;191.72;-4;-18.75;-5.31;810.4;12.10;75575;2836.261;-1758.557;1;186;-70;-79.0;44.9;44.9;12;12.6;28.1;0.0;
17/02/2025 19:57:50;100;0;192.69;-4;-20.19;-5.69;812.8;12.10;75575;2836.258;-1758.557;1;186;-70;-80.6;44.9;44.9;12;12.6;28.1;0.0;
17/02/2025 19:58:10;100;0;194.82;-4;-19.00;-5.52;815.3;12.10;75582;2836.255;-1758.558;1;186;-70;-80.6;45.2;45.4;14;14.0;28.1;0.0;
17/02/2025 19:58:30;100;0;199.53;-4;-20.85;-4.38;817.7;12.10;75575;2836.252;-1758.559;1;186;-70;-80.6;45.2;45.5;19;19.4;28.1;0.0;
17/02/2025 19:58:50;100;0;197.88;-4;-21.41;-1.62;820.2;12.00;75565;2836.249;-1758.560;1;186;-70;-80.6;45.2;45.5;17;16.7;28.1;0.0;
17/02/2025 19:59:10;100;0;194.74;-4;-21.40;-2.66;822.7;12.00;75557;2836.246;-1758.561;1;186;-70;-79.0;45.2;45.5;14;14.0;28.1;0.0;
17/02/2025 19:59:30;100;0;191.56;-4;-20.13;-4.84;824.9;12.00;75550;2836.243;-1758.562;1;186;-70;-80.6;45.2;45.5;14;14.0;28.1;0.0;
17/02/2025 19:59:50;100;0;189.82;-4;-21.04;-4.78;826.9;12.00;75546;2836.241;-1758.562;1;186;-70;-79.0;45.2;45.5;14;14.0;28.1;0.0;
17/02/2025 20:00:10;100;0;188.69;-4;-21.22;-4.95;828.9;11.90;75539;2836.238;-1758.563;1;186;-90;-91.9;45.2;45.5;14;14.0;28.1;0.0;
17/02/2025 20:00:30;100;0;185.89;-4;-21.60;-4.93;831.1;11.90;75555;2836.236;-1758.563;1;186;-90;-93.5;45.2;45.5;14;14.0;28.1;0.0;
17/02/2025 20:00:50;100;0;185.64;-4;-21.04;-4.79;833.5;11.90;75541;2836.233;-1758.563;1;186;-90;-93.5;45.2;45.5;14;14.0;28.1;0.0;
17/02/2025 20:01:10;100;0;186.35;-4;-21.29;-4.63;835.9;11.90;75550;2836.230;-1758.564;1;186;-90;-95.2;45.2;45.5;14;14.0;28.1;0.0;
17/02/2025 20:01:30;100;0;185.74;-4;-20.19;-4.78;838.2;11.90;75546;2836.227;-1758.564;1;186;-90;-98.4;45.2;45.5;14;14.0;28.1;0.0;
17/02/2025 20:01:50;100;0;185.29;-4;-21.63;-4.85;840.4;11.80;75539;2836.224;-1758.564;1;186;-90;-93.5;45.2;45.5;14;13.5;28.1;0.0;
17/02/2025 20:02:10;100;0;184.14;-4;-20.38;-4.57;842.7;11.80;75521;2836.221;-1758.564;1;186;-90;-95.2;45.2;45.5;14;14.0;28.1;0.0;
17/02/2025 20:02:30;100;0;187.22;-4;-21.35;-4.57;844.9;11.80;75522;2836.218;-1758.565;1;186;-90;-95.2;45.2;45.5;14;14.0;28.1;0.0;
17/02/2025 20:02:50;100;0;186.46;-4;-21.84;-4.80;847.1;11.80;75518;2836.216;-1758.565;1;186;-90;-95.2;45.2;45.5;14;14.0;28.1;0.0;
17/02/2025 20:03:10;100;0;186.01;-4;-21.65;-5.28;849.5;11.70;75519;2836.213;-1758.565;1;186;-90;-95.2;45.2;45.5;14;13.5;28.1;0.0;
17/02/2025 20:03:30;100;0;180.41;-4;-21.26;-5.13;851.9;11.70;75508;2836.210;-1758.565;1;186;-90;-95.2;45.2;45.5;12;12.2;28.1;0.0;
17/02/2025 20:03:50;100;0;183.27;-4;-20.14;-6.57;854.3;11.70;75503;2836.207;-1758.565;1;186;-90;-95.2;45.2;45.5;12;11.7;28.1;0.0;
17/02/2025 20:04:10;100;0;190.41;-4;-20.08;-5.79;856.5;11.70;75496;2836.204;-1758.566;1;186;-90;-95.2;45.2;45.5;12;11.7;28.1;0.0;
17/02/2025 20:04:30;100;0;190.10;-4;-22.00;-5.66;858.6;11.60;75500;2836.202;-1758.566;1;186;-90;-96.8;45.2;45.5;12;11.7;28.1;0.0;
17/02/2025 20:04:50;100;0;190.48;-4;-20.53;-5.65;860.8;11.60;75495;2836.199;-1758.567;1;186;-90;-95.2;45.2;45.5;12;11.7;28.1;0.0;
17/02/2025 20:05:10;100;0;191.74;-4;-20.87;-5.75;863.1;11.60;75475;2836.196;-1758.567;1;186;-90;-95.2;45.2;45.5;12;11.7;28.1;0.0;
17/02/2025 20:05:30;100;0;192.59;-4;-22.71;-6.21;865.7;11.60;75471;2836.193;-1758.568;1;186;-90;-95.2;44.4;44.5;14;14.9;28.1;0.0;
17/02/2025 20:05:50;100;0;197.15;-4;-19.12;-4.49;868.2;11.60;75482;2836.190;-1758.569;1;186;-90;-95.2;44.4;44.2;16;15.8;28.1;0.0;
17/02/2025 20:06:10;100;0;196.11;-4;-19.19;-3.86;870.4;11.50;75470;2836.187;-1758.570;1;186;-90;-95.2;44.4;44.2;16;15.8;28.1;0.0;
17/02/2025 20:06:30;100;0;192.61;-4;-19.99;-4.08;872.7;11.50;75466;2836.184;-1758.571;1;186;-90;-95.2;44.4;44.3;14;14.0;28.1;0.0;
17/02/2025 20:06:50;100;0;191.36;-4;-19.30;-4.73;875.4;11.50;75470;2836.181;-1758.572;1;186;-90;-95.2;44.4;44.3;14;14.0;28.1;0.0;
17/02/2025 20:07:10;100;0;187.34;-4;-18.36;-4.77;877.8;11.50;75466;2836.178;-1758.572;1;186;-90;-95.2;44.9;45.1;14;14.0;28.1;0.0;
17/02/2025 20:07:30;100;0;187.59;-4;-18.45;-4.64;880.3;11.40;75459;2836.174;-1758.572;1;186;-90;-95.2;45.4;45.4;14;14.0;28.1;0.0;
17/02/2025 20:07:50;100;0;186.92;-4;-19.73;-4.97;882.6;11.40;75457;2836.171;-1758.573;1;186;-90;-95.2;45.4;45.2;14;14.0;28.1;0.0;
17/02/2025 20:08:10;100;0;187.59;-4;-19.58;-4.81;884.9;11.40;75452;2836.168;-1758.573;1;186;-90;-95.2;45.4;45.2;14;14.0;28.1;0.0;
17/02/2025 20:08:30;100;0;187.04;-4;-20.34;-4.74;887.0;11.40;75440;2836.166;-1758.574;1;186;-90;-95.2;45.4;45.2;14;14.0;28.1;0.0;
17/02/2025 20:08:50;100;0;187.69;-4;-19.67;-4.96;889.0;11.30;75449;2836.163;-1758.574;1;186;-90;-95.2;45.4;45.2;14;14.0;28.1;0.0;
17/02/2025 20:09:10;100;0;185.09;-4;-19.25;-5.11;890.9;11.30;75439;2836.161;-1758.574;1;186;-110;-111.3;45.4;45.4;14;14.0;28.1;0.0;
17/02/2025 20:09:30;100;0;182.57;-4;-20.83;-4.53;893.0;11.30;75463;2836.158;-1758.574;1;186;-110;-114.5;45.4;45.2;14;14.0;28.1;0.0;
17/02/2025 20:09:50;100;0;183.00;-4;-19.26;-4.48;895.3;11.30;75469;2836.155;-1758.574;1;186;-110;-112.9;45.4;45.2;14;14.0;28.1;0.0;
17/02/2025 20:10:10;100;0;183.66;-4;-20.14;-4.71;897.4;11.30;75476;2836.152;-1758.575;1;186;-110;-114.5;45.4;45.2;14;14.0;28.1;0.0;
17/02/2025 20:10:25;118;0;182.65;-4;-20.18;-4.65;899.0;11.30;75473;2836.150;-1758.575;1;186;150;-114.5;34.0;33.9;11;11.3;28.1;0.0;
17/02/2025 20:10:35;118;0;134.04;-4;-10.80;-7.17;899.8;11.20;75449;2836.149;-1758.574;1;186;150;11.3;34.0;33.6;11;11.3;26.9;-1.0;
17/02/2025 20:10:45;118;0;123.79;-4;-1.11;-6.24;900.0;11.20;75184;2836.149;-1758.573;1;186;150;135.5;34.0;33.7;11;10.8;27.0;-1.0;
17/02/2025 20:10:55;118;0;121.56;-4;1.85;-6.21;899.7;11.20;74930;2836.149;-1758.573;1;186;150;153.2;34.0;33.6;11;11.3;26.9;-1.0;
17/02/2025 20:11:05;118;0;183.25;-4;1.86;-6.94;899.1;11.20;74904;2836.149;-1758.573;1;186;150;153.2;34.0;33.6;11;11.3;28.1;-1.0;
17/02/2025 20:11:25;117;0;180.74;-4;-0.73;-6.79;898.1;11.20;74912;2836.148;-1758.573;1;186;150;153.2;34.0;33.6;11;11.3;28.1;-1.0;
17/02/2025 20:11:45;117;0;182.89;-4;-0.62;-7.04;896.9;11.20;74909;2836.148;-1758.573;1;186;150;153.2;27.8;27.8;36;36.1;28.1;-1.0;
17/02/2025 20:12:05;117;0;187.47;-4;15.94;6.56;895.9;11.20;74900;2836.146;-1758.573;1;186;150;153.2;26.6;26.7;36;36.1;28.1;-1.0;
17/02/2025 20:12:25;117;0;186.34;-4;22.29;6.69;894.4;11.20;74901;2836.145;-1758.574;1;186;150;153.2;27.3;27.2;36;36.1;28.1;-1.0;
17/02/2025 20:12:45;117;0;186.95;-4;21.66;6.68;892.7;11.20;74894;2836.142;-1758.574;1;186;150;154.8;27.3;27.4;36;36.1;28.1;-1.0;
17/02/2025 20:13:05;117;0;184.28;-4;21.08;6.73;890.9;11.20;74892;2836.140;-1758.574;1;186;150;153.2;27.3;27.5;36;36.6;28.1;-1.0;
17/02/2025 20:13:25;117;0;194.27;-4;21.10;5.43;888.8;11.20;74890;2836.138;-1758.575;1;186;150;154.8;27.3;27.5;33;32.5;28.1;-1.0;
17/02/2025 20:13:45;117;0;191.61;-4;20.18;4.92;886.6;11.10;74881;2836.135;-1758.575;1;186;150;154.8;27.3;27.4;33;32.9;28.1;-1.0;
17/02/2025 20:14:05;117;0;196.91;-4;20.09;4.76;884.7;11.10;74879;2836.133;-1758.576;1;186;150;153.2;27.3;27.4;33;32.9;28.1;-1.0;
17/02/2025 20:14:25;117;0;193.66;-4;20.42;4.76;882.9;11.10;74885;2836.130;-1758.577;1;186;150;154.8;27.3;27.5;33;32.9;28.1;-1.0;
17/02/2025 20:14:45;117;0;194.10;-4;21.09;4.96;881.0;11.10;74876;2836.128;-1758.577;1;186;150;154.8;27.3;27.4;33;32.9;28.1;-1.0;
17/02/2025 20:15:05;117;0;190.05;-4;21.85;4.98;878.8;11.10;74874;2836.126;-1758.578;1;186;150;154.8;27.3;27.4;33;32.9;28.1;-1.0;
17/02/2025 20:15:25;117;0;189.78;-4;19.30;5.10;876.7;11.00;74867;2836.123;-1758.578;1;186;150;153.2;27.3;27.5;35;35.2;28.1;-1.0;
17/02/2025 20:15:46;117;0;193.75;-4;19.85;6.36;874.9;11.00;74859;2836.120;-1758.579;1;186;170;172.6;27.3;27.5;35;35.6;28.1;-1.0;
17/02/2025 20:16:06;117;0;193.06;-4;21.70;6.35;873.0;11.00;74823;2836.118;-1758.579;1;186;190;191.9;27.3;27.5;35;35.6;28.1;-1.0;
17/02/2025 20:16:26;117;0;194.19;-4;20.38;6.53;871.0;11.00;74780;2836.116;-1758.580;1;186;210;212.9;27.3;27.5;33;29.3;28.1;-1.0;
17/02/2025 20:16:46;117;0;195.99;-4;18.50;4.99;869.0;11.00;74742;2836.113;-1758.581;1;186;230;233.9;26.8;26.8;33;32.9;28.1;-1.0;
17/02/2025 20:17:06;117;0;198.93;-4;19.75;4.85;867.1;11.00;74701;2836.111;-1758.582;1;186;250;251.6;26.8;26.8;29;28.4;28.1;-1.0;
17/02/2025 20:17:26;117;0;195.91;-4;19.90;2.47;865.1;11.00;74657;2836.108;-1758.582;1;186;270;272.6;26.8;27.0;32;32.0;28.1;-1.0;
17/02/2025 20:17:46;117;0;194.74;-4;18.03;5.24;863.1;11.00;74615;2836.106;-1758.583;1;186;270;272.6;26.2;26.2;32;32.9;28.1;-1.0;
17/02/2025 20:18:06;117;0;195.75;-4;20.16;4.90;861.2;11.00;74612;2836.103;-1758.584;1;186;290;291.9;26.2;25.6;32;32.5;28.1;-1.0;
17/02/2025 20:18:26;117;0;197.55;-4;20.25;5.14;858.9;10.90;74577;2836.101;-1758.585;1;186;290;293.5;26.2;25.6;32;32.5;28.1;-1.0;
17/02/2025 20:18:46;117;0;197.77;-4;19.82;4.96;856.6;10.90;74574;2836.098;-1758.586;1;186;290;293.5;26.2;26.4;30;29.3;28.1;-1.0;
17/02/2025 20:19:06;117;0;198.11;-4;20.06;3.10;854.4;10.90;74585;2836.095;-1758.587;1;186;290;293.5;26.2;26.4;30;29.3;28.1;-1.0;
17/02/2025 20:19:26;117;0;198.26;-4;19.33;3.07;852.2;10.90;74576;2836.092;-1758.588;1;186;290;291.9;26.2;26.5;30;29.3;28.1;-1.0;
17/02/2025 20:19:46;117;0;198.82;-4;18.43;3.13;850.0;10.90;74572;2836.089;-1758.589;1;186;290;290.3;25.8;25.8;30;29.3;28.1;-1.0;
17/02/2025 20:20:06;117;0;198.67;-4;20.41;2.95;847.7;10.90;74580;2836.087;-1758.590;1;186;290;293.5;25.8;25.2;30;29.3;28.1;-1.0;
17/02/2025 20:20:26;117;0;197.95;-4;21.07;3.23;845.2;10.90;74569;2836.084;-1758.591;1;186;290;291.9;25.8;25.2;30;29.3;28.1;-1.0;
17/02/2025 20:20:46;117;0;198.38;-4;21.36;3.04;842.8;10.90;74571;2836.081;-1758.592;1;186;290;291.9;25.8;25.2;30;29.3;28.1;-1.0;
17/02/2025 20:21:06;117;0;198.37;-4;20.51;3.20;840.1;10.90;74573;2836.078;-1758.593;1;186;290;291.9;25.8;25.3;30;29.3;28.1;-1.0;
17/02/2025 20:21:26;117;0;197.47;-4;20.51;3.15;837.6;10.90;74568;2836.075;-1758.594;1;186;290;291.9;25.8;25.2;30;29.3;28.1;-1.0;
17/02/2025 20:21:46;117;0;198.70;-4;20.55;3.11;835.1;10.80;74560;2836.072;-1758.595;1;186;290;293.5;25.8;25.2;30;29.3;28.1;-1.0;
17/02/2025 20:22:06;117;0;198.89;-4;20.31;3.36;832.7;10.80;74563;2836.069;-1758.596;1;186;290;291.9;25.8;25.2;30;29.3;28.1;-1.0;
17/02/2025 20:22:26;117;0;199.12;-4;19.73;3.06;830.3;10.80;74563;2836.066;-1758.597;1;186;290;293.5;25.8;25.2;30;29.3;28.1;-1.0;
17/02/2025 20:22:46;117;0;198.41;-4;20.20;3.16;828.1;10.80;74550;2836.063;-1758.598;1;186;290;291.9;25.8;25.2;30;29.3;28.1;-1.0;
17/02/2025 20:23:06;117;0;198.34;-4;19.96;3.21;825.9;10.80;74546;2836.061;-1758.599;1;186;290;291.9;25.8;25.3;30;29.3;28.1;-1.0;
17/02/2025 20:23:26;117;0;199.14;-4;20.75;3.17;823.9;10.80;74555;2836.058;-1758.600;1;186;290;291.9;25.8;25.2;30;29.3;28.1;-1.0;
17/02/2025 20:23:46;117;0;200.01;-4;21.30;3.15;822.0;10.80;74557;2836.056;-1758.601;1;186;310;312.9;25.8;25.2;27;27.1;28.1;-1.0;
17/02/2025 20:24:06;117;0;198.28;-4;20.39;2.03;819.7;10.80;74523;2836.053;-1758.602;1;185;310;312.9;25.8;25.2;27;27.1;28.1;-1.0;
17/02/2025 20:24:26;117;0;196.44;-4;19.92;1.92;817.8;10.80;74523;2836.051;-1758.603;1;185;330;332.3;25.8;25.2;30;29.8;28.1;-1.0;
17/02/2025 20:24:46;117;0;199.16;-4;19.63;3.88;815.9;10.80;74475;2836.049;-1758.604;1;185;350;354.8;25.8;25.2;27;26.6;28.1;-1.0;
17/02/2025 20:25:06;117;0;195.97;-4;19.10;1.85;813.9;10.80;74442;2836.046;-1758.604;1;185;370;354.8;25.8;25.2;30;30.7;28.1;-1.0;
17/02/2025 20:25:26;117;0;194.79;-4;19.21;4.44;812.0;10.80;74436;2836.044;-1758.605;1;185;390;393.5;25.8;25.2;30;31.1;28.1;-1.0;
17/02/2025 20:25:46;117;0;197.72;-4;18.53;4.41;810.0;10.80;74364;2836.041;-1758.606;1;185;390;391.9;25.3;25.3;30;31.6;28.1;-1.0;
17/02/2025 20:26:06;117;0;197.85;-4;18.12;4.42;807.9;10.80;74351;2836.038;-1758.607;1;185;390;391.9;24.8;24.7;30;31.6;28.1;-1.0;
17/02/2025 20:26:26;117;0;198.39;-4;19.55;4.07;805.6;10.80;74367;2836.036;-1758.608;1;185;390;393.5;24.8;24.2;28;28.0;28.1;-1.0;
17/02/2025 20:26:46;117;0;195.91;-4;19.16;2.50;803.3;10.80;74372;2836.033;-1758.609;1;185;390;393.5;24.8;24.2;30;30.2;28.1;-1.0;
17/02/2025 20:27:06;117;0;195.44;-4;20.41;4.93;801.0;10.80;74358;2836.030;-1758.610;1;185;390;391.9;24.8;24.2;30;31.6;28.1;-1.0;
17/02/2025 20:27:26;117;0;194.14;-4;20.52;4.33;798.4;10.80;74354;2836.027;-1758.611;1;185;390;391.9;24.8;24.2;30;31.1;28.1;-1.0;
17/02/2025 20:27:46;117;0;195.39;-4;20.34;4.18;795.8;10.80;74354;2836.023;-1758.612;1;185;390;393.5;24.8;24.2;30;31.1;28.1;-1.0;
17/02/2025 20:28:06;117;0;195.40;-4;20.42;4.52;793.2;10.80;74357;2836.020;-1758.612;1;185;390;391.9;24.8;24.2;30;31.1;28.1;-1.0;
17/02/2025 20:28:26;117;0;196.59;-4;20.22;4.43;790.5;10.80;74365;2836.017;-1758.614;1;185;390;393.5;24.8;24.2;30;31.1;28.1;-1.0;
17/02/2025 20:28:46;117;0;196.96;-4;20.43;4.44;787.9;10.80;74360;2836.014;-1758.615;1;185;390;391.9;24.8;24.2;30;31.6;28.1;-1.0;
17/02/2025 20:29:06;117;0;200.77;-4;20.12;4.31;785.2;10.80;74363;2836.010;-1758.616;1;185;390;391.9;24.8;24.9;25;24.8;28.1;-1.0;
17/02/2025 20:29:26;117;0;201.38;-4;19.10;1.16;782.6;10.70;74369;2836.007;-1758.617;1;185;390;391.9;24.8;24.9;25;25.3;28.1;-1.0;
17/02/2025 20:29:46;117;0;201.71;-4;18.62;1.21;780.2;10.70;74363;2836.004;-1758.619;1;185;390;391.9;24.4;24.3;23;23.0;28.1;-1.0;
17/02/2025 20:30:06;117;0;199.75;-4;19.80;0.05;777.8;10.70;74369;2836.001;-1758.620;1;185;390;391.9;24.4;24.3;26;27.1;28.1;-1.0;
17/02/2025 20:30:26;117;0;198.35;-4;19.76;2.35;775.4;10.70;74363;2835.998;-1758.621;1;185;390;390.3;24.4;24.4;26;27.1;28.1;-1.0;
17/02/2025 20:30:46;117;0;197.52;-4;19.78;2.31;773.0;10.70;74363;2835.996;-1758.622;1;185;390;393.5;24.4;24.3;28;28.0;28.1;-1.0;
17/02/2025 20:31:06;117;0;197.27;-4;19.92;2.98;770.6;10.70;74363;2835.993;-1758.623;1;185;390;391.9;24.4;24.4;28;28.4;28.1;-1.0;
17/02/2025 20:31:26;117;0;197.16;-4;19.97;3.01;768.3;10.70;74369;2835.990;-1758.624;1;185;390;391.9;24.4;24.4;28;28.4;28.1;-1.0;
17/02/2025 20:31:46;117;0;196.92;-4;19.91;2.94;765.9;10.70;74352;2835.987;-1758.625;1;185;390;395.2;24.4;24.4;28;28.4;28.1;-1.0;
17/02/2025 20:32:06;117;0;196.67;-4;19.87;2.95;763.6;10.70;74356;2835.984;-1758.626;1;185;390;391.9;24.4;24.4;28;28.4;28.1;-1.0;
17/02/2025 20:32:26;117;0;196.50;-4;20.10;2.96;761.3;10.70;74354;2835.981;-1758.627;1;185;390;393.5;24.4;24.4;28;28.4;28.1;-1.0;
17/02/2025 20:32:46;117;0;195.64;-4;20.12;2.93;759.0;10.70;74365;2835.978;-1758.628;1;184;390;393.5;24.4;24.4;28;28.4;28.1;-1.0;
17/02/2025 20:33:06;117;0;196.25;-4;20.30;3.35;756.6;10.70;74359;2835.975;-1758.628;1;184;390;393.5;24.4;24.4;28;28.4;28.1;-1.0;
17/02/2025 20:33:26;117;0;195.34;-4;19.88;2.99;754.2;10.70;74369;2835.972;-1758.629;1;184;390;391.9;24.4;24.4;28;28.4;28.1;-1.0;
17/02/2025 20:33:46;117;0;194.56;-4;20.00;2.69;751.8;10.70;74376;2835.969;-1758.630;1;184;390;390.3;24.4;24.3;30;30.2;28.1;-1.0;
17/02/2025 20:34:06;117;0;195.62;-4;20.12;4.73;749.5;10.70;74361;2835.967;-1758.631;1;184;390;393.5;24.4;24.4;30;31.6;28.1;-1.0;
17/02/2025 20:34:26;117;0;197.21;-4;20.16;4.65;747.0;10.70;74364;2835.963;-1758.632;1;184;390;393.5;24.4;24.4;27;26.6;28.1;-1.0;
17/02/2025 20:34:46;117;0;198.42;-4;19.89;2.10;744.6;10.70;74369;2835.961;-1758.633;1;184;390;391.9;24.4;24.4;27;26.6;28.1;-1.0;
17/02/2025 20:35:06;117;0;198.48;-4;19.68;2.02;742.2;10.70;74370;2835.958;-1758.634;1;184;390;393.5;24.4;24.4;27;26.6;28.1;-1.0;
17/02/2025 20:35:26;117;0;198.30;-4;20.02;2.10;739.9;10.70;74384;2835.955;-1758.635;1;184;390;390.3;24.4;24.3;27;26.6;28.1;-1.0;
17/02/2025 20:35:46;117;0;193.95;-4;19.76;2.68;737.5;10.70;74386;2835.952;-1758.636;1;184;390;391.9;24.4;24.3;30;30.2;28.1;-1.0;
17/02/2025 20:36:06;117;0;194.17;-4;20.00;4.70;735.3;10.70;74391;2835.949;-1758.637;1;184;390;393.5;24.4;24.4;30;31.6;28.1;-1.0;
17/02/2025 20:36:26;117;0;194.66;-4;20.55;4.51;732.9;10.70;74378;2835.946;-1758.638;1;184;390;393.5;24.4;24.4;30;31.6;28.1;-1.0;
17/02/2025 20:36:46;117;0;195.41;-4;19.95;4.82;730.3;10.80;74385;2835.943;-1758.638;1;184;390;390.3;24.4;24.3;30;31.6;28.1;-1.0;
17/02/2025 20:37:06;117;0;196.01;-4;20.10;4.59;728.0;10.80;74388;2835.940;-1758.639;1;184;390;390.3;24.4;24.4;28;28.0;28.1;-1.0;
17/02/2025 20:37:26;117;0;193.47;-4;20.07;2.43;725.7;10.70;74386;2835.937;-1758.640;1;184;390;393.5;24.4;24.3;30;30.7;28.1;-1.0;
17/02/2025 20:37:46;117;0;194.20;-4;20.33;4.73;723.3;10.70;74383;2835.934;-1758.641;1;184;390;393.5;24.4;24.3;30;32.0;28.1;-1.0;
17/02/2025 20:38:06;117;0;194.62;-4;20.41;4.83;720.8;10.80;74382;2835.931;-1758.642;1;184;390;393.5;24.4;24.4;30;32.0;28.1;-1.0;
17/02/2025 20:38:26;117;0;196.55;-4;20.29;4.69;718.4;10.80;74385;2835.928;-1758.643;1;184;390;391.9;24.4;24.3;27;27.1;28.1;-1.0;
17/02/2025 20:38:46;117;0;194.81;-4;19.76;2.04;715.9;10.80;74380;2835.925;-1758.644;1;184;390;391.9;24.4;24.4;29;28.9;28.1;-1.0;
17/02/2025 20:39:06;117;0;190.81;-4;19.60;3.33;713.6;10.80;74389;2835.922;-1758.644;1;184;390;393.5;24.4;24.4;31;31.6;28.1;-1.0;
17/02/2025 20:39:26;117;0;189.26;-4;20.09;5.20;711.3;10.80;74392;2835.919;-1758.645;1;184;390;393.5;24.4;24.4;31;32.9;28.1;-1.0;
17/02/2025 20:39:46;117;0;190.37;-4;20.06;5.48;708.8;10.80;74385;2835.916;-1758.645;1;184;390;391.9;24.4;24.4;31;32.9;28.1;-1.0;
17/02/2025 20:40:06;117;0;190.55;-4;20.17;5.40;706.5;10.80;74401;2835.913;-1758.646;1;184;390;393.5;24.4;24.3;31;32.9;28.1;-1.0;
17/02/2025 20:40:26;117;0;191.03;-4;20.06;5.24;704.1;10.80;74412;2835.910;-1758.647;1;184;390;393.5;24.4;24.3;31;32.9;28.1;-1.0;
17/02/2025 20:40:46;117;0;191.50;-4;20.00;5.39;701.9;10.80;74406;2835.907;-1758.647;1;184;390;393.5;24.4;24.4;31;32.9;28.1;-1.0;
17/02/2025 20:41:06;117;0;193.06;-4;20.04;5.45;699.6;10.80;74412;2835.905;-1758.648;1;184;390;391.9;24.4;24.4;31;32.9;28.1;-1.0;
17/02/2025 20:41:26;117;0;193.79;-4;20.09;5.36;697.5;10.80;74414;2835.902;-1758.649;1;184;390;391.9;24.4;24.4;31;32.9;28.1;-1.0;
17/02/2025 20:41:46;117;0;194.38;-4;20.01;5.37;695.3;10.80;74415;2835.899;-1758.649;1;184;390;391.9;24.4;24.4;29;28.9;28.1;-1.0;
17/02/2025 20:42:06;117;0;195.18;-4;20.12;4.67;693.1;10.80;74408;2835.897;-1758.650;1;183;390;391.9;24.4;24.4;27;27.1;28.1;-1.0;
17/02/2025 20:42:26;117;0;195.72;-4;19.79;2.03;691.1;10.80;74421;2835.894;-1758.651;1;183;390;393.5;24.4;24.3;27;26.6;28.1;-1.0;
17/02/2025 20:42:46;117;0;195.78;-4;19.88;2.08;689.0;10.80;74423;2835.892;-1758.652;1;183;390;391.9;24.4;24.4;27;26.6;28.1;-1.0;
17/02/2025 20:43:06;117;0;196.72;-4;19.90;1.98;686.9;10.80;74423;2835.889;-1758.652;1;183;390;391.9;24.4;24.4;27;27.1;28.1;-1.0;
17/02/2025 20:43:26;117;0;197.46;-4;19.88;1.98;684.8;10.80;74431;2835.886;-1758.653;1;183;390;393.5;24.4;24.4;25;24.8;28.1;-1.0;
17/02/2025 20:43:46;117;0;196.53;-4;19.62;0.92;682.7;10.90;74437;2835.884;-1758.654;1;183;390;391.9;24.4;24.3;25;24.4;28.1;-1.0;
17/02/2025 20:44:06;117;0;195.03;-4;19.32;1.02;680.7;10.90;74435;2835.881;-1758.655;1;183;390;393.5;24.4;24.4;27;27.1;28.1;-1.0;
17/02/2025 20:44:26;117;0;194.96;-4;19.70;2.54;678.6;10.90;74424;2835.879;-1758.656;1;183;390;393.5;24.4;24.4;27;27.5;28.1;-1.0;
