Timestamp;NavState;SecurityLevel;Heading;Declination;Pitch;Roll;Depth;Temperature;Pa;Lat;Lon;DeadReckoning;DesiredH;BallastCmd;BallastPos;LinCmd;LinPos;AngCmd;AngPos;Voltage;Altitude;
25/02/2025 05:31:40;119;0;93.15;-4;-53.88;-16.13;0.2;17.10;75656;2834.866;-1758.232;0;141;500;504.8;100.0;100.6;0;-0.5;26.4;-1.0;
25/02/2025 05:31:50;116;0;74.81;-4;-61.87;-18.65;0.2;17.20;75652;2834.871;-1758.241;0;141;500;506.5;100.0;100.6;0;-0.5;26.3;-1.0;
25/02/2025 05:32:15;116;0;46.04;-4;-50.40;-6.20;0.3;17.20;75665;2834.876;-1758.240;0;141;500;506.5;100.0;100.6;0;-0.5;26.4;-1.0;
25/02/2025 05:32:41;116;0;23.52;-4;-57.71;2.51;0.1;17.30;75670;2834.877;-1758.240;0;315;500;506.5;100.0;100.6;0;-0.5;26.4;-1.0;
25/02/2025 05:33:02;116;0;41.49;-4;-52.11;-9.48;0.3;17.40;75678;2834.881;-1758.239;0;315;500;506.5;100.0;100.6;0;-0.5;26.4;-1.0;
25/02/2025 05:33:22;116;0;73.37;-4;-62.21;-22.30;0.4;17.40;75697;2834.885;-1758.237;0;315;500;504.8;100.0;100.6;0;-0.5;26.4;-1.0;
25/02/2025 05:34:25;116;0;9.27;-4;-51.76;-2.17;0.2;17.60;75710;2834.896;-1758.235;0;315;500;506.5;100.0;100.6;0;0.0;26.4;-1.0;
25/02/2025 05:35:12;116;0;330.19;-4;-56.94;-6.44;0.2;17.80;75739;2834.906;-1758.234;0;315;500;508.1;100.0;100.6;0;-0.5;26.4;-1.0;
25/02/2025 05:36:15;116;0;306.97;-4;-54.64;-2.89;0.2;18.10;75755;2834.917;-1758.232;0;315;500;506.5;100.0;100.6;0;-0.5;26.4;-1.0;
25/02/2025 05:38:25;116;0;305.76;-4;-53.69;-8.26;0.3;18.70;75793;2834.943;-1758.229;0;315;500;506.5;100.0;100.6;0;-0.5;26.3;-1.0;
25/02/2025 05:38:36;116;0;316.29;-4;-52.58;-19.04;0.2;18.70;75798;2834.944;-1758.228;0;315;500;506.5;100.0;100.7;0;-0.5;26.4;-1.0;
25/02/2025 05:38:56;110;0;335.97;-4;-55.01;-8.98;0.0;18.80;75814;2834.944;-1758.228;0;315;-90;383.9;100.0;100.0;-7;-7.2;26.4;-1.0;
25/02/2025 05:39:06;110;0;332.69;-4;-56.94;-17.56;0.1;18.90;76171;2834.945;-1758.228;1;315;-90;237.1;100.0;99.9;-7;-7.2;26.3;-1.0;
25/02/2025 05:39:16;110;0;329.88;-4;-55.38;-13.62;0.6;18.90;76405;2834.945;-1758.228;1;315;-90;79.0;100.0;99.9;-7;-7.2;26.3;-1.0;
25/02/2025 05:39:26;110;0;324.93;-4;-68.91;-5.87;0.9;18.90;76733;2834.945;-1758.228;1;315;-90;-85.5;100.0;99.9;-7;-7.2;26.3;-1.0;
25/02/2025 05:39:36;110;0;335.60;-4;-68.12;-14.04;1.4;19.00;77090;2834.946;-1758.228;1;315;-90;-90.3;41.0;40.9;-7;-7.7;26.4;-1.0;
25/02/2025 05:39:56;100;0;356.71;-4;-30.33;-14.62;4.9;19.00;77055;2834.949;-1758.228;1;315;-90;-88.7;41.0;40.6;-7;-7.7;26.4;-1.0;
25/02/2025 05:40:16;100;0;2.07;-4;-16.60;-15.05;7.8;19.10;77066;2834.954;-1758.228;1;315;-90;-85.5;42.0;42.1;70;69.9;26.4;-1.0;
25/02/2025 05:40:36;100;0;359.56;-4;-21.07;23.93;10.4;19.10;77074;2834.958;-1758.228;1;315;-90;-82.3;42.0;42.1;70;70.4;26.4;-1.0;
25/02/2025 05:40:56;100;0;348.48;-4;-19.66;23.93;13.1;19.10;77074;2834.962;-1758.229;1;315;-90;-85.5;42.0;42.3;62;61.8;26.4;0.0;
25/02/2025 05:41:16;100;0;337.61;-4;-20.21;18.80;15.9;19.10;77082;2834.966;-1758.230;1;315;-90;-83.9;42.0;42.3;47;46.9;26.4;0.0;
25/02/2025 05:41:36;100;0;329.43;-4;-20.02;11.46;18.3;19.10;77080;2834.969;-1758.232;1;315;-90;-85.5;42.0;42.3;35;34.7;26.4;0.0;
25/02/2025 05:41:56;100;0;321.63;-4;-18.50;5.67;21.0;19.10;77095;2834.972;-1758.235;1;315;-90;-83.9;42.4;42.6;21;21.2;26.4;0.0;
25/02/2025 05:42:16;100;0;317.88;-4;-20.12;-1.30;23.2;19.10;77083;2834.975;-1758.237;1;315;-90;-83.9;42.4;42.7;18;18.1;26.4;0.0;
25/02/2025 05:42:36;100;0;316.88;-4;-19.98;-2.91;25.7;19.20;77091;2834.978;-1758.239;1;315;-90;-82.3;42.4;42.7;18;17.6;26.4;0.0;
25/02/2025 05:42:56;100;0;315.67;-4;-19.94;-2.95;28.1;19.20;77107;2834.981;-1758.241;1;315;-90;-83.9;42.4;42.6;16;15.8;26.4;0.0;
25/02/2025 05:43:16;100;0;316.36;-4;-19.21;-3.93;30.6;19.20;77101;2834.984;-1758.244;1;315;-90;-83.9;42.4;42.6;16;15.3;26.4;0.0;
25/02/2025 05:43:36;100;0;316.70;-4;-19.46;-4.01;33.0;19.20;77104;2834.987;-1758.247;1;315;-90;-85.5;42.4;42.6;16;15.3;26.4;0.0;
25/02/2025 05:43:56;100;0;315.98;-4;-19.77;-3.95;35.4;19.20;77109;2834.989;-1758.249;1;315;-90;-85.5;42.4;42.7;16;15.3;26.4;0.0;
25/02/2025 05:44:16;100;0;316.31;-4;-19.61;-4.03;38.0;19.20;77105;2834.992;-1758.251;1;315;-90;-85.5;42.4;42.6;16;15.3;26.3;0.0;
25/02/2025 05:44:36;100;0;316.67;-4;-19.46;-3.94;40.5;19.20;77118;2834.995;-1758.254;1;315;-90;-85.5;42.4;42.6;16;15.3;26.4;0.0;
25/02/2025 05:44:56;100;0;316.42;-4;-19.47;-3.99;42.9;19.30;77115;2834.998;-1758.256;1;315;-90;-85.5;42.4;42.7;16;15.3;26.4;0.0;
25/02/2025 05:45:16;100;0;315.80;-4;-19.63;-4.00;45.2;19.30;77125;2835.001;-1758.259;1;315;-90;-83.9;42.4;42.7;16;15.3;26.4;0.0;
25/02/2025 05:45:36;100;0;315.42;-4;-19.74;-3.92;47.6;19.30;77128;2835.004;-1758.261;1;315;-90;-83.9;42.4;42.6;16;15.3;26.4;0.0;
25/02/2025 05:45:56;100;0;316.61;-4;-19.31;-3.90;50.0;19.30;77119;2835.006;-1758.264;1;315;-90;-85.5;42.4;42.6;16;15.3;26.4;0.0;
25/02/2025 05:46:16;100;0;316.74;-4;-19.87;-4.06;52.3;19.30;77133;2835.009;-1758.266;1;315;-90;-83.9;42.4;42.7;16;15.3;26.4;0.0;
25/02/2025 05:46:36;100;0;317.04;-4;-19.38;-4.01;54.7;19.30;77130;2835.012;-1758.268;1;315;-90;-85.5;42.4;42.6;18;18.1;26.4;0.0;
25/02/2025 05:46:56;100;0;315.85;-4;-19.98;-2.36;57.2;19.30;77139;2835.015;-1758.271;1;315;-90;-83.9;42.4;42.6;18;18.5;26.4;0.0;
25/02/2025 05:47:16;100;0;315.69;-4;-19.91;-2.34;59.5;19.30;77139;2835.018;-1758.273;1;315;-90;-83.9;42.4;42.6;18;18.5;26.4;0.0;
25/02/2025 05:47:36;100;0;313.60;-4;-20.07;-2.45;62.0;19.30;77133;2835.020;-1758.276;1;315;-90;-83.9;42.4;42.6;16;15.3;26.4;0.0;
25/02/2025 05:47:56;100;0;312.72;-4;-19.59;-4.02;64.5;19.30;77142;2835.023;-1758.278;1;315;-90;-85.5;42.4;42.6;16;15.3;26.4;0.0;
25/02/2025 05:48:16;100;0;311.73;-4;-19.75;-4.10;66.8;19.30;77145;2835.026;-1758.281;1;315;-90;-83.9;42.4;42.7;16;15.3;26.4;0.0;
25/02/2025 05:48:36;100;0;311.77;-4;-19.54;-4.10;69.5;19.30;77150;2835.028;-1758.284;1;315;-90;-83.9;42.4;42.6;16;15.3;26.4;0.0;
25/02/2025 05:48:56;100;0;313.56;-4;-19.36;-4.06;71.7;19.30;77152;2835.031;-1758.286;1;315;-90;-83.9;42.4;42.6;16;15.3;26.4;0.0;
25/02/2025 05:49:16;100;0;314.98;-4;-19.52;-4.07;74.2;19.30;77163;2835.034;-1758.288;1;315;-90;-83.9;42.4;42.6;16;15.3;26.4;0.0;
25/02/2025 05:49:36;100;0;315.80;-4;-19.57;-4.11;76.7;19.30;77160;2835.037;-1758.291;1;315;-90;-83.9;42.4;42.6;16;15.3;26.4;0.0;
25/02/2025 05:49:56;100;0;316.90;-4;-19.56;-4.10;79.1;19.30;77169;2835.039;-1758.293;1;315;-90;-83.9;42.4;42.6;18;18.1;26.4;0.0;
25/02/2025 05:50:16;100;0;316.18;-4;-19.87;-2.41;81.5;19.30;77169;2835.042;-1758.296;1;315;-90;-83.9;42.4;42.7;18;18.5;26.4;0.0;
25/02/2025 05:50:36;100;0;314.79;-4;-19.73;-2.35;83.9;19.30;77168;2835.045;-1758.298;1;315;-90;-85.5;42.4;42.7;18;18.5;26.4;0.0;
25/02/2025 05:50:56;100;0;312.45;-4;-19.48;-2.40;86.3;19.30;77156;2835.048;-1758.301;1;315;-90;-83.9;42.4;42.6;16;15.8;26.4;0.0;
25/02/2025 05:51:16;100;0;310.65;-4;-19.72;-3.97;88.8;19.30;77156;2835.050;-1758.303;1;315;-90;-83.9;42.4;42.7;16;15.8;26.4;0.0;
25/02/2025 05:51:36;100;0;308.89;-4;-19.68;-3.93;91.2;19.30;77156;2835.053;-1758.306;1;315;-90;-83.9;42.4;42.7;16;15.3;26.4;0.0;
25/02/2025 05:51:56;100;0;306.76;-4;-19.34;-4.12;93.7;19.30;77163;2835.055;-1758.309;1;315;-90;-83.9;42.4;42.6;16;15.3;26.4;0.0;
25/02/2025 05:52:16;100;0;307.22;-4;-19.47;-4.00;96.0;19.30;77156;2835.058;-1758.312;1;315;-90;-85.5;42.4;42.6;16;15.8;26.4;0.0;
25/02/2025 05:52:36;100;0;306.01;-4;-19.31;-4.02;98.3;19.30;77159;2835.060;-1758.315;1;315;-90;-83.9;42.4;42.6;16;15.3;26.4;0.0;
25/02/2025 05:52:56;100;0;304.89;-4;-19.54;-3.91;100.5;19.30;77147;2835.062;-1758.317;1;315;-90;-83.9;42.4;42.7;16;15.3;26.4;0.0;
25/02/2025 05:53:16;100;0;305.04;-4;-19.22;-3.91;102.9;19.30;77145;2835.065;-1758.320;1;315;-90;-83.9;42.4;42.6;16;15.3;26.4;0.0;
25/02/2025 05:53:36;100;0;305.00;-4;-20.00;-3.92;105.4;19.30;77146;2835.067;-1758.323;1;315;-90;-83.9;42.4;42.6;16;15.3;26.4;0.0;
25/02/2025 05:53:56;100;0;308.14;-4;-19.99;-3.92;107.9;19.30;77134;2835.070;-1758.326;1;315;-90;-83.9;42.4;42.7;16;15.8;26.4;0.0;
25/02/2025 05:54:16;100;0;310.20;-4;-19.57;-3.79;110.5;19.30;77140;2835.072;-1758.329;1;315;-90;-83.9;42.4;42.6;16;15.3;26.4;0.0;
25/02/2025 05:54:36;100;0;306.77;-4;-19.69;-3.88;112.9;19.20;77129;2835.075;-1758.331;1;315;-90;-82.3;42.4;42.7;16;15.3;26.4;0.0;
25/02/2025 05:54:56;100;0;301.62;-4;-19.46;-3.93;115.1;19.20;77111;2835.077;-1758.334;1;315;-90;-83.9;42.4;42.7;14;14.0;26.4;0.0;
25/02/2025 05:55:16;100;0;296.71;-4;-19.28;-4.74;117.6;19.20;77104;2835.079;-1758.337;1;315;-90;-83.9;42.4;42.6;12;12.2;26.4;0.0;
25/02/2025 05:55:36;100;0;293.23;-4;-18.84;-5.80;119.8;19.20;77090;2835.081;-1758.341;1;315;-90;-83.9;42.8;43.2;8;8.1;26.4;0.0;
25/02/2025 05:55:56;100;0;294.31;-4;-19.74;-7.88;122.0;19.20;77077;2835.082;-1758.343;1;315;-90;-83.9;42.8;43.2;10;9.9;26.4;0.0;
25/02/2025 05:56:16;100;0;298.07;-4;-20.09;-6.58;124.4;19.20;77077;2835.084;-1758.346;1;315;-90;-85.5;42.8;43.2;13;13.1;26.3;0.0;
25/02/2025 05:56:36;100;0;301.17;-4;-21.32;-4.69;127.0;19.10;77063;2835.086;-1758.349;1;315;-90;-82.3;42.8;43.3;13;13.5;26.4;0.0;
25/02/2025 05:56:56;100;0;298.33;-4;-20.65;-4.80;129.9;19.10;77045;2835.089;-1758.353;1;315;-90;-83.9;42.8;43.2;13;13.5;26.4;0.0;
25/02/2025 05:57:16;100;0;298.07;-4;-20.56;-4.74;132.3;19.10;77026;2835.091;-1758.356;1;315;-90;-85.5;42.8;43.3;13;13.5;26.4;0.0;
25/02/2025 05:57:36;100;0;297.06;-4;-20.35;-4.71;134.9;19.10;77009;2835.093;-1758.359;1;315;-90;-83.9;42.8;43.2;11;10.8;26.4;0.0;
25/02/2025 05:57:56;100;0;299.09;-4;-20.35;-6.44;137.5;19.00;77002;2835.095;-1758.362;1;315;-90;-83.9;42.8;43.3;11;10.4;26.4;0.0;
25/02/2025 05:58:16;100;0;301.61;-4;-20.75;-6.50;140.1;19.00;77001;2835.097;-1758.366;1;315;-90;-83.9;42.8;43.2;14;14.0;26.3;0.0;
25/02/2025 05:58:36;100;0;300.40;-4;-21.28;-4.35;142.8;19.00;76982;2835.099;-1758.369;1;315;-90;-83.9;42.8;43.3;14;14.4;26.4;0.0;
25/02/2025 05:58:56;100;0;299.41;-4;-20.19;-4.32;145.5;19.00;76972;2835.102;-1758.372;1;315;-90;-83.9;42.8;43.2;14;14.4;26.4;0.0;
25/02/2025 05:59:17;100;0;295.80;-4;-19.84;-4.50;147.9;18.90;76965;2835.103;-1758.375;1;315;-90;-83.9;42.8;43.3;10;9.9;26.4;0.0;
25/02/2025 05:59:37;100;0;294.57;-4;-19.68;-6.96;150.3;18.90;76949;2835.105;-1758.378;1;315;-90;-85.5;42.8;43.2;10;9.5;26.4;0.0;
25/02/2025 05:59:57;100;0;295.59;-4;-19.06;-7.10;152.5;18.90;76933;2835.107;-1758.381;1;315;-90;-83.9;42.8;43.3;10;9.5;26.4;0.0;
25/02/2025 06:00:17;100;0;298.55;-4;-19.25;-6.81;154.9;18.80;76923;2835.109;-1758.384;1;315;-90;-83.9;42.8;43.3;13;13.1;26.4;0.0;
25/02/2025 06:00:37;100;0;301.48;-4;-19.98;-4.91;157.0;18.80;76916;2835.111;-1758.387;1;315;-90;-85.5;42.8;43.3;13;13.5;26.3;0.0;
25/02/2025 06:00:57;100;0;301.91;-4;-19.72;-4.89;159.4;18.80;76912;2835.113;-1758.390;1;315;-90;-83.9;42.8;43.2;13;14.0;26.4;0.0;
25/02/2025 06:01:17;100;0;300.22;-4;-19.76;-4.77;161.6;18.70;76906;2835.115;-1758.393;1;315;-90;-83.9;42.8;43.2;13;13.5;26.4;0.0;
25/02/2025 06:01:37;100;0;296.31;-4;-19.61;-4.80;164.0;18.70;76884;2835.117;-1758.396;1;315;-90;-83.9;42.8;43.3;11;10.8;26.4;0.0;
25/02/2025 06:01:57;100;0;295.49;-4;-19.52;-6.52;166.2;18.70;76875;2835.119;-1758.399;1;315;-90;-83.9;42.8;43.3;11;10.4;26.4;0.0;
25/02/2025 06:02:17;100;0;297.39;-4;-19.72;-6.52;168.5;18.60;76860;2835.121;-1758.401;1;315;-90;-85.5;42.8;43.2;11;10.4;26.4;0.0;
25/02/2025 06:02:37;100;0;299.19;-4;-19.51;-6.47;170.7;18.60;76850;2835.123;-1758.404;1;315;-90;-83.9;42.8;43.2;13;13.1;26.4;0.0;
25/02/2025 06:02:57;100;0;301.81;-4;-19.66;-4.94;173.0;18.60;76842;2835.125;-1758.407;1;315;-90;-83.9;42.8;43.3;13;13.5;26.3;0.0;
25/02/2025 06:03:17;100;0;301.18;-4;-19.57;-4.95;175.4;18.50;76829;2835.127;-1758.410;1;315;-90;-83.9;42.8;43.2;13;13.5;26.4;0.0;
25/02/2025 06:03:37;100;0;301.41;-4;-19.47;-4.86;177.6;18.50;76813;2835.129;-1758.413;1;315;-90;-85.5;42.8;43.2;13;13.5;26.4;0.0;
25/02/2025 06:03:57;100;0;301.84;-4;-19.66;-4.98;180.0;18.50;76818;2835.131;-1758.416;1;315;-90;-85.5;42.8;43.3;13;13.5;26.4;0.0;
25/02/2025 06:04:17;100;0;303.24;-4;-19.54;-4.95;182.0;18.40;76800;2835.133;-1758.418;1;315;-90;-83.9;42.8;43.3;13;13.5;26.4;0.0;
25/02/2025 06:04:37;100;0;304.69;-4;-19.62;-4.96;184.3;18.40;76794;2835.136;-1758.421;1;315;-90;-83.9;42.8;43.2;13;13.5;26.4;0.0;
25/02/2025 06:04:57;100;0;306.41;-4;-19.95;-4.90;186.6;18.40;76782;2835.138;-1758.423;1;315;-90;-83.9;42.8;43.3;13;13.5;26.4;0.0;
25/02/2025 06:05:17;100;0;309.05;-4;-19.76;-4.94;189.0;18.30;76781;2835.140;-1758.426;1;315;-90;-83.9;42.8;43.3;13;13.5;26.4;0.0;
25/02/2025 06:05:37;100;0;311.73;-4;-19.78;-4.94;191.4;18.30;76780;2835.143;-1758.429;1;315;-90;-83.9;42.8;43.2;15;14.9;26.4;0.0;
25/02/2025 06:05:57;100;0;312.51;-4;-19.65;-3.99;193.7;18.20;76754;2835.146;-1758.431;1;315;-90;-85.5;42.8;43.2;15;15.3;26.4;0.0;
25/02/2025 06:06:17;100;0;312.42;-4;-19.96;-3.98;196.3;18.20;76759;2835.148;-1758.434;1;315;-90;-85.5;42.8;43.3;15;15.3;26.4;0.0;
25/02/2025 06:06:37;100;0;309.59;-4;-19.90;-3.99;198.5;18.20;76752;2835.151;-1758.436;1;315;-90;-83.9;42.8;43.2;15;15.3;26.4;0.0;
25/02/2025 06:06:57;100;0;310.42;-4;-19.99;-3.94;200.9;18.10;76734;2835.153;-1758.439;1;315;-90;-83.9;42.8;43.3;15;15.3;26.4;0.0;
25/02/2025 06:07:17;100;0;309.11;-4;-19.90;-3.97;203.3;18.10;76727;2835.156;-1758.442;1;315;-90;-83.9;42.8;43.2;15;15.3;26.4;0.0;
25/02/2025 06:07:37;100;0;307.31;-4;-19.94;-3.96;205.8;18.10;76716;2835.158;-1758.444;1;315;-90;-85.5;42.8;43.2;15;15.3;26.4;0.0;
25/02/2025 06:07:57;100;0;307.04;-4;-19.65;-3.93;208.1;18.00;76710;2835.161;-1758.447;1;315;-90;-83.9;42.8;43.3;15;15.3;26.4;0.0;
25/02/2025 06:08:17;100;0;309.24;-4;-19.50;-4.01;210.6;18.00;76696;2835.163;-1758.450;1;315;-90;-83.9;42.8;43.3;15;15.3;26.4;0.0;
25/02/2025 06:08:37;100;0;311.28;-4;-19.15;-3.99;212.8;17.90;76688;2835.166;-1758.452;1;315;-90;-85.5;42.8;43.3;15;15.3;26.4;0.0;
25/02/2025 06:08:57;100;0;311.06;-4;-19.24;-4.04;215.1;17.90;76696;2835.168;-1758.455;1;315;-90;-83.9;42.8;43.3;15;15.3;26.4;0.0;
25/02/2025 06:09:17;100;0;311.90;-4;-19.67;-3.98;217.4;17.90;76681;2835.171;-1758.457;1;315;-90;-85.5;42.8;43.3;15;15.3;26.4;0.0;
25/02/2025 06:09:37;100;0;311.39;-4;-19.59;-3.97;219.7;17.80;76672;2835.173;-1758.460;1;315;-90;-85.5;42.8;43.2;15;15.3;26.4;0.0;
25/02/2025 06:09:57;100;0;312.70;-4;-19.41;-3.93;222.1;17.80;76665;2835.176;-1758.462;1;315;-90;-83.9;42.8;43.2;15;15.3;26.4;0.0;
25/02/2025 06:10:17;100;0;313.08;-4;-19.60;-3.97;224.4;17.70;76650;2835.178;-1758.465;1;315;-90;-85.5;42.8;43.2;15;15.3;26.4;0.0;
25/02/2025 06:10:37;100;0;313.79;-4;-19.78;-3.95;226.8;17.70;76649;2835.181;-1758.467;1;315;-90;-83.9;42.8;43.3;15;15.3;26.4;0.0;
25/02/2025 06:10:57;100;0;311.65;-4;-19.88;-3.94;229.1;17.70;76642;2835.184;-1758.470;1;315;-90;-83.9;42.8;43.3;15;15.3;26.4;0.0;
25/02/2025 06:11:17;100;0;311.69;-4;-19.95;-3.98;231.8;17.60;76632;2835.186;-1758.472;1;315;-90;-83.9;42.8;43.2;15;15.3;26.4;0.0;
25/02/2025 06:11:37;100;0;311.12;-4;-19.85;-3.94;234.3;17.60;76621;2835.189;-1758.475;1;315;-90;-83.9;42.8;43.2;15;15.3;26.4;0.0;
25/02/2025 06:11:57;100;0;309.63;-4;-19.88;-3.95;236.9;17.60;76609;2835.192;-1758.478;1;315;-90;-85.5;42.8;43.2;15;15.3;26.4;0.0;
25/02/2025 06:12:17;100;0;306.87;-4;-19.86;-3.92;239.5;17.50;76616;2835.194;-1758.481;1;315;-90;-83.9;42.8;43.3;15;15.3;26.4;0.0;
25/02/2025 06:12:37;100;0;301.49;-4;-19.42;-3.96;242.0;17.50;76598;2835.197;-1758.484;1;315;-90;-85.5;42.8;43.3;15;15.3;26.4;0.0;
25/02/2025 06:12:57;100;0;298.96;-4;-19.34;-3.94;244.5;17.50;76602;2835.199;-1758.487;1;315;-90;-85.5;42.8;43.2;12;12.2;26.4;0.0;
25/02/2025 06:13:17;100;0;299.86;-4;-19.22;-5.71;246.9;17.40;76588;2835.201;-1758.491;1;315;-90;-83.9;42.8;43.2;12;12.2;26.4;0.0;
25/02/2025 06:13:37;100;0;303.25;-4;-19.30;-5.63;249.4;17.40;76589;2835.203;-1758.494;1;315;-90;-83.9;42.8;43.3;14;14.0;26.4;0.0;
25/02/2025 06:13:57;100;0;305.96;-4;-19.47;-4.37;251.9;17.40;76568;2835.206;-1758.497;1;315;-90;-87.1;42.8;43.2;14;14.4;26.3;0.0;
25/02/2025 06:14:17;100;0;305.13;-4;-19.35;-4.35;254.4;17.30;76565;2835.208;-1758.500;1;315;-90;-83.9;42.8;43.2;14;14.4;26.4;0.0;
25/02/2025 06:14:37;100;0;304.95;-4;-19.39;-4.34;257.0;17.30;76560;2835.211;-1758.503;1;315;-90;-83.9;42.8;43.2;14;14.4;26.4;0.0;
25/02/2025 06:14:57;100;0;303.48;-4;-19.49;-4.41;259.4;17.20;76550;2835.213;-1758.506;1;315;-90;-83.9;42.8;43.2;14;14.4;26.4;0.0;
25/02/2025 06:15:17;100;0;299.15;-4;-19.63;-4.37;262.0;17.20;76526;2835.215;-1758.509;1;315;-90;-83.9;42.8;43.3;14;14.4;26.4;0.0;
25/02/2025 06:15:37;100;0;295.89;-4;-19.60;-4.33;264.5;17.20;76527;2835.217;-1758.512;1;315;-90;-85.5;42.8;43.3;10;9.9;26.4;0.0;
25/02/2025 06:15:57;100;0;300.28;-4;-19.16;-6.83;267.1;17.10;76514;2835.220;-1758.516;1;315;-90;-85.5;42.8;43.2;13;13.1;26.4;0.0;
25/02/2025 06:16:17;100;0;304.87;-4;-19.37;-5.03;269.6;17.10;76502;2835.222;-1758.519;1;315;-90;-83.9;42.8;43.3;13;13.1;26.4;0.0;
25/02/2025 06:16:37;100;0;307.46;-4;-19.52;-4.98;272.3;17.00;76494;2835.225;-1758.522;1;315;-90;-83.9;42.8;43.2;13;13.5;26.4;0.0;
25/02/2025 06:16:57;100;0;310.21;-4;-19.49;-4.94;274.9;17.00;76482;2835.228;-1758.525;1;315;-90;-83.9;42.8;43.2;13;13.1;26.4;0.0;
25/02/2025 06:17:17;100;0;314.87;-4;-19.14;-4.98;277.5;17.00;76469;2835.231;-1758.528;1;315;-90;-83.9;42.8;43.3;15;14.9;26.3;0.0;
25/02/2025 06:17:37;100;0;316.67;-4;-19.33;-4.01;280.0;16.90;76454;2835.233;-1758.530;1;315;-90;-83.9;42.8;43.2;15;15.3;26.4;0.0;
25/02/2025 06:17:57;100;0;317.26;-4;-19.29;-4.04;282.6;16.90;76453;2835.237;-1758.533;1;315;-90;-85.5;42.8;43.3;17;17.1;26.3;0.0;
25/02/2025 06:18:17;100;0;318.34;-4;-19.64;-2.80;285.2;16.90;76450;2835.240;-1758.535;1;315;-90;-83.9;42.8;43.3;17;17.6;26.4;0.0;
25/02/2025 06:18:37;100;0;318.22;-4;-19.57;-2.79;287.8;16.80;76438;2835.243;-1758.538;1;315;-90;-83.9;42.8;43.3;17;17.6;26.4;0.0;
25/02/2025 06:18:57;100;0;318.51;-4;-19.64;-2.81;290.4;16.80;76431;2835.246;-1758.540;1;315;-90;-83.9;42.8;43.3;17;17.6;26.3;0.0;
25/02/2025 06:19:17;100;0;318.03;-4;-19.64;-2.82;293.0;16.70;76424;2835.249;-1758.543;1;315;-90;-85.5;42.8;43.2;17;17.6;26.4;0.0;
25/02/2025 06:19:37;100;0;318.02;-4;-19.53;-2.80;295.4;16.70;76429;2835.252;-1758.545;1;315;-90;-85.5;42.8;43.2;19;19.4;26.3;0.0;
25/02/2025 06:19:57;100;0;317.28;-4;-19.69;-1.89;297.9;16.70;76415;2835.254;-1758.547;1;315;-90;-83.9;42.8;43.2;19;19.4;26.4;0.0;
25/02/2025 06:20:17;100;0;315.90;-4;-19.61;-1.86;300.5;16.60;76414;2835.257;-1758.550;1;315;-90;-85.5;42.8;43.2;16;15.8;26.4;0.0;
25/02/2025 06:20:37;100;0;317.29;-4;-19.38;-4.07;302.9;16.60;76415;2835.260;-1758.552;1;315;-90;-83.9;42.8;43.3;18;18.5;26.4;0.0;
25/02/2025 06:20:57;100;0;316.84;-4;-19.51;-2.31;305.4;16.50;76397;2835.263;-1758.555;1;315;-90;-83.9;42.8;43.3;18;18.5;26.4;0.0;
25/02/2025 06:21:17;100;0;316.53;-4;-19.48;-2.32;307.6;16.50;76387;2835.266;-1758.557;1;315;-90;-83.9;42.8;43.3;18;18.5;26.4;0.0;
25/02/2025 06:21:37;100;0;315.97;-4;-19.52;-2.32;310.1;16.50;76386;2835.269;-1758.559;1;315;-90;-85.5;42.8;43.3;18;18.5;26.4;0.0;
25/02/2025 06:21:57;100;0;317.08;-4;-19.88;-2.33;312.4;16.40;76380;2835.271;-1758.562;1;315;-90;-83.9;42.8;43.3;18;18.5;26.4;0.0;
25/02/2025 06:22:17;100;0;315.74;-4;-19.46;-2.32;314.7;16.40;76374;2835.274;-1758.564;1;315;-90;-83.9;42.8;43.2;18;18.5;26.3;0.0;
25/02/2025 06:22:37;100;0;315.26;-4;-19.43;-2.27;317.1;16.40;76363;2835.277;-1758.566;1;315;-90;-83.9;42.8;43.3;18;18.5;26.4;0.0;
25/02/2025 06:22:57;100;0;312.96;-4;-19.32;-2.37;319.4;16.30;76355;2835.280;-1758.569;1;315;-90;-83.9;42.8;43.2;16;15.8;26.3;0.0;
25/02/2025 06:23:17;100;0;311.82;-4;-19.29;-4.02;321.6;16.30;76348;2835.282;-1758.571;1;315;-90;-83.9;42.8;43.3;16;15.3;26.4;0.0;
25/02/2025 06:23:37;100;0;310.15;-4;-19.52;-4.05;323.8;16.30;76347;2835.285;-1758.574;1;315;-90;-83.9;42.8;43.2;16;15.3;26.4;0.0;
25/02/2025 06:23:57;100;0;309.58;-4;-19.21;-3.94;326.2;16.20;76340;2835.287;-1758.577;1;315;-90;-82.3;42.8;43.2;16;15.3;26.4;0.0;
25/02/2025 06:24:17;100;0;309.69;-4;-19.47;-4.02;328.4;16.20;76333;2835.290;-1758.579;1;315;-90;-85.5;42.8;43.2;16;15.3;26.4;0.0;
25/02/2025 06:24:37;100;0;308.54;-4;-19.21;-4.00;330.9;16.20;76337;2835.292;-1758.582;1;315;-90;-83.9;42.8;43.3;16;15.3;26.4;0.0;
25/02/2025 06:24:57;100;0;307.59;-4;-19.16;-3.96;333.1;16.10;76328;2835.294;-1758.585;1;315;-90;-83.9;42.8;43.3;16;15.3;26.4;0.0;
25/02/2025 06:25:17;100;0;306.76;-4;-19.16;-4.02;335.5;16.10;76314;2835.297;-1758.587;1;315;-90;-85.5;42.8;43.2;16;15.3;26.4;0.0;
25/02/2025 06:25:37;100;0;307.59;-4;-19.14;-4.00;337.5;16.10;76301;2835.299;-1758.590;1;315;-110;-109.7;42.8;43.3;16;15.8;26.4;0.0;
25/02/2025 06:25:57;100;0;309.64;-4;-18.41;-3.91;339.9;16.00;76367;2835.302;-1758.593;1;315;-110;-111.3;43.3;43.3;16;15.3;26.4;0.0;
25/02/2025 06:26:17;100;0;309.94;-4;-18.47;-4.00;342.2;16.00;76372;2835.304;-1758.595;1;315;-110;-109.7;43.7;43.7;16;15.3;26.4;0.0;
25/02/2025 06:26:37;100;0;309.93;-4;-19.94;-3.89;344.6;16.00;76359;2835.307;-1758.598;1;315;-110;-111.3;43.7;44.0;16;15.3;26.3;0.0;
25/02/2025 06:26:57;100;0;311.27;-4;-20.02;-3.84;347.1;15.90;76355;2835.310;-1758.601;1;315;-110;-111.3;43.7;43.9;16;15.3;26.4;0.0;
25/02/2025 06:27:17;100;0;314.74;-4;-20.06;-3.79;349.6;15.90;76351;2835.312;-1758.603;1;315;-110;-112.9;43.7;44.0;16;15.3;26.4;0.0;
25/02/2025 06:27:37;100;0;317.61;-4;-20.29;-3.81;352.3;15.90;76339;2835.315;-1758.606;1;315;-110;-111.3;43.7;43.9;18;18.1;26.4;0.0;
25/02/2025 06:27:57;100;0;317.27;-4;-20.59;-2.33;354.8;15.80;76333;2835.318;-1758.608;1;315;-110;-111.3;43.7;44.0;18;18.5;26.3;0.0;
25/02/2025 06:28:17;100;0;318.80;-4;-20.40;-2.26;357.3;15.80;76325;2835.321;-1758.610;1;315;-110;-111.3;43.7;44.0;20;19.9;26.3;0.0;
25/02/2025 06:28:37;100;0;315.87;-4;-20.70;-1.38;359.8;15.80;76311;2835.324;-1758.613;1;315;-110;-111.3;43.7;44.0;17;17.1;26.4;0.0;
25/02/2025 06:28:57;100;0;313.55;-4;-20.42;-3.07;362.3;15.80;76311;2835.327;-1758.615;1;315;-110;-112.9;43.7;44.0;17;17.1;26.4;0.0;
25/02/2025 06:29:17;100;0;311.62;-4;-20.47;-2.98;364.9;15.70;76304;2835.330;-1758.618;1;315;-110;-112.9;43.7;44.0;15;14.4;26.4;0.0;
25/02/2025 06:29:37;100;0;309.75;-4;-20.64;-4.26;367.4;15.70;76303;2835.332;-1758.621;1;315;-110;-111.3;43.7;44.0;15;14.4;26.4;0.0;
25/02/2025 06:29:57;100;0;309.55;-4;-20.46;-4.21;370.0;15.60;76294;2835.335;-1758.624;1;315;-110;-112.9;43.7;44.0;15;14.4;26.4;0.0;
25/02/2025 06:30:17;100;0;308.94;-4;-20.44;-4.27;372.6;15.60;76292;2835.337;-1758.627;1;315;-110;-112.9;43.7;44.0;15;14.9;26.3;0.0;
25/02/2025 06:30:37;100;0;306.99;-4;-20.46;-4.25;375.2;15.60;76279;2835.340;-1758.630;1;315;-110;-112.9;43.7;44.0;15;14.4;26.4;0.0;
25/02/2025 06:30:57;100;0;304.74;-4;-20.81;-4.23;377.6;15.50;76271;2835.342;-1758.632;1;315;-110;-112.9;43.7;44.0;15;14.4;26.4;0.0;
25/02/2025 06:31:17;100;0;305.42;-4;-20.48;-4.24;380.4;15.50;76264;2835.345;-1758.636;1;315;-110;-111.3;43.7;44.0;15;14.4;26.4;0.0;
25/02/2025 06:31:37;100;0;306.58;-4;-20.08;-4.28;382.9;15.50;76256;2835.347;-1758.638;1;315;-110;-111.3;43.7;44.0;15;14.4;26.3;0.0;
25/02/2025 06:31:57;100;0;307.92;-4;-19.96;-4.29;385.3;15.50;76258;2835.350;-1758.641;1;315;-110;-111.3;43.7;43.9;15;14.4;26.4;0.0;
25/02/2025 06:32:17;100;0;310.35;-4;-19.86;-4.29;387.8;15.40;76240;2835.352;-1758.644;1;315;-110;-111.3;43.7;44.0;15;14.4;26.4;0.0;
25/02/2025 06:32:37;100;0;312.69;-4;-20.25;-4.26;390.1;15.40;76237;2835.355;-1758.646;1;315;-110;-111.3;43.7;44.0;15;14.4;26.4;0.0;
25/02/2025 06:32:57;100;0;315.37;-4;-19.76;-4.15;392.7;15.40;76237;2835.358;-1758.649;1;315;-110;-111.3;43.7;44.0;17;17.1;26.4;0.0;
25/02/2025 06:33:17;100;0;316.48;-4;-20.36;-2.79;395.2;15.30;76234;2835.361;-1758.651;1;315;-110;-112.9;43.7;44.0;17;17.6;26.4;0.0;
25/02/2025 06:33:38;100;0;317.62;-4;-20.07;-2.77;397.7;15.30;76226;2835.364;-1758.654;1;315;-110;-111.3;43.7;44.0;19;19.0;26.4;0.0;
25/02/2025 06:33:58;100;0;315.85;-4;-20.38;-1.89;400.2;15.30;76219;2835.367;-1758.656;1;315;-110;-111.3;43.7;44.0;19;19.4;26.3;0.0;
25/02/2025 06:34:18;100;0;315.01;-4;-20.28;-1.93;402.7;15.20;76211;2835.369;-1758.659;1;315;-110;-111.3;43.7;44.0;17;17.1;26.3;0.0;
25/02/2025 06:34:38;100;0;311.65;-4;-20.37;-3.30;405.4;15.20;76200;2835.372;-1758.662;1;315;-110;-111.3;43.7;44.0;17;16.7;26.4;0.0;
25/02/2025 06:34:58;100;0;307.82;-4;-20.40;-3.31;408.1;15.20;76203;2835.375;-1758.665;1;315;-110;-111.3;43.7;44.0;15;14.9;26.4;0.0;
25/02/2025 06:35:18;100;0;304.79;-4;-20.26;-4.27;410.7;15.10;76188;2835.377;-1758.668;1;315;-110;-112.9;43.7;44.2;15;14.4;26.4;0.0;
25/02/2025 06:35:38;100;0;301.50;-4;-20.18;-4.25;413.3;15.10;76181;2835.380;-1758.671;1;315;-110;-112.9;43.7;44.0;15;14.9;26.4;0.0;
25/02/2025 06:35:58;100;0;296.69;-4;-19.96;-4.32;416.0;15.10;76174;2835.382;-1758.674;1;315;-110;-111.3;43.7;44.0;11;10.8;26.3;0.0;
25/02/2025 06:36:18;100;0;296.53;-4;-20.04;-6.29;418.7;15.10;76165;2835.384;-1758.678;1;315;-110;-111.3;43.7;44.0;11;10.4;26.4;0.0;
25/02/2025 06:36:38;100;0;296.62;-4;-20.17;-6.32;421.6;15.00;76166;2835.386;-1758.682;1;315;-110;-111.3;43.7;44.0;11;10.4;26.4;0.0;
25/02/2025 06:36:58;100;0;296.22;-4;-19.80;-6.20;424.5;15.00;76162;2835.388;-1758.685;1;315;-110;-112.9;43.7;44.0;9;8.6;26.4;0.0;
25/02/2025 06:37:18;100;0;297.00;-4;-19.66;-6.80;427.3;15.00;76162;2835.390;-1758.689;1;315;-110;-111.3;43.7;44.0;11;10.8;26.3;0.0;
25/02/2025 06:37:38;100;0;295.61;-4;-20.31;-5.77;430.1;14.90;76147;2835.393;-1758.693;1;315;-110;-111.3;43.7;44.0;11;11.3;26.4;0.0;
25/02/2025 06:37:58;100;0;294.72;-4;-20.27;-5.76;433.0;14.90;76136;2835.395;-1758.696;1;315;-110;-111.3;43.7;44.0;9;9.0;26.4;0.0;
25/02/2025 06:38:18;100;0;293.87;-4;-20.22;-7.12;435.9;14.90;76138;2835.397;-1758.700;1;315;-110;-111.3;43.7;44.0;7;7.2;26.3;0.0;
25/02/2025 06:38:38;100;0;292.06;-4;-19.91;-8.10;438.8;14.90;76139;2835.399;-1758.704;1;315;-110;-111.3;43.7;44.0;5;5.0;26.4;0.0;
25/02/2025 06:38:58;100;0;289.55;-4;-19.55;-9.36;441.7;14.80;76122;2835.400;-1758.708;1;315;-110;-111.3;43.7;44.0;1;0.9;26.4;0.0;
25/02/2025 06:39:18;100;0;292.88;-4;-19.36;-11.07;444.5;14.80;76103;2835.402;-1758.712;1;315;-110;-112.9;43.7;44.0;6;5.9;26.4;0.0;
25/02/2025 06:39:38;100;0;297.77;-4;-19.71;-8.40;447.3;14.80;76110;2835.405;-1758.715;1;315;-110;-111.3;43.7;44.0;12;12.2;26.3;0.0;
25/02/2025 06:39:58;100;0;299.32;-4;-19.87;-5.16;450.1;14.70;76102;2835.407;-1758.719;1;315;-110;-111.3;43.7;44.0;12;12.2;26.3;0.0;
25/02/2025 06:40:18;100;0;300.93;-4;-19.75;-5.34;452.9;14.70;76109;2835.409;-1758.722;1;315;-110;-111.3;43.7;44.0;14;14.0;26.4;0.0;
25/02/2025 06:40:38;100;0;302.54;-4;-20.06;-4.56;455.5;14.70;76103;2835.412;-1758.726;1;315;-110;-112.9;43.7;44.0;14;14.0;26.4;0.0;
25/02/2025 06:40:58;100;0;303.98;-4;-19.76;-4.34;458.4;14.70;76090;2835.414;-1758.729;1;315;-110;-111.3;43.7;44.0;14;14.4;26.3;0.0;
25/02/2025 06:41:18;100;0;305.29;-4;-20.00;-4.34;461.3;14.60;76091;2835.417;-1758.732;1;315;-110;-111.3;43.7;44.0;14;14.4;26.4;0.0;
25/02/2025 06:41:38;100;0;306.36;-4;-19.77;-4.40;464.0;14.60;76095;2835.420;-1758.736;1;315;-110;-111.3;43.7;44.0;14;14.0;26.3;0.0;
25/02/2025 06:41:58;100;0;307.19;-4;-19.57;-4.34;466.9;14.60;76080;2835.422;-1758.739;1;315;-110;-112.9;43.7;44.0;14;14.0;26.4;0.0;
25/02/2025 06:42:18;100;0;307.87;-4;-19.74;-4.33;469.5;14.50;76079;2835.425;-1758.742;1;315;-110;-111.3;43.7;44.0;14;14.4;26.4;0.0;
25/02/2025 06:42:38;100;0;308.42;-4;-19.95;-4.35;472.3;14.50;76075;2835.428;-1758.745;1;315;-110;-111.3;43.7;44.0;14;14.4;26.4;0.0;
25/02/2025 06:42:58;100;0;307.90;-4;-20.10;-4.34;475.2;14.50;76071;2835.431;-1758.748;1;315;-110;-112.9;43.7;44.0;14;14.4;26.4;0.0;
25/02/2025 06:43:18;100;0;306.93;-4;-20.12;-4.31;478.1;14.50;76063;2835.433;-1758.751;1;315;-110;-111.3;43.7;44.0;14;14.4;26.4;0.0;
25/02/2025 06:43:38;100;0;306.82;-4;-20.14;-4.22;481.1;14.40;76056;2835.436;-1758.755;1;315;-110;-111.3;43.7;44.0;14;14.4;26.4;0.0;
25/02/2025 06:43:58;100;0;306.97;-4;-20.10;-4.37;483.9;14.40;76060;2835.439;-1758.758;1;315;-110;-111.3;43.7;44.0;14;14.4;26.4;0.0;
25/02/2025 06:44:18;100;0;306.54;-4;-19.96;-4.35;486.8;14.40;76060;2835.442;-1758.762;1;315;-110;-112.9;43.7;44.0;14;14.4;26.3;0.0;
25/02/2025 06:44:38;100;0;307.48;-4;-20.03;-4.43;489.6;14.40;76051;2835.445;-1758.765;1;315;-110;-114.5;43.7;44.0;14;14.0;26.4;0.0;
25/02/2025 06:44:58;100;0;308.59;-4;-20.00;-4.36;492.5;14.40;76066;2835.447;-1758.768;1;315;-110;-111.3;43.7;44.0;14;14.0;26.4;0.0;
25/02/2025 06:45:18;100;0;311.34;-4;-20.04;-4.36;495.2;14.30;76043;2835.450;-1758.771;1;315;-110;-112.9;43.7;44.0;14;14.4;26.4;0.0;
25/02/2025 06:45:38;100;0;312.37;-4;-19.80;-4.40;498.1;14.30;76046;2835.453;-1758.774;1;315;-110;-112.9;43.7;44.0;14;14.4;26.4;0.0;
25/02/2025 06:45:58;100;0;312.71;-4;-20.30;-8.45;500.9;14.30;76035;2835.456;-1758.777;1;315;-110;-111.3;43.7;44.0;14;14.0;26.4;0.0;
25/02/2025 06:46:18;100;0;316.47;-4;-19.91;-4.40;503.6;14.30;76029;2835.459;-1758.779;1;315;-110;-112.9;43.7;44.0;17;17.1;26.4;0.0;
25/02/2025 06:46:38;100;0;317.95;-4;-19.81;-2.80;506.4;14.20;76028;2835.463;-1758.782;1;315;-110;-112.9;43.7;44.0;17;17.6;26.4;0.0;
25/02/2025 06:46:58;100;0;317.95;-4;-19.75;-2.79;509.2;14.20;76015;2835.466;-1758.785;1;315;-110;-112.9;43.7;44.0;17;17.6;26.4;0.0;
25/02/2025 06:47:18;100;0;319.43;-4;-19.77;-2.81;511.8;14.20;76019;2835.469;-1758.787;1;315;-110;-111.3;43.7;44.0;19;19.0;26.3;0.0;
25/02/2025 06:47:38;100;0;318.77;-4;-19.97;-1.86;514.6;14.20;76009;2835.472;-1758.790;1;315;-110;-112.9;43.7;44.0;19;19.4;26.4;0.0;
25/02/2025 06:47:58;100;0;317.24;-4;-20.14;-1.83;517.3;14.10;76007;2835.475;-1758.793;1;315;-110;-111.3;43.7;44.0;19;19.4;26.4;0.0;
25/02/2025 06:48:18;100;0;318.20;-4;-20.02;-1.81;520.0;14.10;76008;2835.478;-1758.795;1;315;-110;-111.3;43.7;44.0;19;19.4;26.4;0.0;
25/02/2025 06:48:38;100;0;317.79;-4;-19.92;-1.83;522.7;14.10;76012;2835.481;-1758.798;1;315;-110;-111.3;43.7;44.0;19;19.4;26.3;0.0;
25/02/2025 06:48:58;100;0;318.78;-4;-20.10;-1.84;525.3;14.10;76004;2835.485;-1758.800;1;315;-110;-111.3;43.7;44.0;19;19.4;26.4;0.0;
25/02/2025 06:49:18;100;0;317.98;-4;-20.29;-1.85;528.1;14.00;75994;2835.488;-1758.803;1;315;-110;-111.3;43.7;44.0;19;19.4;26.4;0.0;
25/02/2025 06:49:38;100;0;318.90;-4;-20.07;-1.82;530.7;14.00;75988;2835.491;-1758.805;1;315;-110;-112.9;43.7;44.0;19;19.4;26.4;0.0;
25/02/2025 06:49:58;100;0;319.68;-4;-19.92;-1.89;533.3;14.00;75998;2835.494;-1758.808;1;315;-110;-111.3;43.7;44.0;19;19.4;26.4;0.0;
25/02/2025 06:50:18;100;0;319.61;-4;-19.85;-1.84;535.7;14.00;75978;2835.497;-1758.810;1;315;-110;-111.3;43.7;44.2;21;21.2;26.4;0.0;
25/02/2025 06:50:38;100;0;319.69;-4;-19.78;-0.71;538.3;14.00;75984;2835.500;-1758.812;1;315;-110;-112.9;43.7;44.0;21;21.7;26.4;0.0;
25/02/2025 06:50:58;100;0;318.64;-4;-19.84;-0.78;540.6;13.90;75969;2835.503;-1758.815;1;315;-110;-112.9;43.7;44.0;21;21.7;26.4;0.0;
25/02/2025 06:51:18;100;0;317.53;-4;-19.99;-0.75;543.2;13.90;75970;2835.506;-1758.817;1;315;-110;-114.5;43.7;44.0;19;19.0;26.4;0.0;
25/02/2025 06:51:38;100;0;315.32;-4;-19.93;-2.31;545.7;13.90;75960;2835.509;-1758.820;1;315;-110;-111.3;43.7;44.0;17;17.1;26.4;0.0;
25/02/2025 06:51:58;100;0;309.87;-4;-19.75;-3.14;548.2;13.80;75950;2835.511;-1758.822;1;315;-110;-111.3;43.7;44.0;17;17.1;26.4;0.0;
25/02/2025 06:52:18;100;0;306.56;-4;-19.99;-3.13;550.8;13.80;75943;2835.514;-1758.825;1;315;-110;-112.9;43.7;44.0;15;14.9;26.3;0.0;
25/02/2025 06:52:38;100;0;306.55;-4;-19.98;-4.11;553.2;13.80;75938;2835.516;-1758.828;1;315;-110;-112.9;43.7;44.0;15;14.9;26.4;0.0;
25/02/2025 06:52:58;100;0;304.84;-4;-19.69;-4.14;555.8;13.80;75926;2835.518;-1758.831;1;315;-110;-112.9;43.7;44.0;15;14.9;26.4;0.0;
25/02/2025 06:53:18;100;0;302.59;-4;-19.83;-4.17;558.2;13.80;75933;2835.521;-1758.834;1;315;-110;-112.9;43.7;44.0;15;14.9;26.3;0.0;
25/02/2025 06:53:38;100;0;300.20;-4;-19.85;-4.15;560.8;13.70;75928;2835.523;-1758.837;1;315;-110;-112.9;43.7;44.0;15;14.9;26.3;0.0;
25/02/2025 06:53:58;100;0;297.50;-4;-19.81;-4.14;563.3;13.70;75921;2835.525;-1758.840;1;315;-110;-111.3;43.7;44.0;13;13.1;26.4;0.0;
25/02/2025 06:54:18;100;0;295.39;-4;-19.63;-5.09;565.9;13.70;75914;2835.527;-1758.844;1;315;-110;-111.3;43.7;44.0;10;9.9;26.3;0.0;
25/02/2025 06:54:38;100;0;293.06;-4;-19.12;-6.54;568.5;13.70;75906;2835.529;-1758.847;1;315;-110;-111.3;43.7;44.0;7;7.2;26.4;0.0;
25/02/2025 06:54:58;100;0;292.84;-4;-19.20;-8.10;571.0;13.60;75913;2835.531;-1758.851;1;315;-110;-112.9;43.7;44.0;7;6.8;26.4;0.0;
25/02/2025 06:55:18;100;0;294.92;-4;-18.85;-8.20;573.4;13.60;75908;2835.533;-1758.854;1;315;-110;-112.9;44.1;43.9;10;10.4;26.3;0.0;
25/02/2025 06:55:38;100;0;294.77;-4;-19.09;-6.31;575.9;13.60;75904;2835.535;-1758.857;1;315;-110;-111.3;44.1;44.0;10;10.4;26.3;0.0;
25/02/2025 06:55:58;100;0;294.21;-4;-19.17;-6.28;578.4;13.60;75907;2835.536;-1758.861;1;315;-110;-111.3;44.1;44.0;8;8.1;26.3;0.0;
25/02/2025 06:56:18;100;0;294.22;-4;-19.05;-7.56;580.8;13.60;75903;2835.538;-1758.864;1;315;-110;-111.3;44.1;44.0;8;8.1;26.4;0.0;
25/02/2025 06:56:38;100;0;295.31;-4;-19.64;-7.46;583.4;13.50;75895;2835.540;-1758.867;1;315;-110;-112.9;44.1;44.0;8;8.1;26.4;0.0;
25/02/2025 06:56:58;100;0;295.44;-4;-19.20;-7.52;585.9;13.50;75891;2835.542;-1758.871;1;315;-110;-111.3;44.1;44.0;8;8.1;26.4;0.0;
25/02/2025 06:57:18;100;0;295.86;-4;-19.01;-7.58;588.5;13.50;75892;2835.544;-1758.874;1;315;-110;-111.3;44.1;44.0;10;9.9;26.4;0.0;
25/02/2025 06:57:38;100;0;298.17;-4;-19.19;-6.26;591.1;13.50;75888;2835.547;-1758.878;1;315;-110;-112.9;44.1;44.0;12;12.2;26.3;0.0;
25/02/2025 06:57:58;100;0;302.11;-4;-19.57;-5.43;593.7;13.50;75882;2835.549;-1758.881;1;315;-110;-111.3;44.1;44.0;14;14.0;26.4;0.0;
25/02/2025 06:58:18;100;0;306.27;-4;-19.73;-4.80;596.4;13.40;75874;2835.551;-1758.884;1;315;-110;-111.3;44.1;44.0;14;14.0;26.3;0.0;
25/02/2025 06:58:38;100;0;312.06;-4;-19.26;-4.45;599.1;13.40;75873;2835.554;-1758.887;1;315;-110;-112.9;44.1;44.0;14;14.4;26.4;0.0;
25/02/2025 06:58:58;100;0;315.39;-4;-19.20;-4.45;601.8;13.40;75862;2835.558;-1758.890;1;315;-110;-112.9;44.1;44.0;16;15.8;26.4;0.0;
25/02/2025 06:59:18;100;0;314.93;-4;-19.34;-3.39;604.3;13.40;75866;2835.560;-1758.892;1;315;-110;-112.9;44.1;44.0;16;16.7;26.4;0.0;
25/02/2025 06:59:38;100;0;313.76;-4;-19.58;-3.38;607.0;13.30;75854;2835.563;-1758.895;1;315;-110;-111.3;44.1;44.0;16;16.7;26.4;0.0;
25/02/2025 06:59:58;100;0;313.52;-4;-19.41;-3.31;609.6;13.30;75854;2835.566;-1758.898;1;315;-110;-112.9;44.1;44.0;16;16.7;26.4;0.0;
25/02/2025 07:00:18;100;0;313.25;-4;-19.43;-3.33;612.2;13.30;75841;2835.569;-1758.901;1;315;-110;-111.3;44.1;44.0;16;16.7;26.4;0.0;
25/02/2025 07:00:38;100;0;312.27;-4;-19.37;-3.29;614.9;13.30;75845;2835.572;-1758.904;1;315;-110;-112.9;44.1;44.0;16;16.2;26.4;0.0;
25/02/2025 07:00:58;100;0;311.98;-4;-19.31;-3.39;617.4;13.30;75837;2835.575;-1758.906;1;315;-110;-111.3;44.1;44.2;16;16.7;26.4;0.0;
25/02/2025 07:01:18;100;0;312.11;-4;-19.24;-3.31;620.0;13.20;75831;2835.578;-1758.909;1;315;-110;-111.3;44.1;44.0;16;16.7;26.4;0.0;
25/02/2025 07:01:38;100;0;315.16;-4;-19.45;-3.32;622.6;13.20;75829;2835.581;-1758.912;1;315;-110;-112.9;44.1;44.0;16;16.7;26.4;0.0;
25/02/2025 07:01:58;100;0;319.64;-4;-19.41;-3.32;625.2;13.20;75811;2835.584;-1758.915;1;315;-110;-111.3;44.1;44.0;20;19.9;26.4;0.0;
25/02/2025 07:02:18;100;0;321.94;-4;-19.44;-1.50;627.8;13.20;75816;2835.587;-1758.917;1;315;-110;-111.3;44.1;44.0;23;23.0;26.4;0.0;
25/02/2025 07:02:38;100;0;321.23;-4;-19.71;0.05;630.3;13.20;75817;2835.590;-1758.919;1;315;-110;-112.9;44.1;44.0;23;23.5;26.3;0.0;
25/02/2025 07:02:58;100;0;321.38;-4;-19.79;0.08;632.8;13.10;75804;2835.593;-1758.921;1;315;-110;-112.9;44.1;44.0;23;23.0;26.4;0.0;
25/02/2025 07:03:18;100;0;320.26;-4;-19.22;-0.10;635.3;13.10;75803;2835.596;-1758.924;1;315;-110;-111.3;44.1;44.0;21;20.8;26.3;0.0;
25/02/2025 07:03:38;100;0;317.57;-4;-19.14;-1.36;637.7;13.10;75794;2835.599;-1758.926;1;315;-110;-112.9;44.1;44.2;19;19.0;26.4;0.0;
25/02/2025 07:03:58;100;0;316.28;-4;-19.21;-2.39;640.0;13.10;75789;2835.602;-1758.928;1;315;-110;-112.9;44.1;44.0;19;18.5;26.4;0.0;
25/02/2025 07:04:18;100;0;314.20;-4;-19.38;-2.36;642.4;13.00;75776;2835.605;-1758.931;1;315;-110;-112.9;44.1;44.0;17;17.1;26.3;0.0;
25/02/2025 07:04:38;100;0;310.95;-4;-19.73;-3.07;644.9;13.00;75757;2835.608;-1758.934;1;315;-110;-111.3;44.1;44.0;17;17.6;26.4;0.0;
25/02/2025 07:04:58;100;0;308.07;-4;-19.62;-3.03;647.5;13.00;75777;2835.610;-1758.937;1;315;-110;-112.9;44.1;44.0;15;14.9;26.4;0.0;
25/02/2025 07:05:18;100;0;306.71;-4;-19.02;-4.22;650.0;13.00;75762;2835.613;-1758.940;1;315;-110;-111.3;44.1;44.0;15;14.9;26.4;0.0;
25/02/2025 07:05:38;100;0;306.66;-4;-19.44;-4.21;652.7;13.00;75755;2835.615;-1758.943;1;315;-110;-111.3;44.1;44.0;15;14.9;26.4;0.0;
25/02/2025 07:05:58;100;0;305.98;-4;-19.16;-4.28;655.3;13.00;75770;2835.618;-1758.946;1;315;-110;-111.3;44.1;44.0;15;14.4;26.4;0.0;
25/02/2025 07:06:18;100;0;305.30;-4;-19.75;-4.23;657.9;12.90;75752;2835.621;-1758.949;1;315;-110;-111.3;44.1;44.0;15;14.4;26.4;0.0;
25/02/2025 07:06:38;100;0;303.63;-4;-19.51;-4.40;660.6;12.90;75750;2835.623;-1758.952;1;315;-110;-112.9;44.1;44.0;15;14.4;26.4;0.0;
25/02/2025 07:06:58;100;0;302.11;-4;-19.22;-4.26;663.2;12.90;75748;2835.625;-1758.955;1;315;-110;-111.3;44.1;44.0;15;14.4;26.4;0.0;
25/02/2025 07:07:18;100;0;301.15;-4;-19.20;-4.35;665.9;12.90;75749;2835.628;-1758.959;1;315;-110;-111.3;44.1;44.0;15;14.9;26.4;0.0;
25/02/2025 07:07:38;100;0;301.24;-4;-19.41;-4.15;668.6;12.80;75738;2835.630;-1758.962;1;315;-110;-112.9;44.1;44.2;15;14.4;26.4;0.0;
25/02/2025 07:07:59;100;0;299.89;-4;-19.29;-4.43;671.1;12.80;75746;2835.632;-1758.966;1;315;-110;-112.9;44.1;44.0;15;14.9;26.4;0.0;
25/02/2025 07:08:19;100;0;299.34;-4;-19.29;-4.34;673.7;12.80;75736;2835.635;-1758.969;1;315;-110;-114.5;44.1;44.0;13;13.1;26.3;0.0;
25/02/2025 07:08:39;100;0;299.10;-4;-18.93;-4.94;676.3;12.80;75732;2835.637;-1758.972;1;315;-110;-112.9;44.4;44.3;13;13.5;26.3;0.0;
25/02/2025 07:08:59;100;0;298.38;-4;-20.17;-4.99;678.9;12.80;75735;2835.639;-1758.976;1;315;-110;-112.9;44.4;44.6;13;13.1;26.4;0.0;
25/02/2025 07:09:19;100;0;297.68;-4;-20.20;-5.00;681.5;12.70;75732;2835.641;-1758.979;1;315;-110;-112.9;44.4;44.6;13;13.1;26.4;0.0;
25/02/2025 07:09:39;100;0;295.29;-4;-20.54;-5.01;684.3;12.70;75737;2835.643;-1758.982;1;315;-110;-112.9;44.4;44.6;9;9.0;26.4;0.0;
25/02/2025 07:09:59;100;0;294.57;-4;-20.39;-7.21;686.8;12.70;75728;2835.645;-1758.986;1;315;-110;-111.3;44.4;44.5;9;9.0;26.4;0.0;
25/02/2025 07:10:19;100;0;294.23;-4;-20.13;-7.20;689.6;12.70;75721;2835.647;-1758.989;1;315;-110;-111.3;44.4;44.6;9;8.6;26.4;0.0;
25/02/2025 07:10:39;100;0;301.60;-4;-19.03;-7.23;692.1;12.70;75705;2835.649;-1758.993;1;315;-110;-112.9;44.4;44.6;14;14.0;26.3;0.0;
25/02/2025 07:10:59;100;0;305.17;-4;-20.12;-4.44;694.5;12.70;75694;2835.652;-1758.995;1;315;-110;-112.9;44.4;44.6;14;14.4;26.4;0.0;
25/02/2025 07:11:19;100;0;307.17;-4;-20.07;-4.41;696.9;12.60;75691;2835.654;-1758.998;1;315;-110;-112.9;44.4;44.6;14;14.4;26.4;0.0;
25/02/2025 07:11:39;100;0;309.90;-4;-19.92;-4.42;699.2;12.60;75686;2835.657;-1759.001;1;315;-110;-114.5;44.4;44.6;14;14.4;26.4;0.0;
25/02/2025 07:11:59;100;0;313.50;-4;-19.43;-4.61;701.7;12.60;75675;2835.659;-1759.003;1;315;-110;-111.3;44.4;44.6;16;15.8;26.3;0.0;
25/02/2025 07:12:19;100;0;315.18;-4;-20.02;-3.61;703.9;12.60;75671;2835.662;-1759.006;1;315;-110;-112.9;44.4;44.6;18;18.1;26.3;0.0;
25/02/2025 07:12:39;100;0;317.64;-4;-20.03;-2.29;706.1;12.50;75667;2835.665;-1759.008;1;315;-110;-111.3;44.4;44.6;20;19.9;26.4;0.0;
25/02/2025 07:12:59;100;0;315.50;-4;-20.53;-1.37;708.4;12.50;75667;2835.667;-1759.010;1;315;-110;-111.3;44.4;44.6;18;18.1;26.4;0.0;
25/02/2025 07:13:19;100;0;313.74;-4;-20.48;-2.70;710.7;12.50;75657;2835.670;-1759.012;1;315;-110;-112.9;44.4;44.6;16;15.3;26.4;0.0;
25/02/2025 07:13:39;100;0;316.66;-4;-19.93;-3.99;712.9;12.50;75649;2835.672;-1759.014;1;315;-110;-111.3;44.4;44.6;19;19.0;26.3;0.0;
25/02/2025 07:13:59;100;0;317.18;-4;-20.43;-1.88;715.1;12.40;75649;2835.675;-1759.016;1;315;-110;-111.3;44.4;44.5;19;19.4;26.4;0.0;
25/02/2025 07:14:19;100;0;320.66;-4;-20.11;-1.84;717.3;12.40;75642;2835.678;-1759.018;1;315;-110;-111.3;44.4;44.6;22;22.1;26.4;0.0;
25/02/2025 07:14:39;100;0;317.52;-4;-20.61;-0.32;719.6;12.40;75636;2835.680;-1759.021;1;315;-110;-112.9;44.4;44.6;20;19.9;26.4;0.0;
25/02/2025 07:14:59;100;0;312.76;-4;-20.70;-1.66;721.9;12.40;75629;2835.683;-1759.023;1;315;-110;-112.9;44.4;44.6;16;15.8;26.3;0.0;
25/02/2025 07:15:19;100;0;310.15;-4;-20.59;-3.84;724.2;12.40;75624;2835.685;-1759.025;1;315;-110;-112.9;44.4;44.6;16;15.8;26.3;0.0;
25/02/2025 07:15:39;100;0;308.56;-4;-20.59;-3.81;726.5;12.30;75616;2835.688;-1759.028;1;315;-110;-112.9;44.4;44.6;16;15.8;26.4;0.0;
25/02/2025 07:15:59;100;0;307.08;-4;-20.51;-3.84;728.9;12.30;75609;2835.690;-1759.030;1;315;-110;-112.9;44.4;44.6;16;15.8;26.4;0.0;
25/02/2025 07:16:19;100;0;305.24;-4;-20.44;-3.85;731.3;12.30;75604;2835.692;-1759.033;1;315;-110;-112.9;44.4;44.6;16;15.3;26.4;0.0;
25/02/2025 07:16:39;100;0;303.60;-4;-20.54;-3.84;733.7;12.30;75594;2835.694;-1759.036;1;315;-110;-111.3;44.4;44.6;16;15.3;26.3;0.0;
25/02/2025 07:16:59;100;0;301.80;-4;-20.37;-3.85;736.1;12.30;75595;2835.697;-1759.039;1;315;-110;-112.9;44.4;44.6;16;15.3;26.4;0.0;
25/02/2025 07:17:19;100;0;299.48;-4;-20.29;-3.85;738.4;12.20;75590;2835.699;-1759.042;1;315;-110;-112.9;44.4;44.6;14;14.0;26.3;0.0;
25/02/2025 07:17:39;100;0;298.43;-4;-20.28;-4.61;740.8;12.20;75590;2835.701;-1759.045;1;315;-110;-112.9;44.4;44.6;14;14.0;26.4;0.0;
25/02/2025 07:17:59;100;0;296.57;-4;-20.24;-4.57;743.2;12.20;75585;2835.703;-1759.048;1;315;-110;-111.3;44.4;44.6;12;12.2;26.4;0.0;
25/02/2025 07:18:19;100;0;296.65;-4;-20.18;-5.59;745.6;12.20;75580;2835.704;-1759.051;1;315;-110;-111.3;44.4;44.6;12;12.2;26.4;0.0;
25/02/2025 07:18:39;100;0;297.16;-4;-20.31;-5.53;748.1;12.10;75573;2835.706;-1759.054;1;315;-110;-109.7;44.4;44.6;12;12.2;26.3;0.0;
25/02/2025 07:18:59;100;0;296.31;-4;-19.96;-5.60;750.5;12.10;75577;2835.708;-1759.057;1;315;-110;-112.9;44.4;44.6;12;12.2;26.3;0.0;
25/02/2025 07:19:19;100;0;289.86;-4;-20.07;-5.60;752.9;12.10;75561;2835.710;-1759.060;1;315;-110;-114.5;44.4;44.6;3;3.2;26.4;0.0;
25/02/2025 07:19:39;100;0;290.35;-4;-19.45;-10.18;755.3;12.10;75560;2835.712;-1759.064;1;315;-110;-111.3;44.4;44.6;3;2.7;26.4;0.0;
25/02/2025 07:19:59;100;0;296.34;-4;-19.28;-10.26;757.7;12.10;75541;2835.714;-1759.067;1;315;-110;-111.3;44.4;44.6;11;11.3;26.4;0.0;
25/02/2025 07:20:19;100;0;299.50;-4;-19.92;-5.82;760.0;12.00;75529;2835.716;-1759.070;1;315;-110;-112.9;44.4;44.6;14;14.0;26.3;0.0;
25/02/2025 07:20:39;100;0;302.13;-4;-19.86;-4.48;762.3;12.00;75517;2835.718;-1759.073;1;315;-110;-109.7;44.4;44.6;14;14.0;26.4;0.0;
25/02/2025 07:20:59;100;0;302.82;-4;-20.08;-4.54;764.7;12.00;75519;2835.720;-1759.076;1;315;-110;-111.3;44.4;44.6;14;14.0;26.4;0.0;
25/02/2025 07:21:19;100;0;303.61;-4;-20.02;-4.50;767.1;12.00;75514;2835.722;-1759.078;1;315;-110;-112.9;44.4;44.6;14;14.0;26.4;0.0;
25/02/2025 07:21:39;100;0;304.98;-4;-19.68;-4.43;769.6;11.90;75517;2835.725;-1759.081;1;315;-110;-116.1;44.4;44.6;14;14.0;26.3;0.0;
25/02/2025 07:21:59;100;0;304.90;-4;-19.92;-4.48;772.0;11.90;75515;2835.727;-1759.084;1;315;-110;-111.3;44.4;44.6;14;14.4;26.4;0.0;
25/02/2025 07:22:19;100;0;304.76;-4;-20.04;-4.45;774.4;11.90;75501;2835.729;-1759.087;1;315;-110;-112.9;44.4;44.6;14;14.0;26.3;0.0;
25/02/2025 07:22:39;100;0;305.91;-4;-19.99;-4.57;777.0;11.90;75507;2835.732;-1759.090;1;315;-110;-111.3;44.4;44.6;14;14.0;26.4;0.0;
25/02/2025 07:22:59;100;0;306.65;-4;-19.84;-4.62;779.5;11.90;75505;2835.734;-1759.093;1;315;-110;-111.3;44.4;44.6;14;14.0;26.4;0.0;
25/02/2025 07:23:19;100;0;307.69;-4;-19.63;-4.41;781.9;11.80;75498;2835.737;-1759.096;1;315;-110;-112.9;44.4;44.6;14;14.0;26.4;0.0;
25/02/2025 07:23:39;100;0;308.79;-4;-19.92;-4.54;784.2;11.80;75500;2835.739;-1759.098;1;315;-110;-111.3;44.4;44.6;14;14.0;26.4;0.0;
25/02/2025 07:23:59;100;0;309.74;-4;-19.98;-4.55;786.7;11.80;75492;2835.742;-1759.101;1;315;-110;-111.3;44.4;44.6;14;14.4;26.4;0.0;
25/02/2025 07:24:19;100;0;311.26;-4;-20.07;-4.41;789.3;11.80;75496;2835.744;-1759.104;1;315;-110;-111.3;44.4;44.6;14;14.4;26.4;0.0;
25/02/2025 07:24:39;100;0;313.93;-4;-20.03;-4.49;791.9;11.80;75488;2835.747;-1759.106;1;315;-110;-111.3;44.4;44.6;16;15.8;26.4;0.0;
25/02/2025 07:24:59;100;0;315.33;-4;-19.93;-3.43;794.6;11.70;75481;2835.750;-1759.109;1;315;-110;-111.3;44.4;44.6;16;16.2;26.4;0.0;
25/02/2025 07:25:19;100;0;315.33;-4;-20.18;-3.36;797.1;11.70;75469;2835.753;-1759.112;1;315;-110;-111.3;44.4;44.6;16;16.7;26.3;0.0;
25/02/2025 07:25:39;100;0;315.56;-4;-20.00;-3.36;799.6;11.70;75465;2835.756;-1759.114;1;315;-110;-111.3;44.4;44.6;16;16.7;26.4;0.0;
25/02/2025 07:25:59;100;0;313.11;-4;-19.95;-3.41;802.2;11.70;75455;2835.759;-1759.117;1;315;-110;-109.7;44.4;44.6;16;16.2;26.3;0.0;
25/02/2025 07:26:19;100;0;310.95;-4;-20.06;-3.41;804.7;11.70;75464;2835.761;-1759.120;1;315;-110;-112.9;44.4;44.6;16;16.2;26.3;0.0;
25/02/2025 07:26:39;100;0;310.63;-4;-20.12;-3.39;807.2;11.60;75449;2835.764;-1759.122;1;315;-110;-112.9;44.4;44.6;16;16.7;26.4;0.0;
25/02/2025 07:26:59;100;0;311.57;-4;-19.85;-3.34;809.8;11.60;75444;2835.767;-1759.125;1;315;-110;-112.9;44.4;44.6;16;16.7;26.3;0.0;
25/02/2025 07:27:19;100;0;311.65;-4;-19.82;-3.38;812.4;11.60;75440;2835.770;-1759.128;1;315;-110;-112.9;44.4;44.6;16;16.2;26.3;0.0;
25/02/2025 07:27:39;100;0;311.20;-4;-19.79;-3.38;814.9;11.60;75438;2835.772;-1759.130;1;315;-110;-111.3;44.4;44.6;16;16.7;26.3;0.0;
25/02/2025 07:27:59;100;0;311.37;-4;-19.87;-3.43;817.6;11.50;75430;2835.775;-1759.133;1;315;-110;-112.9;44.4;44.6;16;16.7;26.4;0.0;
25/02/2025 07:28:19;100;0;310.04;-4;-19.78;-3.45;820.3;11.50;75427;2835.778;-1759.136;1;315;-110;-111.3;44.4;44.6;16;16.2;26.4;0.0;
25/02/2025 07:28:39;100;0;306.46;-4;-19.78;-3.45;822.8;11.50;75419;2835.780;-1759.139;1;315;-110;-111.3;44.4;44.6;16;16.7;26.4;0.0;
25/02/2025 07:28:59;100;0;303.07;-4;-19.79;-3.41;825.5;11.50;75428;2835.783;-1759.143;1;315;-110;-111.3;44.4;44.6;16;16.7;26.3;0.0;
25/02/2025 07:29:19;100;0;302.17;-4;-19.66;-3.41;828.3;11.40;75408;2835.785;-1759.146;1;315;-110;-112.9;44.4;44.6;14;13.5;26.4;0.0;
25/02/2025 07:29:39;100;0;301.18;-4;-19.69;-4.89;831.0;11.40;75414;2835.788;-1759.149;1;315;-110;-111.3;44.4;44.6;14;13.5;26.4;0.0;
25/02/2025 07:29:59;100;0;301.85;-4;-20.62;-4.93;833.8;11.40;75404;2835.790;-1759.153;1;315;-110;-112.9;44.4;44.6;14;13.5;26.4;0.0;
25/02/2025 07:30:19;100;0;299.20;-4;-19.34;-5.14;836.7;11.40;75397;2835.792;-1759.156;1;315;-110;-112.9;44.4;44.6;12;12.2;26.3;0.0;
25/02/2025 07:30:39;100;0;297.23;-4;-18.15;-5.87;839.5;11.40;75396;2835.795;-1759.160;1;315;-110;-111.3;44.9;45.1;10;9.9;26.3;0.0;
25/02/2025 07:30:59;100;0;297.58;-4;-20.51;-6.96;842.1;11.30;75386;2835.797;-1759.163;1;315;-110;-111.3;44.9;45.2;12;12.2;26.3;0.0;
25/02/2025 07:31:19;100;0;298.72;-4;-19.93;-4.85;845.1;11.30;75383;2835.799;-1759.167;1;315;-110;-112.9;44.9;45.2;12;12.6;26.4;0.0;
25/02/2025 07:31:39;100;0;297.77;-4;-20.92;-5.25;847.8;11.30;75382;2835.801;-1759.170;1;315;-110;-111.3;44.9;45.2;12;12.6;26.4;0.0;
25/02/2025 07:31:59;100;0;297.97;-4;-20.58;-5.09;850.8;11.30;75374;2835.804;-1759.174;1;315;-110;-112.9;44.9;45.2;12;12.6;26.4;0.0;
25/02/2025 07:32:19;100;0;297.08;-4;-20.79;-5.28;853.7;11.30;75370;2835.806;-1759.178;1;315;-110;-111.3;44.9;45.1;12;12.6;26.4;0.0;
25/02/2025 07:32:39;100;0;294.39;-4;-20.11;-5.28;856.5;11.20;75371;2835.808;-1759.181;1;315;-110;-111.3;44.9;45.2;8;8.1;26.3;0.0;
25/02/2025 07:32:59;100;0;296.35;-4;-20.35;-7.71;859.3;11.20;75356;2835.810;-1759.185;1;315;-110;-112.9;44.9;45.2;10;9.9;26.3;0.0;
25/02/2025 07:33:19;100;0;298.10;-4;-20.22;-6.57;861.9;11.20;75360;2835.812;-1759.188;1;315;-110;-112.9;44.9;45.2;12;12.6;26.3;0.0;
25/02/2025 07:33:39;100;0;299.40;-4;-20.83;-5.23;864.7;11.20;75345;2835.814;-1759.192;1;315;-110;-111.3;44.9;45.2;12;12.6;26.4;0.0;
25/02/2025 07:33:59;100;0;300.01;-4;-20.68;-5.20;867.3;11.20;75345;2835.817;-1759.195;1;315;-110;-111.3;44.9;45.2;12;12.6;26.4;0.0;
25/02/2025 07:34:19;100;0;301.17;-4;-20.75;-5.22;870.2;11.10;75341;2835.819;-1759.198;1;315;-110;-112.9;44.9;45.2;14;14.0;26.4;0.0;
25/02/2025 07:34:39;100;0;301.68;-4;-20.83;-4.38;872.8;11.10;75333;2835.821;-1759.201;1;315;-110;-111.3;44.9;45.2;14;14.4;26.4;0.0;
25/02/2025 07:34:59;100;0;301.84;-4;-20.77;-4.34;875.6;11.10;75334;2835.824;-1759.205;1;315;-110;-111.3;44.9;45.2;14;14.4;26.4;0.0;
25/02/2025 07:35:19;100;0;302.16;-4;-20.71;-4.38;878.2;11.10;75333;2835.826;-1759.208;1;315;-110;-111.3;44.9;45.2;14;14.4;26.4;0.0;
25/02/2025 07:35:39;100;0;302.88;-4;-20.59;-4.34;880.9;11.00;75328;2835.828;-1759.211;1;315;-110;-111.3;44.9;45.2;14;14.4;26.3;0.0;
25/02/2025 07:35:59;100;0;304.84;-4;-21.16;-4.39;883.6;11.00;75335;2835.831;-1759.214;1;315;-110;-111.3;44.9;45.1;14;14.4;26.3;0.0;
25/02/2025 07:36:19;100;0;307.76;-4;-20.89;-4.41;886.4;11.00;75323;2835.833;-1759.217;1;315;-110;-112.9;44.9;45.2;14;14.4;26.4;0.0;
25/02/2025 07:36:39;100;0;310.59;-4;-21.12;-4.25;888.9;11.00;75311;2835.836;-1759.219;1;315;-110;-111.3;44.9;45.2;14;14.9;26.3;0.0;
25/02/2025 07:36:59;100;0;312.15;-4;-21.65;-4.01;892.0;11.00;75315;2835.839;-1759.222;1;315;-110;-111.3;44.9;45.2;14;14.4;26.3;0.0;
25/02/2025 07:37:19;100;0;309.92;-4;-20.79;-4.31;894.9;11.00;75308;2835.842;-1759.226;1;315;-110;-111.3;44.9;45.2;14;14.4;26.4;0.0;
25/02/2025 07:37:39;100;0;309.68;-4;-20.92;-4.35;897.9;10.90;75309;2835.845;-1759.229;1;315;-110;-112.9;44.9;45.2;14;14.4;26.3;0.0;
25/02/2025 07:37:59;100;0;309.39;-4;-20.09;-4.60;900.6;10.90;75297;2835.847;-1759.232;1;315;-110;-111.3;44.9;45.2;14;14.4;26.3;0.0;
25/02/2025 07:38:19;100;0;309.86;-4;-20.85;-4.35;903.3;10.90;75294;2835.850;-1759.235;1;315;-110;-112.9;44.9;45.2;14;14.4;26.3;0.0;
25/02/2025 07:38:39;100;0;309.56;-4;-20.82;-4.26;905.9;10.90;75290;2835.853;-1759.237;1;315;-110;-112.9;44.9;45.2;14;14.4;26.3;0.0;
25/02/2025 07:38:59;100;0;307.93;-4;-20.86;-4.48;908.6;10.90;75301;2835.855;-1759.240;1;315;-110;-111.3;44.9;45.2;14;14.4;26.3;0.0;
25/02/2025 07:39:19;100;0;306.13;-4;-21.26;-4.32;911.3;10.80;75287;2835.858;-1759.243;1;315;-110;-112.9;44.9;45.2;14;14.4;26.4;0.0;
25/02/2025 07:39:39;100;0;306.54;-4;-21.01;-4.37;914.3;10.80;75275;2835.861;-1759.247;1;315;-110;-111.3;44.9;45.2;14;14.4;26.3;0.0;
25/02/2025 07:39:59;100;0;307.82;-4;-20.30;-4.11;917.2;10.80;75274;2835.863;-1759.250;1;315;-110;-112.9;44.9;45.2;14;14.4;26.4;0.0;
25/02/2025 07:40:19;100;0;310.22;-4;-20.84;-4.38;920.2;10.80;75267;2835.866;-1759.253;1;315;-110;-111.3;44.9;45.2;14;14.4;26.3;0.0;
25/02/2025 07:40:39;100;0;309.03;-4;-20.38;-4.37;923.0;10.80;75274;2835.869;-1759.256;1;315;-110;-112.9;44.9;45.2;14;14.4;26.3;0.0;
25/02/2025 07:40:59;100;0;309.02;-4;-20.59;-4.42;925.8;10.70;75266;2835.872;-1759.259;1;315;-110;-112.9;44.9;45.2;14;14.4;26.4;0.0;
25/02/2025 07:41:19;100;0;311.73;-4;-20.78;-4.35;928.6;10.70;75258;2835.875;-1759.262;1;315;-110;-112.9;44.9;45.2;14;14.4;26.4;0.0;
25/02/2025 07:41:39;100;0;312.38;-4;-20.87;-4.47;931.5;10.70;75265;2835.878;-1759.265;1;315;-110;-111.3;44.9;45.2;14;14.4;26.4;0.0;
25/02/2025 07:41:59;100;0;314.27;-4;-20.48;-4.30;934.3;10.70;75258;2835.881;-1759.268;1;315;-110;-111.3;44.9;45.2;14;14.4;26.3;0.0;
25/02/2025 07:42:19;100;0;319.36;-4;-19.97;-4.78;937.1;10.70;75244;2835.884;-1759.271;1;315;-110;-111.3;44.9;45.2;19;19.0;26.3;0.0;
25/02/2025 07:42:40;100;0;319.49;-4;-20.75;-1.82;940.1;10.60;75240;2835.887;-1759.273;1;315;-110;-111.3;44.9;45.2;19;19.4;26.4;0.0;
25/02/2025 07:43:00;100;0;318.23;-4;-21.06;-1.89;942.9;10.60;75238;2835.891;-1759.276;1;315;-110;-111.3;44.9;45.2;19;19.4;26.3;0.0;
25/02/2025 07:43:20;100;0;316.50;-4;-20.15;-1.97;945.9;10.60;75238;2835.894;-1759.279;1;315;-110;-111.3;44.9;45.2;16;15.3;26.4;0.0;
25/02/2025 07:43:40;100;0;316.37;-4;-20.39;-4.15;948.8;10.60;75233;2835.897;-1759.282;1;315;-110;-114.5;44.9;45.2;16;15.3;26.3;0.0;
25/02/2025 07:44:00;100;0;316.35;-4;-20.50;-3.90;951.7;10.60;75219;2835.900;-1759.284;1;315;-110;-111.3;44.9;45.2;16;15.3;26.3;0.0;
25/02/2025 07:44:20;100;0;316.16;-4;-21.08;-4.00;954.6;10.60;75238;2835.903;-1759.287;1;315;-110;-111.3;44.9;45.2;16;15.3;26.3;0.0;
25/02/2025 07:44:40;100;0;316.22;-4;-20.43;-3.88;957.7;10.50;75219;2835.907;-1759.290;1;315;-110;-111.3;44.9;45.2;16;15.3;26.3;0.0;
25/02/2025 07:45:00;100;0;315.84;-4;-20.39;-3.91;960.6;10.50;75217;2835.910;-1759.293;1;315;-110;-112.9;44.9;45.2;16;15.3;26.3;0.0;
25/02/2025 07:45:20;100;0;314.54;-4;-20.18;-3.56;963.6;10.50;75223;2835.913;-1759.296;1;315;-110;-112.9;44.9;45.2;16;15.3;26.4;0.0;
25/02/2025 07:45:40;100;0;315.76;-4;-20.62;-4.07;966.4;10.50;75213;2835.916;-1759.299;1;315;-110;-111.3;44.9;45.2;16;15.3;26.3;0.0;
25/02/2025 07:46:00;100;0;316.90;-4;-20.13;-3.92;969.2;10.40;75198;2835.920;-1759.302;1;315;-110;-111.3;44.9;45.2;16;15.3;26.3;0.0;
25/02/2025 07:46:20;100;0;317.46;-4;-20.22;-3.76;971.9;10.40;75215;2835.923;-1759.304;1;315;-110;-111.3;44.9;45.2;18;18.1;26.3;0.0;
25/02/2025 07:46:40;100;0;319.07;-4;-20.83;-2.31;974.5;10.40;75197;2835.926;-1759.307;1;315;-110;-111.3;44.9;45.2;20;19.9;26.3;0.0;
25/02/2025 07:47:00;100;0;317.71;-4;-19.67;-1.91;976.9;10.40;75200;2835.928;-1759.309;1;315;-110;-111.3;44.9;45.2;20;19.9;26.3;0.0;
25/02/2025 07:47:20;100;0;317.05;-4;-20.79;-1.58;979.3;10.40;75201;2835.931;-1759.311;1;315;-110;-112.9;44.9;45.2;20;20.3;26.3;0.0;
25/02/2025 07:47:40;100;0;316.10;-4;-20.81;-1.62;981.8;10.40;75198;2835.934;-1759.314;1;315;-110;-111.3;44.9;45.2;18;18.1;26.3;0.0;
25/02/2025 07:48:00;100;0;316.89;-4;-20.34;-2.64;984.1;10.30;75192;2835.937;-1759.316;1;315;-110;-111.3;44.9;45.2;18;18.1;26.3;0.0;
25/02/2025 07:48:20;100;0;315.22;-4;-20.76;-2.69;986.5;10.30;75176;2835.939;-1759.318;1;315;-110;-111.3;44.9;45.2;18;18.1;26.3;0.0;
25/02/2025 07:48:40;100;0;311.42;-4;-20.47;-2.75;988.9;10.30;75185;2835.942;-1759.321;1;315;-110;-111.3;44.9;45.2;16;15.8;26.3;0.0;
25/02/2025 07:49:00;100;0;311.01;-4;-20.28;-3.94;991.2;10.30;75185;2835.944;-1759.323;1;315;-110;-111.3;44.9;45.2;16;15.8;26.3;0.0;
25/02/2025 07:49:20;100;0;311.32;-4;-20.64;-3.92;993.4;10.30;75184;2835.947;-1759.325;1;315;-110;-112.9;44.9;45.2;16;15.8;26.3;0.0;
25/02/2025 07:49:40;100;0;311.77;-4;-20.26;-3.94;995.8;10.20;75180;2835.949;-1759.328;1;315;-110;-111.3;44.9;45.2;16;15.8;26.4;0.0;
25/02/2025 07:50:00;100;0;308.30;-4;-20.93;-3.94;998.3;10.20;75163;2835.952;-1759.331;1;315;-110;-112.9;44.9;45.2;16;15.3;26.4;0.0;
25/02/2025 07:50:06;118;0;308.22;-4;-20.77;-3.88;999.0;10.20;75172;2835.952;-1759.331;1;315;450;-108.1;22.0;21.9;6;5.9;26.4;0.0;
25/02/2025 07:50:16;118;0;42.62;-4;-5.51;-9.69;1000.1;10.20;75151;2835.954;-1759.330;1;315;450;19.4;22.0;21.5;6;5.9;25.1;-1.0;
25/02/2025 07:50:26;118;0;35.82;-4;22.28;-9.66;1000.0;10.20;74889;2835.954;-1759.330;1;315;450;145.2;22.0;21.9;6;5.9;24.9;-1.0;
25/02/2025 07:50:36;118;0;31.98;-4;29.59;-9.97;999.0;10.20;74626;2835.955;-1759.329;1;315;450;267.7;22.0;22.1;6;5.4;24.9;-1.0;
25/02/2025 07:50:46;118;0;32.30;-4;28.04;-9.54;997.9;10.20;74381;2835.957;-1759.329;1;315;450;390.3;22.0;22.1;6;5.4;24.7;-1.0;
25/02/2025 07:50:56;118;0;36.28;-4;26.12;-8.79;996.3;10.20;74139;2835.958;-1759.328;1;315;450;451.6;22.0;21.9;6;5.9;24.8;-1.0;
25/02/2025 07:51:06;118;0;306.47;-4;23.48;-8.56;994.5;10.20;74007;2835.960;-1759.330;1;315;450;451.6;22.0;22.1;6;5.9;26.3;-1.0;
25/02/2025 07:51:26;117;0;298.49;-4;20.52;-8.51;991.1;10.30;74014;2835.962;-1759.334;1;315;450;451.6;22.0;22.1;6;5.9;26.3;-1.0;
25/02/2025 07:51:46;117;0;290.17;-4;19.65;-8.41;987.5;10.30;74016;2835.964;-1759.339;1;315;450;451.6;22.0;22.1;43;42.9;26.3;-1.0;
25/02/2025 07:52:06;117;0;295.82;-4;21.13;10.72;984.4;10.30;74010;2835.967;-1759.343;1;315;450;451.6;22.0;22.1;35;35.2;26.3;-1.0;
25/02/2025 07:52:26;117;0;298.84;-4;21.94;6.75;980.9;10.40;74012;2835.969;-1759.347;1;315;450;451.6;22.0;22.1;32;31.6;26.3;-1.0;
25/02/2025 07:52:46;117;0;299.40;-4;22.49;5.06;977.3;10.40;74009;2835.972;-1759.351;1;315;450;451.6;22.7;22.7;32;32.0;26.3;-1.0;
25/02/2025 07:53:06;117;0;300.97;-4;21.37;5.10;973.7;10.40;74011;2835.975;-1759.355;1;315;450;450.0;22.7;22.8;32;32.0;26.3;-1.0;
25/02/2025 07:53:26;117;0;303.35;-4;20.41;5.08;970.4;10.40;74013;2835.978;-1759.359;1;315;450;451.6;22.7;22.8;29;28.9;26.3;-1.0;
25/02/2025 07:53:46;117;0;302.65;-4;20.50;3.36;967.2;10.30;74000;2835.980;-1759.363;1;315;450;451.6;22.7;23.0;29;28.4;26.3;-1.0;
25/02/2025 07:54:06;117;0;301.72;-4;20.50;3.56;963.9;10.30;73994;2835.983;-1759.367;1;315;450;450.0;22.7;23.0;29;28.4;26.3;-1.0;
25/02/2025 07:54:26;117;0;303.97;-4;20.42;3.07;960.5;10.30;74005;2835.986;-1759.371;1;315;450;451.6;22.7;22.8;29;28.4;26.3;-1.0;
25/02/2025 07:54:46;117;0;303.49;-4;20.74;4.03;957.4;10.30;74002;2835.989;-1759.374;1;315;450;451.6;22.7;23.0;29;28.4;26.3;-1.0;
25/02/2025 07:55:06;117;0;300.81;-4;20.36;3.56;954.3;10.30;73994;2835.991;-1759.378;1;315;450;451.6;22.7;23.0;29;28.4;26.3;-1.0;
25/02/2025 07:55:26;117;0;300.38;-4;19.88;3.29;951.0;10.30;73992;2835.994;-1759.382;1;315;450;451.6;22.7;22.8;31;31.6;26.3;-1.0;
25/02/2025 07:55:46;117;0;299.10;-4;20.45;5.18;948.2;10.30;74000;2835.996;-1759.386;1;315;450;451.6;22.7;23.0;31;32.0;26.3;-1.0;
25/02/2025 07:56:06;117;0;301.73;-4;20.83;5.07;944.9;10.20;73989;2835.999;-1759.390;1;315;450;451.6;22.7;23.0;31;32.0;26.3;-1.0;
25/02/2025 07:56:26;117;0;302.90;-4;20.38;4.88;941.6;10.20;73994;2836.002;-1759.394;1;315;450;451.6;22.7;22.8;29;28.9;26.3;-1.0;
25/02/2025 07:56:46;117;0;304.19;-4;19.85;3.09;938.5;10.20;73992;2836.005;-1759.397;1;315;450;451.6;22.7;23.0;29;28.4;26.3;-1.0;
25/02/2025 07:57:06;117;0;304.17;-4;20.44;3.35;935.3;10.20;73984;2836.007;-1759.401;1;315;450;451.6;22.7;22.8;29;28.4;26.3;-1.0;
25/02/2025 07:57:26;117;0;304.44;-4;20.11;3.07;932.1;10.20;73986;2836.010;-1759.405;1;315;450;450.0;22.7;23.0;29;28.4;26.3;-1.0;
25/02/2025 07:57:46;117;0;305.33;-4;20.35;2.96;928.9;10.20;73977;2836.013;-1759.409;1;315;450;450.0;22.7;23.0;29;28.4;26.3;-1.0;
25/02/2025 07:58:06;117;0;305.57;-4;20.20;3.12;925.7;10.20;73978;2836.016;-1759.413;1;315;450;451.6;22.7;23.0;29;28.4;26.3;-1.0;
25/02/2025 07:58:26;117;0;306.32;-4;20.20;3.18;922.5;10.20;73987;2836.019;-1759.416;1;315;450;451.6;22.7;23.0;29;28.4;26.3;-1.0;
25/02/2025 07:58:46;117;0;306.32;-4;20.32;3.21;919.2;10.10;73980;2836.022;-1759.420;1;315;450;451.6;22.7;23.0;29;28.4;26.3;-1.0;
25/02/2025 07:59:06;117;0;306.90;-4;20.27;3.05;915.9;10.10;73983;2836.025;-1759.424;1;315;450;451.6;22.7;23.0;29;28.4;26.3;-1.0;
25/02/2025 07:59:26;117;0;307.74;-4;19.96;3.11;912.7;10.10;73978;2836.028;-1759.428;1;315;450;451.6;22.7;23.0;29;28.4;26.3;-1.0;
25/02/2025 07:59:46;117;0;307.76;-4;20.42;3.27;909.5;10.10;73971;2836.031;-1759.431;1;315;450;451.6;22.7;22.8;29;28.4;26.3;-1.0;
25/02/2025 08:00:06;117;0;307.93;-4;20.10;3.30;906.4;10.10;73974;2836.034;-1759.435;1;315;450;450.0;22.7;23.0;29;28.4;26.3;-1.0;
25/02/2025 08:00:26;117;0;308.64;-4;20.10;3.14;903.3;10.10;73969;2836.037;-1759.438;1;315;450;451.6;22.7;22.8;29;28.4;26.3;-1.0;
25/02/2025 08:00:46;117;0;309.66;-4;20.16;3.10;900.2;10.10;73966;2836.041;-1759.442;1;315;450;451.6;22.7;23.0;29;28.4;26.3;-1.0;
25/02/2025 08:01:06;117;0;309.81;-4;20.12;3.14;897.2;10.10;73967;2836.044;-1759.445;1;315;450;450.0;22.7;22.8;29;28.4;26.3;-1.0;
25/02/2025 08:01:26;117;0;309.72;-4;20.16;3.06;894.2;10.10;73970;2836.047;-1759.448;1;315;450;451.6;22.7;22.8;29;28.4;26.3;-1.0;
25/02/2025 08:01:46;117;0;309.79;-4;20.11;3.15;890.9;10.10;73976;2836.050;-1759.452;1;315;450;451.6;22.7;22.8;29;28.4;26.3;-1.0;
25/02/2025 08:02:06;117;0;310.01;-4;19.84;2.82;887.8;10.10;73981;2836.053;-1759.455;1;315;450;451.6;22.7;23.0;29;28.4;26.3;-1.0;
25/02/2025 08:02:26;117;0;310.81;-4;20.02;3.14;884.8;10.00;73964;2836.056;-1759.459;1;315;450;451.6;22.7;23.0;29;28.4;26.3;-1.0;
25/02/2025 08:02:46;117;0;310.95;-4;20.46;3.04;881.7;10.00;73966;2836.059;-1759.462;1;315;450;451.6;22.7;22.8;29;28.4;26.3;-1.0;
25/02/2025 08:03:06;117;0;312.64;-4;20.73;2.97;878.5;10.00;73967;2836.062;-1759.465;1;315;450;453.2;22.7;22.8;29;28.4;26.3;-1.0;
25/02/2025 08:03:26;117;0;313.57;-4;19.74;3.23;875.1;10.00;73969;2836.066;-1759.469;1;315;450;453.2;22.7;23.0;29;28.4;26.3;-1.0;
25/02/2025 08:03:46;117;0;314.16;-4;20.17;3.05;871.8;10.00;73975;2836.069;-1759.472;1;315;450;451.6;22.7;23.0;29;28.4;26.3;-1.0;
25/02/2025 08:04:06;117;0;315.61;-4;20.79;2.92;868.3;10.00;73965;2836.073;-1759.475;1;315;450;451.6;22.7;23.0;29;28.4;26.3;-1.0;
25/02/2025 08:04:26;117;0;316.02;-4;19.58;3.11;864.9;10.00;73957;2836.077;-1759.479;1;315;450;453.2;22.7;23.0;29;28.4;26.3;-1.0;
25/02/2025 08:04:46;117;0;314.74;-4;19.73;3.32;861.7;10.00;73963;2836.080;-1759.482;1;315;450;450.0;22.7;23.0;29;28.4;26.4;-1.0;
25/02/2025 08:05:06;117;0;315.40;-4;19.86;2.94;858.6;10.00;73960;2836.084;-1759.485;1;315;450;451.6;22.7;22.8;29;28.4;26.3;-1.0;
25/02/2025 08:05:26;117;0;317.44;-4;19.71;3.16;855.6;10.00;73960;2836.087;-1759.488;1;315;450;451.6;22.7;23.0;27;27.1;26.3;-1.0;
