Timestamp;NavState;SecurityLevel;Heading;Declination;Pitch;Roll;Depth;Temperature;Pa;Lat;Lon;DeadReckoning;DesiredH;BallastCmd;BallastPos;LinCmd;LinPos;AngCmd;AngPos;Voltage;Altitude;
15/02/2025 21:48:45;119;0;336.51;-4;-60.67;-16.36;0.1;19.30;76153;2835.044;-1758.857;0;60;500;508.1;100.0;100.7;0;0.0;28.5;-1.0;
15/02/2025 21:48:55;116;0;340.02;-4;-45.56;-9.67;0.1;19.30;76149;2835.044;-1758.857;0;60;500;509.7;100.0;100.7;0;0.0;28.5;-1.0;
15/02/2025 21:49:20;116;0;326.27;-4;-49.56;-16.89;0.1;19.40;76154;2835.044;-1758.857;0;61;500;508.1;100.0;100.7;0;0.0;28.5;-1.0;
15/02/2025 21:49:37;116;0;325.26;-4;-53.67;-14.43;0.2;19.40;76168;2835.045;-1758.858;0;-9999;500;508.1;100.0;100.7;0;0.0;28.5;-1.0;
15/02/2025 21:50:00;116;0;324.08;-4;-54.77;-23.63;0.1;19.40;76166;2835.046;-1758.859;0;12;500;509.7;100.0;100.9;0;0.0;28.5;-1.0;
15/02/2025 21:50:20;116;0;313.55;-4;-61.43;-17.33;0.2;19.50;76176;2835.047;-1758.860;0;12;500;508.1;100.0;100.7;0;0.0;28.5;-1.0;
15/02/2025 21:51:03;116;0;326.34;-4;-46.20;-13.92;-0.1;19.50;76174;2835.046;-1758.862;0;12;500;506.5;100.0;100.7;0;0.0;28.5;-1.0;
15/02/2025 21:51:14;116;0;318.04;-4;-49.62;-13.70;0.0;19.60;76187;2835.047;-1758.863;0;12;500;508.1;100.0;100.7;0;-0.5;28.5;-1.0;
15/02/2025 21:51:34;116;0;332.01;-4;-45.34;-11.31;0.1;19.60;76190;2835.047;-1758.864;0;12;500;508.1;100.0;100.7;0;0.0;28.5;-1.0;
15/02/2025 21:51:54;116;0;327.74;-4;-52.75;-13.09;0.0;19.70;76193;2835.048;-1758.866;0;12;500;508.1;100.0;100.7;0;-0.5;28.3;-1.0;
15/02/2025 21:52:19;116;0;322.44;-4;-51.55;-5.16;0.0;19.70;76207;2835.047;-1758.867;0;12;500;508.1;100.0;100.7;0;0.0;28.5;-1.0;
15/02/2025 21:52:39;116;0;328.08;-4;-53.20;-21.55;0.3;19.80;76207;2835.048;-1758.868;0;12;500;508.1;100.0;100.7;0;0.0;28.5;-1.0;
15/02/2025 21:53:00;116;0;335.97;-4;-59.59;-10.21;0.0;19.80;76198;2835.048;-1758.869;0;12;500;508.1;100.0;100.7;0;0.0;28.5;-1.0;
15/02/2025 21:53:20;116;0;344.30;-4;-51.22;-19.10;0.0;19.90;76209;2835.048;-1758.870;0;12;500;508.1;100.0;100.7;0;0.0;28.5;-1.0;
15/02/2025 21:53:40;116;0;335.67;-4;-58.68;-10.99;0.0;20.00;76210;2835.049;-1758.872;0;12;500;508.1;100.0;100.7;0;-0.5;28.5;-1.0;
15/02/2025 21:53:58;116;0;335.04;-4;-42.06;-15.75;0.1;20.00;76220;2835.049;-1758.873;0;12;500;508.1;100.0;100.7;0;0.0;28.5;-1.0;
15/02/2025 21:54:50;116;0;335.56;-4;-53.38;-21.08;0.1;20.20;76228;2835.048;-1758.875;0;12;500;508.1;100.0;100.7;0;0.0;28.5;-1.0;
15/02/2025 21:55:04;116;0;343.28;-4;-45.86;-15.33;-0.1;20.20;76229;2835.048;-1758.876;0;12;500;509.7;100.0;100.7;0;0.0;28.5;-1.0;
15/02/2025 21:55:24;110;0;325.06;-4;-41.16;-16.86;0.1;20.20;76222;2835.048;-1758.876;0;12;-50;401.6;100.0;99.9;-9;-9.5;28.5;-1.0;
15/02/2025 21:55:34;110;0;345.07;-4;-62.75;-27.30;0.2;20.30;76571;2835.048;-1758.876;1;12;-50;251.6;100.0;99.7;-9;-9.5;28.5;-1.0;
15/02/2025 21:55:44;110;0;344.77;-4;-58.00;-9.98;0.7;20.30;76817;2835.049;-1758.877;1;12;-50;91.9;100.0;99.9;-9;-9.5;28.4;-1.0;
15/02/2025 21:55:54;110;0;349.90;-4;-63.56;-14.70;0.9;20.30;77139;2835.049;-1758.877;1;12;-50;-50.0;100.0;99.9;-9;-9.5;28.5;-1.0;
15/02/2025 21:56:04;110;0;1.02;-4;-63.58;-15.60;1.3;20.30;77425;2835.049;-1758.877;1;12;-50;-50.0;50.0;49.8;-9;-9.5;28.5;-1.0;
15/02/2025 21:56:24;100;0;16.49;-4;-36.51;-16.84;4.4;20.40;77412;2835.051;-1758.876;1;12;-50;-48.4;50.0;49.5;-9;-9.5;28.5;-1.0;
15/02/2025 21:56:44;100;0;16.57;-4;-30.24;-16.98;8.5;20.40;77412;2835.055;-1758.875;1;12;-50;-46.8;46.9;46.8;13;13.1;28.5;-1.0;
15/02/2025 21:57:04;100;0;12.22;-4;-29.40;-5.52;11.9;20.40;77420;2835.058;-1758.875;1;12;-50;-46.8;44.1;43.9;13;13.5;28.5;-1.0;
15/02/2025 21:57:24;100;0;13.11;-4;-24.47;-4.93;15.2;20.40;77414;2835.062;-1758.874;1;12;-50;-46.8;42.8;42.7;13;13.5;28.5;0.0;
15/02/2025 21:57:44;100;0;14.06;-4;-22.46;-4.98;18.3;20.50;77433;2835.066;-1758.874;1;12;-50;-45.2;42.0;42.0;13;13.5;28.5;0.0;
15/02/2025 21:58:04;100;0;11.38;-4;-19.57;-4.58;21.3;20.50;77435;2835.070;-1758.873;1;12;-50;-45.2;42.0;41.8;13;13.5;28.5;0.0;
15/02/2025 21:58:24;100;0;12.35;-4;-18.29;-4.99;24.5;20.50;77433;2835.075;-1758.872;1;13;-50;-43.5;42.5;42.6;13;13.5;28.5;0.0;
15/02/2025 21:58:44;100;0;12.76;-4;-19.79;-5.12;27.4;20.50;77438;2835.078;-1758.871;1;13;-50;-45.2;42.5;42.9;13;13.5;28.5;0.0;
15/02/2025 21:59:04;100;0;12.31;-4;-18.28;-5.05;30.3;20.50;77443;2835.082;-1758.871;1;13;-50;-45.2;43.1;43.2;13;13.5;28.5;0.0;
15/02/2025 21:59:24;100;0;11.47;-4;-20.60;-5.25;32.7;20.50;77449;2835.086;-1758.870;1;13;-50;-45.2;43.1;43.4;13;13.5;28.5;0.0;
15/02/2025 21:59:44;100;0;9.85;-4;-19.91;-5.20;35.3;20.50;77454;2835.089;-1758.870;1;13;-50;-43.5;43.1;43.4;11;10.8;28.5;0.0;
15/02/2025 22:00:04;100;0;10.27;-4;-19.49;-6.72;37.7;20.50;77446;2835.093;-1758.870;1;13;-50;-43.5;43.1;43.4;11;10.4;28.4;0.0;
15/02/2025 22:00:24;100;0;13.76;-4;-19.91;-6.82;39.9;20.50;77455;2835.095;-1758.869;1;13;-50;-45.2;43.1;43.4;11;10.4;28.5;0.0;
15/02/2025 22:00:44;100;0;14.24;-4;-21.56;-7.02;42.3;20.50;77457;2835.098;-1758.869;1;13;-50;-45.2;43.1;43.4;11;10.4;28.5;0.0;
15/02/2025 22:01:04;100;0;15.93;-4;-20.49;-7.31;44.9;20.50;77457;2835.102;-1758.868;1;13;-50;-43.5;43.1;43.4;13;13.1;28.5;0.0;
15/02/2025 22:01:24;100;0;17.45;-4;-20.58;-5.33;47.5;20.50;77462;2835.105;-1758.867;1;13;-50;-43.5;43.1;43.4;13;13.5;28.5;0.0;
15/02/2025 22:01:44;100;0;19.61;-4;-19.83;-5.42;50.1;20.50;77466;2835.109;-1758.866;1;13;-50;-43.5;43.1;43.4;13;13.5;28.5;0.0;
15/02/2025 22:02:04;100;0;23.52;-4;-18.99;-5.16;52.3;20.50;77462;2835.112;-1758.865;1;13;-50;-43.5;43.4;43.3;13;13.5;28.5;0.0;
15/02/2025 22:02:24;100;0;22.83;-4;-20.05;-5.35;54.6;20.50;77468;2835.114;-1758.864;1;13;-50;-45.2;43.4;43.2;13;13.5;28.5;0.0;
15/02/2025 22:02:44;100;0;21.75;-4;-20.41;-5.21;56.7;20.50;77466;2835.117;-1758.863;1;13;-50;-43.5;43.4;43.2;13;13.5;28.5;0.0;
15/02/2025 22:03:04;100;0;22.64;-4;-20.88;-5.14;59.0;20.50;77449;2835.120;-1758.862;1;13;-50;-46.8;43.4;43.2;13;13.5;28.5;0.0;
15/02/2025 22:03:24;100;0;19.24;-4;-20.77;-5.18;61.4;20.50;77452;2835.123;-1758.861;1;13;-50;-45.2;43.4;43.3;13;13.5;28.5;0.0;
15/02/2025 22:03:44;100;0;17.55;-4;-20.80;-5.17;63.8;20.50;77452;2835.126;-1758.860;1;13;-50;-43.5;43.4;43.3;13;13.5;28.5;0.0;
15/02/2025 22:04:04;100;0;15.23;-4;-20.82;-5.14;66.3;20.50;77458;2835.129;-1758.860;1;13;-50;-43.5;43.4;43.2;13;13.5;28.5;0.0;
15/02/2025 22:04:24;100;0;14.19;-4;-20.63;-5.17;68.8;20.50;77450;2835.132;-1758.859;1;13;-50;-45.2;43.4;43.3;13;13.5;28.5;0.0;
15/02/2025 22:04:44;100;0;14.56;-4;-20.40;-5.13;71.3;20.50;77445;2835.136;-1758.859;1;13;-50;-45.2;43.4;43.3;13;13.5;28.5;0.0;
15/02/2025 22:05:04;100;0;14.69;-4;-20.34;-5.16;73.8;20.50;77448;2835.139;-1758.858;1;13;-50;-45.2;43.4;43.3;13;13.5;28.5;0.0;
15/02/2025 22:05:24;100;0;14.54;-4;-20.29;-5.17;76.3;20.50;77450;2835.142;-1758.857;1;13;-50;-45.2;43.4;43.2;13;13.5;28.5;0.0;
15/02/2025 22:05:44;100;0;14.22;-4;-20.22;-5.21;78.8;20.50;77453;2835.146;-1758.857;1;13;-50;-43.5;43.4;43.2;13;13.5;28.5;0.0;
15/02/2025 22:06:04;100;0;14.15;-4;-20.32;-5.23;81.2;20.40;77454;2835.149;-1758.856;1;13;-50;-43.5;43.4;43.2;13;13.5;28.5;0.0;
15/02/2025 22:06:24;100;0;13.82;-4;-20.33;-5.12;83.7;20.40;77454;2835.152;-1758.855;1;13;-50;-45.2;43.4;43.3;13;13.5;28.5;0.0;
15/02/2025 22:06:44;100;0;12.35;-4;-20.51;-5.19;86.2;20.40;77458;2835.156;-1758.855;1;13;-50;-43.5;43.4;43.2;13;13.5;28.5;0.0;
15/02/2025 22:07:04;100;0;11.72;-4;-20.22;-5.12;88.8;20.40;77461;2835.159;-1758.854;1;13;-50;-45.2;43.4;43.2;13;13.5;28.5;0.0;
15/02/2025 22:07:24;100;0;12.11;-4;-20.26;-5.19;91.3;20.40;77450;2835.163;-1758.854;1;13;-50;-45.2;43.4;43.3;13;13.1;28.5;0.0;
15/02/2025 22:07:44;100;0;12.68;-4;-20.19;-5.21;93.8;20.40;77459;2835.166;-1758.853;1;13;-50;-45.2;43.4;43.3;13;13.5;28.5;0.0;
15/02/2025 22:08:04;100;0;13.62;-4;-20.24;-5.19;96.4;20.40;77459;2835.169;-1758.853;1;13;-50;-43.5;43.4;43.3;13;13.5;28.5;0.0;
15/02/2025 22:08:24;100;0;12.65;-4;-19.97;-5.19;98.8;20.40;77454;2835.173;-1758.852;1;13;-50;-45.2;43.4;43.2;13;13.5;28.5;0.0;
15/02/2025 22:08:44;100;0;11.26;-4;-20.29;-5.18;101.3;20.40;77450;2835.176;-1758.852;1;13;-50;-43.5;43.4;43.2;11;10.8;28.5;0.0;
15/02/2025 22:09:04;100;0;10.51;-4;-20.04;-6.78;103.8;20.40;77441;2835.179;-1758.851;1;13;-50;-45.2;43.4;43.3;11;10.4;28.5;0.0;
15/02/2025 22:09:24;100;0;9.98;-4;-20.03;-6.82;106.3;20.40;77444;2835.183;-1758.851;1;13;-50;-45.2;43.4;43.2;11;10.4;28.5;0.0;
15/02/2025 22:09:44;100;0;12.13;-4;-20.07;-6.79;108.8;20.40;77448;2835.186;-1758.851;1;13;-50;-43.5;43.4;43.3;11;10.4;28.5;0.0;
15/02/2025 22:10:04;100;0;13.14;-4;-20.11;-6.80;111.3;20.40;77448;2835.189;-1758.850;1;13;-50;-45.2;43.4;43.2;11;10.4;28.5;0.0;
15/02/2025 22:10:24;100;0;11.96;-4;-19.89;-6.86;113.8;20.30;77451;2835.193;-1758.850;1;13;-50;-45.2;43.4;43.2;11;10.4;28.5;0.0;
15/02/2025 22:10:44;100;0;11.62;-4;-19.63;-6.85;116.3;20.30;77440;2835.196;-1758.849;1;13;-50;-45.2;43.4;43.2;11;10.4;28.5;0.0;
15/02/2025 22:11:04;100;0;6.65;-4;-20.92;-6.87;118.8;20.30;77427;2835.199;-1758.849;1;13;-50;-43.5;43.4;43.3;8;7.7;28.5;0.0;
15/02/2025 22:11:24;100;0;12.56;-4;-18.91;-8.60;121.4;20.30;77419;2835.203;-1758.848;1;13;-50;-45.2;43.7;44.0;12;12.2;28.5;0.0;
15/02/2025 22:11:44;100;0;13.20;-4;-20.20;-5.42;123.7;20.30;77404;2835.206;-1758.848;1;13;-50;-45.2;43.7;44.0;12;12.6;28.5;0.0;
15/02/2025 22:12:04;100;0;18.48;-4;-20.57;-5.54;126.2;20.30;77380;2835.209;-1758.847;1;13;-50;-43.5;43.7;44.0;12;12.6;28.5;0.0;
15/02/2025 22:12:24;100;0;20.27;-4;-20.88;-5.62;128.6;20.20;77381;2835.212;-1758.846;1;13;-50;-43.5;43.7;44.2;12;12.6;28.5;0.0;
15/02/2025 22:12:44;100;0;20.61;-4;-20.43;-5.65;131.1;20.20;77357;2835.215;-1758.845;1;13;-50;-45.2;43.7;44.2;12;12.6;28.5;0.0;
15/02/2025 22:13:04;100;0;19.66;-4;-20.65;-5.64;133.6;20.20;77324;2835.219;-1758.844;1;13;-50;-45.2;43.7;44.0;12;12.6;28.5;0.0;
15/02/2025 22:13:24;100;0;19.23;-4;-21.01;-5.65;136.1;20.20;77305;2835.222;-1758.843;1;13;-50;-45.2;43.7;44.2;12;12.6;28.5;0.0;
15/02/2025 22:13:44;100;0;18.04;-4;-21.16;-5.54;138.6;20.10;77292;2835.225;-1758.842;1;13;-50;-45.2;43.7;44.0;12;12.6;28.5;0.0;
15/02/2025 22:14:04;100;0;17.92;-4;-21.10;-5.57;141.2;20.10;77282;2835.228;-1758.842;1;13;-50;-45.2;43.7;44.2;12;12.6;28.5;0.0;
15/02/2025 22:14:24;100;0;17.12;-4;-21.20;-5.59;143.8;20.10;77271;2835.231;-1758.841;1;13;-50;-45.2;43.7;44.0;12;12.6;28.5;0.0;
15/02/2025 22:14:44;100;0;20.04;-4;-21.15;-5.50;146.4;20.00;77264;2835.235;-1758.840;1;13;-50;-43.5;43.7;44.2;12;12.6;28.5;0.0;
15/02/2025 22:15:04;100;0;20.33;-4;-21.15;-5.60;148.9;20.00;77252;2835.238;-1758.839;1;13;-50;-45.2;43.7;44.2;12;12.6;28.5;0.0;
15/02/2025 22:15:24;100;0;17.99;-4;-21.21;-5.53;151.5;20.00;77236;2835.241;-1758.838;1;13;-50;-45.2;43.7;44.2;12;12.6;28.5;0.0;
15/02/2025 22:15:44;100;0;18.28;-4;-21.18;-5.59;153.9;19.90;77238;2835.244;-1758.837;1;13;-50;-45.2;43.7;44.0;12;12.6;28.5;0.0;
15/02/2025 22:16:04;100;0;17.75;-4;-21.18;-5.60;156.5;19.90;77227;2835.247;-1758.836;1;13;-50;-43.5;43.7;44.2;12;12.6;28.5;0.0;
15/02/2025 22:16:24;100;0;15.03;-4;-21.24;-5.57;158.9;19.90;77216;2835.251;-1758.836;1;13;-50;-43.5;43.7;44.0;12;12.6;28.5;0.0;
15/02/2025 22:16:44;100;0;17.23;-4;-21.11;-5.61;161.4;19.80;77214;2835.254;-1758.835;1;13;-50;-45.2;43.7;44.0;12;12.6;28.5;0.0;
15/02/2025 22:17:04;100;0;23.43;-4;-21.02;-5.51;163.9;19.80;77194;2835.257;-1758.834;1;13;-50;-43.5;43.7;44.2;12;12.6;28.5;0.0;
15/02/2025 22:17:24;100;0;28.35;-4;-20.78;-5.62;166.1;19.80;77191;2835.259;-1758.833;1;13;-50;-45.2;43.7;44.0;15;14.9;28.5;0.0;
15/02/2025 22:17:44;100;0;31.20;-4;-20.84;-4.30;168.4;19.70;77182;2835.262;-1758.831;1;13;-50;-43.5;43.7;44.2;18;18.1;28.5;0.0;
15/02/2025 22:18:04;100;0;30.98;-4;-21.06;-2.75;170.6;19.70;77161;2835.265;-1758.830;1;13;-50;-45.2;43.7;44.2;18;18.5;28.5;0.0;
15/02/2025 22:18:24;100;0;28.62;-4;-21.52;-2.65;173.0;19.70;77151;2835.267;-1758.829;1;13;-50;-45.2;43.7;44.2;15;14.4;28.5;0.0;
15/02/2025 22:18:44;100;0;28.19;-4;-21.37;-4.77;175.3;19.60;77130;2835.270;-1758.827;1;13;-50;-45.2;43.7;44.2;15;14.0;28.5;0.0;
15/02/2025 22:19:04;100;0;29.07;-4;-21.27;-4.80;177.7;19.60;77118;2835.273;-1758.826;1;13;-50;-45.2;43.7;44.2;15;14.0;28.5;0.0;
15/02/2025 22:19:24;100;0;28.39;-4;-21.51;-4.82;180.1;19.60;77105;2835.276;-1758.825;1;13;-50;-45.2;43.7;44.2;15;14.0;28.5;0.0;
15/02/2025 22:19:44;100;0;29.41;-4;-21.26;-4.77;182.7;19.50;77090;2835.279;-1758.823;1;13;-50;-45.2;43.7;44.0;17;17.1;28.5;0.0;
15/02/2025 22:20:04;100;0;29.24;-4;-21.35;-3.01;185.0;19.50;77084;2835.281;-1758.822;1;13;-50;-45.2;43.7;44.2;17;17.6;28.5;0.0;
15/02/2025 22:20:24;100;0;25.68;-4;-21.23;-3.21;187.4;19.40;77068;2835.284;-1758.821;1;13;-50;-43.5;43.7;44.2;14;13.5;28.5;0.0;
15/02/2025 22:20:44;100;0;22.45;-4;-20.86;-5.32;189.5;19.40;77056;2835.287;-1758.820;1;13;-50;-43.5;43.7;44.2;14;13.5;28.5;0.0;
15/02/2025 22:21:04;100;0;22.95;-4;-21.01;-5.26;191.8;19.40;77038;2835.290;-1758.819;1;13;-50;-45.2;43.7;44.2;14;13.1;28.5;0.0;
15/02/2025 22:21:24;100;0;19.09;-4;-20.73;-5.40;193.9;19.30;77021;2835.292;-1758.818;1;13;-50;-45.2;43.7;44.2;14;13.5;28.5;0.0;
15/02/2025 22:21:44;100;0;17.98;-4;-20.71;-5.37;196.0;19.30;77014;2835.295;-1758.817;1;13;-50;-45.2;43.7;44.2;14;13.1;28.5;0.0;
15/02/2025 22:22:04;100;0;14.98;-4;-21.03;-5.39;198.1;19.20;76993;2835.298;-1758.817;1;13;-50;-45.2;43.7;44.2;12;11.7;28.5;0.0;
15/02/2025 22:22:24;100;0;13.81;-4;-21.18;-6.12;200.3;19.20;76986;2835.301;-1758.816;1;13;-50;-43.5;43.7;44.2;12;11.7;28.5;0.0;
15/02/2025 22:22:44;100;0;14.18;-4;-21.20;-6.09;202.8;19.10;76979;2835.304;-1758.816;1;13;-50;-43.5;43.7;44.2;12;11.7;28.5;0.0;
15/02/2025 22:23:04;100;0;17.28;-4;-20.89;-6.11;205.2;19.10;76965;2835.307;-1758.815;1;13;-50;-43.5;43.7;44.2;12;11.7;28.5;0.0;
15/02/2025 22:23:24;100;0;19.58;-4;-20.65;-6.10;207.6;19.00;76941;2835.310;-1758.814;1;13;-50;-45.2;43.7;44.2;12;11.7;28.5;0.0;
15/02/2025 22:23:44;100;0;19.40;-4;-20.82;-6.10;209.9;19.00;76941;2835.313;-1758.813;1;13;-50;-45.2;43.7;44.2;12;11.7;28.5;0.0;
15/02/2025 22:24:04;100;0;19.90;-4;-21.15;-6.10;212.2;19.00;76932;2835.316;-1758.813;1;13;-50;-43.5;43.7;44.2;12;11.7;28.5;0.0;
15/02/2025 22:24:24;100;0;21.68;-4;-21.02;-6.10;214.8;18.90;76919;2835.319;-1758.812;1;13;-50;-45.2;43.7;44.2;12;11.7;28.5;0.0;
15/02/2025 22:24:44;100;0;23.39;-4;-20.93;-6.08;217.4;18.90;76916;2835.322;-1758.810;1;13;-50;-45.2;43.7;44.2;12;11.7;28.5;0.0;
15/02/2025 22:25:04;100;0;24.86;-4;-20.86;-6.13;219.9;18.80;76906;2835.325;-1758.809;1;13;-50;-45.2;43.7;44.2;14;14.0;28.5;0.0;
15/02/2025 22:25:24;100;0;26.16;-4;-21.06;-4.65;222.3;18.80;76896;2835.328;-1758.808;1;12;-50;-45.2;43.7;44.2;14;14.4;28.5;0.0;
15/02/2025 22:25:44;100;0;25.69;-4;-20.84;-4.59;224.8;18.70;76888;2835.331;-1758.807;1;12;-50;-46.8;43.7;44.0;14;14.4;28.5;0.0;
15/02/2025 22:26:04;100;0;25.74;-4;-20.54;-4.64;227.2;18.70;76877;2835.334;-1758.805;1;12;-50;-45.2;43.7;44.2;14;14.4;28.5;0.0;
15/02/2025 22:26:24;100;0;25.75;-4;-20.47;-4.61;229.6;18.70;76866;2835.337;-1758.804;1;12;-50;-46.8;43.7;44.2;14;14.4;28.5;0.0;
15/02/2025 22:26:44;100;0;28.37;-4;-20.33;-4.65;231.8;18.60;76861;2835.340;-1758.803;1;12;-50;-43.5;43.7;44.2;16;16.2;28.5;0.0;
15/02/2025 22:27:05;100;0;30.75;-4;-20.59;-3.75;234.0;18.60;76851;2835.342;-1758.802;1;12;-50;-45.2;43.7;44.2;19;19.4;28.5;0.0;
15/02/2025 22:27:25;100;0;32.01;-4;-20.89;-2.10;236.1;18.50;76847;2835.345;-1758.800;1;12;-50;-45.2;43.7;44.2;19;19.9;28.5;0.0;
15/02/2025 22:27:45;100;0;31.81;-4;-21.08;-1.97;238.4;18.50;76841;2835.347;-1758.799;1;12;-50;-45.2;43.7;44.2;19;19.9;28.5;0.0;
15/02/2025 22:28:05;100;0;27.42;-4;-21.18;-2.04;240.5;18.40;76824;2835.350;-1758.798;1;12;-50;-45.2;43.7;44.2;16;15.8;28.5;0.0;
15/02/2025 22:28:25;100;0;25.55;-4;-20.79;-4.23;242.9;18.40;76826;2835.353;-1758.797;1;12;-50;-45.2;43.7;44.2;16;15.3;28.5;0.0;
15/02/2025 22:28:45;100;0;21.45;-4;-21.06;-4.21;245.2;18.40;76822;2835.356;-1758.796;1;12;-50;-45.2;43.7;44.2;13;13.1;28.5;0.0;
15/02/2025 22:29:05;100;0;21.34;-4;-20.49;-5.64;247.4;18.30;76809;2835.359;-1758.795;1;12;-50;-45.2;43.7;44.2;13;12.6;28.5;0.0;
15/02/2025 22:29:25;100;0;24.13;-4;-20.47;-5.63;249.7;18.30;76802;2835.361;-1758.794;1;12;-50;-43.5;43.7;44.2;13;12.6;28.5;0.0;
15/02/2025 22:29:45;100;0;26.09;-4;-20.48;-5.62;252.0;18.20;76782;2835.364;-1758.792;1;12;-50;-43.5;43.7;44.0;15;14.9;28.5;0.0;
15/02/2025 22:30:05;100;0;25.46;-4;-20.56;-4.25;254.2;18.20;76790;2835.367;-1758.791;1;12;-50;-43.5;43.7;44.2;15;15.3;28.5;0.0;
15/02/2025 22:30:25;100;0;24.02;-4;-20.61;-4.18;256.4;18.20;76779;2835.370;-1758.790;1;12;-50;-45.2;43.7;44.2;15;15.3;28.5;0.0;
15/02/2025 22:30:45;100;0;21.56;-4;-20.73;-4.22;258.7;18.10;76776;2835.373;-1758.789;1;12;-50;-43.5;43.7;44.0;13;13.1;28.5;0.0;
15/02/2025 22:31:05;100;0;20.00;-4;-20.63;-5.48;261.0;18.10;76768;2835.375;-1758.789;1;12;-50;-43.5;43.7;44.2;13;13.1;28.5;0.0;
15/02/2025 22:31:25;100;0;19.36;-4;-20.59;-5.37;263.4;18.10;76770;2835.378;-1758.788;1;12;-50;-43.5;43.7;44.2;13;13.1;28.5;0.0;
15/02/2025 22:31:45;100;0;18.86;-4;-20.51;-5.47;265.8;18.00;76759;2835.381;-1758.787;1;12;-50;-43.5;43.7;44.0;13;13.1;28.5;0.0;
15/02/2025 22:32:05;100;0;19.36;-4;-20.61;-5.42;268.0;18.00;76751;2835.384;-1758.786;1;12;-50;-43.5;43.7;44.2;13;13.1;28.5;0.0;
15/02/2025 22:32:25;100;0;20.40;-4;-20.46;-5.47;270.4;18.00;76742;2835.387;-1758.785;1;12;-50;-45.2;43.7;44.2;13;13.1;28.5;0.0;
15/02/2025 22:32:45;100;0;22.91;-4;-20.56;-5.47;272.9;17.90;76721;2835.390;-1758.784;1;12;-50;-45.2;43.7;44.2;13;13.1;28.5;0.0;
15/02/2025 22:33:05;100;0;23.75;-4;-20.52;-5.44;275.2;17.90;76704;2835.393;-1758.783;1;12;-50;-43.5;43.7;44.2;13;13.1;28.5;0.0;
15/02/2025 22:33:25;100;0;24.86;-4;-20.57;-5.40;277.6;17.80;76699;2835.396;-1758.782;1;12;-50;-45.2;43.7;44.2;15;14.9;28.5;0.0;
15/02/2025 22:33:45;100;0;24.09;-4;-20.80;-4.18;280.0;17.80;76690;2835.399;-1758.781;1;12;-50;-45.2;43.7;44.2;15;15.3;28.5;0.0;
15/02/2025 22:34:05;100;0;24.02;-4;-20.76;-4.13;282.4;17.80;76692;2835.402;-1758.780;1;12;-50;-45.2;43.7;44.0;15;15.3;28.5;0.0;
15/02/2025 22:34:25;100;0;25.04;-4;-20.80;-4.18;284.7;17.70;76680;2835.405;-1758.779;1;12;-50;-45.2;43.7;44.2;15;15.8;28.5;0.0;
15/02/2025 22:34:45;100;0;23.47;-4;-20.62;-4.15;287.1;17.70;76676;2835.408;-1758.778;1;12;-50;-45.2;43.7;44.2;15;15.3;28.5;0.0;
15/02/2025 22:35:05;100;0;23.63;-4;-20.70;-4.20;289.4;17.60;76666;2835.411;-1758.777;1;12;-50;-45.2;43.7;44.2;15;15.3;28.5;0.0;
15/02/2025 22:35:25;100;0;23.72;-4;-20.61;-4.13;291.7;17.60;76650;2835.413;-1758.776;1;12;-50;-43.5;43.7;44.3;15;15.3;28.5;0.0;
15/02/2025 22:35:45;100;0;24.47;-4;-20.68;-4.17;294.0;17.60;76658;2835.416;-1758.774;1;12;-50;-45.2;43.7;44.2;15;15.3;28.5;0.0;
15/02/2025 22:36:05;100;0;24.96;-4;-20.59;-4.15;296.2;17.50;76638;2835.419;-1758.773;1;12;-50;-43.5;43.7;44.2;15;15.3;28.5;0.0;
15/02/2025 22:36:25;100;0;25.97;-4;-20.47;-4.18;298.5;17.50;76626;2835.422;-1758.772;1;12;-50;-45.2;43.7;44.2;15;15.3;28.5;0.0;
15/02/2025 22:36:45;100;0;27.83;-4;-20.42;-4.20;300.6;17.40;76623;2835.424;-1758.771;1;12;-50;-45.2;43.7;44.2;17;17.6;28.5;0.0;
15/02/2025 22:37:05;100;0;26.79;-4;-20.92;-2.91;302.7;17.40;76614;2835.427;-1758.770;1;12;-50;-43.5;43.7;44.2;17;18.1;28.5;0.0;
15/02/2025 22:37:25;100;0;25.27;-4;-21.08;-2.95;305.0;17.40;76601;2835.430;-1758.769;1;12;-50;-46.8;43.7;44.2;15;14.9;28.5;0.0;
15/02/2025 22:37:45;100;0;25.10;-4;-20.50;-4.49;307.2;17.30;76598;2835.433;-1758.768;1;12;-50;-43.5;43.7;44.2;15;14.9;28.5;0.0;
15/02/2025 22:38:05;100;0;25.21;-4;-20.58;-4.41;309.6;17.30;76593;2835.435;-1758.767;1;12;-50;-45.2;43.7;44.2;15;14.9;28.5;0.0;
15/02/2025 22:38:25;100;0;26.37;-4;-20.42;-4.56;311.8;17.30;76586;2835.438;-1758.765;1;12;-50;-45.2;43.7;44.2;15;14.9;28.5;0.0;
15/02/2025 22:38:45;100;0;27.87;-4;-20.45;-4.49;313.9;17.20;76571;2835.441;-1758.764;1;12;-50;-43.5;43.7;44.2;17;17.1;28.5;0.0;
15/02/2025 22:39:05;100;0;27.98;-4;-20.28;-3.01;316.0;17.20;76562;2835.443;-1758.763;1;12;-50;-45.2;43.7;44.2;17;18.1;28.5;0.0;
15/02/2025 22:39:25;100;0;24.64;-4;-20.55;-3.02;318.0;17.20;76561;2835.446;-1758.762;1;12;-50;-45.2;43.7;44.2;15;14.9;28.5;0.0;
15/02/2025 22:39:45;100;0;23.46;-4;-20.29;-4.67;320.0;17.10;76560;2835.448;-1758.761;1;12;-70;-71.0;43.7;44.2;15;14.9;28.5;0.0;
15/02/2025 22:40:05;100;0;23.28;-4;-19.66;-4.61;322.1;17.10;76627;2835.451;-1758.760;1;12;-70;-72.6;43.7;44.2;15;14.9;28.5;0.0;
15/02/2025 22:40:25;100;0;22.17;-4;-19.92;-4.52;324.2;17.00;76621;2835.454;-1758.759;1;12;-70;-75.8;43.7;44.2;15;14.4;28.5;0.0;
15/02/2025 22:40:45;100;0;20.02;-4;-19.95;-4.48;326.4;17.00;76614;2835.457;-1758.759;1;12;-70;-77.4;43.7;44.2;15;14.9;28.5;0.0;
15/02/2025 22:41:05;100;0;19.59;-4;-20.24;-4.41;328.5;17.00;76609;2835.460;-1758.758;1;12;-70;-77.4;43.7;44.2;15;14.9;28.5;0.0;
15/02/2025 22:41:25;100;0;17.51;-4;-20.30;-4.42;330.8;17.00;76602;2835.463;-1758.757;1;12;-70;-77.4;43.7;44.2;15;14.9;28.5;0.0;
15/02/2025 22:41:45;100;0;14.83;-4;-20.28;-4.41;333.0;16.90;76579;2835.466;-1758.757;1;12;-70;-79.0;43.7;44.2;15;14.9;28.5;0.0;
15/02/2025 22:42:05;100;0;11.17;-4;-20.15;-4.48;335.3;16.90;76572;2835.469;-1758.756;1;12;-70;-80.6;43.7;44.2;13;13.1;28.5;0.0;
15/02/2025 22:42:25;100;0;9.04;-4;-19.45;-5.48;337.5;16.80;76566;2835.472;-1758.756;1;12;-70;-77.4;43.7;44.2;13;13.1;28.5;0.0;
15/02/2025 22:42:45;100;0;12.33;-4;-20.55;-5.42;339.7;16.80;76553;2835.475;-1758.756;1;12;-70;-79.0;43.7;44.2;13;12.6;28.5;0.0;
15/02/2025 22:43:05;100;0;15.85;-4;-20.44;-5.34;342.2;16.80;76546;2835.478;-1758.755;1;12;-70;-79.0;43.7;44.2;13;13.1;28.5;0.0;
15/02/2025 22:43:25;100;0;17.17;-4;-20.02;-5.34;344.7;16.70;76534;2835.481;-1758.754;1;12;-70;-77.4;43.7;44.2;13;12.6;28.5;0.0;
15/02/2025 22:43:45;100;0;17.38;-4;-20.08;-5.40;347.2;16.70;76530;2835.484;-1758.753;1;12;-70;-79.0;43.7;44.2;13;12.6;28.5;0.0;
15/02/2025 22:44:05;100;0;17.89;-4;-20.23;-5.44;349.7;16.70;76523;2835.488;-1758.752;1;12;-70;-79.0;43.7;44.2;13;12.6;28.5;0.0;
15/02/2025 22:44:25;100;0;19.55;-4;-20.29;-5.48;352.3;16.60;76515;2835.491;-1758.751;1;12;-70;-77.4;43.7;44.2;13;13.1;28.5;0.0;
15/02/2025 22:44:45;100;0;19.86;-4;-20.30;-5.67;355.0;16.60;76505;2835.495;-1758.750;1;12;-70;-79.0;43.7;44.2;13;12.6;28.5;0.0;
15/02/2025 22:45:05;100;0;21.83;-4;-19.84;-5.35;357.6;16.60;76509;2835.498;-1758.749;1;12;-70;-79.0;43.7;44.2;13;13.1;28.5;0.0;
15/02/2025 22:45:25;100;0;22.57;-4;-19.94;-5.34;360.1;16.50;76493;2835.501;-1758.748;1;12;-70;-79.0;43.7;44.0;15;14.9;28.5;0.0;
15/02/2025 22:45:45;100;0;23.68;-4;-20.60;-3.94;362.8;16.50;76484;2835.504;-1758.747;1;12;-70;-79.0;43.7;44.2;15;15.8;28.5;0.0;
15/02/2025 22:46:05;100;0;25.56;-4;-20.55;-3.87;365.5;16.40;76480;2835.508;-1758.745;1;12;-70;-77.4;43.7;44.3;15;15.8;28.5;0.0;
15/02/2025 22:46:25;100;0;25.54;-4;-20.56;-3.91;368.2;16.40;76481;2835.511;-1758.744;1;12;-70;-77.4;43.7;44.2;15;15.3;28.5;0.0;
15/02/2025 22:46:45;100;0;24.66;-4;-20.28;-4.02;370.9;16.40;76477;2835.514;-1758.743;1;12;-70;-79.0;43.7;44.2;15;15.8;28.5;0.0;
15/02/2025 22:47:05;100;0;25.65;-4;-20.16;-3.88;373.6;16.30;76465;2835.518;-1758.741;1;12;-70;-79.0;43.7;44.2;15;15.3;28.5;0.0;
15/02/2025 22:47:25;100;0;24.64;-4;-20.15;-3.92;376.4;16.30;76461;2835.521;-1758.740;1;12;-70;-79.0;43.7;44.2;15;15.3;28.5;0.0;
15/02/2025 22:47:45;100;0;21.20;-4;-20.45;-3.91;379.1;16.30;76459;2835.525;-1758.739;1;12;-70;-80.6;43.7;44.2;15;15.8;28.5;0.0;
15/02/2025 22:48:05;100;0;19.17;-4;-20.00;-3.95;381.9;16.20;76450;2835.528;-1758.737;1;12;-70;-77.4;43.7;44.2;15;15.8;28.5;0.0;
15/02/2025 22:48:25;100;0;17.19;-4;-19.86;-4.00;384.6;16.20;76445;2835.532;-1758.737;1;12;-70;-79.0;43.7;44.2;15;15.8;28.5;0.0;
15/02/2025 22:48:45;100;0;15.95;-4;-20.03;-3.98;387.3;16.20;76439;2835.535;-1758.736;1;12;-70;-79.0;43.7;44.2;15;15.8;28.5;0.0;
15/02/2025 22:49:05;100;0;15.01;-4;-19.86;-4.04;390.1;16.20;76434;2835.539;-1758.735;1;12;-70;-77.4;43.7;44.2;15;15.8;28.5;0.0;
15/02/2025 22:49:25;100;0;14.10;-4;-19.85;-4.04;392.8;16.10;76432;2835.543;-1758.734;1;12;-70;-79.0;43.7;44.2;15;15.8;28.5;0.0;
15/02/2025 22:49:45;100;0;13.19;-4;-19.69;-3.95;395.6;16.10;76420;2835.546;-1758.734;1;12;-70;-79.0;43.7;44.2;15;15.8;28.5;0.0;
15/02/2025 22:50:05;100;0;14.00;-4;-19.32;-3.99;398.4;16.10;76417;2835.550;-1758.733;1;12;-70;-79.0;43.7;44.2;15;15.8;28.5;0.0;
15/02/2025 22:50:25;100;0;13.96;-4;-19.48;-3.97;401.0;16.00;76405;2835.554;-1758.732;1;12;-70;-79.0;43.7;44.2;15;15.8;28.5;0.0;
15/02/2025 22:50:45;100;0;13.99;-4;-19.58;-4.09;403.7;16.00;76397;2835.557;-1758.731;1;12;-70;-79.0;43.7;44.3;15;15.8;28.5;0.0;
15/02/2025 22:51:05;100;0;13.38;-4;-19.73;-3.94;406.4;16.00;76396;2835.561;-1758.731;1;12;-70;-77.4;43.7;44.2;15;15.8;28.5;0.0;
15/02/2025 22:51:25;100;0;12.39;-4;-19.55;-3.92;409.1;15.90;76397;2835.564;-1758.730;1;12;-70;-79.0;43.7;44.0;15;15.8;28.5;0.0;
15/02/2025 22:51:45;100;0;12.58;-4;-19.74;-3.96;411.6;15.90;76387;2835.568;-1758.730;1;12;-70;-79.0;43.7;44.2;15;15.8;28.5;0.0;
15/02/2025 22:52:05;100;0;11.16;-4;-19.61;-4.04;414.3;15.90;76383;2835.571;-1758.729;1;12;-70;-79.0;43.7;44.2;13;13.1;28.5;0.0;
15/02/2025 22:52:25;100;0;11.31;-4;-19.69;-5.48;416.9;15.80;76375;2835.575;-1758.729;1;12;-70;-79.0;43.7;44.2;13;12.6;28.5;0.0;
15/02/2025 22:52:45;100;0;11.75;-4;-19.37;-5.55;419.5;15.80;76373;2835.579;-1758.728;1;12;-70;-79.0;43.7;44.2;13;12.6;28.5;0.0;
15/02/2025 22:53:05;100;0;10.58;-4;-19.57;-5.64;422.0;15.80;76367;2835.582;-1758.728;1;12;-70;-79.0;43.7;44.2;13;12.6;28.5;0.0;
15/02/2025 22:53:25;100;0;10.90;-4;-19.79;-5.62;424.6;15.80;76377;2835.585;-1758.727;1;12;-70;-79.0;43.7;44.2;13;12.6;28.5;0.0;
15/02/2025 22:53:45;100;0;10.99;-4;-19.40;-5.48;427.2;15.70;76353;2835.589;-1758.727;1;12;-70;-79.0;43.7;44.2;13;12.6;28.5;0.0;
15/02/2025 22:54:05;100;0;11.14;-4;-19.04;-5.52;429.8;15.70;76354;2835.593;-1758.726;1;12;-70;-77.4;43.7;44.2;13;12.6;28.5;0.0;
15/02/2025 22:54:25;100;0;12.72;-4;-18.73;-5.59;432.2;15.70;76344;2835.596;-1758.726;1;12;-70;-79.0;44.1;44.0;13;12.6;28.5;0.0;
15/02/2025 22:54:45;100;0;11.90;-4;-19.57;-5.57;434.5;15.60;76345;2835.599;-1758.725;1;12;-70;-79.0;44.1;43.9;13;12.6;28.5;0.0;
15/02/2025 22:55:05;100;0;7.62;-4;-19.52;-5.58;436.9;15.60;76329;2835.602;-1758.725;1;12;-70;-79.0;44.1;43.9;11;10.8;28.5;0.0;
15/02/2025 22:55:25;100;0;8.27;-4;-19.65;-6.56;439.5;15.60;76326;2835.606;-1758.725;1;12;-70;-79.0;44.1;43.9;11;10.4;28.5;0.0;
15/02/2025 22:55:45;100;0;8.41;-4;-19.83;-6.58;442.1;15.60;76304;2835.609;-1758.725;1;12;-70;-79.0;44.1;43.9;11;10.4;28.5;0.0;
15/02/2025 22:56:05;100;0;7.65;-4;-19.64;-6.58;444.7;15.50;76303;2835.613;-1758.724;1;12;-70;-79.0;44.1;44.0;11;10.4;28.5;0.0;
15/02/2025 22:56:25;100;0;7.48;-4;-19.42;-6.56;447.3;15.50;76298;2835.617;-1758.724;1;12;-70;-79.0;44.1;43.9;11;10.4;28.5;0.0;
15/02/2025 22:56:45;100;0;7.51;-4;-19.46;-6.57;449.9;15.50;76294;2835.620;-1758.724;1;12;-70;-80.6;44.1;43.9;11;10.4;28.5;0.0;
15/02/2025 22:57:05;100;0;9.82;-4;-19.38;-6.53;452.5;15.40;76287;2835.624;-1758.724;1;12;-70;-80.6;44.1;43.9;11;10.4;28.5;0.0;
15/02/2025 22:57:25;100;0;12.50;-4;-19.30;-6.58;455.1;15.40;76277;2835.627;-1758.723;1;12;-70;-79.0;44.1;43.9;13;13.1;28.5;0.0;
15/02/2025 22:57:45;100;0;13.11;-4;-19.57;-5.03;457.7;15.40;76279;2835.631;-1758.722;1;12;-70;-79.0;44.1;43.9;13;13.5;28.5;0.0;
15/02/2025 22:58:05;100;0;12.78;-4;-19.69;-5.01;460.2;15.40;76277;2835.634;-1758.722;1;12;-70;-79.0;44.1;43.9;13;13.5;28.5;0.0;
15/02/2025 22:58:25;100;0;12.38;-4;-19.68;-5.01;462.8;15.30;76259;2835.638;-1758.721;1;12;-70;-79.0;44.1;43.9;13;13.5;28.5;0.0;
15/02/2025 22:58:45;100;0;12.78;-4;-19.67;-5.04;465.5;15.30;76266;2835.641;-1758.721;1;12;-70;-79.0;44.1;43.9;13;13.5;28.5;0.0;
15/02/2025 22:59:05;100;0;11.76;-4;-19.69;-4.92;468.1;15.30;76248;2835.645;-1758.720;1;12;-70;-80.6;44.1;43.9;13;13.5;28.5;0.0;
15/02/2025 22:59:25;100;0;11.34;-4;-20.00;-5.02;470.7;15.30;76246;2835.648;-1758.720;1;12;-70;-79.0;44.1;43.9;13;13.5;28.5;0.0;
15/02/2025 22:59:45;100;0;10.63;-4;-19.74;-5.00;473.2;15.20;76253;2835.652;-1758.719;1;12;-70;-79.0;44.1;43.9;13;13.5;28.5;0.0;
15/02/2025 23:00:05;100;0;9.20;-4;-19.82;-5.04;475.8;15.20;76234;2835.655;-1758.719;1;12;-70;-79.0;44.1;43.9;13;13.5;28.5;0.0;
15/02/2025 23:00:25;100;0;5.20;-4;-19.69;-5.00;478.4;15.20;76242;2835.659;-1758.719;1;12;-70;-79.0;44.1;43.9;8;8.1;28.5;0.0;
15/02/2025 23:00:45;100;0;5.20;-4;-19.57;-7.89;480.9;15.10;76228;2835.662;-1758.719;1;12;-70;-79.0;44.1;43.9;8;8.1;28.5;0.0;
15/02/2025 23:01:05;100;0;5.01;-4;-19.62;-7.91;483.4;15.10;76218;2835.666;-1758.719;1;12;-70;-77.4;44.1;43.9;8;8.1;28.5;0.0;
15/02/2025 23:01:25;100;0;4.11;-4;-19.63;-7.89;485.9;15.10;76214;2835.669;-1758.719;1;12;-70;-79.0;44.1;43.9;8;8.1;28.5;0.0;
15/02/2025 23:01:46;100;0;2.37;-4;-19.14;-7.92;488.3;15.10;76212;2835.672;-1758.719;1;12;-70;-79.0;44.1;43.9;5;5.0;28.5;0.0;
15/02/2025 23:02:06;100;0;4.88;-4;-18.88;-9.56;490.7;15.10;76207;2835.676;-1758.719;1;12;-70;-79.0;44.4;44.6;8;8.1;28.5;0.0;
15/02/2025 23:02:26;100;0;8.63;-4;-19.64;-7.71;493.0;15.00;76201;2835.679;-1758.719;1;12;-70;-79.0;44.4;44.6;11;11.3;28.5;0.0;
15/02/2025 23:02:46;100;0;10.06;-4;-20.12;-6.06;495.5;15.00;76179;2835.682;-1758.718;1;12;-70;-79.0;44.4;44.6;11;11.3;28.5;0.0;
15/02/2025 23:03:06;100;0;12.45;-4;-20.32;-5.99;498.0;15.00;76196;2835.686;-1758.718;1;13;-70;-79.0;44.4;44.6;11;11.3;28.5;0.0;
15/02/2025 23:03:26;100;0;14.53;-4;-20.09;-6.05;500.5;15.00;76189;2835.689;-1758.717;1;13;-70;-77.4;44.4;44.6;13;13.5;28.5;0.0;
15/02/2025 23:03:46;100;0;15.23;-4;-20.27;-4.81;503.0;14.90;76177;2835.692;-1758.716;1;13;-70;-79.0;44.4;44.6;13;14.0;28.5;0.0;
15/02/2025 23:04:06;100;0;15.99;-4;-20.56;-4.70;505.5;14.90;76173;2835.696;-1758.716;1;13;-70;-77.4;44.4;44.6;13;14.0;28.5;0.0;
15/02/2025 23:04:26;100;0;15.90;-4;-20.36;-4.71;508.2;14.90;76162;2835.699;-1758.715;1;13;-70;-79.0;44.4;44.6;13;14.0;28.5;0.0;
15/02/2025 23:04:46;100;0;15.14;-4;-20.67;-4.69;510.9;14.80;76167;2835.703;-1758.714;1;13;-70;-77.4;44.4;44.6;13;14.0;28.5;0.0;
15/02/2025 23:05:06;100;0;15.73;-4;-20.34;-4.77;513.6;14.80;76149;2835.706;-1758.713;1;13;-70;-77.4;44.4;44.6;13;14.0;28.5;0.0;
15/02/2025 23:05:26;100;0;15.69;-4;-20.60;-4.82;516.1;14.80;76148;2835.709;-1758.713;1;13;-70;-79.0;44.4;44.6;13;14.0;28.5;0.0;
15/02/2025 23:05:46;100;0;14.26;-4;-20.58;-4.74;518.7;14.80;76143;2835.713;-1758.712;1;13;-70;-79.0;44.4;44.6;13;14.0;28.5;0.0;
15/02/2025 23:06:06;100;0;14.68;-4;-20.81;-4.85;521.3;14.70;76137;2835.716;-1758.711;1;13;-70;-79.0;44.4;44.6;13;14.0;28.5;0.0;
15/02/2025 23:06:26;100;0;14.74;-4;-20.36;-4.81;524.0;14.70;76132;2835.720;-1758.711;1;13;-70;-79.0;44.4;44.6;13;14.0;28.5;0.0;
15/02/2025 23:06:46;100;0;16.29;-4;-20.10;-4.80;526.5;14.70;76134;2835.723;-1758.710;1;13;-70;-79.0;44.4;44.5;13;14.0;28.5;0.0;
15/02/2025 23:07:06;100;0;16.94;-4;-20.02;-4.87;529.1;14.70;76121;2835.726;-1758.709;1;13;-70;-79.0;44.4;44.6;13;14.0;28.5;0.0;
15/02/2025 23:07:26;100;0;15.44;-4;-20.17;-4.78;531.5;14.60;76119;2835.729;-1758.708;1;13;-70;-79.0;44.4;44.6;13;14.0;28.5;0.0;
15/02/2025 23:07:46;100;0;17.90;-4;-19.87;-4.79;533.8;14.60;76118;2835.732;-1758.708;1;13;-70;-79.0;44.4;44.6;13;14.0;28.5;0.0;
15/02/2025 23:08:06;100;0;18.46;-4;-19.88;-4.63;536.1;14.60;76108;2835.736;-1758.707;1;13;-70;-79.0;44.4;44.6;13;14.0;28.5;0.0;
15/02/2025 23:08:26;100;0;20.33;-4;-19.56;-4.90;538.3;14.60;76103;2835.738;-1758.706;1;13;-70;-79.0;44.4;44.6;13;14.0;28.5;0.0;
15/02/2025 23:08:46;100;0;20.29;-4;-20.15;-4.95;540.5;14.50;76105;2835.741;-1758.705;1;13;-70;-79.0;44.4;44.6;13;14.0;28.5;0.0;
15/02/2025 23:09:06;100;0;20.98;-4;-19.64;-4.69;542.8;14.50;76098;2835.744;-1758.704;1;13;-70;-79.0;44.4;44.6;13;14.0;28.5;0.0;
15/02/2025 23:09:26;100;0;22.07;-4;-20.06;-4.81;545.1;14.50;76093;2835.747;-1758.703;1;13;-70;-79.0;44.4;44.6;13;14.0;28.5;0.0;
15/02/2025 23:09:46;100;0;21.74;-4;-20.17;-4.80;547.3;14.50;76085;2835.750;-1758.702;1;13;-70;-79.0;44.4;44.5;13;14.0;28.5;0.0;
15/02/2025 23:10:06;100;0;22.09;-4;-20.22;-4.79;549.7;14.40;76081;2835.753;-1758.701;1;13;-70;-79.0;44.4;44.6;13;14.0;28.5;0.0;
15/02/2025 23:10:26;100;0;21.40;-4;-20.00;-4.82;552.0;14.40;76090;2835.756;-1758.700;1;13;-70;-77.4;44.4;44.6;13;14.0;28.5;0.0;
15/02/2025 23:10:46;100;0;22.63;-4;-19.85;-4.79;554.3;14.40;76080;2835.759;-1758.699;1;13;-70;-79.0;44.4;44.5;13;14.0;28.5;0.0;
15/02/2025 23:11:06;100;0;24.10;-4;-19.82;-4.75;556.5;14.40;76068;2835.762;-1758.698;1;12;-70;-79.0;44.4;44.6;13;14.0;28.5;0.0;
15/02/2025 23:11:26;100;0;23.72;-4;-19.80;-4.76;558.6;14.40;76063;2835.765;-1758.697;1;12;-70;-79.0;44.4;44.6;13;14.0;28.5;0.0;
15/02/2025 23:11:46;100;0;22.85;-4;-19.76;-4.76;560.7;14.30;76059;2835.767;-1758.696;1;12;-70;-79.0;44.4;44.6;13;14.0;28.5;0.0;
15/02/2025 23:12:06;100;0;22.42;-4;-19.79;-4.77;562.7;14.30;76062;2835.770;-1758.695;1;12;-90;-90.3;44.4;44.6;13;14.0;28.5;0.0;
15/02/2025 23:12:26;100;0;24.94;-4;-20.36;-4.82;564.7;14.30;76076;2835.772;-1758.695;1;12;-110;-111.3;44.4;44.6;13;14.0;28.5;0.0;
15/02/2025 23:12:46;100;0;22.35;-4;-20.04;-4.57;567.0;14.30;76111;2835.775;-1758.693;1;12;-110;-111.3;44.4;44.6;13;14.0;28.5;0.0;
15/02/2025 23:13:06;100;0;22.15;-4;-19.89;-4.70;569.4;14.20;76103;2835.778;-1758.692;1;12;-110;-112.9;44.4;44.6;13;14.0;28.5;0.0;
15/02/2025 23:13:26;100;0;20.78;-4;-19.95;-4.43;571.7;14.20;76107;2835.781;-1758.691;1;12;-110;-114.5;44.4;44.6;13;14.0;28.5;0.0;
15/02/2025 23:13:46;100;0;20.48;-4;-19.78;-4.57;574.0;14.20;76100;2835.784;-1758.691;1;12;-110;-116.1;44.4;44.6;13;14.0;28.5;0.0;
15/02/2025 23:14:06;100;0;19.61;-4;-20.00;-4.76;576.3;14.20;76099;2835.787;-1758.690;1;12;-110;-119.4;44.4;44.6;13;14.0;28.5;0.0;
15/02/2025 23:14:26;100;0;18.31;-4;-20.09;-4.44;578.6;14.10;76095;2835.790;-1758.689;1;12;-110;-114.5;44.4;44.6;13;14.0;28.5;0.0;
15/02/2025 23:14:46;100;0;17.80;-4;-20.00;-4.64;581.0;14.10;76095;2835.794;-1758.688;1;12;-110;-116.1;44.4;44.6;13;14.0;28.5;0.0;
15/02/2025 23:15:06;100;0;17.36;-4;-20.20;-4.53;583.4;14.10;76097;2835.797;-1758.687;1;12;-110;-116.1;44.4;44.6;13;14.0;28.5;0.0;
15/02/2025 23:15:26;100;0;17.14;-4;-20.34;-4.55;585.8;14.10;76084;2835.800;-1758.687;1;12;-110;-116.1;44.4;44.6;13;14.0;28.5;0.0;
15/02/2025 23:15:46;100;0;15.22;-4;-20.43;-4.64;588.4;14.10;76084;2835.803;-1758.686;1;12;-110;-116.1;44.4;44.6;13;14.0;28.5;0.0;
15/02/2025 23:16:06;100;0;12.74;-4;-20.13;-4.60;591.0;14.00;76078;2835.807;-1758.685;1;12;-110;-114.5;44.4;44.6;13;14.0;28.5;0.0;
15/02/2025 23:16:26;100;0;10.47;-4;-20.30;-4.60;593.5;14.00;76079;2835.810;-1758.685;1;12;-110;-116.1;44.4;44.6;13;14.0;28.5;0.0;
15/02/2025 23:16:46;100;0;9.02;-4;-20.18;-4.64;596.1;14.00;76057;2835.814;-1758.685;1;12;-110;-117.7;44.4;44.6;11;10.8;28.5;0.0;
15/02/2025 23:17:06;100;0;7.97;-4;-19.55;-6.28;598.6;14.00;76064;2835.817;-1758.684;1;12;-110;-116.1;44.4;44.6;11;10.8;28.5;0.0;
15/02/2025 23:17:26;100;0;10.93;-4;-19.27;-6.35;600.9;13.90;76058;2835.820;-1758.684;1;13;-110;-116.1;44.4;44.6;11;10.8;28.5;0.0;
15/02/2025 23:17:46;100;0;13.46;-4;-19.44;-6.34;603.2;13.90;76044;2835.823;-1758.683;1;13;-110;-116.1;44.4;44.6;13;13.5;28.5;0.0;
15/02/2025 23:18:06;100;0;14.31;-4;-19.84;-4.66;605.5;13.90;76043;2835.827;-1758.683;1;13;-110;-116.1;44.4;44.6;13;14.0;28.5;0.0;
15/02/2025 23:18:26;100;0;13.65;-4;-19.12;-4.69;607.9;13.90;76038;2835.830;-1758.682;1;13;-110;-114.5;44.4;44.6;13;14.0;28.5;0.0;
15/02/2025 23:18:46;100;0;13.73;-4;-19.37;-4.79;610.2;13.80;76034;2835.833;-1758.682;1;13;-110;-114.5;44.4;44.6;13;14.0;28.5;0.0;
15/02/2025 23:19:06;100;0;14.11;-4;-19.61;-4.96;612.7;13.80;76029;2835.836;-1758.681;1;13;-110;-117.7;44.4;44.6;13;14.0;28.5;0.0;
15/02/2025 23:19:26;100;0;14.70;-4;-19.26;-4.79;615.0;13.80;76017;2835.840;-1758.680;1;13;-110;-116.1;44.4;44.6;13;14.0;28.5;0.0;
15/02/2025 23:19:46;100;0;18.98;-4;-19.41;-4.76;617.5;13.80;76009;2835.843;-1758.679;1;13;-110;-116.1;44.4;44.6;13;13.5;28.5;0.0;
15/02/2025 23:20:06;100;0;22.69;-4;-19.23;-4.71;620.0;13.70;76011;2835.846;-1758.678;1;13;-110;-116.1;44.4;44.6;13;14.0;28.5;0.0;
15/02/2025 23:20:26;100;0;23.49;-4;-19.63;-4.75;622.5;13.70;75986;2835.849;-1758.677;1;13;-110;-116.1;44.4;44.6;13;14.0;28.5;0.0;
15/02/2025 23:20:46;100;0;24.77;-4;-19.62;-4.85;625.1;13.70;75992;2835.853;-1758.676;1;13;-110;-116.1;44.4;44.6;13;14.0;28.5;0.0;
15/02/2025 23:21:06;100;0;25.18;-4;-19.46;-4.69;627.8;13.70;75988;2835.856;-1758.674;1;12;-110;-116.1;44.4;44.6;16;16.2;28.5;0.0;
15/02/2025 23:21:26;100;0;23.61;-4;-19.36;-3.21;630.5;13.60;75981;2835.860;-1758.673;1;12;-110;-116.1;44.4;44.6;16;17.1;28.5;0.0;
15/02/2025 23:21:46;100;0;23.14;-4;-19.93;-3.10;633.4;13.60;75976;2835.863;-1758.672;1;12;-110;-116.1;44.4;44.6;14;14.0;28.5;0.0;
15/02/2025 23:22:06;100;0;21.15;-4;-18.90;-4.39;636.4;13.60;75972;2835.867;-1758.670;1;12;-110;-116.1;44.7;44.8;14;14.4;28.5;0.0;
15/02/2025 23:22:26;100;0;22.66;-4;-20.48;-4.37;639.3;13.60;75959;2835.871;-1758.669;1;12;-110;-114.5;44.7;44.9;14;14.4;28.5;0.0;
15/02/2025 23:22:46;100;0;24.63;-4;-19.56;-4.28;642.3;13.60;75968;2835.875;-1758.667;1;12;-110;-116.1;44.7;45.1;14;14.4;28.5;0.0;
15/02/2025 23:23:06;100;0;24.59;-4;-20.39;-4.46;645.3;13.50;75969;2835.878;-1758.666;1;12;-110;-116.1;44.7;44.9;14;14.4;28.5;0.0;
15/02/2025 23:23:26;100;0;24.68;-4;-20.92;-4.88;648.6;13.50;75959;2835.882;-1758.664;1;12;-110;-116.1;44.7;45.1;14;14.4;28.5;0.0;
15/02/2025 23:23:46;100;0;22.98;-4;-19.83;-4.46;652.0;13.50;75953;2835.887;-1758.662;1;12;-110;-116.1;44.7;44.9;14;14.4;28.5;0.0;
15/02/2025 23:24:06;100;0;21.19;-4;-20.01;-4.46;655.2;13.50;75947;2835.891;-1758.661;1;12;-110;-116.1;44.7;44.9;14;14.4;28.5;0.0;
15/02/2025 23:24:26;100;0;25.79;-4;-19.79;-4.31;658.4;13.50;75948;2835.894;-1758.659;1;12;-110;-116.1;44.7;45.1;16;15.8;28.5;0.0;
15/02/2025 23:24:46;100;0;20.95;-4;-20.78;-3.34;661.5;13.40;75942;2835.898;-1758.658;1;12;-110;-114.5;44.7;45.1;14;14.0;28.5;0.0;
15/02/2025 23:25:06;100;0;24.26;-4;-20.40;-4.41;664.8;13.40;75931;2835.902;-1758.656;1;12;-110;-116.1;44.7;44.9;14;14.4;28.5;0.0;
15/02/2025 23:25:26;100;0;26.08;-4;-20.69;-4.58;667.9;13.40;75921;2835.906;-1758.655;1;12;-110;-116.1;44.7;45.1;17;17.6;28.5;0.0;
15/02/2025 23:25:46;100;0;29.37;-4;-20.16;-2.66;670.9;13.30;75906;2835.910;-1758.653;1;12;-110;-116.1;44.7;44.9;20;20.3;28.5;0.0;
15/02/2025 23:26:06;100;0;25.57;-4;-20.61;-1.40;673.8;13.30;75892;2835.913;-1758.651;1;12;-110;-116.1;44.7;45.1;16;15.8;28.5;0.0;
15/02/2025 23:26:26;100;0;24.17;-4;-20.93;-3.86;676.8;13.30;75886;2835.917;-1758.650;1;12;-110;-114.5;44.7;45.2;16;15.8;28.5;0.0;
15/02/2025 23:26:46;100;0;22.68;-4;-20.65;-3.64;679.8;13.30;75873;2835.920;-1758.648;1;12;-110;-116.1;44.7;45.1;16;15.8;28.5;0.0;
15/02/2025 23:27:06;100;0;21.25;-4;-20.49;-3.61;682.9;13.30;75883;2835.924;-1758.647;1;12;-110;-116.1;44.7;44.9;14;14.0;28.5;0.0;
15/02/2025 23:27:26;100;0;21.03;-4;-20.83;-4.59;686.1;13.20;75874;2835.928;-1758.646;1;12;-110;-114.5;44.7;44.9;14;14.0;28.5;0.0;
15/02/2025 23:27:46;100;0;18.87;-4;-20.25;-4.55;689.1;13.20;75862;2835.932;-1758.644;1;12;-110;-117.7;44.7;44.9;14;14.0;28.5;0.0;
15/02/2025 23:28:06;100;0;19.88;-4;-20.35;-4.53;692.1;13.20;75849;2835.936;-1758.643;1;12;-110;-117.7;44.7;44.9;14;14.4;28.5;0.0;
15/02/2025 23:28:26;100;0;20.00;-4;-20.08;-4.62;695.2;13.10;75834;2835.940;-1758.642;1;12;-110;-117.7;44.7;45.1;14;14.0;28.5;0.0;
15/02/2025 23:28:46;100;0;18.24;-4;-20.08;-4.51;698.1;13.10;75840;2835.944;-1758.641;1;12;-110;-116.1;44.7;45.1;14;14.0;28.5;0.0;
15/02/2025 23:29:06;100;0;14.54;-4;-20.11;-4.63;701.0;13.10;75833;2835.947;-1758.640;1;12;-110;-116.1;44.7;45.1;14;14.4;28.5;0.0;
15/02/2025 23:29:26;100;0;12.14;-4;-19.92;-4.52;703.9;13.10;75839;2835.951;-1758.639;1;12;-110;-116.1;44.7;45.1;14;14.0;28.5;0.0;
15/02/2025 23:29:46;100;0;10.97;-4;-20.24;-4.57;706.7;13.00;75827;2835.955;-1758.639;1;12;-110;-116.1;44.7;45.1;14;14.0;28.5;0.0;
15/02/2025 23:30:06;100;0;9.71;-4;-20.14;-4.58;709.6;13.00;75816;2835.959;-1758.639;1;12;-110;-116.1;44.7;44.9;14;14.4;28.5;0.0;
15/02/2025 23:30:26;100;0;9.98;-4;-19.97;-4.54;712.5;13.00;75816;2835.963;-1758.638;1;12;-110;-116.1;44.7;44.9;14;14.0;28.5;0.0;
15/02/2025 23:30:46;100;0;11.01;-4;-19.95;-4.60;715.3;13.00;75803;2835.967;-1758.638;1;12;-110;-117.7;44.7;44.9;14;14.4;28.5;0.0;
15/02/2025 23:31:06;100;0;11.74;-4;-19.85;-4.51;718.1;13.00;75807;2835.970;-1758.637;1;12;-110;-116.1;44.7;44.9;14;14.4;28.5;0.0;
15/02/2025 23:31:26;100;0;12.23;-4;-19.86;-4.63;720.8;12.90;75803;2835.974;-1758.636;1;12;-110;-114.5;44.7;44.9;14;14.0;28.5;0.0;
15/02/2025 23:31:46;100;0;11.74;-4;-19.86;-4.64;723.5;12.90;75798;2835.978;-1758.636;1;12;-110;-119.4;44.7;45.1;14;14.4;28.5;0.0;
15/02/2025 23:32:06;100;0;12.14;-4;-19.82;-4.57;726.1;12.90;75793;2835.981;-1758.635;1;12;-110;-116.1;44.7;45.1;14;14.4;28.5;0.0;
15/02/2025 23:32:26;100;0;12.91;-4;-19.85;-4.64;728.8;12.90;75791;2835.985;-1758.635;1;12;-110;-116.1;44.7;45.1;14;14.4;28.5;0.0;
15/02/2025 23:32:46;100;0;12.54;-4;-19.95;-4.59;731.5;12.80;75782;2835.988;-1758.634;1;12;-110;-116.1;44.7;45.1;14;14.0;28.5;0.0;
15/02/2025 23:33:06;100;0;13.06;-4;-19.87;-4.61;734.2;12.80;75780;2835.992;-1758.633;1;12;-110;-116.1;44.7;45.1;14;14.0;28.5;0.0;
15/02/2025 23:33:26;100;0;15.33;-4;-19.97;-4.63;736.9;12.80;75775;2835.995;-1758.633;1;12;-110;-116.1;44.7;45.1;14;14.4;28.5;0.0;
15/02/2025 23:33:46;100;0;17.15;-4;-20.24;-4.52;739.6;12.80;75766;2835.999;-1758.632;1;12;-110;-116.1;44.7;45.1;14;14.0;28.5;0.0;
15/02/2025 23:34:06;100;0;17.37;-4;-20.27;-4.60;742.5;12.70;75756;2836.003;-1758.631;1;12;-110;-116.1;44.7;44.9;14;14.0;28.5;0.0;
15/02/2025 23:34:26;100;0;16.55;-4;-20.14;-4.51;745.3;12.70;75748;2836.006;-1758.630;1;12;-110;-116.1;44.7;44.9;14;14.0;28.5;0.0;
15/02/2025 23:34:46;100;0;17.74;-4;-20.01;-4.62;748.1;12.70;75745;2836.010;-1758.629;1;12;-110;-116.1;44.7;45.1;14;14.4;28.5;0.0;
15/02/2025 23:35:06;100;0;19.11;-4;-20.45;-4.52;750.9;12.70;75738;2836.014;-1758.628;1;12;-110;-114.5;44.7;45.1;14;14.0;28.5;0.0;
15/02/2025 23:35:26;100;0;21.18;-4;-20.55;-4.55;753.8;12.60;75737;2836.017;-1758.627;1;12;-110;-117.7;44.7;45.1;14;14.4;28.5;0.0;
15/02/2025 23:35:46;100;0;20.61;-4;-19.91;-4.32;756.7;12.60;75728;2836.021;-1758.625;1;12;-110;-116.1;44.7;45.1;14;14.0;28.5;0.0;
15/02/2025 23:36:06;100;0;20.00;-4;-20.07;-4.32;759.4;12.60;75712;2836.024;-1758.624;1;12;-110;-117.7;44.7;45.1;14;14.0;28.5;0.0;
15/02/2025 23:36:26;100;0;18.96;-4;-19.98;-4.58;762.1;12.60;75704;2836.028;-1758.623;1;12;-110;-117.7;44.7;45.1;14;14.4;28.5;0.0;
15/02/2025 23:36:46;100;0;20.77;-4;-20.02;-4.67;764.9;12.50;75711;2836.032;-1758.622;1;12;-110;-116.1;44.7;45.1;14;14.0;28.5;0.0;
15/02/2025 23:37:07;100;0;18.39;-4;-20.31;-4.63;767.6;12.50;75720;2836.035;-1758.621;1;12;-110;-116.1;44.7;44.9;14;14.0;28.5;0.0;
15/02/2025 23:37:27;100;0;16.62;-4;-20.35;-4.58;770.6;12.50;75705;2836.039;-1758.620;1;12;-110;-116.1;44.7;44.9;14;14.4;28.5;0.0;
15/02/2025 23:37:47;100;0;16.05;-4;-19.84;-4.60;773.4;12.50;75705;2836.043;-1758.619;1;12;-110;-116.1;44.7;44.9;14;14.4;28.5;0.0;
15/02/2025 23:38:07;100;0;15.52;-4;-19.99;-4.63;776.3;12.50;75693;2836.046;-1758.618;1;12;-110;-116.1;44.7;44.9;14;14.4;28.5;0.0;
15/02/2025 23:38:27;100;0;15.92;-4;-19.79;-4.49;779.2;12.40;75692;2836.050;-1758.618;1;12;-110;-116.1;44.7;45.1;14;14.4;28.5;0.0;
15/02/2025 23:38:47;100;0;15.13;-4;-19.35;-4.71;782.0;12.40;75688;2836.054;-1758.617;1;12;-110;-116.1;44.7;45.1;14;14.4;28.5;0.0;
15/02/2025 23:39:07;100;0;14.34;-4;-19.74;-4.73;784.7;12.40;75683;2836.058;-1758.616;1;12;-110;-116.1;44.7;45.1;14;14.4;28.5;0.0;
15/02/2025 23:39:27;100;0;13.96;-4;-19.70;-4.70;787.5;12.40;75688;2836.061;-1758.615;1;12;-110;-116.1;44.7;44.9;14;14.0;28.5;0.0;
15/02/2025 23:39:47;100;0;14.79;-4;-19.48;-4.54;790.3;12.30;75671;2836.065;-1758.615;1;12;-110;-116.1;44.7;45.1;14;14.4;28.5;0.0;
15/02/2025 23:40:07;100;0;15.53;-4;-19.15;-4.53;792.9;12.30;75673;2836.069;-1758.614;1;12;-110;-117.7;44.7;44.9;14;14.4;28.5;0.0;
15/02/2025 23:40:27;100;0;14.87;-4;-19.86;-4.72;795.5;12.30;75663;2836.072;-1758.613;1;12;-110;-116.1;44.7;45.1;14;14.0;28.5;0.0;
15/02/2025 23:40:47;100;0;15.26;-4;-19.45;-4.63;798.2;12.30;75669;2836.076;-1758.612;1;12;-110;-116.1;44.7;45.1;14;14.4;28.5;0.0;
15/02/2025 23:41:07;100;0;15.44;-4;-19.84;-4.62;800.7;12.30;75658;2836.079;-1758.611;1;12;-110;-117.7;44.7;45.1;14;14.4;28.5;0.0;
15/02/2025 23:41:27;100;0;15.36;-4;-19.69;-4.64;803.3;12.30;75654;2836.083;-1758.611;1;12;-110;-116.1;44.7;45.1;14;14.0;28.5;0.0;
15/02/2025 23:41:47;100;0;17.07;-4;-19.68;-4.59;805.9;12.20;75644;2836.086;-1758.610;1;12;-110;-114.5;44.7;44.9;14;14.0;28.5;0.0;
15/02/2025 23:42:07;100;0;17.12;-4;-19.87;-4.61;808.5;12.20;75634;2836.089;-1758.609;1;12;-110;-116.1;44.7;45.1;14;14.4;28.5;0.0;
15/02/2025 23:42:27;100;0;14.30;-4;-19.88;-4.63;811.0;12.20;75632;2836.093;-1758.608;1;12;-110;-116.1;44.7;45.1;14;14.4;28.5;0.0;
15/02/2025 23:42:47;100;0;9.74;-4;-19.68;-4.72;813.6;12.10;75632;2836.096;-1758.608;1;12;-110;-117.7;44.7;45.1;12;11.7;28.5;0.0;
15/02/2025 23:43:07;100;0;10.92;-4;-19.16;-5.95;816.4;12.10;75622;2836.100;-1758.608;1;12;-110;-116.1;44.7;44.9;12;11.7;28.5;0.0;
15/02/2025 23:43:27;100;0;7.99;-4;-19.79;-6.11;819.1;12.10;75620;2836.104;-1758.607;1;12;-110;-116.1;44.7;44.9;12;11.7;28.5;0.0;
15/02/2025 23:43:47;100;0;3.32;-4;-20.04;-5.98;822.0;12.10;75599;2836.108;-1758.607;1;12;-110;-116.1;44.7;44.9;8;8.1;28.5;0.0;
15/02/2025 23:44:07;100;0;2.38;-4;-19.61;-7.72;824.9;12.10;75595;2836.112;-1758.607;1;12;-110;-116.1;44.7;44.9;6;5.9;28.5;0.0;
15/02/2025 23:44:27;100;0;5.29;-4;-19.13;-9.14;827.6;12.00;75601;2836.115;-1758.607;1;12;-110;-116.1;44.7;45.1;10;9.9;28.5;0.0;
15/02/2025 23:44:47;100;0;8.18;-4;-19.38;-6.42;830.4;12.00;75605;2836.119;-1758.607;1;12;-110;-116.1;44.7;45.1;12;12.2;28.5;0.0;
15/02/2025 23:45:07;100;0;10.19;-4;-19.54;-5.27;833.3;12.00;75581;2836.123;-1758.606;1;12;-110;-117.7;44.7;45.1;12;13.1;28.5;0.0;
15/02/2025 23:45:27;100;0;10.94;-4;-19.14;-5.33;836.2;12.00;75585;2836.127;-1758.606;1;12;-110;-116.1;44.7;44.9;12;12.6;28.5;0.0;
15/02/2025 23:45:47;100;0;11.24;-4;-19.41;-5.37;838.9;11.90;75568;2836.131;-1758.605;1;13;-110;-116.1;44.7;44.9;12;13.1;28.5;0.0;
15/02/2025 23:46:07;100;0;14.41;-4;-19.65;-5.20;841.7;11.90;75566;2836.135;-1758.605;1;13;-110;-116.1;44.7;45.1;12;12.6;28.5;0.0;
15/02/2025 23:46:27;100;0;18.12;-4;-19.22;-5.17;844.5;11.90;75550;2836.138;-1758.604;1;13;-110;-116.1;44.7;45.1;12;13.1;28.5;0.0;
15/02/2025 23:46:47;100;0;22.98;-4;-19.29;-5.26;847.3;11.90;75542;2836.142;-1758.602;1;12;-110;-117.7;44.7;45.1;14;14.0;28.5;0.0;
15/02/2025 23:47:07;100;0;22.71;-4;-20.16;-4.60;850.1;11.80;75524;2836.146;-1758.601;1;12;-110;-116.1;44.7;45.1;14;14.4;28.5;0.0;
15/02/2025 23:47:27;100;0;20.64;-4;-19.12;-4.63;853.1;11.80;75514;2836.150;-1758.600;1;12;-110;-116.1;44.7;45.1;14;14.0;28.5;0.0;
15/02/2025 23:47:47;100;0;20.80;-4;-19.03;-4.56;856.0;11.80;75508;2836.153;-1758.598;1;12;-110;-117.7;44.7;45.1;14;14.4;28.5;0.0;
15/02/2025 23:48:07;100;0;21.09;-4;-19.34;-4.65;858.8;11.80;75502;2836.157;-1758.597;1;12;-110;-116.1;44.7;45.1;14;14.4;28.5;0.0;
15/02/2025 23:48:27;100;0;21.27;-4;-19.04;-4.64;861.6;11.70;75492;2836.161;-1758.596;1;12;-110;-116.1;44.7;44.9;14;14.4;28.5;0.0;
15/02/2025 23:48:47;100;0;18.77;-4;-19.40;-4.50;864.3;11.70;75492;2836.164;-1758.595;1;12;-110;-116.1;44.7;45.1;14;14.0;28.5;0.0;
15/02/2025 23:49:07;100;0;18.11;-4;-18.75;-4.53;867.0;11.70;75476;2836.168;-1758.594;1;12;-110;-116.1;45.1;45.1;14;14.4;28.5;0.0;
15/02/2025 23:49:27;100;0;16.69;-4;-17.90;-4.55;869.6;11.70;75480;2836.172;-1758.593;1;12;-110;-116.1;45.7;45.9;14;14.4;28.5;0.0;
15/02/2025 23:49:47;100;0;15.99;-4;-21.44;-4.50;871.8;11.60;75470;2836.175;-1758.592;1;12;-110;-116.1;45.7;46.2;14;14.0;28.5;0.0;
15/02/2025 23:50:07;100;0;16.59;-4;-22.29;-4.71;874.5;11.60;75467;2836.178;-1758.591;1;12;-110;-116.1;45.0;44.9;14;14.4;28.5;0.0;
15/02/2025 23:50:27;100;0;15.93;-4;-20.00;-4.71;877.3;11.60;75459;2836.181;-1758.591;1;12;-110;-114.5;45.0;44.8;14;14.0;28.5;0.0;
15/02/2025 23:50:47;100;0;16.41;-4;-20.15;-4.77;879.9;11.60;75452;2836.185;-1758.590;1;12;-110;-119.4;45.0;44.8;14;14.4;28.5;0.0;
15/02/2025 23:51:07;100;0;15.05;-4;-18.70;-4.55;882.5;11.50;75459;2836.188;-1758.589;1;12;-110;-116.1;45.4;45.5;14;14.0;28.5;0.0;
15/02/2025 23:51:27;100;0;14.24;-4;-20.11;-4.60;884.7;11.50;75457;2836.191;-1758.588;1;12;-110;-116.1;45.4;45.7;14;14.4;28.5;0.0;
15/02/2025 23:51:47;100;0;11.42;-4;-20.95;-4.50;887.1;11.50;75447;2836.195;-1758.588;1;12;-110;-116.1;45.4;45.8;12;12.2;28.5;0.0;
15/02/2025 23:52:07;100;0;8.88;-4;-20.62;-5.52;889.6;11.40;75432;2836.198;-1758.588;1;12;-110;-116.1;45.4;45.8;12;12.2;28.5;0.0;
15/02/2025 23:52:27;100;0;14.58;-4;-20.06;-5.36;892.3;11.40;75447;2836.201;-1758.587;1;12;-110;-116.1;45.4;45.8;12;12.2;28.5;0.0;
15/02/2025 23:52:47;100;0;9.67;-4;-20.51;-6.09;894.9;11.40;75435;2836.205;-1758.587;1;13;-110;-116.1;45.4;45.7;12;12.2;28.5;0.0;
15/02/2025 23:53:07;100;0;8.32;-4;-21.09;-5.54;897.3;11.40;75430;2836.208;-1758.586;1;13;-110;-116.1;45.4;45.8;10;9.5;28.5;0.0;
15/02/2025 23:53:27;100;0;10.86;-4;-21.07;-6.82;899.6;11.40;75418;2836.211;-1758.586;1;13;-110;-116.1;45.4;45.8;10;9.5;28.5;0.0;
15/02/2025 23:53:47;100;0;13.65;-4;-20.58;-6.95;901.9;11.30;75420;2836.214;-1758.586;1;13;-110;-116.1;45.4;45.8;13;13.1;28.5;0.0;
15/02/2025 23:54:07;100;0;15.47;-4;-20.01;-4.91;904.1;11.30;75408;2836.217;-1758.585;1;13;-110;-116.1;45.4;45.7;13;13.5;28.5;0.0;
15/02/2025 23:54:27;100;0;18.40;-4;-20.70;-4.97;906.0;11.30;75407;2836.219;-1758.584;1;13;-130;-132.3;45.4;45.8;13;13.5;28.5;0.0;
15/02/2025 23:54:47;100;0;19.87;-4;-22.14;-4.85;908.3;11.30;75445;2836.222;-1758.584;1;13;-130;-133.9;44.8;44.8;13;13.5;28.5;0.0;
15/02/2025 23:55:07;100;0;20.10;-4;-19.50;-4.69;911.0;11.20;75435;2836.226;-1758.583;1;13;-130;-132.3;44.8;44.6;13;13.5;28.5;0.0;
15/02/2025 23:55:27;100;0;21.75;-4;-16.82;-4.24;913.3;11.20;75434;2836.229;-1758.581;1;13;-130;-132.3;45.8;45.8;13;13.5;28.5;0.0;
15/02/2025 23:55:47;100;0;23.28;-4;-21.79;-4.87;915.8;11.20;75440;2836.232;-1758.580;1;13;-130;-133.9;45.8;46.1;13;13.5;28.5;0.0;
15/02/2025 23:56:07;100;0;24.07;-4;-20.98;-4.94;918.6;11.20;75425;2836.235;-1758.579;1;13;-130;-133.9;45.8;46.1;13;13.5;28.5;0.0;
15/02/2025 23:56:27;100;0;23.52;-4;-19.85;-5.09;921.2;11.20;75431;2836.239;-1758.578;1;12;-130;-133.9;45.8;46.1;13;13.5;28.5;0.0;
15/02/2025 23:56:47;100;0;23.10;-4;-21.59;-4.78;923.9;11.10;75413;2836.242;-1758.577;1;12;-130;-135.5;45.8;46.1;13;13.5;28.5;43.5;
15/02/2025 23:57:07;100;0;23.34;-4;-20.06;-5.33;926.7;11.10;75412;2836.245;-1758.575;1;12;-130;-135.5;45.8;46.1;15;14.9;28.5;39.3;
15/02/2025 23:57:27;100;0;21.01;-4;-22.61;-4.60;929.2;11.10;75412;2836.248;-1758.574;1;12;-130;-135.5;45.0;44.9;13;12.6;28.5;35.8;
15/02/2025 23:57:47;100;0;20.98;-4;-20.68;-5.50;931.8;11.10;75419;2836.251;-1758.573;1;12;-130;-135.5;45.0;44.8;13;12.6;28.5;31.9;
15/02/2025 23:57:54;118;0;21.36;-4;-22.11;-5.09;932.8;11.10;75411;2836.253;-1758.573;1;12;150;-132.3;34.0;34.0;9;8.6;28.5;30.6;
15/02/2025 23:58:04;118;0;66.58;-4;-10.99;-7.89;934.1;11.00;75390;2836.254;-1758.571;1;12;150;-8.1;34.0;33.7;9;8.6;27.2;-1.0;
15/02/2025 23:58:14;118;0;64.29;-4;-0.75;-8.00;934.7;11.00;75124;2836.254;-1758.571;1;12;150;116.1;34.0;33.6;9;8.6;27.3;-1.0;
15/02/2025 23:58:24;118;0;61.76;-4;3.00;-8.35;934.8;11.00;74870;2836.254;-1758.571;1;12;150;153.2;34.0;33.6;9;8.6;27.2;-1.0;
15/02/2025 23:58:34;118;0;18.42;-4;4.12;-8.38;934.3;11.00;74811;2836.254;-1758.571;1;12;150;153.2;34.0;33.4;9;8.6;28.4;-1.0;
15/02/2025 23:58:54;117;0;18.75;-4;0.94;-8.34;933.4;11.00;74808;2836.255;-1758.571;1;12;150;153.2;34.0;33.6;9;8.6;28.5;-1.0;
15/02/2025 23:59:14;117;0;6.32;-4;1.31;-8.19;932.4;11.00;74816;2836.256;-1758.571;1;12;150;153.2;28.4;28.3;70;69.9;28.4;-1.0;
15/02/2025 23:59:34;117;0;0.91;-4;18.92;25.26;931.3;11.00;74813;2836.258;-1758.571;1;12;150;153.2;28.1;28.1;54;54.2;28.5;-1.0;
15/02/2025 23:59:54;117;0;16.04;-4;18.31;14.93;929.9;11.00;74809;2836.260;-1758.571;1;12;150;153.2;27.6;27.1;32;32.0;28.5;-1.0;
16/02/2025 00:00:14;117;0;12.14;-4;22.02;3.97;928.3;11.00;74805;2836.262;-1758.571;1;12;150;153.2;28.2;28.1;32;31.6;28.5;-1.0;
16/02/2025 00:00:34;117;0;8.89;-4;18.62;4.25;926.4;11.00;74791;2836.264;-1758.571;1;12;150;154.8;27.8;27.5;34;33.8;28.5;-1.0;
16/02/2025 00:00:54;117;0;11.63;-4;21.21;5.11;924.5;11.00;74792;2836.267;-1758.570;1;12;150;154.8;27.8;26.8;34;34.3;28.5;-1.0;
16/02/2025 00:01:14;117;0;13.50;-4;22.64;5.09;922.4;10.90;74785;2836.270;-1758.570;1;12;150;154.8;28.5;28.6;34;34.3;28.4;-1.0;
16/02/2025 00:01:34;117;0;12.95;-4;19.25;5.00;920.4;10.90;74789;2836.272;-1758.570;1;13;150;154.8;28.5;28.9;32;32.0;28.5;-1.0;
16/02/2025 00:01:54;117;0;12.85;-4;16.70;4.00;918.6;10.90;74790;2836.275;-1758.569;1;13;150;154.8;27.6;27.4;32;32.0;28.5;-1.0;
16/02/2025 00:02:14;117;0;10.85;-4;21.55;3.88;916.9;10.90;74788;2836.277;-1758.569;1;13;150;154.8;27.6;27.7;35;35.2;28.5;-1.0;
16/02/2025 00:02:34;117;0;12.81;-4;18.74;6.00;915.1;10.90;74774;2836.280;-1758.569;1;13;150;153.2;27.2;27.4;33;32.9;28.5;-1.0;
16/02/2025 00:02:54;117;0;12.00;-4;19.52;4.64;913.6;10.80;74767;2836.282;-1758.569;1;13;150;153.2;27.2;27.1;35;35.2;28.5;-1.0;
16/02/2025 00:03:14;117;0;12.97;-4;21.05;6.02;912.2;10.80;74777;2836.284;-1758.568;1;13;170;171.0;27.2;27.0;35;35.6;28.5;-1.0;
16/02/2025 00:03:34;117;0;11.56;-4;22.51;6.07;910.6;10.80;74737;2836.286;-1758.568;1;13;190;195.2;27.9;28.1;35;35.6;28.5;-1.0;
16/02/2025 00:03:54;117;0;14.51;-4;19.45;6.10;908.8;10.80;74683;2836.288;-1758.568;1;13;210;212.9;27.9;28.3;33;32.9;28.5;-1.0;
16/02/2025 00:04:14;117;0;16.44;-4;17.91;4.57;906.9;10.80;74647;2836.291;-1758.567;1;13;230;232.3;27.3;27.2;33;32.9;28.5;-1.0;
16/02/2025 00:04:34;117;0;14.75;-4;19.50;4.55;904.8;10.80;74609;2836.294;-1758.567;1;13;230;233.9;27.3;27.1;33;32.9;28.5;-1.0;
16/02/2025 00:04:54;117;0;13.95;-4;18.88;4.54;902.7;10.70;74594;2836.297;-1758.566;1;13;230;232.3;27.0;27.0;33;32.9;28.5;-1.0;
16/02/2025 00:05:14;117;0;14.46;-4;19.39;4.57;900.6;10.80;74599;2836.300;-1758.566;1;13;230;232.3;27.0;27.0;33;32.5;28.5;-1.0;
16/02/2025 00:05:34;117;0;16.06;-4;19.23;4.40;898.2;10.70;74605;2836.303;-1758.565;1;13;230;230.6;27.0;27.0;33;32.9;28.5;-1.0;
16/02/2025 00:05:54;117;0;15.24;-4;18.69;4.44;896.1;10.70;74598;2836.306;-1758.564;1;13;230;232.3;26.6;26.2;33;32.9;28.5;-1.0;
16/02/2025 00:06:14;117;0;16.39;-4;21.37;4.53;894.0;10.70;74582;2836.309;-1758.564;1;13;230;232.3;26.6;25.8;33;32.9;28.5;-1.0;
16/02/2025 00:06:34;117;0;16.51;-4;21.68;4.58;891.6;10.70;74594;2836.312;-1758.563;1;13;230;232.3;26.6;25.8;33;32.5;28.5;-1.0;
16/02/2025 00:06:54;117;0;17.25;-4;22.27;4.30;889.1;10.70;74583;2836.315;-1758.562;1;13;230;232.3;27.3;27.2;33;32.9;28.5;-1.0;
16/02/2025 00:07:14;117;0;18.27;-4;19.67;4.59;886.7;10.70;74585;2836.318;-1758.562;1;13;230;232.3;27.3;27.2;33;32.9;28.5;-1.0;
16/02/2025 00:07:34;117;0;19.14;-4;19.51;4.56;884.3;10.60;74588;2836.321;-1758.561;1;13;230;232.3;27.3;27.2;33;32.9;28.5;-1.0;
16/02/2025 00:07:54;117;0;19.45;-4;19.06;4.70;882.0;10.60;74588;2836.324;-1758.560;1;13;230;232.3;27.3;27.2;33;32.9;28.5;-1.0;
16/02/2025 00:08:14;117;0;19.65;-4;19.02;4.59;879.9;10.60;74574;2836.327;-1758.559;1;13;230;232.3;27.3;27.4;33;32.9;28.5;-1.0;
16/02/2025 00:08:34;117;0;20.70;-4;19.54;4.62;877.7;10.60;74576;2836.330;-1758.558;1;13;230;232.3;27.3;27.4;33;32.5;28.5;-1.0;
16/02/2025 00:08:54;117;0;21.55;-4;19.19;4.60;875.4;10.60;74577;2836.333;-1758.557;1;13;230;232.3;27.3;27.4;33;32.9;28.5;-1.0;
16/02/2025 00:09:14;117;0;22.96;-4;19.20;4.59;873.1;10.60;74577;2836.336;-1758.556;1;13;230;232.3;27.3;27.4;33;32.5;28.5;-1.0;
16/02/2025 00:09:34;117;0;24.13;-4;18.67;4.63;870.9;10.60;74578;2836.339;-1758.555;1;13;230;232.3;26.9;26.8;33;32.5;28.5;-1.0;
16/02/2025 00:09:54;117;0;24.43;-4;19.75;4.42;868.8;10.60;74576;2836.342;-1758.554;1;13;230;232.3;26.9;26.8;33;32.9;28.5;-1.0;
16/02/2025 00:10:14;117;0;25.71;-4;19.90;4.44;866.6;10.60;74576;2836.344;-1758.553;1;13;230;233.9;26.9;26.5;31;31.1;28.5;-1.0;
16/02/2025 00:10:34;117;0;25.26;-4;20.51;3.49;864.4;10.60;74576;2836.347;-1758.552;1;13;230;232.3;26.9;26.4;31;30.7;28.5;-1.0;
16/02/2025 00:10:55;117;0;25.75;-4;20.44;3.33;862.1;10.50;74582;2836.350;-1758.551;1;13;230;232.3;26.9;26.4;31;30.7;28.5;-1.0;
16/02/2025 00:11:15;117;0;25.71;-4;20.50;3.34;859.8;10.50;74565;2836.353;-1758.549;1;13;230;230.6;26.9;26.4;31;30.7;28.5;-1.0;
16/02/2025 00:11:35;117;0;25.85;-4;19.98;3.46;857.6;10.50;74564;2836.356;-1758.548;1;12;230;232.3;26.9;26.4;31;30.7;28.5;-1.0;
16/02/2025 00:11:55;117;0;26.19;-4;20.02;3.44;855.6;10.50;74570;2836.358;-1758.547;1;12;230;232.3;26.9;26.4;31;30.7;28.5;-1.0;
16/02/2025 00:12:15;117;0;26.37;-4;20.30;3.35;853.4;10.50;74571;2836.361;-1758.546;1;12;230;232.3;26.9;26.4;31;30.7;28.5;-1.0;
16/02/2025 00:12:35;117;0;26.87;-4;20.89;3.34;851.5;10.50;74560;2836.363;-1758.545;1;12;250;253.2;26.9;26.4;31;30.7;28.5;-1.0;
16/02/2025 00:12:55;117;0;28.98;-4;20.05;3.22;849.4;10.50;74527;2836.366;-1758.544;1;12;250;251.6;26.9;26.4;28;28.0;28.5;-1.0;
16/02/2025 00:13:15;117;0;29.29;-4;19.84;2.01;847.4;10.50;74526;2836.368;-1758.543;1;12;250;253.2;26.9;26.4;28;28.0;28.5;-1.0;
16/02/2025 00:13:35;117;0;31.34;-4;19.43;1.97;845.3;10.50;74526;2836.371;-1758.541;1;12;250;251.6;26.9;26.4;25;24.8;28.5;-1.0;
16/02/2025 00:13:55;117;0;32.11;-4;20.05;0.22;843.2;10.50;74529;2836.373;-1758.540;1;12;250;253.2;26.9;26.4;25;24.4;28.5;-1.0;
16/02/2025 00:14:15;117;0;30.09;-4;20.21;0.09;840.8;10.50;74521;2836.376;-1758.539;1;12;250;251.6;26.9;26.4;25;24.4;28.5;-1.0;
16/02/2025 00:14:35;117;0;26.70;-4;18.16;0.54;838.5;10.40;74510;2836.379;-1758.537;1;12;250;251.6;26.3;26.4;29;28.9;28.5;-1.0;
16/02/2025 00:14:55;117;0;27.56;-4;19.74;2.84;836.4;10.40;74521;2836.382;-1758.536;1;12;250;253.2;26.3;26.4;29;28.9;28.5;-1.0;
16/02/2025 00:15:15;117;0;26.85;-4;20.04;2.83;834.2;10.40;74514;2836.385;-1758.535;1;12;250;251.6;26.3;26.4;29;29.3;28.5;-1.0;
16/02/2025 00:15:35;117;0;25.99;-4;19.52;2.81;831.8;10.40;74519;2836.388;-1758.534;1;12;250;251.6;26.3;26.4;29;29.3;28.5;-1.0;
16/02/2025 00:15:55;117;0;26.13;-4;19.63;2.78;829.5;10.40;74514;2836.391;-1758.532;1;12;250;251.6;26.3;26.4;29;29.3;28.5;-1.0;
16/02/2025 00:16:15;117;0;26.42;-4;19.89;2.88;827.2;10.40;74512;2836.393;-1758.531;1;12;250;251.6;26.3;26.4;29;29.3;28.5;-1.0;
16/02/2025 00:16:35;117;0;25.93;-4;20.09;2.85;824.8;10.40;74510;2836.396;-1758.530;1;12;250;251.6;26.3;26.2;29;29.3;28.5;-1.0;
16/02/2025 00:16:55;117;0;25.74;-4;19.67;2.86;822.5;10.40;74503;2836.399;-1758.529;1;12;250;250.0;26.3;26.4;29;29.3;28.5;-1.0;
16/02/2025 00:17:15;117;0;25.31;-4;19.40;2.92;820.3;10.40;74508;2836.402;-1758.528;1;12;250;251.6;26.3;26.4;29;29.3;28.5;-1.0;
16/02/2025 00:17:35;117;0;24.62;-4;19.64;2.48;818.0;10.40;74503;2836.405;-1758.526;1;12;250;251.6;26.3;26.4;29;29.3;28.5;-1.0;
16/02/2025 00:17:55;117;0;23.87;-4;19.58;2.95;815.8;10.40;74510;2836.408;-1758.525;1;12;250;250.0;26.3;26.4;29;29.3;28.5;-1.0;
16/02/2025 00:18:15;117;0;23.40;-4;19.40;2.87;813.8;10.40;74509;2836.411;-1758.524;1;12;250;251.6;26.3;26.4;31;31.1;28.5;-1.0;
16/02/2025 00:18:35;117;0;22.28;-4;19.23;3.82;811.8;10.40;74520;2836.413;-1758.524;1;12;270;272.6;26.3;26.4;31;31.1;28.5;-1.0;
16/02/2025 00:18:55;117;0;21.97;-4;18.74;3.77;809.9;10.40;74492;2836.416;-1758.523;1;12;290;293.5;25.9;25.6;31;31.1;28.5;-1.0;
16/02/2025 00:19:15;117;0;21.66;-4;21.03;3.95;807.8;10.40;74443;2836.418;-1758.522;1;12;290;293.5;25.9;25.0;31;31.1;28.5;-1.0;
16/02/2025 00:19:35;117;0;21.94;-4;21.50;3.67;805.6;10.40;74458;2836.421;-1758.521;1;12;290;293.5;25.9;25.2;31;31.1;28.5;-1.0;
16/02/2025 00:19:55;117;0;21.76;-4;21.28;4.04;803.3;10.40;74461;2836.424;-1758.520;1;12;290;293.5;25.9;25.2;31;31.1;28.5;-1.0;
16/02/2025 00:20:15;117;0;22.52;-4;21.61;3.72;800.7;10.40;74467;2836.427;-1758.519;1;12;290;293.5;25.9;25.2;31;31.1;28.5;-1.0;
16/02/2025 00:20:35;117;0;22.94;-4;20.96;4.16;798.3;10.40;74469;2836.430;-1758.518;1;12;290;293.5;25.9;25.0;31;31.1;28.5;-1.0;
16/02/2025 00:20:55;117;0;24.63;-4;20.50;3.92;795.8;10.40;74466;2836.433;-1758.517;1;12;290;291.9;25.9;25.2;31;31.1;28.5;-1.0;
16/02/2025 00:21:15;117;0;25.71;-4;20.92;3.74;793.4;10.40;74472;2836.436;-1758.516;1;12;290;293.5;25.9;25.9;29;28.4;28.5;-1.0;
16/02/2025 00:21:35;117;0;24.29;-4;19.54;2.38;791.3;10.40;74472;2836.439;-1758.515;1;12;290;293.5;25.9;26.1;29;28.0;28.5;-1.0;
16/02/2025 00:21:55;117;0;24.87;-4;19.43;2.23;789.2;10.40;74460;2836.441;-1758.514;1;11;290;291.9;25.9;26.1;29;28.4;28.5;-1.0;
16/02/2025 00:22:15;117;0;25.03;-4;19.67;2.78;787.1;10.40;74475;2836.444;-1758.512;1;11;290;291.9;25.9;26.2;29;28.4;28.5;-1.0;
16/02/2025 00:22:35;117;0;23.24;-4;20.17;2.47;784.8;10.40;74466;2836.447;-1758.511;1;11;290;293.5;25.9;26.1;29;28.4;28.5;-1.0;
16/02/2025 00:22:55;117;0;23.18;-4;19.36;2.33;782.2;10.40;74467;2836.450;-1758.510;1;11;290;293.5;25.9;26.2;29;28.4;28.5;-1.0;
