Timestamp;NavState;SecurityLevel;Heading;Declination;Pitch;Roll;Depth;Temperature;Pa;Lat;Lon;DeadReckoning;DesiredH;BallastCmd;BallastPos;LinCmd;LinPos;AngCmd;AngPos;Voltage;Altitude;
17/02/2025 08:31:01;119;0;147.45;-4;-59.39;-18.55;0.4;19.90;76622;2838.681;-1759.600;0;89;500;508.1;100.0;100.6;0;0.0;28.2;-1.0;
17/02/2025 08:31:11;116;0;135.25;-4;-57.11;0.40;0.0;19.90;76630;2838.683;-1759.602;0;89;500;509.7;100.0;100.6;0;-0.5;28.2;-1.0;
17/02/2025 08:31:36;116;0;107.41;-4;-49.96;-16.30;0.1;20.00;76639;2838.686;-1759.604;0;90;500;509.7;100.0;100.7;0;-0.5;28.1;-1.0;
17/02/2025 08:32:12;116;0;84.35;-4;-63.48;-10.89;0.1;20.00;76635;2838.685;-1759.604;0;-9999;500;509.7;100.0;100.6;0;0.0;28.2;-1.0;
17/02/2025 08:32:34;116;0;73.08;-4;-56.86;6.13;0.2;20.00;76636;2838.686;-1759.607;0;233;500;508.1;100.0;100.6;0;-0.5;28.2;-1.0;
17/02/2025 08:32:45;116;0;73.72;-4;-55.35;-9.60;0.2;20.10;76644;2838.687;-1759.607;0;233;500;509.7;100.0;100.6;0;-0.5;28.2;-1.0;
17/02/2025 08:33:41;116;0;82.09;-4;-55.64;-16.70;0.2;20.20;76647;2838.691;-1759.611;0;233;500;509.7;100.0;100.6;0;-0.5;28.2;-1.0;
17/02/2025 08:34:38;116;0;81.30;-4;-47.50;-10.92;0.2;20.30;76666;2838.694;-1759.615;0;233;500;509.7;100.0;100.6;0;-0.5;28.2;-1.0;
17/02/2025 08:34:49;116;0;90.38;-4;-55.60;-23.89;0.2;20.30;76645;2838.695;-1759.615;0;233;500;508.1;100.0;100.6;0;-0.5;28.2;-1.0;
17/02/2025 08:35:09;110;0;77.82;-4;-55.63;-16.60;0.0;20.40;76662;2838.695;-1759.615;0;233;-50;398.4;100.0;99.9;-12;-12.2;28.2;-1.0;
17/02/2025 08:35:19;110;0;81.48;-4;-54.32;-15.12;0.1;20.40;77020;2838.695;-1759.615;1;233;-50;251.6;100.0;99.9;-12;-12.2;28.2;-1.0;
17/02/2025 08:35:29;110;0;90.27;-4;-57.85;-17.37;0.6;20.40;77242;2838.695;-1759.615;1;233;-50;90.3;100.0;99.9;-12;-12.2;28.2;-1.0;
17/02/2025 08:35:39;110;0;73.81;-4;-72.70;-27.96;1.0;20.50;77592;2838.695;-1759.615;1;233;-50;-50.0;100.0;99.9;-12;-12.2;28.2;-1.0;
17/02/2025 08:35:49;110;0;52.86;-4;-64.03;-30.29;1.3;20.50;77873;2838.695;-1759.615;1;233;-50;-50.0;50.0;49.9;-12;-12.6;28.2;-1.0;
17/02/2025 08:36:09;100;0;70.78;-4;-35.04;-18.42;4.6;20.60;77867;2838.696;-1759.613;1;233;-50;-48.4;50.0;49.6;-12;-12.2;28.2;-1.0;
17/02/2025 08:36:29;100;0;85.85;-4;-32.94;-17.69;8.5;20.60;77854;2838.696;-1759.609;1;233;-50;-46.8;46.1;45.7;-70;-69.9;28.2;-1.0;
17/02/2025 08:36:49;100;0;95.50;-4;-26.83;-44.95;12.0;20.60;77860;2838.696;-1759.606;1;233;-50;-45.2;44.1;44.0;-70;-69.9;28.2;-1.0;
17/02/2025 08:37:09;100;0;107.54;-4;-22.15;-45.01;15.0;20.70;77875;2838.695;-1759.602;1;233;-50;-43.5;43.4;43.4;-70;-69.9;28.2;0.0;
17/02/2025 08:37:29;100;0;119.62;-4;-20.46;-45.60;17.6;20.70;77876;2838.694;-1759.599;1;233;-50;-43.5;43.4;43.3;-70;-69.9;28.2;0.0;
17/02/2025 08:37:49;100;0;129.32;-4;-20.14;-45.64;20.2;20.70;77870;2838.692;-1759.596;1;233;-50;-43.5;43.4;43.3;-70;-69.9;28.2;0.0;
17/02/2025 08:38:09;100;0;141.63;-4;-19.94;-45.52;22.5;20.80;77874;2838.689;-1759.594;1;233;-50;-43.5;43.4;43.3;-70;-69.9;28.2;0.0;
17/02/2025 08:38:29;100;0;152.40;-4;-21.20;-45.29;25.0;20.80;77881;2838.687;-1759.593;1;233;-50;-41.9;43.4;43.3;-70;-69.9;28.2;0.0;
17/02/2025 08:38:49;100;0;164.73;-4;-20.20;-45.45;27.7;20.80;77880;2838.683;-1759.592;1;233;-50;-41.9;43.4;43.3;-68;-68.1;28.2;0.0;
17/02/2025 08:39:09;100;0;177.70;-4;-20.10;-44.44;30.3;20.80;77869;2838.680;-1759.592;1;233;-50;-43.5;43.4;43.3;-52;-51.9;28.2;0.0;
17/02/2025 08:39:29;100;0;190.10;-4;-19.26;-36.05;32.9;20.80;77875;2838.677;-1759.593;1;234;-50;-41.9;43.4;43.3;-38;-37.5;28.2;0.0;
17/02/2025 08:39:49;100;0;203.55;-4;-19.38;-29.16;35.3;20.80;77883;2838.674;-1759.594;1;234;-50;-41.9;43.4;43.3;-19;-18.5;28.2;0.0;
17/02/2025 08:40:09;100;0;212.50;-4;-19.87;-20.00;37.8;20.80;77880;2838.671;-1759.596;1;234;-50;-41.9;43.4;43.3;-4;-3.6;28.2;0.0;
17/02/2025 08:40:29;100;0;216.98;-4;-20.23;-13.06;40.3;20.80;77883;2838.669;-1759.599;1;234;-50;-40.3;43.4;43.3;3;3.2;28.2;0.0;
17/02/2025 08:40:49;100;0;217.63;-4;-21.34;-9.91;42.9;20.80;77889;2838.666;-1759.601;1;234;-50;-41.9;43.4;43.3;3;3.6;28.2;0.0;
17/02/2025 08:41:10;100;0;220.69;-4;-20.67;-9.86;45.6;20.80;77881;2838.664;-1759.604;1;234;-50;-41.9;43.4;43.3;7;7.7;28.2;0.0;
17/02/2025 08:41:30;100;0;218.77;-4;-20.72;-7.81;48.3;20.80;77883;2838.661;-1759.606;1;234;-50;-43.5;43.4;43.3;5;5.0;28.2;0.0;
17/02/2025 08:41:50;100;0;220.61;-4;-21.01;-9.54;51.0;20.80;77886;2838.659;-1759.609;1;234;-50;-41.9;43.4;43.3;7;7.2;28.2;0.0;
17/02/2025 08:42:10;100;0;219.46;-4;-20.70;-7.80;53.9;20.80;77881;2838.656;-1759.612;1;234;-50;-41.9;43.4;43.3;5;4.5;28.2;0.0;
17/02/2025 08:42:30;100;0;219.69;-4;-20.80;-9.65;56.6;20.80;77881;2838.654;-1759.614;1;234;-50;-41.9;43.4;43.3;5;4.5;28.2;0.0;
17/02/2025 08:42:50;100;0;219.62;-4;-20.82;-9.59;59.5;20.70;77869;2838.651;-1759.617;1;234;-50;-41.9;43.4;43.3;5;4.1;28.2;0.0;
17/02/2025 08:43:10;100;0;220.56;-4;-20.57;-9.64;62.3;20.70;77875;2838.649;-1759.620;1;234;-50;-43.5;43.4;43.3;5;4.1;28.2;0.0;
17/02/2025 08:43:30;100;0;221.38;-4;-20.58;-9.58;65.1;20.70;77875;2838.646;-1759.623;1;234;-50;-43.5;43.4;43.3;7;7.2;28.2;0.0;
17/02/2025 08:43:50;100;0;222.29;-4;-21.00;-7.90;68.0;20.70;77869;2838.644;-1759.626;1;234;-50;-41.9;43.4;43.3;7;7.7;28.2;0.0;
17/02/2025 08:44:10;100;0;223.14;-4;-20.67;-7.90;70.9;20.70;77876;2838.641;-1759.629;1;234;-50;-41.9;43.4;43.3;7;7.7;28.2;0.0;
17/02/2025 08:44:30;100;0;223.51;-4;-20.65;-7.95;73.8;20.70;77884;2838.638;-1759.632;1;234;-50;-41.9;43.4;43.4;7;7.7;28.2;0.0;
17/02/2025 08:44:50;100;0;226.84;-4;-20.53;-7.91;76.6;20.70;77873;2838.636;-1759.635;1;234;-50;-41.9;43.4;43.3;9;9.0;28.2;0.0;
17/02/2025 08:45:10;100;0;228.12;-4;-20.76;-6.89;79.6;20.70;77876;2838.634;-1759.638;1;234;-50;-41.9;43.4;43.3;9;9.9;28.2;0.0;
17/02/2025 08:45:30;100;0;230.97;-4;-20.68;-6.74;82.5;20.70;77876;2838.632;-1759.641;1;234;-50;-43.5;43.4;43.3;9;9.9;28.2;0.0;
17/02/2025 08:45:50;100;0;234.04;-4;-20.52;-6.80;85.6;20.70;77876;2838.629;-1759.645;1;234;-50;-41.9;43.4;43.3;9;9.5;28.2;0.0;
17/02/2025 08:46:10;100;0;237.81;-4;-20.42;-6.87;88.5;20.70;77876;2838.627;-1759.649;1;234;-50;-41.9;43.4;43.3;11;10.8;28.2;0.0;
17/02/2025 08:46:30;100;0;240.70;-4;-20.90;-6.12;91.6;20.70;77877;2838.626;-1759.653;1;234;-50;-41.9;43.4;43.3;11;11.3;28.2;0.0;
17/02/2025 08:46:50;100;0;242.82;-4;-20.67;-6.06;94.6;20.70;77883;2838.624;-1759.657;1;234;-50;-43.5;43.4;43.3;14;14.0;28.2;0.0;
17/02/2025 08:47:10;100;0;242.60;-4;-20.84;-4.44;97.7;20.60;77866;2838.622;-1759.661;1;234;-50;-43.5;43.4;43.3;14;14.4;28.2;0.0;
17/02/2025 08:47:30;100;0;244.04;-4;-21.14;-4.46;100.7;20.60;77876;2838.621;-1759.665;1;234;-50;-41.9;43.4;43.3;14;14.4;28.2;0.0;
17/02/2025 08:47:50;100;0;240.50;-4;-20.93;-4.41;103.9;20.60;77868;2838.619;-1759.669;1;234;-50;-41.9;43.4;43.3;12;11.7;28.2;0.0;
17/02/2025 08:48:10;100;0;236.89;-4;-20.31;-6.09;107.0;20.60;77874;2838.617;-1759.673;1;234;-50;-41.9;43.4;43.3;12;11.3;28.2;0.0;
17/02/2025 08:48:30;100;0;238.64;-4;-20.44;-6.01;110.1;20.60;77857;2838.615;-1759.677;1;234;-50;-41.9;43.4;43.3;12;11.3;28.2;0.0;
17/02/2025 08:48:50;100;0;238.96;-4;-20.46;-6.10;113.1;20.60;77841;2838.613;-1759.681;1;234;-50;-41.9;43.4;43.3;12;11.3;28.2;0.0;
17/02/2025 08:49:10;100;0;240.49;-4;-20.29;-6.07;116.3;20.60;77842;2838.611;-1759.685;1;234;-50;-41.9;43.4;43.3;12;11.3;28.2;0.0;
17/02/2025 08:49:30;100;0;244.60;-4;-20.39;-6.12;119.4;20.60;77839;2838.609;-1759.689;1;234;-50;-43.5;43.4;43.3;16;16.2;28.2;0.0;
17/02/2025 08:49:50;100;0;244.82;-4;-20.46;-3.51;122.7;20.60;77826;2838.608;-1759.694;1;234;-50;-40.3;43.4;43.3;16;16.7;28.2;0.0;
17/02/2025 08:50:10;100;0;243.98;-4;-20.72;-3.53;125.9;20.50;77810;2838.606;-1759.698;1;234;-50;-43.5;43.4;43.3;16;16.7;28.2;0.0;
17/02/2025 08:50:30;100;0;237.72;-4;-20.43;-3.87;129.3;20.50;77799;2838.604;-1759.702;1;234;-50;-43.5;43.4;43.3;11;10.8;28.2;0.0;
17/02/2025 08:50:50;100;0;235.14;-4;-20.81;-6.12;132.5;20.50;77797;2838.601;-1759.706;1;234;-50;-43.5;43.4;43.3;11;11.3;28.2;0.0;
17/02/2025 08:51:10;100;0;234.24;-4;-20.56;-6.28;135.9;20.50;77786;2838.599;-1759.710;1;234;-50;-41.9;43.4;43.3;11;11.3;28.2;0.0;
17/02/2025 08:51:30;100;0;231.08;-4;-20.10;-6.30;139.3;20.50;77796;2838.596;-1759.714;1;234;-50;-41.9;43.4;43.3;11;11.3;28.2;0.0;
17/02/2025 08:51:50;100;0;228.34;-4;-19.70;-6.35;142.6;20.50;77785;2838.594;-1759.718;1;234;-50;-43.5;43.4;43.3;11;10.8;28.2;0.0;
17/02/2025 08:52:10;100;0;228.11;-4;-20.21;-6.28;145.7;20.40;77761;2838.591;-1759.722;1;234;-50;-41.9;43.4;43.3;11;11.3;28.2;0.0;
17/02/2025 08:52:30;100;0;226.89;-4;-19.87;-6.30;148.9;20.40;77749;2838.588;-1759.725;1;234;-50;-41.9;43.4;43.3;11;11.3;28.2;0.0;
17/02/2025 08:52:50;100;0;224.97;-4;-20.16;-6.15;152.0;20.40;77735;2838.586;-1759.729;1;234;-50;-41.9;43.4;43.3;9;9.0;28.2;0.0;
17/02/2025 08:53:10;100;0;218.84;-4;-20.14;-7.34;155.1;20.40;77720;2838.583;-1759.732;1;234;-50;-41.9;43.4;43.4;4;4.1;28.2;0.0;
17/02/2025 08:53:30;100;0;217.93;-4;-19.38;-10.04;158.1;20.30;77704;2838.580;-1759.735;1;234;-50;-41.9;43.4;43.2;4;3.6;28.2;0.0;
17/02/2025 08:53:50;100;0;218.92;-4;-19.67;-10.20;160.9;20.30;77688;2838.577;-1759.738;1;234;-50;-43.5;43.4;43.3;4;3.6;28.2;0.0;
17/02/2025 08:54:10;100;0;221.94;-4;-19.61;-10.16;163.7;20.30;77672;2838.574;-1759.740;1;234;-50;-43.5;43.4;43.3;7;7.2;28.2;0.0;
17/02/2025 08:54:30;100;0;226.39;-4;-20.11;-7.90;166.4;20.30;77676;2838.572;-1759.744;1;234;-50;-43.5;43.4;43.3;10;10.4;28.2;0.0;
17/02/2025 08:54:50;100;0;229.20;-4;-20.05;-6.13;169.2;20.20;77658;2838.570;-1759.747;1;234;-50;-41.9;43.4;43.3;10;10.8;28.2;0.0;
17/02/2025 08:55:10;100;0;228.68;-4;-20.32;-6.27;171.7;20.20;77656;2838.568;-1759.750;1;234;-50;-43.5;43.4;43.3;10;11.3;28.2;0.0;
17/02/2025 08:55:30;100;0;229.81;-4;-20.00;-6.23;174.3;20.20;77651;2838.566;-1759.753;1;234;-50;-43.5;43.4;43.3;10;10.8;28.2;0.0;
17/02/2025 08:55:50;100;0;228.84;-4;-19.95;-6.23;176.7;20.10;77648;2838.564;-1759.756;1;234;-50;-41.9;43.4;43.4;10;10.8;28.2;0.0;
17/02/2025 08:56:10;100;0;224.04;-4;-20.19;-6.26;179.2;20.10;77640;2838.561;-1759.758;1;234;-50;-43.5;43.4;43.3;10;10.8;28.2;0.0;
17/02/2025 08:56:30;100;0;224.97;-4;-20.90;-6.26;181.6;20.10;77630;2838.559;-1759.761;1;234;-50;-41.9;43.4;43.3;10;10.8;28.2;0.0;
17/02/2025 08:56:50;100;0;226.26;-4;-19.67;-6.09;184.0;20.00;77608;2838.557;-1759.764;1;234;-50;-41.9;43.4;43.3;10;10.8;28.2;0.0;
17/02/2025 08:57:10;100;0;226.13;-4;-19.72;-6.43;186.0;20.00;77598;2838.556;-1759.766;1;234;-50;-41.9;43.4;43.3;10;10.8;28.2;0.0;
17/02/2025 08:57:30;100;0;229.28;-4;-18.58;-6.16;188.1;20.00;77584;2838.554;-1759.768;1;234;-50;-43.5;43.8;43.9;10;11.3;28.2;0.0;
17/02/2025 08:57:50;100;0;226.83;-4;-20.79;-6.59;190.0;20.00;77589;2838.552;-1759.771;1;234;-70;-71.0;43.8;44.2;10;10.8;28.2;0.0;
17/02/2025 08:58:10;100;0;229.23;-4;-20.26;-6.29;192.0;19.90;77638;2838.551;-1759.773;1;234;-70;-71.0;43.8;44.2;10;11.3;28.2;0.0;
17/02/2025 08:58:30;100;0;229.27;-4;-21.05;-6.13;194.5;19.90;77639;2838.549;-1759.776;1;234;-70;-72.6;43.8;44.2;10;10.8;28.2;0.0;
17/02/2025 08:58:50;100;0;228.07;-4;-21.12;-6.00;197.1;19.80;77621;2838.547;-1759.779;1;234;-70;-72.6;43.8;44.2;10;11.3;28.2;0.0;
17/02/2025 08:59:10;100;0;224.95;-4;-20.88;-5.95;199.7;19.80;77622;2838.544;-1759.781;1;234;-70;-75.8;43.8;44.2;10;10.8;28.2;0.0;
17/02/2025 08:59:30;100;0;220.47;-4;-21.20;-5.90;202.4;19.80;77611;2838.542;-1759.784;1;234;-70;-74.2;43.8;44.2;6;5.4;28.2;0.0;
17/02/2025 08:59:50;100;0;221.69;-4;-20.45;-9.04;205.1;19.80;77612;2838.540;-1759.787;1;234;-70;-75.8;43.8;44.2;6;5.4;28.2;0.0;
17/02/2025 09:00:10;100;0;221.20;-4;-19.98;-8.99;207.9;19.70;77597;2838.537;-1759.790;1;234;-70;-75.8;43.8;44.2;6;5.4;28.2;0.0;
17/02/2025 09:00:30;100;0;224.69;-4;-19.74;-9.02;210.5;19.70;77581;2838.535;-1759.793;1;234;-70;-75.8;43.8;44.2;9;9.0;28.2;0.0;
17/02/2025 09:00:50;100;0;226.45;-4;-20.50;-6.83;213.1;19.60;77552;2838.532;-1759.795;1;234;-70;-75.8;43.8;44.2;9;9.5;28.2;0.0;
17/02/2025 09:01:10;100;0;227.08;-4;-20.20;-6.78;215.8;19.60;77542;2838.530;-1759.799;1;234;-70;-75.8;43.8;44.2;9;9.5;28.2;0.0;
17/02/2025 09:01:30;100;0;226.46;-4;-20.68;-6.82;218.5;19.60;77527;2838.528;-1759.801;1;234;-70;-75.8;43.8;44.2;9;9.5;28.2;0.0;
17/02/2025 09:01:50;100;0;223.05;-4;-20.02;-6.74;221.2;19.50;77512;2838.526;-1759.804;1;234;-70;-75.8;43.8;44.2;9;9.5;28.2;0.0;
17/02/2025 09:02:10;100;0;220.52;-4;-20.32;-6.78;223.9;19.50;77502;2838.523;-1759.807;1;234;-70;-75.8;43.8;44.2;6;5.9;28.2;0.0;
17/02/2025 09:02:30;100;0;219.12;-4;-20.14;-8.95;226.5;19.40;77477;2838.520;-1759.810;1;234;-70;-75.8;43.8;44.2;6;5.4;28.2;0.0;
17/02/2025 09:02:50;100;0;222.25;-4;-20.41;-8.78;229.1;19.40;77479;2838.518;-1759.812;1;234;-70;-75.8;43.8;44.2;6;5.4;28.2;0.0;
17/02/2025 09:03:10;100;0;223.20;-4;-19.71;-8.99;231.6;19.40;77463;2838.516;-1759.815;1;234;-70;-75.8;43.8;44.2;8;8.1;28.2;0.0;
17/02/2025 09:03:30;100;0;225.62;-4;-19.77;-7.24;234.2;19.30;77451;2838.514;-1759.818;1;234;-70;-75.8;43.8;44.2;8;8.6;28.2;0.0;
17/02/2025 09:03:50;100;0;227.81;-4;-20.26;-7.30;236.8;19.30;77440;2838.511;-1759.821;1;234;-70;-74.2;43.8;44.2;8;8.6;28.2;0.0;
17/02/2025 09:04:10;100;0;230.17;-4;-19.72;-7.24;239.4;19.30;77438;2838.509;-1759.824;1;234;-70;-74.2;43.8;44.2;8;8.6;28.2;0.0;
17/02/2025 09:04:30;100;0;233.35;-4;-20.42;-7.15;242.1;19.20;77421;2838.507;-1759.827;1;234;-70;-75.8;43.8;44.2;10;9.9;28.2;0.0;
17/02/2025 09:04:50;100;0;232.92;-4;-20.55;-6.13;244.8;19.20;77403;2838.505;-1759.831;1;234;-70;-75.8;43.8;44.2;10;10.8;28.2;0.0;
17/02/2025 09:05:10;100;0;232.92;-4;-20.46;-6.10;247.6;19.10;77402;2838.503;-1759.834;1;234;-70;-74.2;43.8;44.2;10;10.8;28.2;0.0;
17/02/2025 09:05:30;100;0;233.94;-4;-20.33;-6.10;250.3;19.10;77386;2838.501;-1759.837;1;234;-70;-75.8;43.8;44.2;10;10.8;28.2;0.0;
17/02/2025 09:05:50;100;0;236.68;-4;-20.17;-6.01;253.2;19.00;77374;2838.499;-1759.841;1;234;-70;-75.8;43.8;44.2;10;10.8;28.2;0.0;
17/02/2025 09:06:10;100;0;238.42;-4;-20.80;-6.04;256.0;19.00;77373;2838.498;-1759.845;1;234;-70;-75.8;43.8;44.2;10;10.8;28.2;0.0;
17/02/2025 09:06:30;100;0;239.64;-4;-20.29;-6.19;258.7;19.00;77362;2838.496;-1759.848;1;234;-70;-75.8;43.8;44.2;10;10.8;28.2;0.0;
17/02/2025 09:06:50;100;0;241.29;-4;-19.69;-6.15;261.4;18.90;77341;2838.494;-1759.852;1;234;-70;-75.8;43.8;44.2;13;13.1;28.2;0.0;
17/02/2025 09:07:10;100;0;241.62;-4;-19.92;-4.80;264.1;18.90;77337;2838.493;-1759.855;1;234;-70;-75.8;43.8;44.2;13;13.5;28.2;0.0;
17/02/2025 09:07:30;100;0;243.04;-4;-20.33;-4.77;266.6;18.80;77331;2838.491;-1759.859;1;234;-70;-74.2;43.8;44.2;15;14.9;28.2;0.0;
17/02/2025 09:07:50;100;0;243.47;-4;-20.45;-3.95;269.3;18.80;77315;2838.490;-1759.863;1;234;-70;-75.8;43.8;44.2;15;15.3;28.2;0.0;
17/02/2025 09:08:10;100;0;243.00;-4;-20.44;-3.95;272.0;18.80;77306;2838.488;-1759.866;1;234;-70;-75.8;43.8;44.2;15;15.3;28.2;0.0;
17/02/2025 09:08:30;100;0;239.59;-4;-20.58;-3.90;274.8;18.70;77294;2838.487;-1759.870;1;234;-70;-75.8;43.8;44.2;12;12.2;28.2;0.0;
17/02/2025 09:08:50;100;0;236.30;-4;-20.63;-5.83;277.7;18.70;77276;2838.485;-1759.874;1;234;-70;-75.8;43.8;44.2;10;9.5;28.2;0.0;
17/02/2025 09:09:10;100;0;234.98;-4;-20.40;-7.02;280.7;18.60;77261;2838.483;-1759.877;1;234;-70;-75.8;43.8;44.2;10;9.5;28.2;0.0;
17/02/2025 09:09:30;100;0;234.36;-4;-20.47;-6.91;283.6;18.60;77258;2838.481;-1759.881;1;234;-70;-74.2;43.8;44.2;10;9.5;28.2;0.0;
17/02/2025 09:09:50;100;0;235.32;-4;-20.26;-6.88;286.7;18.50;77238;2838.478;-1759.885;1;234;-70;-75.8;43.8;44.2;10;9.5;28.2;0.0;
17/02/2025 09:10:10;100;0;235.76;-4;-20.20;-6.89;289.7;18.50;77220;2838.476;-1759.889;1;234;-70;-75.8;43.8;44.2;10;9.5;28.2;0.0;
17/02/2025 09:10:30;100;0;235.91;-4;-20.33;-6.88;292.7;18.50;77205;2838.474;-1759.892;1;234;-70;-75.8;43.8;44.2;10;9.5;28.2;0.0;
17/02/2025 09:10:50;100;0;235.29;-4;-20.19;-7.00;295.7;18.40;77193;2838.472;-1759.896;1;234;-70;-75.8;43.8;44.2;10;9.5;28.2;0.0;
17/02/2025 09:11:10;100;0;235.89;-4;-20.31;-6.86;298.7;18.40;77176;2838.470;-1759.900;1;234;-70;-75.8;43.8;44.2;10;9.5;28.2;0.0;
17/02/2025 09:11:30;100;0;237.07;-4;-20.05;-6.87;301.7;18.30;77166;2838.468;-1759.904;1;234;-70;-75.8;43.8;44.2;10;9.5;28.2;0.0;
17/02/2025 09:11:50;100;0;236.80;-4;-20.04;-6.90;304.6;18.30;77157;2838.466;-1759.908;1;234;-70;-74.2;43.8;44.2;10;9.5;28.2;0.0;
17/02/2025 09:12:10;100;0;238.13;-4;-20.07;-6.85;307.5;18.20;77145;2838.464;-1759.911;1;234;-70;-75.8;43.8;44.2;10;9.5;28.2;0.0;
17/02/2025 09:12:30;100;0;240.31;-4;-19.66;-6.91;310.5;18.20;77132;2838.462;-1759.915;1;234;-70;-75.8;43.8;44.2;12;12.2;28.2;0.0;
17/02/2025 09:12:50;100;0;240.44;-4;-19.95;-5.23;313.4;18.20;77138;2838.461;-1759.919;1;234;-70;-75.8;43.8;44.2;12;12.6;28.2;0.0;
17/02/2025 09:13:10;100;0;240.55;-4;-20.18;-5.24;316.3;18.10;77116;2838.459;-1759.923;1;234;-70;-75.8;43.8;44.2;12;12.6;28.2;0.0;
17/02/2025 09:13:30;100;0;239.72;-4;-20.30;-5.21;319.3;18.10;77119;2838.457;-1759.927;1;234;-70;-75.8;43.8;44.2;12;12.6;28.2;0.0;
17/02/2025 09:13:50;100;0;239.21;-4;-20.43;-5.13;322.4;18.00;77116;2838.455;-1759.931;1;234;-70;-74.2;43.8;44.2;12;12.6;28.2;0.0;
17/02/2025 09:14:10;100;0;239.11;-4;-20.51;-5.20;325.5;18.00;77096;2838.453;-1759.935;1;234;-70;-79.0;43.8;44.2;12;12.6;28.2;0.0;
17/02/2025 09:14:30;100;0;238.69;-4;-20.24;-5.17;328.7;17.90;77092;2838.451;-1759.939;1;234;-70;-75.8;43.8;44.2;12;12.6;28.2;0.0;
17/02/2025 09:14:50;100;0;239.50;-4;-20.10;-5.24;331.8;17.90;77083;2838.449;-1759.943;1;234;-70;-75.8;43.8;44.2;12;12.6;28.2;0.0;
17/02/2025 09:15:10;100;0;241.58;-4;-19.79;-5.23;335.0;17.90;77078;2838.447;-1759.948;1;233;-70;-75.8;43.8;44.0;14;14.0;28.2;0.0;
17/02/2025 09:15:30;100;0;245.89;-4;-20.33;-4.40;338.1;17.80;77058;2838.446;-1759.952;1;233;-70;-75.8;43.8;44.2;19;19.0;28.2;0.0;
17/02/2025 09:15:51;100;0;246.88;-4;-20.55;-1.83;341.3;17.80;77057;2838.444;-1759.956;1;233;-70;-75.8;43.8;44.2;21;21.2;28.2;0.0;
17/02/2025 09:16:11;100;0;244.00;-4;-20.73;-0.76;344.6;17.70;77042;2838.442;-1759.961;1;233;-70;-79.0;43.8;44.2;17;17.1;28.2;0.0;
17/02/2025 09:16:31;100;0;243.08;-4;-20.94;-3.22;348.0;17.70;77044;2838.441;-1759.965;1;233;-70;-75.8;43.8;44.2;17;17.1;28.2;0.0;
17/02/2025 09:16:51;100;0;242.47;-4;-20.59;-3.14;351.4;17.70;77031;2838.439;-1759.969;1;233;-70;-74.2;43.8;44.2;15;13.1;28.2;0.0;
17/02/2025 09:17:11;100;0;239.11;-4;-20.70;-3.83;354.7;17.60;77020;2838.437;-1759.974;1;233;-70;-75.8;43.8;44.2;12;12.2;28.2;0.0;
17/02/2025 09:17:31;100;0;235.06;-4;-20.43;-5.71;358.2;17.60;77012;2838.434;-1759.978;1;233;-70;-79.0;43.8;44.2;12;11.7;28.2;0.0;
17/02/2025 09:17:51;100;0;231.05;-4;-19.91;-5.69;361.6;17.60;76999;2838.432;-1759.982;1;233;-70;-77.4;43.8;44.2;12;11.7;28.2;0.0;
17/02/2025 09:18:11;100;0;227.83;-4;-20.02;-5.74;364.9;17.50;76989;2838.429;-1759.986;1;233;-70;-79.0;43.8;44.2;10;9.0;28.2;0.0;
17/02/2025 09:18:31;100;0;224.99;-4;-19.79;-6.33;368.0;17.50;76970;2838.426;-1759.989;1;233;-70;-75.8;43.8;44.2;10;10.8;28.2;0.0;
17/02/2025 09:18:51;100;0;224.18;-4;-20.82;-6.28;371.2;17.40;76972;2838.423;-1759.992;1;233;-70;-75.8;43.8;44.2;10;10.4;28.2;0.0;
17/02/2025 09:19:11;100;0;226.19;-4;-20.37;-6.27;374.6;17.40;76953;2838.420;-1759.996;1;233;-70;-75.8;43.8;44.2;10;10.8;28.2;0.0;
17/02/2025 09:19:31;100;0;228.85;-4;-19.36;-6.33;377.9;17.30;76936;2838.418;-1800.000;1;233;-70;-75.8;43.8;44.3;10;10.8;28.2;0.0;
17/02/2025 09:19:51;100;0;232.24;-4;-19.57;-6.30;381.1;17.30;76918;2838.415;-1800.004;1;233;-70;-75.8;43.8;44.2;10;10.8;28.2;0.0;
17/02/2025 09:20:11;100;0;237.47;-4;-19.42;-6.33;384.2;17.30;76900;2838.413;-1800.008;1;233;-70;-75.8;43.8;44.2;10;10.8;28.2;0.0;
17/02/2025 09:20:31;100;0;241.90;-4;-19.38;-6.35;387.1;17.20;76893;2838.411;-1800.012;1;233;-70;-75.8;43.8;44.2;14;14.0;28.2;0.0;
17/02/2025 09:20:51;100;0;245.62;-4;-19.60;-4.51;390.1;17.20;76884;2838.410;-1800.016;1;233;-70;-75.8;43.8;44.2;19;19.0;28.2;0.0;
17/02/2025 09:21:11;100;0;241.94;-4;-19.72;-2.07;393.0;17.10;76862;2838.408;-1800.020;1;233;-70;-77.4;43.8;44.2;15;14.4;28.2;0.0;
17/02/2025 09:21:31;100;0;238.69;-4;-19.66;-4.43;395.8;17.10;76841;2838.406;-1800.024;1;233;-70;-75.8;43.8;44.0;12;12.2;28.2;0.0;
17/02/2025 09:21:51;100;0;237.48;-4;-19.77;-5.63;398.6;17.00;76835;2838.404;-1800.028;1;233;-70;-79.0;43.8;44.2;12;12.2;28.2;0.0;
17/02/2025 09:22:11;100;0;235.88;-4;-19.98;-5.71;401.5;17.00;76828;2838.402;-1800.031;1;233;-70;-75.8;43.8;44.2;12;12.2;28.2;0.0;
17/02/2025 09:22:31;100;0;233.86;-4;-20.29;-5.58;404.5;16.90;76811;2838.400;-1800.035;1;233;-70;-75.8;43.8;44.2;12;12.2;28.2;0.0;
17/02/2025 09:22:51;100;0;233.72;-4;-19.35;-5.76;407.6;16.90;76801;2838.398;-1800.039;1;233;-70;-75.8;43.8;44.2;12;12.2;28.2;0.0;
17/02/2025 09:23:11;100;0;228.98;-4;-20.48;-5.52;410.5;16.90;76795;2838.396;-1800.042;1;233;-70;-75.8;43.8;44.2;12;12.2;28.2;0.0;
17/02/2025 09:23:31;100;0;227.56;-4;-19.71;-5.62;413.6;16.80;76780;2838.393;-1800.046;1;233;-70;-75.8;43.8;44.2;12;12.2;28.2;0.0;
17/02/2025 09:23:51;100;0;226.57;-4;-19.58;-5.62;416.6;16.80;76770;2838.390;-1800.049;1;233;-70;-75.8;43.8;44.2;10;9.5;28.2;0.0;
17/02/2025 09:24:11;100;0;226.82;-4;-19.24;-6.72;419.4;16.80;76761;2838.388;-1800.052;1;233;-70;-75.8;43.8;44.2;10;9.9;28.2;0.0;
17/02/2025 09:24:31;100;0;228.07;-4;-19.58;-6.79;422.3;16.70;76748;2838.385;-1800.056;1;233;-70;-75.8;43.8;44.2;10;9.9;28.2;0.0;
17/02/2025 09:24:51;100;0;231.18;-4;-19.50;-6.75;425.2;16.70;76735;2838.383;-1800.059;1;233;-70;-77.4;43.8;44.2;10;9.9;28.2;0.0;
17/02/2025 09:25:11;100;0;232.15;-4;-19.41;-6.79;428.1;16.60;76720;2838.381;-1800.063;1;233;-70;-74.2;43.8;44.2;10;9.9;28.2;0.0;
17/02/2025 09:25:31;100;0;232.58;-4;-19.46;-6.70;431.1;16.60;76709;2838.379;-1800.067;1;233;-70;-75.8;43.8;44.2;10;9.9;28.2;0.0;
17/02/2025 09:25:51;100;0;231.79;-4;-19.65;-6.61;434.1;16.50;76703;2838.376;-1800.070;1;233;-70;-77.4;43.8;44.2;10;9.9;28.2;0.0;
17/02/2025 09:26:11;100;0;231.98;-4;-19.41;-6.70;437.1;16.50;76696;2838.374;-1800.074;1;233;-70;-75.8;43.8;44.2;10;9.9;28.2;0.0;
17/02/2025 09:26:31;100;0;232.85;-4;-19.61;-6.73;440.2;16.50;76694;2838.372;-1800.078;1;233;-70;-75.8;43.8;44.2;10;9.9;28.2;0.0;
17/02/2025 09:26:51;100;0;233.99;-4;-19.60;-6.70;443.3;16.40;76677;2838.369;-1800.082;1;233;-70;-75.8;43.8;44.2;10;9.9;28.2;0.0;
17/02/2025 09:27:11;100;0;237.96;-4;-19.37;-6.93;446.3;16.40;76668;2838.367;-1800.086;1;233;-70;-74.2;43.8;44.2;12;12.2;28.2;0.0;
17/02/2025 09:27:31;100;0;238.54;-4;-19.91;-5.54;449.3;16.40;76666;2838.365;-1800.090;1;233;-70;-75.8;43.8;44.2;12;12.6;28.2;0.0;
17/02/2025 09:27:51;100;0;242.05;-4;-20.52;-5.28;452.4;16.30;76656;2838.364;-1800.094;1;233;-70;-75.8;43.8;44.2;15;14.9;28.2;0.0;
17/02/2025 09:28:11;100;0;243.93;-4;-19.91;-3.97;455.6;16.30;76650;2838.362;-1800.098;1;233;-70;-75.8;43.8;44.2;17;17.1;28.2;0.0;
17/02/2025 09:28:31;100;0;242.88;-4;-19.16;-2.68;458.7;16.20;76642;2838.360;-1800.102;1;233;-70;-75.8;43.8;44.2;17;18.1;28.2;0.0;
17/02/2025 09:28:51;100;0;241.82;-4;-19.66;-2.57;461.9;16.20;76637;2838.358;-1800.107;1;233;-70;-75.8;43.8;44.2;15;14.9;28.2;0.0;
17/02/2025 09:29:11;100;0;240.99;-4;-19.59;-4.30;465.0;16.10;76613;2838.356;-1800.111;1;233;-70;-74.2;43.8;44.2;15;14.9;28.2;0.0;
17/02/2025 09:29:31;100;0;241.54;-4;-19.64;-4.35;468.2;16.10;76617;2838.354;-1800.115;1;233;-70;-75.8;43.8;44.2;15;14.9;28.2;0.0;
17/02/2025 09:29:51;100;0;243.29;-4;-19.74;-4.41;471.2;16.10;76614;2838.353;-1800.119;1;233;-70;-75.8;43.8;44.3;15;14.4;28.2;0.0;
17/02/2025 09:30:11;100;0;245.05;-4;-19.09;-4.38;474.3;16.00;76601;2838.351;-1800.124;1;233;-70;-75.8;43.8;44.2;19;19.0;28.2;0.0;
17/02/2025 09:30:31;100;0;243.52;-4;-19.58;-1.92;477.3;16.00;76589;2838.350;-1800.128;1;233;-70;-75.8;43.8;44.2;17;17.1;28.2;0.0;
17/02/2025 09:30:51;100;0;243.40;-4;-19.77;-3.14;480.2;16.00;76591;2838.348;-1800.132;1;233;-70;-75.8;43.8;44.2;17;17.1;28.2;0.0;
17/02/2025 09:31:11;100;0;241.86;-4;-19.75;-3.17;483.1;15.90;76586;2838.346;-1800.136;1;233;-70;-75.8;43.8;44.2;15;14.9;28.2;0.0;
17/02/2025 09:31:31;100;0;241.10;-4;-19.74;-4.26;486.0;15.90;76583;2838.345;-1800.140;1;233;-70;-75.8;43.8;44.2;15;14.4;28.2;0.0;
17/02/2025 09:31:51;100;0;240.59;-4;-19.87;-4.25;488.8;15.80;76571;2838.343;-1800.143;1;233;-70;-75.8;43.8;44.2;15;14.4;28.2;0.0;
17/02/2025 09:32:11;100;0;239.69;-4;-19.47;-4.21;491.7;15.80;76564;2838.341;-1800.147;1;233;-70;-79.0;43.8;44.2;13;13.1;28.2;0.0;
17/02/2025 09:32:31;100;0;241.86;-4;-19.45;-5.35;494.4;15.80;76557;2838.339;-1800.151;1;233;-70;-75.8;43.8;44.2;15;14.9;28.2;0.0;
17/02/2025 09:32:51;100;0;244.25;-4;-19.67;-3.89;497.2;15.80;76556;2838.338;-1800.155;1;233;-70;-75.8;43.8;44.2;18;18.5;28.2;0.0;
17/02/2025 09:33:11;100;0;244.38;-4;-19.90;-2.23;500.0;15.70;76540;2838.336;-1800.159;1;233;-70;-75.8;43.8;44.2;18;19.0;28.2;0.0;
17/02/2025 09:33:31;100;0;243.31;-4;-19.82;-2.18;502.8;15.70;76531;2838.335;-1800.163;1;233;-70;-75.8;43.8;44.2;18;19.0;28.2;0.0;
17/02/2025 09:33:51;100;0;242.48;-4;-19.70;-2.26;505.7;15.70;76532;2838.333;-1800.167;1;232;-70;-75.8;43.8;44.2;18;18.5;28.2;0.0;
17/02/2025 09:34:11;100;0;239.80;-4;-19.73;-2.21;508.5;15.60;76514;2838.331;-1800.170;1;232;-70;-75.8;43.8;44.2;14;14.0;28.2;0.0;
17/02/2025 09:34:31;100;0;239.35;-4;-19.78;-4.87;511.2;15.60;76505;2838.330;-1800.174;1;232;-70;-75.8;43.8;44.2;14;13.5;28.2;0.0;
17/02/2025 09:34:51;100;0;238.40;-4;-19.59;-4.82;514.2;15.50;76500;2838.328;-1800.178;1;232;-70;-77.4;43.8;44.3;14;13.5;28.2;0.0;
17/02/2025 09:35:11;100;0;238.81;-4;-19.61;-4.88;517.1;15.50;76483;2838.326;-1800.182;1;232;-70;-75.8;43.8;44.3;14;14.0;28.2;0.0;
17/02/2025 09:35:31;100;0;239.86;-4;-19.35;-4.81;520.0;15.50;76481;2838.324;-1800.185;1;232;-70;-75.8;43.8;44.2;14;13.5;28.2;0.0;
17/02/2025 09:35:51;100;0;238.26;-4;-19.26;-4.87;522.8;15.40;76468;2838.322;-1800.189;1;232;-70;-75.8;43.8;44.2;14;13.5;28.2;0.0;
17/02/2025 09:36:11;100;0;235.80;-4;-19.16;-4.91;525.7;15.40;76465;2838.320;-1800.193;1;232;-70;-75.8;43.8;44.2;12;12.2;28.2;0.0;
17/02/2025 09:36:31;100;0;234.43;-4;-19.12;-5.70;528.4;15.40;76455;2838.318;-1800.197;1;232;-70;-75.8;43.8;44.2;12;12.2;28.2;0.0;
17/02/2025 09:36:51;100;0;233.09;-4;-19.12;-5.68;531.2;15.30;76447;2838.316;-1800.200;1;232;-70;-75.8;43.8;44.2;12;12.2;28.2;0.0;
17/02/2025 09:37:11;100;0;233.46;-4;-19.25;-5.66;533.9;15.30;76440;2838.314;-1800.204;1;232;-70;-75.8;43.8;44.2;12;12.2;28.2;0.0;
17/02/2025 09:37:31;100;0;233.92;-4;-19.19;-5.63;536.8;15.30;76434;2838.312;-1800.207;1;232;-70;-75.8;43.8;44.2;12;12.2;28.2;0.0;
17/02/2025 09:37:51;100;0;232.78;-4;-18.70;-5.89;539.5;15.30;76435;2838.310;-1800.211;1;232;-70;-75.8;44.2;44.2;12;12.2;28.2;0.0;
17/02/2025 09:38:11;100;0;233.04;-4;-18.91;-5.73;542.3;15.20;76428;2838.307;-1800.214;1;232;-70;-75.8;44.6;44.6;12;11.7;28.2;0.0;
17/02/2025 09:38:31;100;0;233.98;-4;-20.32;-5.72;545.1;15.20;76424;2838.305;-1800.218;1;232;-70;-74.2;44.6;44.9;12;11.7;28.2;0.0;
17/02/2025 09:38:51;100;0;234.64;-4;-20.46;-5.67;547.9;15.20;76420;2838.303;-1800.221;1;232;-70;-75.8;44.6;44.9;12;12.2;28.2;0.0;
17/02/2025 09:39:11;100;0;232.88;-4;-20.49;-5.71;550.9;15.10;76405;2838.301;-1800.225;1;232;-70;-75.8;44.6;44.9;12;11.7;28.2;0.0;
17/02/2025 09:39:31;100;0;232.09;-4;-20.44;-5.70;553.9;15.10;76387;2838.299;-1800.229;1;232;-70;-77.4;44.6;44.9;12;12.2;28.2;0.0;
17/02/2025 09:39:51;100;0;232.19;-4;-20.41;-5.64;556.8;15.10;76394;2838.297;-1800.232;1;232;-70;-77.4;44.6;44.9;12;11.7;28.2;0.0;
17/02/2025 09:40:11;100;0;232.20;-4;-20.37;-5.67;559.7;15.00;76393;2838.294;-1800.236;1;232;-70;-75.8;44.6;44.9;12;11.7;28.2;0.0;
17/02/2025 09:40:31;100;0;232.68;-4;-20.55;-5.68;562.4;15.00;76385;2838.293;-1800.239;1;232;-70;-75.8;44.6;44.9;12;12.2;28.2;0.0;
17/02/2025 09:40:51;100;0;233.54;-4;-20.68;-5.57;565.2;15.00;76368;2838.291;-1800.242;1;232;-70;-77.4;44.6;44.9;12;12.2;28.2;0.0;
17/02/2025 09:41:11;100;0;234.33;-4;-20.64;-5.62;567.9;15.00;76372;2838.289;-1800.246;1;232;-70;-75.8;44.6;44.9;12;12.2;28.2;0.0;
17/02/2025 09:41:31;100;0;236.28;-4;-20.62;-5.57;570.7;14.90;76368;2838.287;-1800.249;1;232;-70;-75.8;44.6;44.9;12;12.2;28.2;0.0;
17/02/2025 09:41:51;100;0;237.36;-4;-20.53;-5.63;573.4;14.90;76370;2838.285;-1800.252;1;232;-70;-75.8;44.6;44.9;14;14.0;28.2;0.0;
17/02/2025 09:42:11;100;0;239.38;-4;-21.01;-4.20;575.9;14.90;76355;2838.284;-1800.256;1;232;-70;-79.0;44.6;44.9;16;15.8;28.2;0.0;
17/02/2025 09:42:31;100;0;242.26;-4;-20.84;-3.44;578.6;14.80;76347;2838.282;-1800.259;1;232;-70;-77.4;44.6;44.9;19;19.4;28.2;0.0;
17/02/2025 09:42:51;100;0;244.40;-4;-21.45;-1.57;581.3;14.80;76332;2838.281;-1800.263;1;232;-70;-75.8;44.6;44.9;22;22.1;28.2;0.0;
17/02/2025 09:43:11;100;0;242.42;-4;-21.50;-0.31;584.0;14.80;76339;2838.279;-1800.266;1;232;-70;-75.8;44.6;44.9;19;19.0;28.2;0.0;
17/02/2025 09:43:31;100;0;243.19;-4;-21.22;-2.09;586.6;14.80;76332;2838.278;-1800.270;1;232;-70;-75.8;44.6;44.9;19;19.0;28.2;0.0;
17/02/2025 09:43:51;100;0;242.30;-4;-21.20;-2.09;589.1;14.70;76326;2838.277;-1800.273;1;232;-70;-75.8;44.6;44.9;19;19.4;28.2;0.0;
17/02/2025 09:44:11;100;0;240.84;-4;-21.04;-2.19;591.6;14.70;76321;2838.275;-1800.276;1;232;-70;-77.4;44.6;45.1;17;17.1;28.2;0.0;
17/02/2025 09:44:31;100;0;238.61;-4;-21.18;-2.99;594.1;14.60;76295;2838.274;-1800.279;1;232;-70;-75.8;44.6;44.9;15;14.9;28.2;0.0;
17/02/2025 09:44:51;100;0;236.64;-4;-20.93;-4.32;596.7;14.60;76301;2838.272;-1800.283;1;232;-70;-74.2;44.6;44.9;15;14.9;28.2;0.0;
17/02/2025 09:45:11;100;0;236.70;-4;-20.57;-4.35;599.2;14.60;76294;2838.270;-1800.286;1;232;-70;-75.8;44.6;45.1;15;14.4;28.2;0.0;
17/02/2025 09:45:31;100;0;238.60;-4;-20.25;-4.41;601.4;14.60;76279;2838.269;-1800.289;1;232;-70;-75.8;44.6;44.9;15;14.9;28.2;0.0;
17/02/2025 09:45:51;100;0;237.64;-4;-20.09;-4.38;603.7;14.50;76267;2838.267;-1800.292;1;232;-70;-75.8;44.6;45.1;15;14.9;28.2;0.0;
17/02/2025 09:46:11;100;0;239.33;-4;-20.75;-4.41;606.0;14.50;76256;2838.266;-1800.295;1;232;-70;-75.8;44.6;45.1;15;14.4;28.2;0.0;
17/02/2025 09:46:31;100;0;239.78;-4;-20.76;-4.33;608.5;14.50;76247;2838.265;-1800.298;1;232;-70;-77.4;44.6;44.9;15;14.9;28.2;0.0;
17/02/2025 09:46:51;100;0;239.60;-4;-20.55;-4.35;611.1;14.40;76246;2838.263;-1800.301;1;232;-70;-75.8;44.6;45.1;15;14.4;28.2;0.0;
17/02/2025 09:47:11;100;0;238.13;-4;-20.71;-4.31;613.6;14.40;76232;2838.261;-1800.304;1;232;-70;-75.8;44.6;45.1;15;14.9;28.2;0.0;
17/02/2025 09:47:31;100;0;236.85;-4;-20.81;-4.29;616.2;14.40;76225;2838.260;-1800.308;1;232;-70;-75.8;44.6;45.1;15;14.9;28.2;0.0;
17/02/2025 09:47:51;100;0;236.34;-4;-20.49;-4.31;618.8;14.40;76218;2838.258;-1800.311;1;232;-70;-75.8;44.6;45.1;15;14.9;28.2;0.0;
17/02/2025 09:48:11;100;0;234.81;-4;-20.74;-4.32;621.4;14.30;76211;2838.256;-1800.314;1;232;-70;-75.8;44.6;45.1;13;13.1;28.2;0.0;
17/02/2025 09:48:31;100;0;230.85;-4;-20.20;-5.14;624.0;14.30;76205;2838.254;-1800.317;1;232;-70;-75.8;44.6;44.9;13;13.1;28.2;0.0;
17/02/2025 09:48:51;100;0;231.71;-4;-20.33;-5.12;626.6;14.30;76192;2838.252;-1800.321;1;232;-70;-77.4;44.6;45.1;13;13.1;28.2;0.0;
17/02/2025 09:49:11;100;0;232.04;-4;-20.48;-5.19;629.2;14.20;76189;2838.250;-1800.324;1;232;-70;-77.4;44.6;44.9;13;13.1;28.2;0.0;
17/02/2025 09:49:31;100;0;231.98;-4;-20.59;-5.05;631.9;14.20;76192;2838.248;-1800.327;1;232;-70;-79.0;44.6;44.9;13;13.1;28.2;0.0;
17/02/2025 09:49:51;100;0;235.60;-4;-20.50;-5.10;634.5;14.20;76177;2838.246;-1800.330;1;232;-70;-75.8;44.6;45.1;13;13.1;28.2;0.0;
17/02/2025 09:50:11;100;0;237.01;-4;-20.46;-5.09;637.3;14.20;76175;2838.245;-1800.334;1;232;-70;-75.8;44.6;44.9;13;13.1;28.2;0.0;
17/02/2025 09:50:31;100;0;237.08;-4;-20.62;-5.06;640.1;14.10;76157;2838.243;-1800.337;1;232;-70;-75.8;44.6;44.9;15;14.9;28.2;0.0;
17/02/2025 09:50:51;100;0;236.88;-4;-20.68;-3.74;642.9;14.10;76161;2838.241;-1800.341;1;231;-70;-75.8;44.6;45.1;15;15.8;28.2;0.0;
17/02/2025 09:51:11;100;0;234.69;-4;-20.63;-3.76;645.6;14.10;76148;2838.239;-1800.344;1;231;-70;-75.8;44.6;44.9;15;15.8;28.2;0.0;
17/02/2025 09:51:32;100;0;233.54;-4;-20.78;-3.75;648.4;14.00;76139;2838.237;-1800.347;1;231;-70;-75.8;44.6;44.9;15;15.8;28.2;0.0;
17/02/2025 09:51:52;100;0;232.89;-4;-20.92;-3.74;651.2;14.00;76141;2838.235;-1800.351;1;231;-70;-75.8;44.6;44.9;13;13.1;28.2;0.0;
17/02/2025 09:52:12;100;0;235.57;-4;-20.06;-4.93;653.8;14.00;76127;2838.233;-1800.354;1;231;-70;-75.8;44.6;44.9;13;13.5;28.2;0.0;
17/02/2025 09:52:32;100;0;235.08;-4;-20.65;-4.71;656.4;13.90;76130;2838.232;-1800.357;1;231;-70;-74.2;44.6;44.9;13;13.5;28.2;0.0;
17/02/2025 09:52:52;100;0;234.95;-4;-20.72;-4.96;659.0;13.90;76134;2838.230;-1800.360;1;231;-70;-75.8;44.6;45.1;13;13.5;28.2;0.0;
17/02/2025 09:53:12;100;0;235.11;-4;-20.83;-5.04;661.6;13.90;76127;2838.228;-1800.363;1;231;-70;-77.4;44.6;44.9;13;13.5;28.2;0.0;
17/02/2025 09:53:32;100;0;236.29;-4;-20.69;-4.84;664.3;13.90;76115;2838.226;-1800.367;1;231;-70;-77.4;44.6;44.9;15;14.9;28.2;0.0;
17/02/2025 09:53:52;100;0;238.71;-4;-20.92;-3.73;667.0;13.80;76114;2838.225;-1800.370;1;231;-70;-75.8;44.6;44.9;17;17.1;28.2;0.0;
17/02/2025 09:54:12;100;0;237.56;-4;-20.95;-2.40;669.8;13.80;76109;2838.223;-1800.374;1;231;-70;-79.0;44.6;44.9;17;18.5;28.2;0.0;
17/02/2025 09:54:32;100;0;234.06;-4;-20.52;-2.45;672.7;13.80;76101;2838.221;-1800.377;1;231;-70;-77.4;44.6;44.9;14;14.0;28.2;0.0;
17/02/2025 09:54:52;100;0;233.35;-4;-20.45;-4.78;675.5;13.80;76095;2838.219;-1800.381;1;231;-70;-75.8;44.6;44.9;14;14.0;28.2;0.0;
17/02/2025 09:55:12;100;0;233.69;-4;-19.97;-4.77;678.3;13.70;76082;2838.217;-1800.384;1;231;-70;-74.2;44.6;45.1;14;13.5;28.2;0.0;
17/02/2025 09:55:32;100;0;232.75;-4;-20.20;-4.85;681.0;13.70;76078;2838.215;-1800.387;1;231;-70;-75.8;44.6;44.9;14;14.0;28.2;0.0;
17/02/2025 09:55:52;100;0;232.29;-4;-20.51;-4.88;683.7;13.70;76066;2838.213;-1800.391;1;231;-70;-75.8;44.6;44.9;14;14.0;28.2;0.0;
17/02/2025 09:56:12;100;0;233.06;-4;-20.98;-4.73;686.4;13.60;76061;2838.211;-1800.394;1;231;-70;-75.8;44.6;44.9;14;14.0;28.2;0.0;
17/02/2025 09:56:32;100;0;231.94;-4;-20.37;-4.85;689.2;13.60;76056;2838.209;-1800.397;1;231;-70;-74.2;44.6;44.9;14;14.0;28.2;0.0;
17/02/2025 09:56:52;100;0;225.89;-4;-19.67;-4.83;691.9;13.60;76058;2838.206;-1800.400;1;231;-70;-75.8;44.6;45.1;14;14.0;28.2;0.0;
17/02/2025 09:57:12;100;0;225.61;-4;-20.46;-4.86;694.4;13.60;76042;2838.204;-1800.403;1;231;-70;-75.8;44.6;44.9;14;14.0;28.2;0.0;
17/02/2025 09:57:32;100;0;226.68;-4;-20.40;-4.79;697.0;13.50;76041;2838.202;-1800.406;1;231;-70;-75.8;44.6;44.9;14;14.0;28.2;0.0;
17/02/2025 09:57:52;100;0;225.95;-4;-19.95;-4.78;699.4;13.50;76039;2838.200;-1800.409;1;231;-70;-75.8;44.6;45.1;14;14.0;28.2;0.0;
17/02/2025 09:58:12;100;0;224.82;-4;-20.54;-4.79;701.9;13.50;76021;2838.198;-1800.411;1;231;-70;-75.8;44.6;45.1;14;14.0;28.2;0.0;
17/02/2025 09:58:32;100;0;225.70;-4;-20.67;-4.86;704.4;13.50;76019;2838.196;-1800.414;1;231;-70;-75.8;44.6;44.9;14;14.0;28.2;0.0;
17/02/2025 09:58:52;100;0;226.57;-4;-20.43;-4.76;707.0;13.40;76015;2838.193;-1800.417;1;231;-70;-74.2;44.6;44.9;14;14.0;28.2;0.0;
17/02/2025 09:59:12;100;0;228.69;-4;-20.41;-4.87;709.7;13.40;76016;2838.191;-1800.420;1;231;-70;-77.4;44.6;44.9;14;13.5;28.2;0.0;
17/02/2025 09:59:32;100;0;230.08;-4;-20.32;-4.88;712.2;13.40;75998;2838.189;-1800.423;1;231;-70;-75.8;44.6;44.9;14;14.0;28.2;0.0;
17/02/2025 09:59:52;100;0;232.42;-4;-20.46;-4.78;714.9;13.40;75997;2838.187;-1800.426;1;231;-70;-75.8;44.6;44.9;14;14.0;28.2;0.0;
17/02/2025 10:00:12;100;0;232.38;-4;-20.43;-4.80;717.7;13.30;75978;2838.185;-1800.430;1;231;-70;-77.4;44.6;44.9;14;13.5;28.2;0.0;
17/02/2025 10:00:32;100;0;229.87;-4;-20.33;-4.73;720.4;13.30;75997;2838.183;-1800.433;1;231;-70;-75.8;44.6;44.9;14;13.5;28.2;0.0;
17/02/2025 10:00:52;100;0;229.57;-4;-20.76;-4.81;723.2;13.30;75982;2838.181;-1800.436;1;231;-70;-75.8;44.6;45.1;14;14.0;28.2;0.0;
17/02/2025 10:01:12;100;0;229.17;-4;-20.62;-4.82;726.1;13.30;75969;2838.178;-1800.439;1;231;-70;-75.8;44.6;45.1;14;13.5;28.2;0.0;
17/02/2025 10:01:32;100;0;229.18;-4;-20.45;-4.75;728.9;13.20;75974;2838.176;-1800.443;1;231;-70;-77.4;44.6;44.9;14;13.5;28.2;0.0;
17/02/2025 10:01:52;100;0;229.65;-4;-20.18;-4.85;731.6;13.20;75960;2838.174;-1800.446;1;231;-70;-75.8;44.6;44.9;14;14.0;28.2;0.0;
17/02/2025 10:02:12;100;0;230.71;-4;-20.17;-4.88;734.3;13.20;75954;2838.172;-1800.449;1;231;-70;-75.8;44.6;44.9;14;14.0;28.2;0.0;
17/02/2025 10:02:32;100;0;229.92;-4;-20.22;-4.88;737.1;13.20;75936;2838.170;-1800.452;1;231;-70;-75.8;44.6;44.9;14;14.0;28.2;0.0;
17/02/2025 10:02:52;100;0;229.80;-4;-20.10;-4.75;739.8;13.10;75937;2838.167;-1800.456;1;231;-70;-75.8;44.6;45.1;14;14.0;28.2;0.0;
17/02/2025 10:03:12;100;0;229.57;-4;-20.21;-4.82;742.4;13.10;75927;2838.165;-1800.459;1;231;-70;-77.4;44.6;44.9;14;14.0;28.2;0.0;
17/02/2025 10:03:32;100;0;229.79;-4;-20.06;-4.86;745.1;13.10;75926;2838.163;-1800.462;1;231;-70;-75.8;44.6;45.1;14;14.0;28.2;0.0;
17/02/2025 10:03:52;100;0;230.34;-4;-20.17;-4.83;747.8;13.10;75924;2838.161;-1800.465;1;231;-70;-75.8;44.6;44.9;14;14.0;28.2;0.0;
17/02/2025 10:04:12;100;0;230.70;-4;-20.27;-4.82;750.5;13.00;75917;2838.159;-1800.468;1;231;-70;-75.8;44.6;45.1;14;14.0;28.2;0.0;
17/02/2025 10:04:32;100;0;230.81;-4;-20.00;-4.81;753.2;13.00;75910;2838.157;-1800.472;1;231;-70;-75.8;44.6;45.1;14;14.0;28.2;0.0;
17/02/2025 10:04:52;100;0;229.72;-4;-20.11;-4.82;755.8;13.00;75901;2838.155;-1800.475;1;231;-70;-75.8;44.6;45.1;14;14.0;28.2;0.0;
17/02/2025 10:05:12;100;0;234.86;-4;-20.14;-4.81;758.5;13.00;75893;2838.153;-1800.478;1;231;-70;-77.4;44.6;44.9;14;14.0;28.2;0.0;
17/02/2025 10:05:32;100;0;234.42;-4;-20.19;-4.90;761.1;12.90;75889;2838.151;-1800.481;1;231;-70;-75.8;44.6;45.1;14;13.5;28.2;0.0;
17/02/2025 10:05:52;100;0;236.60;-4;-20.01;-4.72;763.7;12.90;75875;2838.149;-1800.485;1;231;-70;-75.8;44.6;45.1;16;15.8;28.2;0.0;
17/02/2025 10:06:12;100;0;234.19;-4;-20.48;-3.51;766.3;12.90;75865;2838.147;-1800.488;1;231;-70;-75.8;44.6;44.9;14;14.0;28.2;0.0;
17/02/2025 10:06:32;100;0;231.78;-4;-19.95;-4.83;768.9;12.90;75865;2838.145;-1800.491;1;231;-70;-75.8;44.6;45.1;14;14.0;28.2;0.0;
17/02/2025 10:06:52;100;0;230.03;-4;-20.01;-4.73;771.5;12.80;75850;2838.143;-1800.494;1;231;-70;-75.8;44.6;44.9;14;14.0;28.2;0.0;
17/02/2025 10:07:12;100;0;228.51;-4;-19.78;-4.77;774.1;12.80;75837;2838.141;-1800.497;1;231;-70;-75.8;44.6;45.1;14;14.0;28.2;0.0;
17/02/2025 10:07:32;100;0;227.66;-4;-19.88;-4.74;776.5;12.80;75828;2838.139;-1800.500;1;231;-70;-77.4;44.6;44.9;14;14.0;28.2;0.0;
17/02/2025 10:07:52;100;0;226.00;-4;-19.54;-4.75;778.9;12.70;75834;2838.137;-1800.503;1;231;-70;-75.8;44.6;44.9;14;14.0;28.2;0.0;
17/02/2025 10:08:12;100;0;224.70;-4;-19.94;-4.70;781.3;12.70;75817;2838.135;-1800.505;1;231;-70;-75.8;44.6;44.9;14;14.0;28.2;0.0;
17/02/2025 10:08:32;100;0;224.76;-4;-19.89;-4.66;783.6;12.70;75801;2838.133;-1800.508;1;231;-70;-74.2;44.6;44.9;14;14.0;28.2;0.0;
17/02/2025 10:08:52;100;0;222.02;-4;-20.00;-4.73;786.0;12.70;75805;2838.131;-1800.510;1;231;-70;-75.8;44.6;45.1;14;14.0;28.2;0.0;
17/02/2025 10:09:12;100;0;221.79;-4;-19.97;-4.65;788.3;12.60;75803;2838.129;-1800.513;1;231;-70;-75.8;44.6;44.9;14;14.0;28.2;0.0;
17/02/2025 10:09:32;100;0;223.59;-4;-19.88;-4.70;790.5;12.60;75791;2838.127;-1800.515;1;231;-70;-75.8;44.6;45.1;14;14.0;28.2;0.0;
17/02/2025 10:09:52;100;0;223.68;-4;-19.78;-4.70;792.7;12.60;75778;2838.125;-1800.518;1;231;-70;-77.4;44.6;45.1;14;14.0;28.2;0.0;
17/02/2025 10:10:12;100;0;222.81;-4;-19.89;-4.67;794.9;12.60;75771;2838.123;-1800.520;1;231;-70;-75.8;44.6;44.9;14;14.0;28.2;0.0;
17/02/2025 10:10:32;100;0;221.38;-4;-19.67;-4.66;797.1;12.50;75764;2838.121;-1800.522;1;231;-70;-75.8;44.6;44.9;12;11.7;28.2;0.0;
17/02/2025 10:10:48;118;0;219.80;-4;-19.90;-5.22;798.8;12.50;75759;2838.119;-1800.524;1;231;150;-71.0;34.0;34.0;10;9.9;28.2;0.0;
17/02/2025 10:10:58;118;0;148.66;-4;-11.30;-7.44;799.5;12.50;75728;2838.118;-1800.523;1;231;150;53.2;34.0;33.7;10;9.9;27.2;-1.0;
17/02/2025 10:11:08;118;0;136.90;-4;-0.95;-7.00;799.9;12.50;75470;2838.118;-1800.523;1;231;150;153.2;34.0;33.6;10;9.9;27.2;-1.0;
17/02/2025 10:11:18;118;0;216.66;-4;1.29;-7.89;799.6;12.50;75262;2838.118;-1800.523;1;231;150;154.8;34.0;33.6;10;9.9;28.2;-1.0;
17/02/2025 10:11:28;118;0;214.93;-4;1.70;-7.38;799.3;12.50;75265;2838.118;-1800.524;1;231;150;153.2;34.0;33.6;10;9.9;28.2;-1.0;
17/02/2025 10:11:48;117;0;212.21;-4;2.01;-7.42;798.4;12.40;75269;2838.117;-1800.524;1;231;150;153.2;34.0;33.7;10;9.9;28.2;-1.0;
17/02/2025 10:12:08;117;0;207.29;-4;1.20;-7.60;797.6;12.40;75263;2838.117;-1800.525;1;231;150;153.2;28.4;28.3;34;33.8;28.2;-1.0;
17/02/2025 10:12:28;117;0;206.63;-4;17.65;5.31;796.6;12.40;75259;2838.116;-1800.526;1;231;150;154.8;27.7;27.2;48;47.8;28.2;-1.0;
17/02/2025 10:12:48;117;0;211.44;-4;21.50;12.47;795.1;12.40;75251;2838.115;-1800.527;1;231;150;154.8;27.7;27.8;42;42.0;28.2;-1.0;
17/02/2025 10:13:08;117;0;214.46;-4;20.80;9.36;793.4;12.40;75252;2838.113;-1800.528;1;231;150;154.8;27.7;28.0;40;40.2;28.2;-1.0;
17/02/2025 10:13:28;117;0;216.53;-4;20.44;8.41;791.7;12.30;75256;2838.111;-1800.530;1;231;150;154.8;27.7;27.8;38;37.9;28.2;-1.0;
17/02/2025 10:13:48;117;0;217.15;-4;20.05;7.27;790.1;12.30;75244;2838.110;-1800.532;1;231;150;154.8;27.7;27.8;38;37.5;28.2;-1.0;
17/02/2025 10:14:08;117;0;219.21;-4;20.03;7.25;788.4;12.30;75248;2838.108;-1800.533;1;231;150;154.8;27.7;27.8;36;33.8;28.2;-1.0;
17/02/2025 10:14:28;117;0;220.25;-4;20.31;6.73;786.9;12.20;75239;2838.107;-1800.535;1;231;150;154.8;27.7;27.8;36;36.6;28.2;-1.0;
17/02/2025 10:14:48;117;0;220.92;-4;20.14;6.71;785.3;12.20;75234;2838.105;-1800.537;1;231;150;154.8;27.7;27.8;36;36.6;28.2;-1.0;
17/02/2025 10:15:08;117;0;221.32;-4;20.14;6.67;783.8;12.20;75239;2838.104;-1800.538;1;231;150;154.8;27.7;28.0;36;36.6;28.2;-1.0;
17/02/2025 10:15:28;117;0;222.03;-4;20.01;6.68;782.2;12.20;75234;2838.102;-1800.540;1;231;150;151.6;27.7;27.8;36;36.6;28.2;-1.0;
17/02/2025 10:15:48;117;0;223.06;-4;20.20;6.76;780.7;12.20;75229;2838.101;-1800.542;1;231;150;153.2;27.7;28.0;34;33.8;28.2;-1.0;
17/02/2025 10:16:08;117;0;224.53;-4;19.91;5.18;779.2;12.10;75233;2838.100;-1800.543;1;231;150;154.8;27.7;27.8;34;33.8;28.2;-1.0;
17/02/2025 10:16:28;117;0;226.22;-4;20.11;5.17;777.7;12.10;75218;2838.099;-1800.545;1;231;170;172.6;27.7;27.8;34;33.8;28.2;-1.0;
17/02/2025 10:16:48;117;0;230.82;-4;19.59;5.18;776.2;12.10;75178;2838.097;-1800.547;1;231;190;191.9;27.7;27.8;34;33.8;28.2;-1.0;
17/02/2025 10:17:08;117;0;233.05;-4;19.10;5.20;774.6;12.10;75145;2838.096;-1800.549;1;231;210;212.9;27.7;27.8;34;33.8;28.2;-1.0;
17/02/2025 10:17:28;117;0;228.42;-4;18.71;5.28;773.0;12.00;75093;2838.095;-1800.551;1;231;230;233.9;27.3;27.1;34;33.8;28.2;-1.0;
17/02/2025 10:17:48;117;0;231.20;-4;20.24;5.19;771.2;12.00;75056;2838.093;-1800.553;1;231;250;253.2;27.3;26.5;34;33.8;28.2;-1.0;
17/02/2025 10:18:08;117;0;232.48;-4;19.94;5.23;769.3;12.00;75016;2838.092;-1800.556;1;231;270;272.6;27.3;26.7;34;33.8;28.2;-1.0;
17/02/2025 10:18:28;117;0;232.93;-4;19.50;5.31;767.2;12.00;74974;2838.090;-1800.558;1;231;270;272.6;27.3;26.7;34;33.8;28.2;-1.0;
17/02/2025 10:18:48;117;0;235.40;-4;18.82;5.25;765.1;12.00;74969;2838.089;-1800.561;1;231;270;272.6;26.9;27.0;34;33.8;28.2;-1.0;
17/02/2025 10:19:08;117;0;236.38;-4;18.65;5.40;763.0;12.00;74976;2838.087;-1800.564;1;231;270;272.6;26.5;26.5;32;31.6;28.2;-1.0;
17/02/2025 10:19:28;117;0;236.54;-4;19.65;4.10;760.9;12.00;74961;2838.086;-1800.567;1;231;270;274.2;26.5;26.1;32;31.6;28.2;-1.0;
17/02/2025 10:19:48;117;0;237.42;-4;19.56;4.17;758.7;12.00;74971;2838.085;-1800.570;1;231;270;272.6;26.5;26.1;32;32.0;28.2;-1.0;
17/02/2025 10:20:08;117;0;238.29;-4;19.80;4.16;756.6;11.90;74963;2838.083;-1800.572;1;231;270;272.6;26.5;26.1;32;31.6;28.2;-1.0;
17/02/2025 10:20:28;117;0;236.74;-4;19.62;4.21;754.5;11.90;74960;2838.082;-1800.575;1;231;270;274.2;26.5;26.1;32;31.6;28.2;-1.0;
17/02/2025 10:20:48;117;0;235.91;-4;19.54;4.13;752.3;11.90;74969;2838.080;-1800.578;1;231;270;272.6;26.5;26.2;32;31.6;28.2;-1.0;
17/02/2025 10:21:08;117;0;237.85;-4;19.50;4.03;750.2;11.90;74956;2838.079;-1800.581;1;231;270;272.6;26.5;26.1;32;31.6;28.2;-1.0;
17/02/2025 10:21:28;117;0;237.75;-4;19.66;4.19;748.2;11.90;74980;2838.078;-1800.583;1;231;290;293.5;26.5;26.1;30;29.8;28.2;-1.0;
17/02/2025 10:21:48;117;0;240.72;-4;19.38;3.04;746.0;11.90;74939;2838.076;-1800.586;1;231;290;291.9;26.5;26.1;28;28.0;28.2;-1.0;
17/02/2025 10:22:08;117;0;240.99;-4;19.27;2.17;743.8;11.90;74935;2838.075;-1800.590;1;231;290;293.5;26.5;26.1;28;28.0;28.2;-1.0;
17/02/2025 10:22:28;117;0;241.20;-4;18.88;2.21;741.5;11.90;74937;2838.074;-1800.593;1;231;290;293.5;26.2;26.2;28;28.0;28.2;-1.0;
17/02/2025 10:22:48;117;0;242.61;-4;18.89;2.29;739.4;11.90;74935;2838.072;-1800.596;1;231;290;293.5;25.8;25.8;25;24.8;28.2;-1.0;
17/02/2025 10:23:08;117;0;241.26;-4;20.65;0.47;737.1;11.90;74957;2838.071;-1800.599;1;231;290;293.5;25.8;25.8;27;28.0;28.2;-1.0;
17/02/2025 10:23:28;117;0;239.45;-4;19.92;2.36;734.8;11.90;74945;2838.070;-1800.602;1;231;290;293.5;25.8;26.1;29;29.3;28.2;-1.0;
17/02/2025 10:23:48;117;0;239.55;-4;19.95;3.33;732.5;11.90;74953;2838.068;-1800.605;1;231;290;293.5;25.8;26.1;29;29.8;28.2;-1.0;
17/02/2025 10:24:08;117;0;240.23;-4;19.91;3.35;730.3;11.90;74947;2838.067;-1800.608;1;231;290;293.5;25.8;26.1;29;29.8;28.2;-1.0;
17/02/2025 10:24:28;117;0;240.15;-4;19.89;3.32;728.2;11.80;74952;2838.066;-1800.611;1;231;290;291.9;25.8;25.9;29;29.8;28.2;-1.0;
17/02/2025 10:24:48;117;0;239.14;-4;20.01;3.34;726.1;11.80;74957;2838.064;-1800.614;1;231;290;293.5;25.8;26.1;29;29.8;28.2;-1.0;
17/02/2025 10:25:08;117;0;238.50;-4;20.02;3.28;724.0;11.80;74952;2838.063;-1800.616;1;231;290;293.5;25.8;25.9;29;29.8;28.2;-1.0;
17/02/2025 10:25:28;117;0;238.52;-4;19.67;3.32;721.9;11.80;74947;2838.062;-1800.619;1;231;290;293.5;25.8;26.1;29;29.8;28.2;-1.0;
17/02/2025 10:25:49;117;0;238.75;-4;20.30;3.42;719.9;11.80;74947;2838.060;-1800.622;1;231;310;312.9;25.8;25.9;29;29.8;28.2;-1.0;
17/02/2025 10:26:09;117;0;235.27;-4;19.71;2.99;717.7;11.80;74914;2838.059;-1800.625;1;231;310;312.9;25.8;25.9;32;32.0;28.2;-1.0;
17/02/2025 10:26:29;117;0;235.78;-4;19.76;4.81;715.6;11.80;74918;2838.057;-1800.627;1;231;310;312.9;25.8;25.9;32;32.5;28.2;-1.0;
17/02/2025 10:26:49;117;0;237.58;-4;19.68;4.73;713.3;11.80;74917;2838.056;-1800.630;1;231;310;311.3;25.8;25.9;30;29.3;28.2;-1.0;
17/02/2025 10:27:09;117;0;237.67;-4;19.31;2.98;711.2;11.80;74924;2838.055;-1800.633;1;230;310;312.9;25.8;26.1;30;29.3;28.2;-1.0;
17/02/2025 10:27:29;117;0;237.36;-4;18.84;3.01;709.2;11.80;74919;2838.053;-1800.636;1;230;310;312.9;25.5;25.5;30;28.9;28.2;-1.0;
17/02/2025 10:27:49;117;0;240.50;-4;20.24;2.74;707.0;11.80;74918;2838.052;-1800.639;1;230;310;312.9;25.5;25.5;26;27.5;28.2;-1.0;
17/02/2025 10:28:09;117;0;239.61;-4;20.57;2.18;704.8;11.80;74918;2838.051;-1800.642;1;230;310;312.9;25.5;25.6;26;27.5;28.2;-1.0;
17/02/2025 10:28:29;117;0;240.05;-4;20.30;2.16;702.4;11.80;74913;2838.049;-1800.645;1;230;310;312.9;25.5;25.6;26;28.0;28.2;-1.0;
17/02/2025 10:28:49;117;0;237.55;-4;20.50;2.03;700.3;11.80;74912;2838.048;-1800.648;1;230;310;312.9;25.5;25.6;29;29.3;28.2;-1.0;
17/02/2025 10:29:09;117;0;238.94;-4;20.61;3.33;697.9;11.80;74905;2838.046;-1800.651;1;230;310;311.3;25.5;25.6;29;29.8;28.2;-1.0;
17/02/2025 10:29:29;117;0;239.18;-4;20.29;3.32;695.5;11.80;74907;2838.045;-1800.654;1;230;310;314.5;25.5;25.6;29;29.8;28.2;-1.0;
17/02/2025 10:29:49;117;0;239.19;-4;20.30;3.28;693.3;11.80;74913;2838.043;-1800.657;1;230;310;312.9;25.5;25.6;29;29.8;28.2;-1.0;
17/02/2025 10:30:09;117;0;240.43;-4;20.33;3.32;691.0;11.80;74911;2838.042;-1800.660;1;230;310;312.9;25.5;25.6;26;26.2;28.2;-1.0;
17/02/2025 10:30:29;117;0;239.49;-4;20.23;2.04;688.8;11.80;74903;2838.041;-1800.663;1;230;310;308.1;25.5;25.6;26;27.1;28.2;-1.0;
17/02/2025 10:30:49;117;0;238.30;-4;20.26;2.05;686.6;11.80;74910;2838.039;-1800.666;1;230;310;312.9;25.5;25.5;28;28.4;28.2;-1.0;
17/02/2025 10:31:09;117;0;237.81;-4;20.28;2.88;684.4;11.80;74914;2838.038;-1800.669;1;230;310;312.9;25.5;25.6;28;28.9;28.2;-1.0;
17/02/2025 10:31:29;117;0;237.32;-4;20.29;2.87;682.2;11.80;74908;2838.036;-1800.672;1;230;310;311.3;25.5;25.6;28;28.9;28.2;-1.0;
17/02/2025 10:31:49;117;0;237.05;-4;20.40;2.83;679.9;11.80;74911;2838.035;-1800.675;1;230;310;308.1;25.5;25.6;30;29.8;28.2;-1.0;
17/02/2025 10:32:09;117;0;237.12;-4;20.52;3.56;677.7;11.80;74903;2838.033;-1800.677;1;230;310;311.3;25.5;25.6;30;30.2;28.2;-1.0;
17/02/2025 10:32:29;117;0;236.76;-4;20.37;3.60;675.5;11.80;74912;2838.032;-1800.680;1;230;310;312.9;25.5;25.6;30;30.2;28.2;-1.0;
17/02/2025 10:32:49;117;0;236.75;-4;20.48;3.58;673.2;11.80;74911;2838.030;-1800.683;1;230;310;314.5;25.5;25.6;30;30.2;28.2;-1.0;
17/02/2025 10:33:09;117;0;236.03;-4;20.22;3.52;670.9;11.80;74909;2838.029;-1800.686;1;230;310;312.9;25.5;25.6;30;30.2;28.2;-1.0;
17/02/2025 10:33:29;117;0;235.49;-4;20.26;3.58;668.6;11.80;74917;2838.027;-1800.689;1;230;310;312.9;25.5;25.6;30;30.2;28.2;-1.0;
17/02/2025 10:33:49;117;0;233.46;-4;20.40;3.59;666.4;11.80;74909;2838.026;-1800.692;1;230;310;311.3;25.5;25.6;32;32.0;28.2;-1.0;
17/02/2025 10:34:09;117;0;233.08;-4;20.44;4.82;664.1;11.80;74917;2838.024;-1800.695;1;230;310;312.9;25.5;25.6;32;32.5;28.2;-1.0;
17/02/2025 10:34:29;117;0;234.17;-4;20.45;4.69;661.8;11.80;74915;2838.022;-1800.698;1;230;310;312.9;25.5;25.6;32;32.5;28.2;-1.0;
17/02/2025 10:34:49;117;0;233.75;-4;20.59;4.83;659.5;11.80;74918;2838.021;-1800.701;1;230;310;311.3;25.5;25.6;32;32.5;28.2;-1.0;
17/02/2025 10:35:09;117;0;233.65;-4;20.63;4.79;657.1;11.80;74917;2838.019;-1800.703;1;230;310;312.9;25.5;25.6;32;32.5;28.2;-1.0;
17/02/2025 10:35:29;117;0;235.74;-4;20.72;4.85;654.7;11.80;74912;2838.017;-1800.706;1;230;310;311.3;25.5;25.6;30;29.8;28.2;-1.0;
17/02/2025 10:35:49;117;0;237.03;-4;20.47;3.03;652.3;11.80;74915;2838.016;-1800.710;1;229;310;311.3;25.5;25.6;28;28.0;28.2;-1.0;
17/02/2025 10:36:09;117;0;235.94;-4;19.85;2.46;650.1;11.80;74912;2838.014;-1800.712;1;229;310;311.3;25.5;25.6;28;28.0;28.2;-1.0;
17/02/2025 10:36:29;117;0;235.11;-4;20.12;2.31;647.9;11.80;74919;2838.013;-1800.715;1;229;310;312.9;25.5;25.6;30;29.8;28.2;-1.0;
17/02/2025 10:36:49;117;0;235.53;-4;19.86;3.50;645.5;11.80;74925;2838.011;-1800.718;1;229;310;312.9;25.5;25.6;30;30.2;28.2;-1.0;
17/02/2025 10:37:09;117;0;235.63;-4;19.93;3.57;643.4;11.80;74919;2838.010;-1800.721;1;229;310;312.9;25.5;25.6;30;30.2;28.2;-1.0;
17/02/2025 10:37:29;117;0;235.63;-4;20.13;3.59;641.1;11.80;74930;2838.008;-1800.724;1;229;310;312.9;25.5;25.6;30;30.2;28.2;-1.0;
17/02/2025 10:37:49;117;0;234.80;-4;19.96;3.57;638.9;11.80;74926;2838.007;-1800.727;1;229;310;312.9;25.5;25.6;30;30.2;28.2;-1.0;
17/02/2025 10:38:09;117;0;234.70;-4;19.96;3.60;636.8;11.80;74929;2838.005;-1800.729;1;229;310;312.9;25.5;25.6;30;30.2;28.2;-1.0;
17/02/2025 10:38:29;117;0;234.50;-4;19.95;3.59;634.8;11.80;74923;2838.004;-1800.732;1;229;310;312.9;25.5;25.6;30;30.2;28.2;-1.0;
17/02/2025 10:38:49;117;0;234.37;-4;20.09;3.60;632.8;11.80;74926;2838.002;-1800.735;1;229;330;332.3;25.5;25.6;30;30.2;28.2;-1.0;
17/02/2025 10:39:09;117;0;238.19;-4;19.82;3.62;630.9;11.80;74882;2838.001;-1800.737;1;229;350;353.2;25.5;25.6;25;24.8;28.2;-1.0;
17/02/2025 10:39:29;117;0;231.56;-4;18.92;0.81;628.9;11.80;74845;2837.999;-1800.740;1;229;370;369.4;25.2;25.2;31;31.1;28.2;-1.0;
17/02/2025 10:39:49;117;0;236.46;-4;18.93;4.34;626.8;11.80;74797;2837.998;-1800.742;1;229;370;372.6;24.9;24.6;28;27.5;28.2;-1.0;
17/02/2025 10:40:09;117;0;235.72;-4;19.94;2.16;624.8;11.80;74802;2837.997;-1800.745;1;229;370;372.6;24.9;24.3;28;27.5;28.2;-1.0;
17/02/2025 10:40:29;117;0;234.80;-4;20.09;2.19;622.7;11.80;74802;2837.995;-1800.748;1;229;370;372.6;24.9;24.3;30;29.8;28.2;-1.0;
17/02/2025 10:40:49;117;0;235.04;-4;20.20;3.55;620.4;11.80;74796;2837.993;-1800.751;1;229;370;371.0;24.9;24.4;30;29.8;28.2;-1.0;
17/02/2025 10:41:09;117;0;235.16;-4;20.37;3.48;618.2;11.80;74807;2837.992;-1800.753;1;229;370;372.6;24.9;24.3;30;29.8;28.2;-1.0;
17/02/2025 10:41:29;117;0;235.88;-4;20.58;3.44;616.2;11.80;74807;2837.991;-1800.756;1;229;390;393.5;24.9;24.4;28;27.1;28.2;-1.0;
17/02/2025 10:41:49;117;0;235.99;-4;20.27;2.31;614.0;11.80;74757;2837.989;-1800.759;1;229;390;393.5;24.9;24.3;28;27.5;28.2;-1.0;
17/02/2025 10:42:09;117;0;235.98;-4;19.59;2.14;611.9;11.80;74763;2837.988;-1800.762;1;229;390;393.5;24.9;24.4;28;27.5;28.2;-1.0;
17/02/2025 10:42:29;117;0;235.43;-4;19.69;2.34;609.8;11.80;74754;2837.986;-1800.764;1;229;390;393.5;24.9;24.4;28;27.5;28.2;-1.0;
17/02/2025 10:42:49;117;0;235.17;-4;19.77;2.37;607.7;11.80;74748;2837.985;-1800.767;1;229;390;393.5;24.9;24.3;28;27.5;28.2;-1.0;
17/02/2025 10:43:09;117;0;235.94;-4;19.73;2.31;605.8;11.80;74754;2837.984;-1800.769;1;229;410;411.3;24.9;24.4;28;27.5;28.2;-1.0;
17/02/2025 10:43:29;117;0;236.86;-4;19.47;2.28;603.7;11.80;74720;2837.982;-1800.772;1;229;410;411.3;24.9;24.4;28;27.5;28.2;-1.0;
17/02/2025 10:43:49;117;0;237.84;-4;19.23;2.24;601.7;11.80;74731;2837.981;-1800.775;1;229;410;409.7;24.9;24.6;28;27.5;28.2;-1.0;
17/02/2025 10:44:09;117;0;235.43;-4;18.92;2.34;599.7;11.80;74736;2837.979;-1800.778;1;228;430;433.9;24.5;24.6;28;27.5;28.2;-1.0;
17/02/2025 10:44:29;117;0;229.80;-4;18.29;2.37;597.8;11.90;74685;2837.978;-1800.780;1;228;450;453.2;24.0;23.7;31;31.1;28.2;-1.0;
17/02/2025 10:44:49;117;0;235.41;-4;19.46;4.55;595.8;11.90;74635;2837.976;-1800.783;1;228;450;451.6;24.0;24.2;28;28.0;28.2;-1.0;
17/02/2025 10:45:09;117;0;235.38;-4;18.89;2.63;593.6;11.90;74642;2837.975;-1800.786;1;228;450;453.2;23.7;23.6;28;28.0;28.2;-1.0;
17/02/2025 10:45:29;117;0;235.04;-4;20.33;2.55;591.4;11.90;74648;2837.973;-1800.788;1;228;450;453.2;23.7;22.8;28;28.0;28.2;-1.0;
17/02/2025 10:45:49;117;0;234.31;-4;20.79;2.76;589.0;11.90;74645;2837.971;-1800.791;1;228;450;453.2;23.7;23.0;28;28.0;28.2;-1.0;
17/02/2025 10:46:09;117;0;233.78;-4;20.83;2.72;586.4;11.90;74647;2837.970;-1800.795;1;228;450;451.6;23.7;23.0;28;28.0;28.2;-1.0;
17/02/2025 10:46:29;117;0;233.66;-4;20.59;2.67;583.8;11.90;74645;2837.968;-1800.798;1;228;450;451.6;23.7;23.0;28;28.0;28.2;-1.0;
17/02/2025 10:46:49;117;0;232.01;-4;20.57;2.64;581.3;11.90;74652;2837.966;-1800.801;1;228;450;453.2;23.7;23.7;30;30.2;28.2;-1.0;
17/02/2025 10:47:09;117;0;231.24;-4;19.56;3.91;578.8;11.90;74647;2837.964;-1800.804;1;228;450;451.6;23.7;24.0;30;30.2;28.2;-1.0;
17/02/2025 10:47:29;117;0;231.58;-4;19.44;3.74;576.5;11.90;74641;2837.962;-1800.807;1;228;450;453.2;23.7;24.0;30;30.2;28.2;-1.0;
17/02/2025 10:47:49;117;0;231.38;-4;19.42;3.77;574.1;11.90;74644;2837.960;-1800.810;1;228;450;453.2;23.7;23.9;30;30.2;28.2;-1.0;
17/02/2025 10:48:09;117;0;231.10;-4;19.51;3.80;571.7;11.90;74643;2837.958;-1800.813;1;228;450;451.6;23.7;24.0;30;30.2;28.2;-1.0;
17/02/2025 10:48:29;117;0;231.03;-4;19.35;3.76;569.4;11.90;74649;2837.957;-1800.815;1;228;450;453.2;23.7;24.0;30;30.2;28.2;-1.0;
17/02/2025 10:48:49;117;0;232.17;-4;19.45;3.81;567.1;11.90;74659;2837.955;-1800.818;1;228;450;453.2;23.7;24.0;30;30.2;28.2;-1.0;
17/02/2025 10:49:09;117;0;233.44;-4;19.30;3.74;564.6;12.00;74669;2837.953;-1800.822;1;228;450;453.2;23.7;24.0;30;30.2;28.2;-1.0;
17/02/2025 10:49:29;117;0;234.62;-4;19.19;3.80;562.1;12.00;74675;2837.951;-1800.825;1;228;450;453.2;23.7;24.0;28;26.6;28.2;-1.0;
17/02/2025 10:49:49;117;0;234.97;-4;18.94;2.57;559.5;12.00;74674;2837.949;-1800.828;1;228;450;453.2;23.4;23.4;28;27.5;28.2;-1.0;
17/02/2025 10:50:09;117;0;234.57;-4;19.87;2.47;556.9;12.00;74671;2837.947;-1800.831;1;228;450;453.2;23.4;23.0;28;27.5;28.2;-1.0;
17/02/2025 10:50:29;117;0;234.49;-4;20.24;2.44;554.2;12.00;74678;2837.945;-1800.835;1;228;450;451.6;23.4;23.0;28;27.5;28.2;-1.0;
17/02/2025 10:50:49;117;0;234.62;-4;20.36;2.44;551.3;12.00;74681;2837.943;-1800.839;1;228;450;451.6;23.4;23.0;28;27.5;28.2;-1.0;
17/02/2025 10:51:09;117;0;233.77;-4;20.31;2.50;548.5;12.00;74679;2837.941;-1800.842;1;228;450;453.2;23.4;23.0;28;27.5;28.2;-1.0;
17/02/2025 10:51:29;117;0;233.06;-4;20.35;2.56;545.5;12.00;74677;2837.939;-1800.846;1;228;450;453.2;23.4;23.0;28;28.0;28.2;-1.0;
17/02/2025 10:51:49;117;0;233.17;-4;20.33;2.49;542.6;12.00;74681;2837.937;-1800.849;1;228;450;453.2;23.4;23.0;28;27.5;28.2;-1.0;
17/02/2025 10:52:09;117;0;232.17;-4;20.40;2.46;539.7;12.00;74694;2837.935;-1800.853;1;227;450;453.2;23.4;23.0;28;27.5;28.2;-1.0;
17/02/2025 10:52:29;117;0;230.97;-4;20.50;2.47;536.6;12.00;74691;2837.932;-1800.856;1;227;450;453.2;23.4;23.0;30;29.8;28.2;-1.0;
17/02/2025 10:52:49;117;0;228.66;-4;20.27;3.90;533.6;12.00;74683;2837.930;-1800.860;1;227;450;453.2;23.4;22.8;30;30.2;28.2;-1.0;
17/02/2025 10:53:09;117;0;226.89;-4;20.36;3.90;530.6;12.10;74689;2837.927;-1800.863;1;227;450;454.8;23.4;23.0;30;30.2;28.2;-1.0;
17/02/2025 10:53:29;117;0;225.58;-4;20.42;3.84;527.6;12.10;74696;2837.925;-1800.867;1;227;450;453.2;23.4;23.0;30;30.2;28.2;-1.0;
17/02/2025 10:53:49;117;0;224.74;-4;20.45;3.80;524.6;12.10;74690;2837.922;-1800.870;1;227;450;453.2;23.4;23.0;30;30.2;28.2;-1.0;
17/02/2025 10:54:09;117;0;224.51;-4;20.48;3.79;521.7;12.10;74693;2837.919;-1800.873;1;227;450;453.2;23.4;23.0;30;30.2;28.2;-1.0;
17/02/2025 10:54:29;117;0;224.06;-4;20.39;3.85;518.6;12.10;74691;2837.917;-1800.876;1;227;450;453.2;23.4;23.0;30;30.2;28.2;-1.0;
17/02/2025 10:54:49;117;0;223.39;-4;20.49;3.84;515.6;12.10;74689;2837.914;-1800.879;1;227;450;453.2;23.4;23.0;30;30.2;28.2;-1.0;
17/02/2025 10:55:09;117;0;224.63;-4;20.57;3.88;512.7;12.10;74699;2837.911;-1800.883;1;227;450;453.2;23.4;23.0;30;30.2;28.2;-1.0;
17/02/2025 10:55:29;117;0;224.94;-4;20.52;3.84;509.7;12.10;74701;2837.909;-1800.886;1;227;450;454.8;23.4;23.0;30;30.2;28.2;-1.0;
17/02/2025 10:55:49;117;0;225.08;-4;20.64;3.86;506.5;12.10;74701;2837.906;-1800.889;1;227;450;453.2;23.4;23.1;30;30.2;28.2;-1.0;
17/02/2025 10:56:09;117;0;225.23;-4;20.68;3.87;503.5;12.10;74711;2837.904;-1800.892;1;227;450;453.2;23.4;23.0;30;30.2;28.2;-1.0;
17/02/2025 10:56:29;117;0;223.36;-4;20.69;3.76;500.4;12.20;74713;2837.901;-1800.895;1;227;450;453.2;23.4;23.0;30;30.2;28.2;-1.0;
17/02/2025 10:56:49;117;0;222.47;-4;20.47;3.93;497.3;12.20;74724;2837.898;-1800.899;1;227;450;453.2;23.4;22.8;30;30.2;28.2;-1.0;
17/02/2025 10:57:09;117;0;222.19;-4;20.50;3.83;494.1;12.20;74721;2837.895;-1800.902;1;227;450;454.8;23.4;23.0;30;30.2;28.2;-1.0;
17/02/2025 10:57:29;117;0;221.56;-4;20.46;3.91;490.8;12.20;74714;2837.892;-1800.905;1;228;450;453.2;23.4;23.0;30;30.2;28.2;-1.0;
17/02/2025 10:57:49;117;0;221.34;-4;20.40;3.85;487.7;12.20;74712;2837.889;-1800.908;1;228;450;453.2;23.4;22.8;30;30.2;28.2;-1.0;
17/02/2025 10:58:09;117;0;221.02;-4;20.42;3.86;484.5;12.20;74716;2837.886;-1800.912;1;228;450;454.8;23.4;23.0;30;30.2;28.2;-1.0;
17/02/2025 10:58:29;117;0;220.54;-4;20.41;3.86;481.3;12.20;74721;2837.883;-1800.915;1;228;450;453.2;23.4;23.0;30;30.2;28.2;-1.0;
17/02/2025 10:58:49;117;0;220.81;-4;20.50;3.83;478.1;12.20;74714;2837.880;-1800.918;1;228;450;453.2;23.4;23.0;30;30.2;28.2;-1.0;
17/02/2025 10:59:09;117;0;220.97;-4;20.52;3.84;474.8;12.30;74721;2837.877;-1800.921;1;228;450;453.2;23.4;23.0;30;30.2;28.2;-1.0;
17/02/2025 10:59:29;117;0;220.72;-4;20.41;3.81;471.5;12.30;74721;2837.874;-1800.925;1;228;450;453.2;23.4;23.0;30;30.2;28.2;-1.0;
17/02/2025 10:59:49;117;0;219.63;-4;20.32;3.86;468.2;12.30;74721;2837.871;-1800.928;1;228;450;453.2;23.4;23.0;32;32.0;28.2;-1.0;
17/02/2025 11:00:10;117;0;220.29;-4;20.57;5.36;464.9;12.30;74728;2837.868;-1800.931;1;228;450;453.2;23.4;23.0;32;32.9;28.2;-1.0;
17/02/2025 11:00:30;117;0;220.91;-4;20.66;5.38;461.5;12.30;74723;2837.865;-1800.934;1;228;450;454.8;23.4;23.0;32;33.4;28.2;-1.0;
17/02/2025 11:00:50;117;0;223.77;-4;20.59;5.38;458.2;12.30;74733;2837.862;-1800.938;1;228;450;453.2;23.4;23.0;32;33.4;28.2;-1.0;
17/02/2025 11:01:10;117;0;229.00;-4;20.89;5.10;454.8;12.30;74731;2837.859;-1800.942;1;228;450;453.2;23.4;23.0;32;32.9;28.2;-1.0;
17/02/2025 11:01:30;117;0;230.49;-4;20.42;5.65;451.4;12.30;74749;2837.856;-1800.946;1;228;450;453.2;23.4;23.0;30;29.8;28.2;-1.0;
17/02/2025 11:01:50;117;0;231.70;-4;20.53;4.88;447.9;12.30;74753;2837.854;-1800.950;1;228;450;453.2;23.4;22.8;30;32.0;28.2;-1.0;
17/02/2025 11:02:10;117;0;232.04;-4;20.60;4.83;444.5;12.30;74753;2837.851;-1800.954;1;228;450;453.2;23.4;23.0;30;32.0;28.2;-1.0;
17/02/2025 11:02:30;117;0;231.59;-4;20.38;4.62;441.1;12.40;74752;2837.849;-1800.958;1;228;450;454.8;23.4;23.0;30;32.0;28.2;-1.0;
17/02/2025 11:02:50;117;0;233.06;-4;20.12;4.77;437.7;12.40;74752;2837.846;-1800.962;1;228;450;453.2;23.4;23.0;30;32.0;28.2;-1.0;
17/02/2025 11:03:10;117;0;233.77;-4;20.33;4.60;434.6;12.40;74752;2837.844;-1800.966;1;227;450;453.2;23.4;23.0;28;27.1;28.2;-1.0;
17/02/2025 11:03:30;117;0;232.49;-4;20.08;2.64;431.3;12.40;74752;2837.841;-1800.970;1;227;450;454.8;23.4;22.8;28;28.0;28.2;-1.0;
17/02/2025 11:03:50;117;0;231.42;-4;20.21;2.63;428.2;12.40;74758;2837.839;-1800.973;1;227;450;453.2;23.4;22.8;30;30.2;28.2;-1.0;
17/02/2025 11:04:10;117;0;232.65;-4;20.50;3.94;425.0;12.40;74766;2837.837;-1800.977;1;227;450;453.2;23.4;23.0;30;30.7;28.2;-1.0;
17/02/2025 11:04:30;117;0;233.86;-4;20.48;3.94;421.8;12.40;74757;2837.834;-1800.981;1;227;450;454.8;23.4;22.8;28;27.5;28.2;-1.0;
