Timestamp;NavState;SecurityLevel;Heading;Declination;Pitch;Roll;Depth;Temperature;Pa;Lat;Lon;DeadReckoning;DesiredH;BallastCmd;BallastPos;LinCmd;LinPos;AngCmd;AngPos;Voltage;Altitude;
24/02/2025 13:15:51;119;0;160.97;-4;-48.99;-11.31;0.0;17.30;75690;2833.582;-1757.316;0;151;500;508.1;100.0;100.6;0;-0.5;26.6;-1.0;
24/02/2025 13:16:01;116;0;164.27;-4;-50.62;-16.60;0.3;17.30;75697;2833.587;-1757.325;0;151;500;506.5;100.0;100.6;0;-0.5;26.6;-1.0;
24/02/2025 13:16:26;116;0;173.68;-4;-57.43;1.87;0.2;17.40;75706;2833.590;-1757.324;0;151;500;506.5;100.0;100.6;0;-0.5;26.6;-1.0;
24/02/2025 13:16:48;116;0;152.47;-4;-54.11;-22.22;0.2;17.40;75712;2833.590;-1757.324;0;318;500;506.5;100.0;100.6;0;-0.5;26.6;-1.0;
24/02/2025 13:17:08;116;0;157.71;-4;-54.27;-16.38;0.1;17.50;75727;2833.594;-1757.322;0;318;500;506.5;100.0;100.6;0;-0.5;26.6;-1.0;
24/02/2025 13:17:58;116;0;161.67;-4;-53.51;-15.77;0.1;17.70;75745;2833.601;-1757.321;0;318;500;508.1;100.0;100.6;0;-0.5;26.6;-1.0;
24/02/2025 13:19:00;116;0;163.36;-4;-50.57;-21.71;0.2;17.90;75769;2833.608;-1757.321;0;318;500;508.1;100.0;100.6;0;-0.5;26.6;-1.0;
24/02/2025 13:20:37;116;0;180.20;-4;-57.37;-23.98;0.2;18.30;75816;2833.619;-1757.323;0;318;500;506.5;100.0;100.6;0;-0.5;26.6;-1.0;
24/02/2025 13:21:53;116;0;165.02;-4;-53.11;-3.89;0.0;18.70;75840;2833.629;-1757.326;0;318;500;506.5;100.0;100.6;0;-0.5;26.6;-1.0;
24/02/2025 13:22:04;116;0;169.74;-4;-56.62;-15.69;0.0;18.80;75846;2833.630;-1757.325;0;318;500;508.1;100.0;100.6;0;-0.5;26.6;-1.0;
24/02/2025 13:22:24;110;0;180.80;-4;-58.02;-26.05;0.0;18.80;75847;2833.630;-1757.325;0;318;-70;390.3;100.0;100.6;-7;-7.2;26.6;-1.0;
24/02/2025 13:22:34;110;0;168.45;-4;-56.58;-18.33;0.1;18.90;76204;2833.630;-1757.325;1;318;-70;240.3;100.0;100.6;-7;-7.7;26.6;-1.0;
24/02/2025 13:22:44;110;0;171.90;-4;-60.22;-25.42;0.6;19.00;76448;2833.630;-1757.325;1;318;-70;82.3;100.0;100.6;-7;-7.7;26.6;-1.0;
24/02/2025 13:22:54;110;0;168.75;-4;-63.45;1.36;0.9;19.00;76774;2833.630;-1757.325;1;318;-70;-66.1;100.0;100.6;-7;-7.7;26.6;-1.0;
24/02/2025 13:23:04;110;0;191.29;-4;-66.37;-18.27;1.3;19.00;77078;2833.630;-1757.325;1;318;-70;-66.1;41.7;41.5;-7;-7.7;26.6;-1.0;
24/02/2025 13:23:24;100;0;201.54;-4;-30.09;-14.72;4.6;19.10;77037;2833.628;-1757.327;1;318;-70;-64.5;41.7;41.4;-7;-7.7;26.6;-1.0;
24/02/2025 13:23:44;100;0;210.38;-4;-18.11;-16.05;7.5;19.20;77048;2833.625;-1757.329;1;318;-70;-62.9;42.3;42.6;-70;-69.9;26.6;-1.0;
24/02/2025 13:24:04;100;0;220.40;-4;-18.65;-45.06;10.2;19.20;77054;2833.623;-1757.331;1;318;-70;-58.1;42.7;42.7;-70;-69.9;26.6;-1.0;
24/02/2025 13:24:24;100;0;231.45;-4;-19.03;-45.98;13.1;19.30;77045;2833.621;-1757.335;1;318;-70;-58.1;42.7;42.9;-70;-69.9;26.6;0.0;
24/02/2025 13:24:44;100;0;241.19;-4;-18.98;-45.67;15.7;19.30;77056;2833.620;-1757.338;1;318;-70;-59.7;43.0;43.0;-70;-69.9;26.6;0.0;
24/02/2025 13:25:04;100;0;251.04;-4;-19.45;-45.34;18.4;19.40;77066;2833.619;-1757.342;1;318;-70;-59.7;43.0;43.3;-60;-59.6;26.6;0.0;
24/02/2025 13:25:24;100;0;264.32;-4;-19.46;-40.13;21.1;19.40;77059;2833.619;-1757.346;1;318;-70;-59.7;43.0;43.3;-44;-43.8;26.6;0.0;
24/02/2025 13:25:44;100;0;277.39;-4;-19.33;-32.08;23.6;19.40;77059;2833.620;-1757.350;1;318;-70;-59.7;43.0;43.3;-27;-27.1;26.6;0.0;
24/02/2025 13:26:04;100;0;289.66;-4;-19.63;-23.71;26.0;19.40;77058;2833.621;-1757.353;1;318;-70;-59.7;43.0;43.6;-8;-7.7;26.6;0.0;
24/02/2025 13:26:24;100;0;294.02;-4;-20.11;-14.87;28.7;19.40;77058;2833.623;-1757.357;1;318;-70;-58.1;43.0;43.6;0;0.0;26.6;0.0;
24/02/2025 13:26:44;100;0;297.52;-4;-20.62;-11.11;31.2;19.40;77064;2833.625;-1757.360;1;318;-70;-58.1;43.0;43.4;5;5.0;26.6;0.0;
24/02/2025 13:27:04;100;0;299.09;-4;-21.05;-8.98;33.6;19.40;77061;2833.627;-1757.363;1;318;-70;-59.7;43.0;43.6;7;7.2;26.6;0.0;
24/02/2025 13:27:24;100;0;299.07;-4;-20.78;-7.87;36.2;19.40;77068;2833.629;-1757.366;1;318;-70;-58.1;43.0;43.4;7;7.7;26.6;0.0;
24/02/2025 13:27:44;100;0;300.85;-4;-20.81;-7.70;38.7;19.40;77073;2833.631;-1757.369;1;318;-70;-58.1;43.0;43.4;9;9.0;26.6;0.0;
24/02/2025 13:28:04;100;0;302.76;-4;-21.58;-6.69;41.3;19.40;77069;2833.633;-1757.372;1;318;-70;-59.7;43.0;43.4;11;10.8;26.6;0.0;
24/02/2025 13:28:24;100;0;303.94;-4;-21.56;-5.93;43.9;19.40;77080;2833.635;-1757.375;1;318;-70;-59.7;43.0;43.4;11;11.3;26.6;0.0;
24/02/2025 13:28:44;100;0;304.33;-4;-21.43;-5.92;46.5;19.40;77074;2833.637;-1757.378;1;318;-70;-59.7;43.0;43.6;11;11.3;26.6;0.0;
24/02/2025 13:29:04;100;0;304.08;-4;-21.71;-5.94;49.1;19.40;77069;2833.640;-1757.381;1;318;-70;-61.3;43.0;43.4;11;11.3;26.6;0.0;
24/02/2025 13:29:24;100;0;304.34;-4;-21.22;-5.92;51.6;19.40;77089;2833.642;-1757.384;1;318;-70;-59.7;43.0;43.6;11;11.3;26.6;0.0;
24/02/2025 13:29:44;100;0;304.70;-4;-21.39;-5.96;54.3;19.40;77092;2833.644;-1757.387;1;318;-70;-58.1;43.0;43.6;11;10.8;26.6;0.0;
24/02/2025 13:30:04;100;0;305.02;-4;-21.47;-5.88;56.9;19.40;77092;2833.646;-1757.390;1;318;-70;-59.7;43.0;43.4;13;13.1;26.6;0.0;
24/02/2025 13:30:24;100;0;305.86;-4;-21.15;-4.67;59.4;19.40;77092;2833.649;-1757.393;1;318;-70;-59.7;43.0;43.4;13;13.5;26.6;0.0;
24/02/2025 13:30:44;100;0;305.86;-4;-21.24;-4.71;62.1;19.40;77103;2833.651;-1757.396;1;318;-70;-59.7;43.0;43.6;13;13.5;26.6;0.0;
24/02/2025 13:31:04;100;0;305.81;-4;-21.39;-4.61;64.7;19.40;77106;2833.653;-1757.399;1;318;-70;-59.7;43.0;43.4;13;13.5;26.6;0.0;
24/02/2025 13:31:24;100;0;306.10;-4;-21.43;-4.67;67.2;19.40;77112;2833.656;-1757.402;1;318;-70;-59.7;43.0;43.4;13;13.5;26.6;0.0;
24/02/2025 13:31:44;100;0;306.23;-4;-21.40;-4.62;69.8;19.40;77115;2833.658;-1757.405;1;318;-70;-59.7;43.0;43.4;13;13.5;26.6;0.0;
24/02/2025 13:32:04;100;0;305.22;-4;-21.51;-4.62;72.3;19.40;77115;2833.660;-1757.407;1;318;-70;-59.7;43.0;43.4;13;13.5;26.6;0.0;
24/02/2025 13:32:24;100;0;305.59;-4;-21.32;-4.67;74.9;19.40;77115;2833.662;-1757.410;1;318;-70;-59.7;43.0;43.6;13;13.5;26.6;0.0;
24/02/2025 13:32:44;100;0;305.96;-4;-21.34;-4.66;77.4;19.40;77117;2833.664;-1757.413;1;318;-70;-59.7;43.0;43.6;13;13.5;26.6;0.0;
24/02/2025 13:33:04;100;0;304.74;-4;-21.41;-4.64;79.9;19.40;77122;2833.667;-1757.416;1;318;-70;-59.7;43.0;43.6;13;13.5;26.6;0.0;
24/02/2025 13:33:24;100;0;303.57;-4;-21.34;-4.66;82.4;19.40;77122;2833.669;-1757.419;1;318;-70;-59.7;43.0;43.4;11;10.8;26.6;0.0;
24/02/2025 13:33:44;100;0;303.61;-4;-21.11;-6.38;85.0;19.40;77128;2833.671;-1757.422;1;318;-70;-58.1;43.0;43.4;11;10.4;26.6;0.0;
24/02/2025 13:34:04;100;0;304.47;-4;-20.96;-6.41;87.4;19.40;77131;2833.673;-1757.425;1;318;-70;-58.1;43.0;43.6;11;10.4;26.6;0.0;
24/02/2025 13:34:24;100;0;305.06;-4;-20.96;-6.42;89.9;19.40;77131;2833.675;-1757.428;1;318;-70;-59.7;43.0;43.4;11;10.4;26.6;0.0;
24/02/2025 13:34:44;100;0;307.59;-4;-20.82;-6.46;92.3;19.40;77129;2833.678;-1757.431;1;318;-70;-59.7;43.0;43.6;13;13.1;26.6;0.0;
24/02/2025 13:35:04;100;0;310.62;-4;-21.01;-4.79;94.7;19.40;77134;2833.680;-1757.433;1;318;-70;-59.7;43.0;43.4;13;13.5;26.6;0.0;
24/02/2025 13:35:24;100;0;312.72;-4;-20.98;-4.76;97.1;19.40;77135;2833.682;-1757.436;1;318;-70;-59.7;43.0;43.4;13;13.5;26.6;0.0;
24/02/2025 13:35:44;100;0;310.72;-4;-21.13;-4.84;99.4;19.40;77126;2833.685;-1757.438;1;318;-70;-58.1;43.0;43.4;13;13.5;26.6;0.0;
24/02/2025 13:36:04;100;0;311.45;-4;-21.23;-4.82;101.8;19.40;77126;2833.687;-1757.441;1;318;-70;-59.7;43.0;43.4;13;13.5;26.6;0.0;
24/02/2025 13:36:24;100;0;316.15;-4;-21.23;-4.71;104.2;19.40;77126;2833.690;-1757.443;1;318;-70;-58.1;43.0;43.4;13;13.5;26.6;0.0;
24/02/2025 13:36:44;100;0;314.38;-4;-21.11;-4.76;106.5;19.30;77114;2833.692;-1757.445;1;318;-70;-58.1;43.0;43.6;13;13.5;26.6;0.0;
24/02/2025 13:37:04;100;0;311.30;-4;-21.25;-4.78;108.8;19.30;77117;2833.694;-1757.448;1;318;-70;-59.7;43.0;43.4;13;13.5;26.6;0.0;
24/02/2025 13:37:24;100;0;302.96;-4;-21.39;-4.74;111.1;19.30;77100;2833.696;-1757.450;1;318;-70;-59.7;43.0;43.4;11;10.8;26.6;0.0;
24/02/2025 13:37:44;100;0;295.51;-4;-20.90;-6.35;113.4;19.30;77096;2833.698;-1757.453;1;318;-70;-59.7;43.0;43.4;3;3.2;26.6;0.0;
24/02/2025 13:38:04;100;0;290.95;-4;-20.73;-10.25;115.7;19.30;77065;2833.699;-1757.456;1;318;-70;-58.1;43.0;43.4;-5;-5.0;26.6;0.0;
24/02/2025 13:38:24;100;0;298.78;-4;-19.99;-14.32;117.9;19.30;77060;2833.701;-1757.459;1;318;-70;-59.7;43.0;43.4;7;7.2;26.6;0.0;
24/02/2025 13:38:44;100;0;304.92;-4;-20.61;-7.76;120.1;19.20;77030;2833.703;-1757.462;1;318;-70;-58.1;43.0;43.4;13;13.1;26.6;0.0;
24/02/2025 13:39:04;100;0;309.11;-4;-20.85;-4.77;122.5;19.20;77022;2833.705;-1757.464;1;318;-70;-59.7;43.0;43.6;13;13.5;26.6;0.0;
24/02/2025 13:39:24;100;0;313.47;-4;-20.98;-4.69;124.8;19.20;77011;2833.708;-1757.467;1;318;-70;-59.7;43.0;43.6;13;13.5;26.6;0.0;
24/02/2025 13:39:44;100;0;310.82;-4;-21.46;-4.71;127.1;19.20;76994;2833.710;-1757.469;1;318;-70;-59.7;43.0;43.4;13;13.5;26.6;0.0;
24/02/2025 13:40:04;100;0;309.04;-4;-21.14;-4.77;129.7;19.10;76982;2833.713;-1757.472;1;318;-70;-58.1;43.0;43.4;13;13.5;26.6;0.0;
24/02/2025 13:40:24;100;0;308.32;-4;-20.15;-4.79;132.1;19.10;76969;2833.715;-1757.475;1;318;-70;-59.7;43.0;43.6;13;13.5;26.6;0.0;
24/02/2025 13:40:44;100;0;308.18;-4;-20.08;-4.60;134.4;19.10;76953;2833.717;-1757.477;1;318;-70;-59.7;43.0;43.4;13;13.5;26.6;0.0;
24/02/2025 13:41:04;100;0;308.07;-4;-20.98;-4.73;136.5;19.10;76952;2833.719;-1757.480;1;318;-70;-59.7;43.0;43.4;13;13.5;26.6;0.0;
24/02/2025 13:41:24;100;0;306.51;-4;-20.39;-4.75;138.8;19.00;76944;2833.721;-1757.482;1;318;-70;-59.7;43.0;43.4;13;13.5;26.6;0.0;
24/02/2025 13:41:44;100;0;305.46;-4;-20.21;-4.79;141.0;19.00;76941;2833.723;-1757.485;1;318;-70;-59.7;43.0;43.4;13;13.5;26.6;0.0;
24/02/2025 13:42:04;100;0;303.33;-4;-20.24;-4.75;143.2;19.00;76930;2833.725;-1757.488;1;318;-70;-59.7;43.0;43.4;11;10.8;26.6;0.0;
24/02/2025 13:42:24;100;0;304.68;-4;-20.56;-6.47;145.4;19.00;76937;2833.727;-1757.490;1;318;-70;-59.7;43.0;43.4;11;10.4;26.6;0.0;
24/02/2025 13:42:44;100;0;302.40;-4;-20.35;-6.50;147.7;18.90;76927;2833.729;-1757.493;1;318;-70;-58.1;43.0;43.4;11;10.4;26.6;0.0;
24/02/2025 13:43:04;100;0;302.10;-4;-20.50;-6.48;150.0;18.90;76925;2833.731;-1757.496;1;318;-70;-59.7;43.0;43.6;11;10.4;26.6;0.0;
24/02/2025 13:43:24;100;0;303.46;-4;-20.82;-6.47;152.5;18.90;76901;2833.733;-1757.499;1;318;-70;-58.1;43.0;43.4;11;10.4;26.6;0.0;
24/02/2025 13:43:44;100;0;301.60;-4;-20.17;-6.43;155.0;18.90;76896;2833.735;-1757.502;1;318;-70;-61.3;43.0;43.4;9;9.0;26.6;0.0;
24/02/2025 13:44:04;100;0;302.93;-4;-20.25;-7.29;157.4;18.80;76892;2833.738;-1757.505;1;318;-70;-61.3;43.0;43.4;9;8.6;26.6;0.0;
24/02/2025 13:44:24;100;0;306.12;-4;-20.17;-7.28;159.9;18.80;76877;2833.740;-1757.508;1;318;-70;-59.7;43.0;43.4;12;12.2;26.6;0.0;
24/02/2025 13:44:44;100;0;307.72;-4;-20.15;-5.44;162.4;18.80;76874;2833.742;-1757.510;1;318;-70;-59.7;43.0;43.4;12;12.2;26.6;0.0;
24/02/2025 13:45:04;100;0;308.88;-4;-20.67;-5.39;164.9;18.70;76861;2833.745;-1757.513;1;318;-70;-58.1;43.0;43.4;12;12.2;26.6;0.0;
24/02/2025 13:45:24;100;0;311.94;-4;-20.50;-5.40;167.4;18.70;76848;2833.747;-1757.516;1;318;-70;-59.7;43.0;43.4;12;12.2;26.6;0.0;
24/02/2025 13:45:44;100;0;310.79;-4;-20.81;-5.39;170.1;18.70;76844;2833.750;-1757.519;1;318;-70;-58.1;43.0;43.4;12;12.6;26.6;0.0;
24/02/2025 13:46:04;100;0;313.13;-4;-20.98;-5.36;172.9;18.60;76826;2833.753;-1757.522;1;318;-70;-59.7;43.0;43.4;12;12.2;26.6;0.0;
24/02/2025 13:46:24;100;0;310.63;-4;-20.93;-5.40;175.6;18.60;76818;2833.755;-1757.524;1;318;-70;-58.1;43.0;43.6;12;12.6;26.6;0.0;
24/02/2025 13:46:44;100;0;310.88;-4;-20.85;-5.32;178.4;18.60;76809;2833.758;-1757.527;1;318;-70;-59.7;43.0;43.6;12;12.2;26.6;0.0;
24/02/2025 13:47:04;100;0;311.67;-4;-20.85;-5.36;181.1;18.50;76797;2833.760;-1757.530;1;318;-70;-59.7;43.0;43.4;12;12.6;26.6;0.0;
24/02/2025 13:47:25;100;0;314.17;-4;-20.52;-5.35;183.9;18.50;76789;2833.763;-1757.533;1;318;-70;-59.7;43.0;43.4;12;12.2;26.6;0.0;
24/02/2025 13:47:45;100;0;314.65;-4;-20.36;-5.36;186.5;18.50;76771;2833.766;-1757.536;1;318;-70;-59.7;43.0;43.4;12;12.2;26.6;0.0;
24/02/2025 13:48:05;100;0;312.41;-4;-20.28;-5.43;189.1;18.40;76762;2833.769;-1757.539;1;318;-70;-61.3;43.0;43.4;12;12.6;26.6;0.0;
24/02/2025 13:48:25;100;0;310.04;-4;-20.31;-5.41;191.6;18.40;76751;2833.771;-1757.541;1;318;-70;-59.7;43.0;43.4;12;12.2;26.6;0.0;
24/02/2025 13:48:45;100;0;308.63;-4;-20.25;-5.39;194.3;18.40;76750;2833.774;-1757.544;1;318;-70;-59.7;43.0;43.6;12;12.2;26.6;0.0;
24/02/2025 13:49:05;100;0;305.60;-4;-20.14;-5.38;196.8;18.30;76737;2833.776;-1757.547;1;318;-70;-59.7;43.0;43.4;12;12.2;26.6;0.0;
24/02/2025 13:49:25;100;0;302.73;-4;-20.37;-5.40;199.4;18.30;76728;2833.778;-1757.551;1;318;-70;-59.7;43.0;43.6;10;9.9;26.6;0.0;
24/02/2025 13:49:45;100;0;306.63;-4;-20.17;-6.86;201.9;18.20;76703;2833.781;-1757.554;1;318;-70;-59.7;43.0;43.4;12;12.2;26.6;0.0;
24/02/2025 13:50:05;100;0;310.98;-4;-20.20;-5.30;204.7;18.20;76701;2833.783;-1757.557;1;318;-70;-58.1;43.0;43.4;12;12.6;26.6;0.0;
24/02/2025 13:50:25;100;0;311.44;-4;-20.22;-5.28;207.3;18.20;76699;2833.786;-1757.559;1;318;-70;-59.7;43.0;43.4;12;12.6;26.6;0.0;
24/02/2025 13:50:45;100;0;310.04;-4;-20.13;-5.24;209.9;18.10;76676;2833.789;-1757.562;1;318;-70;-58.1;43.0;43.4;12;12.6;26.6;0.0;
24/02/2025 13:51:05;100;0;308.60;-4;-20.18;-5.29;212.5;18.10;76675;2833.791;-1757.565;1;318;-70;-59.7;43.0;43.4;12;12.6;26.6;0.0;
24/02/2025 13:51:25;100;0;313.10;-4;-20.37;-5.27;215.2;18.00;76660;2833.794;-1757.568;1;318;-70;-59.7;43.0;43.6;12;12.6;26.6;0.0;
24/02/2025 13:51:45;100;0;315.51;-4;-20.29;-5.21;217.9;18.00;76651;2833.797;-1757.571;1;318;-70;-59.7;43.0;43.6;12;12.6;26.6;0.0;
24/02/2025 13:52:05;100;0;317.03;-4;-20.48;-5.20;220.6;18.00;76642;2833.800;-1757.574;1;318;-70;-59.7;43.0;43.4;12;12.6;26.6;0.0;
24/02/2025 13:52:25;100;0;315.83;-4;-19.78;-5.27;223.3;17.90;76632;2833.803;-1757.576;1;318;-70;-59.7;43.0;43.4;12;12.6;26.6;0.0;
24/02/2025 13:52:45;100;0;314.71;-4;-19.96;-5.35;225.8;17.90;76621;2833.805;-1757.579;1;318;-70;-58.1;43.0;43.4;12;12.6;26.6;0.0;
24/02/2025 13:53:05;100;0;313.40;-4;-20.24;-5.26;228.5;17.80;76611;2833.808;-1757.582;1;318;-70;-58.1;43.0;43.4;12;12.6;26.6;0.0;
24/02/2025 13:53:25;100;0;313.21;-4;-20.32;-5.22;231.2;17.80;76602;2833.811;-1757.585;1;318;-70;-58.1;43.0;43.6;12;12.6;26.6;0.0;
24/02/2025 13:53:45;100;0;311.70;-4;-20.18;-5.25;233.9;17.80;76598;2833.814;-1757.588;1;318;-70;-59.7;43.0;43.4;12;12.6;26.6;0.0;
24/02/2025 13:54:05;100;0;311.64;-4;-20.13;-5.21;236.5;17.70;76593;2833.816;-1757.591;1;318;-70;-59.7;43.0;43.6;12;12.6;26.6;0.0;
24/02/2025 13:54:25;100;0;314.05;-4;-20.01;-5.24;239.1;17.70;76582;2833.819;-1757.593;1;318;-70;-59.7;43.0;43.4;12;12.6;26.6;0.0;
24/02/2025 13:54:45;100;0;316.13;-4;-20.31;-5.26;241.8;17.60;76567;2833.822;-1757.596;1;318;-70;-59.7;43.0;43.4;12;12.6;26.6;0.0;
24/02/2025 13:55:05;100;0;318.21;-4;-20.09;-5.20;244.5;17.60;76560;2833.825;-1757.599;1;318;-70;-59.7;43.0;43.4;14;14.4;26.6;0.0;
24/02/2025 13:55:25;100;0;321.59;-4;-19.91;-4.28;247.1;17.60;76549;2833.828;-1757.601;1;318;-70;-58.1;43.0;43.4;14;14.9;26.6;0.0;
24/02/2025 13:55:45;100;0;324.48;-4;-19.90;-4.30;249.6;17.50;76545;2833.831;-1757.603;1;318;-70;-59.7;43.0;43.4;18;18.1;26.6;0.0;
24/02/2025 13:56:05;100;0;323.88;-4;-20.28;-2.40;252.0;17.50;76533;2833.834;-1757.605;1;318;-70;-58.1;43.0;43.4;18;18.5;26.6;0.0;
24/02/2025 13:56:25;100;0;323.09;-4;-20.24;-2.37;254.4;17.50;76523;2833.837;-1757.607;1;318;-70;-59.7;43.0;43.6;16;15.3;26.6;0.0;
24/02/2025 13:56:45;100;0;323.85;-4;-19.85;-4.16;256.8;17.40;76514;2833.840;-1757.609;1;318;-70;-59.7;43.0;43.4;16;15.3;26.6;0.0;
24/02/2025 13:57:05;100;0;324.82;-4;-19.70;-4.18;259.2;17.40;76504;2833.843;-1757.611;1;318;-70;-61.3;43.0;43.4;18;18.1;26.6;0.0;
24/02/2025 13:57:25;100;0;325.98;-4;-19.80;-2.56;261.5;17.30;76500;2833.846;-1757.613;1;318;-70;-58.1;43.0;43.6;21;21.2;26.6;0.0;
24/02/2025 13:57:45;100;0;324.41;-4;-19.96;-0.87;263.6;17.30;76496;2833.848;-1757.615;1;318;-70;-58.1;43.0;43.4;19;18.5;26.6;0.0;
24/02/2025 13:58:05;100;0;319.12;-4;-20.15;-2.64;265.8;17.20;76475;2833.851;-1757.617;1;318;-70;-59.7;43.0;43.6;15;14.9;26.6;0.0;
24/02/2025 13:58:25;100;0;316.81;-4;-20.05;-4.44;268.1;17.20;76477;2833.853;-1757.619;1;318;-70;-59.7;43.0;43.4;15;14.4;26.6;0.0;
24/02/2025 13:58:45;100;0;315.66;-4;-19.95;-4.50;270.4;17.20;76466;2833.856;-1757.622;1;318;-70;-59.7;43.0;43.6;15;14.4;26.6;0.0;
24/02/2025 13:59:05;100;0;313.38;-4;-20.43;-4.43;272.6;17.10;76453;2833.858;-1757.624;1;318;-70;-59.7;43.0;43.4;13;13.1;26.6;0.0;
24/02/2025 13:59:25;100;0;311.12;-4;-19.89;-5.22;275.0;17.10;76441;2833.861;-1757.627;1;318;-70;-59.7;43.0;43.4;13;13.1;26.6;0.0;
24/02/2025 13:59:45;100;0;310.04;-4;-19.97;-5.21;277.3;17.10;76445;2833.863;-1757.629;1;318;-70;-58.1;43.0;43.4;13;13.1;26.6;0.0;
24/02/2025 14:00:05;100;0;311.01;-4;-19.98;-5.20;279.6;17.00;76436;2833.865;-1757.632;1;318;-70;-59.7;43.0;43.4;13;13.1;26.6;0.0;
24/02/2025 14:00:25;100;0;310.75;-4;-20.41;-5.20;281.9;17.00;76429;2833.868;-1757.634;1;318;-70;-59.7;43.0;43.4;13;13.1;26.6;0.0;
24/02/2025 14:00:45;100;0;310.63;-4;-20.09;-5.20;284.5;16.90;76434;2833.870;-1757.637;1;318;-70;-58.1;43.0;43.4;13;13.1;26.6;0.0;
24/02/2025 14:01:05;100;0;309.34;-4;-20.04;-5.19;286.8;16.90;76416;2833.873;-1757.640;1;318;-70;-58.1;43.0;43.4;13;13.1;26.6;0.0;
24/02/2025 14:01:25;100;0;308.89;-4;-20.19;-5.21;289.4;16.90;76415;2833.875;-1757.643;1;318;-70;-59.7;43.0;43.4;13;13.1;26.6;0.0;
24/02/2025 14:01:45;100;0;309.41;-4;-20.24;-5.16;291.7;16.80;76412;2833.877;-1757.645;1;318;-70;-59.7;43.0;43.4;13;13.1;26.6;0.0;
24/02/2025 14:02:05;100;0;309.38;-4;-20.19;-5.14;294.2;16.80;76399;2833.880;-1757.648;1;318;-70;-59.7;43.0;43.4;13;13.1;26.6;0.0;
24/02/2025 14:02:25;100;0;311.07;-4;-20.19;-5.15;296.7;16.70;76393;2833.882;-1757.651;1;318;-70;-59.7;43.0;43.6;13;13.1;26.6;0.0;
24/02/2025 14:02:45;100;0;308.95;-4;-20.12;-5.21;299.1;16.70;76388;2833.885;-1757.654;1;318;-70;-58.1;43.0;43.4;13;13.1;26.6;0.0;
24/02/2025 14:03:05;100;0;306.63;-4;-20.20;-5.18;301.5;16.70;76377;2833.887;-1757.656;1;318;-70;-59.7;43.0;43.4;13;13.1;26.6;0.0;
24/02/2025 14:03:25;100;0;305.12;-4;-20.33;-5.19;303.9;16.60;76376;2833.889;-1757.659;1;318;-70;-58.1;43.0;43.4;13;13.1;26.6;0.0;
24/02/2025 14:03:45;100;0;302.03;-4;-20.06;-5.26;306.3;16.60;76364;2833.891;-1757.662;1;318;-70;-59.7;43.0;43.6;9;9.0;26.6;0.0;
24/02/2025 14:04:05;100;0;302.15;-4;-19.92;-7.29;308.6;16.60;76363;2833.893;-1757.665;1;318;-70;-59.7;43.0;43.4;9;8.6;26.6;0.0;
24/02/2025 14:04:25;100;0;300.53;-4;-19.66;-7.25;311.0;16.50;76350;2833.895;-1757.668;1;318;-70;-59.7;43.0;43.4;9;8.6;26.6;0.0;
24/02/2025 14:04:45;100;0;301.17;-4;-19.65;-7.26;313.3;16.50;76357;2833.897;-1757.671;1;318;-70;-59.7;43.0;43.4;9;8.6;26.6;0.0;
24/02/2025 14:05:05;100;0;301.48;-4;-19.45;-7.27;315.6;16.50;76342;2833.899;-1757.674;1;318;-70;-59.7;43.0;43.4;9;8.6;26.6;0.0;
24/02/2025 14:05:25;100;0;304.76;-4;-19.56;-7.25;317.8;16.50;76346;2833.901;-1757.677;1;318;-70;-59.7;43.0;43.6;12;12.2;26.6;0.0;
24/02/2025 14:05:45;100;0;307.11;-4;-19.64;-5.27;320.1;16.40;76324;2833.903;-1757.679;1;318;-70;-59.7;43.0;43.4;12;12.6;26.6;0.0;
24/02/2025 14:06:05;100;0;306.83;-4;-19.89;-5.27;322.2;16.40;76336;2833.905;-1757.682;1;318;-70;-59.7;43.0;43.4;12;12.6;26.6;0.0;
24/02/2025 14:06:25;100;0;306.49;-4;-19.71;-5.24;324.5;16.30;76321;2833.908;-1757.684;1;318;-70;-58.1;43.0;43.4;12;12.6;26.6;0.0;
24/02/2025 14:06:45;100;0;309.07;-4;-19.68;-5.26;326.6;16.30;76311;2833.910;-1757.687;1;318;-70;-59.7;43.0;43.4;12;12.6;26.6;0.0;
24/02/2025 14:07:05;100;0;310.73;-4;-19.82;-5.30;328.8;16.30;76307;2833.912;-1757.689;1;318;-70;-58.1;43.0;43.4;12;12.6;26.6;0.0;
24/02/2025 14:07:25;100;0;312.90;-4;-19.69;-5.25;330.9;16.20;76303;2833.914;-1757.692;1;318;-70;-61.3;43.0;43.4;12;12.6;26.6;0.0;
24/02/2025 14:07:45;100;0;314.03;-4;-19.40;-5.25;333.1;16.20;76288;2833.917;-1757.694;1;318;-70;-59.7;43.0;43.6;12;12.6;26.6;0.0;
24/02/2025 14:08:05;100;0;316.05;-4;-19.81;-5.25;335.2;16.20;76295;2833.919;-1757.696;1;318;-70;-59.7;43.0;43.4;12;12.6;26.6;0.0;
24/02/2025 14:08:25;100;0;317.30;-4;-19.78;-5.24;337.2;16.10;76282;2833.921;-1757.698;1;318;-70;-59.7;43.0;43.4;14;14.4;26.6;0.0;
24/02/2025 14:08:45;100;0;319.18;-4;-19.63;-4.27;339.3;16.10;76276;2833.924;-1757.700;1;318;-70;-61.3;43.0;43.4;14;14.4;26.6;0.0;
24/02/2025 14:09:05;100;0;320.99;-4;-19.75;-4.29;341.4;16.10;76260;2833.926;-1757.702;1;318;-70;-59.7;43.0;43.4;14;14.4;26.6;0.0;
24/02/2025 14:09:25;100;0;321.17;-4;-19.95;-4.31;343.5;16.10;76264;2833.929;-1757.704;1;318;-70;-59.7;43.0;43.4;16;15.8;26.6;0.0;
24/02/2025 14:09:45;100;0;318.71;-4;-20.13;-3.57;345.6;16.00;76255;2833.931;-1757.706;1;318;-70;-58.1;43.0;43.4;14;14.0;26.6;0.0;
24/02/2025 14:10:05;100;0;317.48;-4;-20.01;-4.77;347.9;16.00;76249;2833.934;-1757.708;1;318;-70;-59.7;43.0;43.4;14;13.5;26.6;0.0;
24/02/2025 14:10:25;100;0;317.82;-4;-20.10;-4.68;350.0;16.00;76237;2833.936;-1757.710;1;318;-70;-59.7;43.0;43.4;14;14.0;26.6;0.0;
24/02/2025 14:10:45;100;0;317.30;-4;-20.08;-4.70;352.3;15.90;76225;2833.939;-1757.713;1;318;-70;-59.7;43.0;43.4;14;14.0;26.6;0.0;
24/02/2025 14:11:05;100;0;318.54;-4;-19.96;-4.70;354.6;15.90;76211;2833.942;-1757.715;1;318;-70;-58.1;43.0;43.4;14;14.0;26.6;0.0;
24/02/2025 14:11:25;100;0;320.17;-4;-19.89;-4.72;357.0;15.80;76214;2833.944;-1757.717;1;318;-70;-59.7;43.0;43.4;14;13.5;26.6;0.0;
24/02/2025 14:11:45;100;0;321.36;-4;-19.77;-4.74;359.2;15.80;76207;2833.947;-1757.719;1;318;-70;-59.7;43.0;43.0;16;16.2;26.6;0.0;
24/02/2025 14:12:05;100;0;318.41;-4;-18.69;-3.64;361.3;15.80;76206;2833.950;-1757.721;1;318;-70;-58.1;43.4;43.6;14;14.0;26.6;0.0;
24/02/2025 14:12:25;100;0;316.84;-4;-19.55;-4.77;363.4;15.70;76186;2833.952;-1757.723;1;318;-70;-58.1;43.4;43.7;14;14.0;26.6;0.0;
24/02/2025 14:12:45;100;0;317.99;-4;-19.72;-4.73;365.5;15.70;76179;2833.954;-1757.725;1;318;-70;-58.1;43.4;43.6;14;14.0;26.6;0.0;
24/02/2025 14:13:05;100;0;318.93;-4;-19.54;-4.70;367.7;15.70;76177;2833.957;-1757.727;1;318;-70;-58.1;43.4;43.7;14;14.0;26.6;0.0;
24/02/2025 14:13:25;100;0;319.30;-4;-19.48;-4.78;369.7;15.70;76170;2833.959;-1757.729;1;318;-70;-59.7;43.4;43.7;14;14.0;26.6;0.0;
24/02/2025 14:13:45;100;0;320.70;-4;-19.48;-4.69;371.7;15.60;76163;2833.962;-1757.731;1;318;-70;-59.7;43.4;43.6;16;15.8;26.6;0.0;
24/02/2025 14:14:05;100;0;320.23;-4;-19.70;-3.39;373.8;15.60;76163;2833.964;-1757.733;1;318;-70;-59.7;43.4;43.7;16;16.2;26.6;0.0;
24/02/2025 14:14:25;100;0;319.78;-4;-20.12;-3.40;375.8;15.60;76158;2833.967;-1757.735;1;318;-70;-59.7;43.4;43.7;16;16.2;26.6;0.0;
24/02/2025 14:14:45;100;0;318.18;-4;-19.67;-3.48;378.0;15.50;76160;2833.969;-1757.737;1;318;-70;-59.7;43.4;43.7;14;14.0;26.6;0.0;
24/02/2025 14:15:05;100;0;316.20;-4;-19.69;-4.87;380.0;15.50;76148;2833.971;-1757.739;1;318;-90;-91.9;43.4;43.7;14;13.5;26.6;0.0;
24/02/2025 14:15:25;100;0;317.78;-4;-19.25;-4.76;382.2;15.50;76206;2833.974;-1757.742;1;318;-90;-91.9;43.4;43.7;14;13.5;26.6;0.0;
24/02/2025 14:15:45;100;0;318.37;-4;-19.65;-4.78;384.6;15.40;76213;2833.977;-1757.744;1;318;-90;-95.2;43.4;43.7;14;13.5;26.6;0.0;
24/02/2025 14:16:05;100;0;319.72;-4;-19.30;-4.66;387.1;15.40;76198;2833.980;-1757.746;1;318;-90;-93.5;43.4;43.7;14;13.5;26.6;0.0;
24/02/2025 14:16:25;100;0;320.32;-4;-19.87;-4.69;389.6;15.40;76202;2833.983;-1757.749;1;318;-90;-95.2;43.4;43.7;14;13.5;26.6;0.0;
24/02/2025 14:16:45;100;0;319.56;-4;-19.41;-4.64;392.2;15.30;76212;2833.986;-1757.751;1;318;-90;-96.8;43.4;43.7;14;13.5;26.6;0.0;
24/02/2025 14:17:05;100;0;319.93;-4;-19.39;-4.73;394.7;15.30;76200;2833.989;-1757.754;1;318;-90;-96.8;43.4;43.7;14;13.5;26.6;0.0;
24/02/2025 14:17:25;100;0;318.51;-4;-19.38;-4.80;397.2;15.30;76199;2833.992;-1757.756;1;318;-90;-96.8;43.4;43.7;14;13.5;26.6;0.0;
24/02/2025 14:17:45;100;0;319.50;-4;-19.79;-4.80;399.7;15.30;76201;2833.994;-1757.758;1;318;-90;-96.8;43.4;43.7;14;13.5;26.6;0.0;
24/02/2025 14:18:05;100;0;318.55;-4;-19.46;-4.71;402.3;15.20;76192;2833.997;-1757.761;1;318;-90;-96.8;43.4;43.7;14;13.5;26.6;0.0;
24/02/2025 14:18:25;100;0;318.73;-4;-19.28;-4.72;404.7;15.20;76187;2834.000;-1757.763;1;318;-90;-96.8;43.4;43.7;14;13.5;26.6;0.0;
24/02/2025 14:18:45;100;0;321.20;-4;-19.16;-4.68;407.1;15.20;76186;2834.003;-1757.766;1;318;-90;-96.8;43.4;43.7;16;15.8;26.6;0.0;
24/02/2025 14:19:05;100;0;321.08;-4;-19.49;-3.45;409.5;15.20;76181;2834.006;-1757.768;1;318;-90;-96.8;43.4;43.7;16;16.2;26.6;0.0;
24/02/2025 14:19:25;100;0;321.18;-4;-19.58;-3.44;411.9;15.10;76181;2834.009;-1757.770;1;318;-90;-96.8;43.4;43.7;16;16.2;26.6;0.0;
24/02/2025 14:19:45;100;0;320.06;-4;-19.59;-3.38;414.4;15.10;76164;2834.012;-1757.773;1;318;-90;-96.8;43.4;43.7;16;16.2;26.6;0.0;
24/02/2025 14:20:05;100;0;320.68;-4;-19.33;-3.40;416.7;15.10;76170;2834.015;-1757.775;1;318;-90;-96.8;43.4;43.7;16;16.2;26.6;0.0;
24/02/2025 14:20:25;100;0;320.09;-4;-19.13;-3.44;419.0;15.00;76157;2834.017;-1757.777;1;318;-90;-96.8;43.4;43.7;16;16.2;26.6;0.0;
24/02/2025 14:20:45;100;0;318.92;-4;-19.21;-3.32;421.4;15.00;76141;2834.020;-1757.779;1;318;-90;-96.8;43.4;43.7;16;16.2;26.6;0.0;
24/02/2025 14:21:05;100;0;317.35;-4;-19.08;-3.39;423.6;15.00;76136;2834.023;-1757.782;1;318;-90;-96.8;43.4;43.7;14;14.0;26.6;0.0;
24/02/2025 14:21:25;100;0;317.42;-4;-19.07;-4.58;425.8;15.00;76144;2834.025;-1757.784;1;318;-90;-98.4;43.4;43.7;14;14.0;26.6;0.0;
24/02/2025 14:21:45;100;0;318.67;-4;-19.07;-4.58;428.1;15.00;76142;2834.028;-1757.786;1;318;-90;-96.8;43.4;43.7;14;14.0;26.6;0.0;
24/02/2025 14:22:05;100;0;320.00;-4;-19.05;-4.59;430.2;14.90;76136;2834.031;-1757.788;1;318;-90;-96.8;43.4;43.7;16;15.8;26.6;0.0;
24/02/2025 14:22:25;100;0;321.47;-4;-19.03;-3.32;432.5;14.90;76126;2834.033;-1757.790;1;318;-90;-96.8;43.4;43.7;16;15.8;26.6;0.0;
24/02/2025 14:22:46;100;0;322.44;-4;-19.09;-3.35;434.7;14.90;76133;2834.036;-1757.792;1;318;-90;-96.8;43.4;43.7;16;15.8;26.6;0.0;
24/02/2025 14:23:06;100;0;322.75;-4;-19.22;-3.33;437.0;14.80;76128;2834.039;-1757.795;1;318;-90;-96.8;43.4;43.7;16;15.8;26.6;0.0;
24/02/2025 14:23:26;100;0;324.43;-4;-18.94;-3.31;439.3;14.80;76116;2834.042;-1757.797;1;318;-90;-96.8;43.7;43.7;19;19.0;26.6;0.0;
24/02/2025 14:23:46;100;0;323.99;-4;-19.23;-1.93;441.4;14.80;76115;2834.045;-1757.798;1;318;-90;-96.8;43.7;43.7;19;19.4;26.6;0.0;
24/02/2025 14:24:06;100;0;324.24;-4;-19.27;-1.89;443.5;14.80;76107;2834.047;-1757.800;1;318;-90;-98.4;43.7;43.7;19;19.4;26.6;0.0;
24/02/2025 14:24:26;100;0;323.64;-4;-19.20;-1.82;445.7;14.70;76109;2834.050;-1757.802;1;318;-90;-96.8;43.7;43.7;19;19.4;26.6;0.0;
24/02/2025 14:24:46;100;0;323.05;-4;-19.18;-1.84;447.8;14.70;76096;2834.053;-1757.804;1;318;-90;-96.8;43.7;43.7;19;19.4;26.6;0.0;
24/02/2025 14:25:06;100;0;322.03;-4;-19.37;-1.80;450.1;14.70;76108;2834.056;-1757.806;1;318;-90;-96.8;43.7;43.7;17;16.7;26.6;0.0;
24/02/2025 14:25:26;100;0;322.23;-4;-19.37;-3.22;452.4;14.70;76097;2834.058;-1757.808;1;318;-90;-95.2;43.7;43.7;17;16.7;26.6;0.0;
24/02/2025 14:25:46;100;0;319.73;-4;-19.55;-3.24;454.6;14.60;76091;2834.061;-1757.811;1;318;-90;-95.2;43.7;43.7;17;16.7;26.6;0.0;
24/02/2025 14:26:06;100;0;315.03;-4;-19.56;-3.24;457.1;14.60;76086;2834.064;-1757.813;1;318;-90;-96.8;43.7;43.7;15;14.9;26.6;0.0;
24/02/2025 14:26:26;100;0;311.30;-4;-19.48;-4.18;459.5;14.60;76087;2834.066;-1757.816;1;318;-90;-98.4;43.7;43.7;15;14.4;26.6;0.0;
24/02/2025 14:26:46;100;0;304.14;-4;-19.40;-4.29;462.0;14.60;76077;2834.068;-1757.819;1;318;-90;-96.8;43.7;43.7;12;12.2;26.6;0.0;
24/02/2025 14:27:06;100;0;303.42;-4;-19.02;-5.47;464.4;14.60;76069;2834.071;-1757.822;1;318;-90;-96.8;43.7;43.7;12;11.7;26.6;0.0;
24/02/2025 14:27:26;100;0;302.53;-4;-19.09;-5.51;466.9;14.50;76061;2834.073;-1757.825;1;318;-90;-96.8;43.7;43.7;12;12.2;26.6;0.0;
24/02/2025 14:27:46;100;0;302.60;-4;-19.31;-5.47;469.4;14.50;76059;2834.075;-1757.828;1;318;-90;-96.8;43.7;43.7;12;11.7;26.6;0.0;
24/02/2025 14:28:06;100;0;301.83;-4;-19.19;-5.55;472.0;14.50;76062;2834.077;-1757.832;1;318;-90;-96.8;43.7;43.7;10;9.5;26.6;0.0;
24/02/2025 14:28:26;100;0;304.66;-4;-19.21;-6.67;474.6;14.50;76049;2834.080;-1757.835;1;318;-90;-96.8;43.7;43.7;13;13.1;26.6;0.0;
24/02/2025 14:28:46;100;0;306.36;-4;-19.33;-4.76;477.3;14.40;76040;2834.082;-1757.838;1;318;-90;-96.8;43.7;43.7;13;13.5;26.6;0.0;
24/02/2025 14:29:06;100;0;306.29;-4;-19.34;-4.77;479.9;14.40;76041;2834.085;-1757.841;1;318;-90;-96.8;43.7;43.7;13;13.5;26.6;0.0;
24/02/2025 14:29:26;100;0;304.71;-4;-18.99;-4.78;482.5;14.40;76031;2834.087;-1757.845;1;318;-90;-96.8;44.0;44.0;13;13.5;26.6;0.0;
24/02/2025 14:29:46;100;0;303.71;-4;-19.76;-4.81;485.1;14.40;76032;2834.089;-1757.848;1;318;-90;-95.2;44.0;44.2;13;13.5;26.6;0.0;
24/02/2025 14:30:06;100;0;302.98;-4;-19.94;-4.77;487.7;14.30;76022;2834.092;-1757.851;1;318;-90;-100.0;44.0;44.3;11;10.8;26.6;0.0;
24/02/2025 14:30:26;100;0;305.66;-4;-19.65;-6.10;490.3;14.30;76011;2834.094;-1757.854;1;318;-90;-96.8;44.0;44.3;13;13.1;26.6;0.0;
24/02/2025 14:30:46;100;0;306.08;-4;-20.29;-4.78;493.0;14.30;76008;2834.097;-1757.857;1;318;-90;-96.8;44.0;44.3;13;13.5;26.6;0.0;
24/02/2025 14:31:06;100;0;305.52;-4;-19.93;-4.63;495.8;14.30;76006;2834.099;-1757.860;1;318;-90;-96.8;44.0;44.3;13;13.5;26.6;0.0;
24/02/2025 14:31:26;100;0;304.97;-4;-20.54;-4.62;498.5;14.20;75997;2834.101;-1757.864;1;318;-90;-96.8;44.0;44.3;13;13.5;26.6;0.0;
24/02/2025 14:31:46;100;0;303.74;-4;-20.65;-4.60;501.2;14.20;75992;2834.104;-1757.867;1;318;-90;-100.0;44.0;44.3;13;13.5;26.6;0.0;
24/02/2025 14:32:06;100;0;305.71;-4;-20.53;-4.65;504.0;14.20;75994;2834.106;-1757.870;1;318;-90;-96.8;44.0;44.3;13;13.5;26.6;0.0;
24/02/2025 14:32:26;100;0;305.89;-4;-20.44;-4.61;506.7;14.20;75992;2834.109;-1757.873;1;318;-90;-96.8;44.0;44.3;13;14.0;26.6;0.0;
24/02/2025 14:32:46;100;0;309.87;-4;-20.53;-4.56;509.6;14.10;75986;2834.111;-1757.876;1;318;-90;-98.4;44.0;44.3;13;13.5;26.6;0.0;
24/02/2025 14:33:06;100;0;312.57;-4;-20.56;-4.57;512.5;14.10;75972;2834.114;-1757.879;1;318;-90;-96.8;44.0;44.3;13;13.5;26.6;0.0;
24/02/2025 14:33:26;100;0;314.70;-4;-20.53;-4.52;515.4;14.10;75970;2834.117;-1757.882;1;318;-90;-96.8;44.0;44.3;13;13.5;26.6;0.0;
24/02/2025 14:33:46;100;0;314.74;-4;-20.43;-4.61;518.3;14.10;75958;2834.120;-1757.885;1;318;-90;-95.2;44.0;44.3;13;13.5;26.6;0.0;
24/02/2025 14:34:06;100;0;316.25;-4;-20.37;-4.70;521.1;14.10;75956;2834.123;-1757.888;1;318;-90;-96.8;44.0;44.3;13;13.5;26.6;0.0;
24/02/2025 14:34:26;100;0;317.00;-4;-20.15;-4.54;523.9;14.00;75952;2834.126;-1757.891;1;318;-90;-95.2;44.0;44.3;13;13.5;26.6;0.0;
24/02/2025 14:34:46;100;0;318.50;-4;-20.36;-4.82;526.6;14.00;75946;2834.129;-1757.893;1;318;-90;-96.8;44.0;44.3;13;13.5;26.6;0.0;
24/02/2025 14:35:06;100;0;319.41;-4;-20.15;-4.64;529.3;14.00;75941;2834.132;-1757.896;1;318;-90;-96.8;44.0;44.3;15;14.9;26.6;0.0;
24/02/2025 14:35:26;100;0;321.82;-4;-20.12;-3.91;532.1;13.90;75939;2834.135;-1757.899;1;318;-90;-96.8;44.0;44.3;15;15.3;26.6;0.0;
24/02/2025 14:35:46;100;0;322.41;-4;-20.26;-3.72;534.8;13.90;75932;2834.139;-1757.901;1;318;-90;-96.8;44.0;44.3;17;17.1;26.6;0.0;
24/02/2025 14:36:06;100;0;322.90;-4;-20.23;-2.58;537.6;13.90;75936;2834.142;-1757.903;1;318;-90;-98.4;44.0;44.3;17;18.1;26.6;0.0;
24/02/2025 14:36:26;100;0;323.62;-4;-20.41;-2.58;540.5;13.90;75929;2834.145;-1757.906;1;318;-90;-96.8;44.0;44.3;17;18.1;26.6;0.0;
24/02/2025 14:36:46;100;0;323.58;-4;-20.52;-2.57;543.4;13.90;75932;2834.149;-1757.908;1;318;-90;-96.8;44.0;44.3;17;18.1;26.6;0.0;
24/02/2025 14:37:06;100;0;318.59;-4;-20.31;-2.55;546.3;13.90;75930;2834.152;-1757.911;1;318;-90;-96.8;44.0;44.3;15;14.9;26.6;0.0;
24/02/2025 14:37:26;100;0;315.38;-4;-20.15;-4.21;549.2;13.80;75915;2834.155;-1757.914;1;318;-90;-96.8;44.0;44.3;15;14.9;26.6;0.0;
24/02/2025 14:37:46;100;0;314.45;-4;-20.00;-4.22;551.9;13.80;75915;2834.158;-1757.917;1;318;-90;-96.8;44.0;44.3;15;14.9;26.6;0.0;
24/02/2025 14:38:06;100;0;313.74;-4;-19.88;-4.19;554.6;13.80;75905;2834.161;-1757.920;1;318;-90;-96.8;44.0;44.3;15;14.9;26.6;0.0;
24/02/2025 14:38:26;100;0;313.86;-4;-19.91;-4.19;557.3;13.80;75896;2834.163;-1757.923;1;318;-90;-96.8;44.0;44.3;15;14.4;26.6;0.0;
24/02/2025 14:38:46;100;0;313.24;-4;-19.88;-4.24;559.9;13.70;75897;2834.166;-1757.925;1;318;-90;-96.8;44.0;44.3;15;14.9;26.6;0.0;
24/02/2025 14:39:06;100;0;311.67;-4;-19.69;-4.28;562.5;13.70;75893;2834.169;-1757.928;1;318;-90;-96.8;44.0;44.3;15;14.4;26.6;0.0;
24/02/2025 14:39:26;100;0;311.96;-4;-19.37;-4.23;565.2;13.70;75891;2834.172;-1757.931;1;318;-90;-96.8;44.0;44.3;15;14.4;26.6;0.0;
24/02/2025 14:39:46;100;0;312.46;-4;-19.47;-4.37;567.8;13.70;75879;2834.174;-1757.934;1;318;-90;-98.4;44.0;44.3;15;14.9;26.6;0.0;
24/02/2025 14:40:06;100;0;315.11;-4;-19.58;-4.22;570.5;13.60;75875;2834.177;-1757.937;1;318;-90;-96.8;44.0;44.3;15;14.9;26.6;0.0;
24/02/2025 14:40:26;100;0;315.91;-4;-19.50;-4.23;573.2;13.60;75875;2834.180;-1757.940;1;318;-90;-96.8;44.0;44.3;15;14.4;26.6;0.0;
24/02/2025 14:40:46;100;0;316.38;-4;-19.83;-4.26;575.8;13.60;75879;2834.183;-1757.942;1;318;-90;-96.8;44.0;44.5;15;14.9;26.6;0.0;
24/02/2025 14:41:06;100;0;316.44;-4;-19.74;-4.22;578.5;13.60;75877;2834.186;-1757.945;1;318;-90;-96.8;44.0;44.3;15;14.4;26.6;0.0;
24/02/2025 14:41:26;100;0;316.98;-4;-19.82;-4.27;581.2;13.60;75872;2834.189;-1757.948;1;318;-90;-98.4;44.0;44.3;15;14.9;26.6;0.0;
24/02/2025 14:41:46;100;0;316.35;-4;-19.79;-4.26;583.9;13.50;75865;2834.192;-1757.950;1;318;-90;-96.8;44.0;44.3;15;14.9;26.6;0.0;
24/02/2025 14:42:06;100;0;313.10;-4;-19.55;-4.21;586.6;13.50;75860;2834.195;-1757.953;1;318;-90;-98.4;44.0;44.2;15;14.9;26.6;0.0;
24/02/2025 14:42:26;100;0;311.15;-4;-19.82;-4.09;589.3;13.50;75855;2834.197;-1757.956;1;318;-90;-96.8;44.0;44.3;15;14.4;26.6;0.0;
24/02/2025 14:42:46;100;0;310.46;-4;-19.62;-4.30;592.3;13.50;75852;2834.200;-1757.960;1;318;-90;-96.8;44.0;44.3;15;14.4;26.6;0.0;
24/02/2025 14:43:06;100;0;308.03;-4;-19.94;-4.22;594.9;13.50;75847;2834.203;-1757.963;1;318;-90;-96.8;44.0;44.3;15;14.4;26.6;0.0;
24/02/2025 14:43:26;100;0;305.32;-4;-19.87;-4.17;597.5;13.40;75845;2834.205;-1757.966;1;318;-90;-96.8;44.0;44.3;13;13.1;26.6;0.0;
24/02/2025 14:43:46;100;0;303.83;-4;-19.81;-5.22;600.2;13.40;75847;2834.207;-1757.969;1;318;-90;-96.8;44.0;44.5;13;12.6;26.6;0.0;
24/02/2025 14:44:06;100;0;302.46;-4;-19.65;-5.27;602.8;13.40;75833;2834.210;-1757.972;1;318;-90;-98.4;44.0;44.3;11;10.8;26.6;0.0;
24/02/2025 14:44:26;100;0;302.26;-4;-19.61;-6.22;605.3;13.40;75837;2834.212;-1757.975;1;318;-90;-96.8;44.0;44.3;11;10.8;26.6;0.0;
24/02/2025 14:44:46;100;0;302.74;-4;-19.68;-6.21;607.9;13.40;75830;2834.214;-1757.979;1;318;-90;-96.8;44.0;44.3;11;10.8;26.6;0.0;
24/02/2025 14:45:06;100;0;303.91;-4;-19.93;-6.16;610.5;13.30;75817;2834.216;-1757.982;1;318;-90;-96.8;44.0;44.3;11;10.8;26.6;0.0;
24/02/2025 14:45:26;100;0;306.96;-4;-19.87;-6.20;613.2;13.30;75817;2834.219;-1757.985;1;318;-90;-98.4;44.0;44.3;13;13.1;26.6;0.0;
24/02/2025 14:45:46;100;0;307.03;-4;-19.67;-4.79;615.8;13.30;75822;2834.221;-1757.988;1;318;-90;-96.8;44.0;44.3;13;13.5;26.6;0.0;
24/02/2025 14:46:06;100;0;308.51;-4;-20.06;-4.71;618.5;13.30;75814;2834.224;-1757.991;1;318;-90;-96.8;44.0;44.3;13;13.5;26.6;0.0;
24/02/2025 14:46:26;100;0;310.92;-4;-20.01;-4.77;621.2;13.30;75804;2834.227;-1757.994;1;318;-90;-98.4;44.0;44.3;13;13.5;26.6;0.0;
24/02/2025 14:46:46;100;0;311.43;-4;-20.32;-4.72;624.0;13.20;75803;2834.229;-1757.997;1;318;-90;-96.8;44.0;44.3;13;13.5;26.6;0.0;
24/02/2025 14:47:06;100;0;313.10;-4;-19.80;-4.70;626.8;13.20;75795;2834.232;-1758.000;1;318;-90;-96.8;44.0;44.3;13;13.5;26.6;0.0;
24/02/2025 14:47:26;100;0;313.21;-4;-20.01;-4.72;629.7;13.20;75791;2834.235;-1758.003;1;318;-90;-98.4;44.0;44.3;13;13.5;26.6;0.0;
24/02/2025 14:47:46;100;0;314.45;-4;-19.96;-4.75;632.5;13.20;75789;2834.238;-1758.006;1;318;-90;-100.0;44.0;44.3;13;13.5;26.6;0.0;
24/02/2025 14:48:06;100;0;315.69;-4;-19.67;-4.76;635.2;13.10;75773;2834.241;-1758.009;1;318;-90;-100.0;44.0;44.3;13;13.5;26.6;0.0;
24/02/2025 14:48:26;100;0;315.22;-4;-19.64;-4.76;638.0;13.10;75772;2834.244;-1758.012;1;318;-90;-96.8;44.0;44.5;13;13.5;26.6;0.0;
24/02/2025 14:48:46;100;0;314.27;-4;-19.62;-4.81;640.7;13.10;75783;2834.247;-1758.014;1;318;-90;-96.8;44.0;44.3;13;13.5;26.6;0.0;
24/02/2025 14:49:06;100;0;313.53;-4;-19.72;-4.77;643.5;13.10;75765;2834.250;-1758.017;1;318;-90;-96.8;44.0;44.3;13;13.5;26.6;0.0;
24/02/2025 14:49:26;100;0;312.07;-4;-19.64;-4.80;646.4;13.10;75766;2834.253;-1758.020;1;318;-90;-96.8;44.0;44.3;13;13.5;26.6;0.0;
24/02/2025 14:49:46;100;0;311.08;-4;-19.72;-4.73;649.2;13.00;75765;2834.255;-1758.024;1;318;-90;-96.8;44.0;44.3;13;13.5;26.6;0.0;
24/02/2025 14:50:06;100;0;310.71;-4;-19.57;-4.79;652.0;13.00;75760;2834.258;-1758.027;1;318;-90;-96.8;44.0;44.3;13;13.5;26.6;0.0;
24/02/2025 14:50:26;100;0;309.77;-4;-19.46;-4.80;654.7;13.00;75751;2834.261;-1758.030;1;318;-90;-96.8;44.0;44.3;13;13.5;26.6;0.0;
24/02/2025 14:50:46;100;0;309.38;-4;-19.73;-4.76;657.4;13.00;75751;2834.264;-1758.033;1;318;-90;-96.8;44.0;44.3;13;13.5;26.6;0.0;
24/02/2025 14:51:06;100;0;309.86;-4;-19.48;-4.79;660.2;13.00;75739;2834.266;-1758.036;1;318;-90;-96.8;44.0;44.3;13;13.5;26.6;0.0;
24/02/2025 14:51:26;100;0;312.30;-4;-19.45;-4.81;662.9;13.00;75729;2834.269;-1758.039;1;318;-90;-96.8;44.0;44.3;13;13.5;26.6;0.0;
24/02/2025 14:51:46;100;0;313.02;-4;-19.62;-4.74;665.6;12.90;75735;2834.272;-1758.042;1;318;-90;-96.8;44.0;44.3;13;13.5;26.6;0.0;
24/02/2025 14:52:06;100;0;314.37;-4;-19.46;-4.79;668.3;12.90;75726;2834.275;-1758.045;1;318;-90;-96.8;44.0;44.3;13;13.5;26.6;0.0;
24/02/2025 14:52:26;100;0;315.27;-4;-19.37;-4.79;671.1;12.90;75719;2834.278;-1758.048;1;318;-90;-96.8;44.0;44.3;13;13.5;26.6;0.0;
24/02/2025 14:52:46;100;0;315.48;-4;-19.36;-4.78;673.7;12.90;75717;2834.281;-1758.051;1;318;-90;-96.8;44.0;44.5;13;13.5;26.6;0.0;
24/02/2025 14:53:06;100;0;315.60;-4;-19.31;-4.83;676.3;12.80;75713;2834.284;-1758.053;1;318;-90;-98.4;44.0;44.3;13;13.5;26.6;0.0;
24/02/2025 14:53:26;100;0;315.65;-4;-19.02;-4.85;679.0;12.80;75716;2834.287;-1758.056;1;318;-90;-96.8;44.0;44.3;13;13.5;26.6;0.0;
24/02/2025 14:53:46;100;0;315.37;-4;-19.10;-4.85;681.6;12.80;75712;2834.290;-1758.059;1;318;-90;-96.8;44.0;44.3;13;13.5;26.6;0.0;
24/02/2025 14:54:06;100;0;313.97;-4;-19.29;-4.95;684.2;12.80;75707;2834.292;-1758.062;1;318;-90;-96.8;44.0;44.3;13;13.5;26.6;0.0;
24/02/2025 14:54:26;100;0;314.60;-4;-19.37;-4.80;686.8;12.80;75700;2834.295;-1758.065;1;318;-90;-96.8;44.0;44.3;13;13.5;26.6;0.0;
24/02/2025 14:54:46;100;0;315.42;-4;-19.30;-4.81;689.5;12.70;75704;2834.298;-1758.068;1;318;-90;-96.8;44.0;44.3;13;13.5;26.6;0.0;
24/02/2025 14:55:06;100;0;315.70;-4;-19.25;-4.79;692.1;12.70;75691;2834.301;-1758.070;1;318;-90;-96.8;44.0;44.3;13;13.5;26.6;0.0;
24/02/2025 14:55:26;100;0;318.50;-4;-19.30;-4.83;694.7;12.70;75688;2834.304;-1758.073;1;318;-90;-96.8;44.0;44.3;15;14.9;26.6;0.0;
24/02/2025 14:55:46;100;0;320.96;-4;-19.41;-3.94;697.4;12.70;75688;2834.307;-1758.075;1;318;-90;-96.8;44.0;44.3;15;15.3;26.6;0.0;
24/02/2025 14:56:06;100;0;324.29;-4;-19.43;-3.95;699.9;12.70;75680;2834.311;-1758.078;1;318;-90;-100.0;44.0;44.3;18;18.1;26.6;0.0;
24/02/2025 14:56:26;100;0;327.90;-4;-19.52;-2.34;702.5;12.60;75672;2834.314;-1758.080;1;318;-90;-96.8;44.0;44.3;23;23.0;26.6;0.0;
24/02/2025 14:56:46;100;0;325.36;-4;-19.74;0.22;705.2;12.60;75663;2834.317;-1758.082;1;318;-90;-96.8;44.0;44.3;20;19.9;26.6;0.0;
24/02/2025 14:57:06;100;0;321.95;-4;-19.77;-1.69;707.7;12.60;75655;2834.320;-1758.084;1;318;-90;-96.8;44.0;44.3;16;15.3;26.6;0.0;
24/02/2025 14:57:26;100;0;318.86;-4;-19.44;-4.00;710.3;12.60;75646;2834.323;-1758.087;1;318;-90;-96.8;44.0;44.3;16;15.3;26.6;0.0;
24/02/2025 14:57:46;100;0;316.95;-4;-19.45;-3.98;712.7;12.60;75644;2834.326;-1758.089;1;318;-90;-98.4;44.0;44.3;16;15.3;26.6;0.0;
24/02/2025 14:58:07;100;0;315.88;-4;-19.62;-4.05;715.2;12.50;75652;2834.329;-1758.092;1;318;-90;-96.8;44.0;44.3;14;14.0;26.6;0.0;
24/02/2025 14:58:27;100;0;317.10;-4;-19.54;-4.72;717.8;12.50;75638;2834.331;-1758.094;1;318;-90;-96.8;44.0;44.3;14;13.5;26.6;0.0;
24/02/2025 14:58:47;100;0;319.09;-4;-19.55;-4.66;720.2;12.50;75639;2834.334;-1758.097;1;318;-90;-96.8;44.0;44.3;14;14.0;26.6;0.0;
24/02/2025 14:59:07;100;0;320.57;-4;-19.63;-4.78;722.6;12.50;75627;2834.337;-1758.099;1;318;-90;-98.4;44.0;44.3;16;15.8;26.6;0.0;
24/02/2025 14:59:27;100;0;322.16;-4;-19.90;-3.47;725.2;12.50;75629;2834.340;-1758.101;1;318;-90;-96.8;44.0;44.3;16;16.2;26.6;0.0;
24/02/2025 14:59:47;100;0;320.11;-4;-19.79;-3.56;727.7;12.40;75628;2834.343;-1758.104;1;318;-90;-96.8;44.0;44.3;16;16.2;26.6;0.0;
24/02/2025 15:00:07;100;0;318.75;-4;-19.77;-3.60;730.1;12.40;75613;2834.346;-1758.106;1;318;-90;-96.8;44.0;44.3;16;16.2;26.6;0.0;
24/02/2025 15:00:27;100;0;318.93;-4;-19.32;-3.51;732.7;12.40;75603;2834.349;-1758.108;1;318;-90;-96.8;44.0;44.3;16;16.2;26.6;0.0;
24/02/2025 15:00:47;100;0;316.47;-4;-19.03;-3.56;734.9;12.30;75585;2834.351;-1758.111;1;318;-90;-96.8;44.0;44.3;16;16.2;26.6;0.0;
24/02/2025 15:01:07;100;0;315.89;-4;-19.04;-3.58;737.2;12.30;75585;2834.354;-1758.113;1;318;-90;-96.8;44.0;44.3;16;16.2;26.6;0.0;
24/02/2025 15:01:27;100;0;315.82;-4;-19.17;-3.56;739.5;12.30;75581;2834.356;-1758.116;1;318;-90;-98.4;44.0;44.3;16;16.2;26.6;0.0;
24/02/2025 15:01:47;100;0;314.90;-4;-19.16;-3.54;741.6;12.30;75573;2834.359;-1758.118;1;318;-90;-96.8;44.0;44.3;16;16.2;26.6;0.0;
24/02/2025 15:02:07;100;0;314.74;-4;-19.16;-3.54;744.0;12.30;75566;2834.361;-1758.120;1;318;-90;-96.8;44.0;44.3;16;16.2;26.6;0.0;
24/02/2025 15:02:27;100;0;315.11;-4;-19.20;-3.58;746.2;12.30;75567;2834.364;-1758.123;1;318;-90;-96.8;44.0;44.3;16;16.2;26.6;0.0;
24/02/2025 15:02:47;100;0;314.97;-4;-19.33;-3.54;748.5;12.20;75557;2834.367;-1758.125;1;318;-90;-96.8;44.0;44.3;16;15.8;26.6;0.0;
24/02/2025 15:03:07;100;0;312.92;-4;-19.43;-3.53;750.8;12.20;75556;2834.369;-1758.128;1;318;-90;-98.4;44.0;44.2;16;16.2;26.6;0.0;
24/02/2025 15:03:27;100;0;311.09;-4;-19.50;-3.57;753.2;12.20;75551;2834.372;-1758.130;1;318;-90;-96.8;44.0;44.3;16;15.8;26.6;0.0;
24/02/2025 15:03:47;100;0;312.99;-4;-18.96;-3.50;755.6;12.20;75544;2834.374;-1758.133;1;318;-90;-95.2;44.3;44.3;16;16.2;26.6;0.0;
24/02/2025 15:04:07;100;0;314.23;-4;-19.22;-3.56;757.9;12.10;75543;2834.377;-1758.136;1;318;-90;-96.8;44.3;44.3;16;15.8;26.6;0.0;
24/02/2025 15:04:27;100;0;315.95;-4;-19.41;-3.52;760.3;12.10;75541;2834.379;-1758.138;1;318;-90;-98.4;44.3;44.3;16;16.2;26.6;0.0;
24/02/2025 15:04:47;100;0;317.09;-4;-19.29;-3.57;762.7;12.10;75523;2834.382;-1758.141;1;318;-90;-96.8;44.3;44.3;16;15.8;26.6;0.0;
24/02/2025 15:05:07;100;0;316.35;-4;-19.17;-3.53;765.1;12.10;75526;2834.385;-1758.143;1;318;-90;-96.8;44.3;44.3;16;15.8;26.6;0.0;
24/02/2025 15:05:27;100;0;317.28;-4;-19.46;-3.50;767.4;12.00;75514;2834.388;-1758.146;1;318;-90;-96.8;44.3;44.3;16;16.2;26.6;0.0;
24/02/2025 15:05:47;100;0;317.74;-4;-19.51;-3.43;769.8;12.00;75530;2834.390;-1758.148;1;318;-90;-96.8;44.3;44.3;16;16.2;26.6;0.0;
24/02/2025 15:06:07;100;0;319.23;-4;-19.31;-3.41;772.2;12.00;75512;2834.393;-1758.150;1;318;-90;-100.0;44.3;44.5;16;16.2;26.6;0.0;
24/02/2025 15:06:27;100;0;321.96;-4;-19.16;-3.50;774.6;12.00;75514;2834.396;-1758.153;1;318;-90;-96.8;44.3;44.3;16;16.2;26.6;0.0;
24/02/2025 15:06:47;100;0;323.38;-4;-19.73;-3.58;776.9;12.00;75512;2834.399;-1758.155;1;318;-90;-96.8;44.3;44.3;19;19.0;26.6;0.0;
24/02/2025 15:07:07;100;0;321.19;-4;-20.08;-1.77;779.5;11.90;75503;2834.402;-1758.157;1;318;-90;-96.8;44.3;44.3;17;17.1;26.6;0.0;
24/02/2025 15:07:27;100;0;318.63;-4;-19.58;-3.01;782.0;11.90;75493;2834.405;-1758.159;1;318;-90;-96.8;44.3;44.3;15;14.9;26.6;0.0;
24/02/2025 15:07:47;100;0;316.61;-4;-19.14;-4.38;784.4;11.90;75496;2834.408;-1758.162;1;318;-90;-96.8;44.3;44.3;15;14.4;26.6;0.0;
24/02/2025 15:08:07;100;0;315.73;-4;-19.18;-4.29;786.8;11.90;75487;2834.410;-1758.164;1;318;-90;-96.8;44.3;44.3;15;14.4;26.6;0.0;
24/02/2025 15:08:27;100;0;315.97;-4;-19.45;-4.32;789.2;11.90;75488;2834.413;-1758.167;1;318;-90;-96.8;44.3;44.3;15;14.4;26.6;0.0;
24/02/2025 15:08:47;100;0;318.05;-4;-19.44;-4.32;791.6;11.80;75481;2834.416;-1758.169;1;318;-90;-96.8;44.3;44.3;15;14.4;26.6;0.0;
24/02/2025 15:09:07;100;0;316.20;-4;-19.53;-4.38;794.0;11.80;75466;2834.418;-1758.172;1;318;-90;-96.8;44.3;44.5;15;14.4;26.6;0.0;
24/02/2025 15:09:27;100;0;314.24;-4;-19.56;-4.32;796.4;11.80;75461;2834.421;-1758.174;1;318;-90;-96.8;44.3;44.3;15;14.4;26.6;0.0;
24/02/2025 15:09:47;100;0;312.95;-4;-19.20;-4.28;798.8;11.80;75462;2834.424;-1758.177;1;318;-90;-96.8;44.3;44.3;15;14.4;26.6;0.0;
24/02/2025 15:10:07;100;0;312.97;-4;-19.52;-4.20;801.4;11.80;75449;2834.426;-1758.180;1;318;-90;-96.8;44.3;44.3;15;14.4;26.6;0.0;
24/02/2025 15:10:27;100;0;313.02;-4;-20.20;-4.20;803.8;11.70;75442;2834.429;-1758.182;1;318;-90;-96.8;44.3;44.3;15;14.4;26.6;0.0;
24/02/2025 15:10:47;100;0;313.42;-4;-19.21;-4.27;806.4;11.70;75426;2834.431;-1758.185;1;318;-90;-96.8;44.3;44.3;15;14.4;26.6;0.0;
24/02/2025 15:11:07;100;0;313.48;-4;-19.33;-4.27;808.7;11.70;75422;2834.434;-1758.188;1;318;-90;-96.8;44.3;44.3;15;14.4;26.6;0.0;
24/02/2025 15:11:27;100;0;313.99;-4;-19.39;-4.31;811.0;11.70;75410;2834.437;-1758.190;1;318;-90;-98.4;44.3;44.3;15;14.4;26.6;0.0;
24/02/2025 15:11:47;100;0;313.51;-4;-19.40;-4.30;813.4;11.60;75417;2834.439;-1758.193;1;318;-90;-96.8;44.3;44.3;15;14.4;26.6;0.0;
24/02/2025 15:12:07;100;0;312.72;-4;-19.07;-4.36;815.7;11.60;75400;2834.442;-1758.195;1;318;-90;-96.8;44.3;44.3;15;14.4;26.6;0.0;
24/02/2025 15:12:27;100;0;309.65;-4;-18.73;-4.37;817.8;11.60;75397;2834.444;-1758.198;1;318;-90;-96.8;44.7;44.9;15;14.4;26.6;0.0;
24/02/2025 15:12:47;100;0;310.12;-4;-20.16;-4.42;820.1;11.60;75390;2834.446;-1758.200;1;318;-90;-96.8;44.7;45.1;15;14.4;26.6;0.0;
24/02/2025 15:13:07;100;0;307.34;-4;-20.25;-4.41;822.4;11.50;75380;2834.448;-1758.203;1;318;-90;-98.4;44.7;45.1;15;14.4;26.6;0.0;
24/02/2025 15:13:27;100;0;307.75;-4;-20.70;-4.35;824.7;11.50;75378;2834.451;-1758.205;1;318;-90;-96.8;44.7;45.1;15;14.4;26.6;0.0;
24/02/2025 15:13:47;100;0;309.44;-4;-20.79;-4.26;827.1;11.50;75377;2834.453;-1758.208;1;318;-90;-96.8;44.7;45.1;15;14.4;26.6;0.0;
24/02/2025 15:14:07;100;0;310.24;-4;-20.65;-4.37;829.5;11.50;75381;2834.455;-1758.211;1;318;-90;-96.8;44.7;45.1;15;14.4;26.6;0.0;
24/02/2025 15:14:27;100;0;310.98;-4;-20.77;-4.24;832.0;11.50;75374;2834.458;-1758.213;1;318;-90;-98.4;44.7;45.1;15;14.4;26.6;0.0;
24/02/2025 15:14:47;100;0;311.05;-4;-20.56;-4.36;834.3;11.40;75369;2834.460;-1758.216;1;318;-90;-96.8;44.7;45.1;15;14.4;26.6;0.0;
24/02/2025 15:15:07;100;0;311.17;-4;-20.55;-4.30;836.6;11.40;75375;2834.462;-1758.218;1;318;-90;-96.8;44.7;45.1;15;14.4;26.6;0.0;
24/02/2025 15:15:27;100;0;310.17;-4;-20.10;-4.37;838.9;11.40;75362;2834.465;-1758.221;1;318;-90;-96.8;44.7;45.1;15;14.4;26.6;0.0;
24/02/2025 15:15:47;100;0;310.24;-4;-20.31;-4.23;841.1;11.40;75356;2834.467;-1758.223;1;318;-90;-96.8;44.7;45.1;15;14.4;26.6;0.0;
24/02/2025 15:16:07;100;0;310.21;-4;-19.76;-4.48;843.1;11.30;75357;2834.469;-1758.225;1;318;-90;-96.8;44.7;45.1;15;14.4;26.6;0.0;
24/02/2025 15:16:27;100;0;308.48;-4;-20.15;-4.34;845.1;11.30;75344;2834.471;-1758.228;1;318;-90;-96.8;44.7;45.1;15;14.4;26.6;0.0;
24/02/2025 15:16:47;100;0;309.38;-4;-19.94;-4.36;847.3;11.30;75343;2834.473;-1758.230;1;318;-90;-96.8;44.7;45.1;15;14.4;26.6;0.0;
24/02/2025 15:17:07;100;0;310.27;-4;-20.51;-4.37;849.4;11.30;75340;2834.475;-1758.232;1;318;-90;-96.8;44.7;45.1;15;14.4;26.6;0.0;
24/02/2025 15:17:27;100;0;310.91;-4;-20.40;-4.50;851.4;11.30;75353;2834.477;-1758.235;1;318;-90;-96.8;44.7;45.1;15;14.4;26.6;0.0;
24/02/2025 15:17:47;100;0;310.67;-4;-21.05;-4.79;853.3;11.20;75331;2834.479;-1758.237;1;318;-110;-111.3;44.7;45.1;15;14.4;26.6;0.0;
24/02/2025 15:18:07;100;0;313.07;-4;-20.13;-4.41;855.6;11.20;75364;2834.482;-1758.239;1;318;-110;-112.9;44.7;45.1;15;14.4;26.6;0.0;
24/02/2025 15:18:27;100;0;313.31;-4;-19.66;-4.40;857.9;11.20;75365;2834.484;-1758.242;1;318;-110;-111.3;44.7;45.2;15;14.4;26.6;0.0;
24/02/2025 15:18:47;100;0;312.45;-4;-19.21;-4.38;860.0;11.20;75374;2834.487;-1758.244;1;318;-110;-112.9;44.7;45.1;15;14.4;26.6;0.0;
24/02/2025 15:19:07;100;0;312.77;-4;-20.23;-4.18;862.3;11.10;75365;2834.489;-1758.246;1;318;-110;-111.3;44.7;45.1;15;14.4;26.6;0.0;
24/02/2025 15:19:27;100;0;314.94;-4;-19.90;-4.21;864.5;11.10;75358;2834.491;-1758.249;1;318;-110;-112.9;44.7;45.1;15;14.4;26.6;0.0;
24/02/2025 15:19:47;100;0;315.38;-4;-20.83;-4.31;867.0;11.10;75358;2834.494;-1758.251;1;318;-110;-111.3;44.7;45.1;15;14.4;26.6;0.0;
24/02/2025 15:20:07;100;0;315.20;-4;-20.58;-4.23;869.4;11.10;75359;2834.497;-1758.254;1;318;-110;-114.5;44.7;45.1;15;14.4;26.6;0.0;
24/02/2025 15:20:27;100;0;318.07;-4;-19.70;-4.40;871.9;11.10;75362;2834.499;-1758.256;1;318;-110;-112.9;44.7;45.1;15;14.4;26.6;0.0;
24/02/2025 15:20:47;100;0;319.52;-4;-19.03;-4.04;874.1;11.10;75352;2834.502;-1758.258;1;318;-110;-112.9;44.7;45.1;15;14.4;26.6;0.0;
24/02/2025 15:21:07;100;0;318.56;-4;-19.97;-4.44;876.6;11.10;75350;2834.505;-1758.261;1;318;-110;-112.9;44.7;45.1;15;14.4;26.6;0.0;
24/02/2025 15:21:27;100;0;316.88;-4;-20.31;-4.27;878.9;11.00;75345;2834.507;-1758.263;1;318;-110;-112.9;44.7;45.1;15;14.4;26.6;0.0;
24/02/2025 15:21:47;100;0;313.32;-4;-20.41;-4.19;881.4;11.00;75335;2834.510;-1758.266;1;318;-110;-111.3;44.7;45.1;15;14.4;26.6;0.0;
24/02/2025 15:22:07;100;0;311.69;-4;-20.20;-4.23;883.9;11.00;75342;2834.513;-1758.268;1;318;-110;-112.9;44.7;45.2;15;14.4;26.6;0.0;
24/02/2025 15:22:27;100;0;312.46;-4;-19.19;-4.17;886.3;11.00;75332;2834.515;-1758.271;1;318;-110;-112.9;44.7;45.2;15;14.4;26.6;0.0;
24/02/2025 15:22:47;100;0;313.04;-4;-19.19;-4.27;888.6;11.00;75327;2834.518;-1758.273;1;318;-110;-112.9;44.7;45.1;15;14.4;26.6;0.0;
24/02/2025 15:23:07;100;0;314.72;-4;-19.99;-4.22;890.7;10.90;75323;2834.520;-1758.276;1;318;-110;-112.9;44.7;44.9;15;14.4;26.6;0.0;
24/02/2025 15:23:27;100;0;315.08;-4;-19.59;-4.27;892.7;10.90;75323;2834.522;-1758.278;1;318;-110;-112.9;44.7;45.1;15;14.4;26.6;0.0;
24/02/2025 15:23:47;100;0;314.45;-4;-20.31;-4.38;894.9;10.90;75311;2834.525;-1758.280;1;318;-110;-114.5;44.7;45.1;15;14.4;26.6;0.0;
24/02/2025 15:24:07;100;0;314.67;-4;-20.10;-4.26;897.2;10.90;75323;2834.527;-1758.282;1;318;-110;-112.9;44.7;45.1;15;14.4;26.6;0.0;
24/02/2025 15:24:27;100;0;315.80;-4;-19.70;-4.33;899.4;10.90;75315;2834.530;-1758.285;1;318;-110;-112.9;44.7;45.1;15;14.4;26.6;0.0;
24/02/2025 15:24:47;100;0;316.60;-4;-19.95;-4.27;901.5;10.90;75316;2834.532;-1758.287;1;318;-110;-112.9;44.7;45.1;15;14.4;26.6;0.0;
24/02/2025 15:25:07;100;0;317.70;-4;-19.90;-4.27;903.8;10.80;75309;2834.535;-1758.289;1;318;-110;-111.3;44.7;45.1;15;14.4;26.6;0.0;
24/02/2025 15:25:27;100;0;318.97;-4;-20.43;-4.24;905.9;10.80;75304;2834.537;-1758.291;1;318;-110;-111.3;44.7;45.1;15;14.4;26.6;0.0;
24/02/2025 15:25:47;100;0;316.27;-4;-20.27;-3.94;908.1;10.80;75297;2834.539;-1758.293;1;318;-110;-112.9;44.7;45.1;15;14.4;26.6;0.0;
24/02/2025 15:26:07;100;0;311.95;-4;-20.49;-4.22;910.5;10.80;75303;2834.542;-1758.296;1;318;-110;-111.3;44.7;45.1;15;14.4;26.6;0.0;
24/02/2025 15:26:27;100;0;313.79;-4;-20.05;-4.21;912.8;10.80;75298;2834.544;-1758.298;1;318;-110;-112.9;44.7;45.1;15;14.4;26.6;0.0;
24/02/2025 15:26:47;100;0;316.51;-4;-20.19;-4.27;914.9;10.80;75282;2834.547;-1758.300;1;318;-110;-112.9;44.7;45.1;15;14.4;26.6;0.0;
24/02/2025 15:27:07;100;0;317.64;-4;-19.67;-4.26;917.1;10.70;75283;2834.549;-1758.303;1;318;-110;-112.9;44.7;45.1;15;14.4;26.6;0.0;
24/02/2025 15:27:27;100;0;317.30;-4;-19.69;-4.28;919.2;10.70;75265;2834.552;-1758.305;1;318;-110;-111.3;44.7;45.1;15;14.4;26.6;0.0;
24/02/2025 15:27:47;100;0;315.48;-4;-19.75;-4.29;921.1;10.70;75263;2834.554;-1758.307;1;318;-130;-132.3;44.7;45.1;15;14.4;26.6;0.0;
24/02/2025 15:28:07;100;0;316.27;-4;-19.43;-4.20;923.2;10.70;75309;2834.556;-1758.309;1;318;-130;-133.9;44.7;45.1;15;14.4;26.6;0.0;
24/02/2025 15:28:27;100;0;317.82;-4;-19.54;-4.21;925.4;10.60;75297;2834.559;-1758.311;1;318;-130;-133.9;44.7;45.1;15;14.4;26.6;0.0;
24/02/2025 15:28:47;100;0;318.62;-4;-19.62;-4.16;927.6;10.60;75289;2834.561;-1758.313;1;318;-130;-133.9;44.7;45.1;15;14.4;26.6;0.0;
24/02/2025 15:29:07;100;0;320.30;-4;-19.62;-4.17;929.8;10.60;75298;2834.564;-1758.315;1;318;-130;-133.9;44.7;45.1;17;17.1;26.6;0.0;
24/02/2025 15:29:27;100;0;321.67;-4;-19.75;-2.56;932.0;10.60;75293;2834.567;-1758.317;1;318;-130;-137.1;44.7;45.1;17;17.6;26.6;0.0;
24/02/2025 15:29:47;100;0;320.27;-4;-19.68;-2.63;934.2;10.60;75289;2834.569;-1758.319;1;318;-130;-135.5;44.7;45.1;17;17.6;26.6;0.0;
24/02/2025 15:30:07;100;0;319.56;-4;-20.08;-2.57;936.4;10.60;75279;2834.572;-1758.321;1;318;-130;-135.5;44.7;45.1;17;17.6;26.6;0.0;
24/02/2025 15:30:27;100;0;317.08;-4;-19.88;-2.60;938.7;10.50;75281;2834.574;-1758.323;1;318;-130;-133.9;44.7;45.1;17;17.6;26.6;0.0;
24/02/2025 15:30:47;100;0;314.85;-4;-19.68;-2.61;940.9;10.50;75269;2834.577;-1758.326;1;318;-130;-135.5;44.7;45.1;17;17.6;26.6;0.0;
24/02/2025 15:31:07;100;0;313.22;-4;-19.75;-2.65;943.1;10.50;75268;2834.579;-1758.328;1;318;-130;-133.9;44.7;45.2;15;14.4;26.6;0.0;
24/02/2025 15:31:27;100;0;313.16;-4;-19.66;-4.11;945.3;10.50;75264;2834.581;-1758.330;1;318;-130;-133.9;44.7;45.1;15;14.4;26.6;0.0;
24/02/2025 15:31:47;100;0;313.55;-4;-19.53;-4.16;947.5;10.50;75270;2834.584;-1758.333;1;318;-130;-135.5;44.7;45.1;15;14.4;26.6;0.0;
24/02/2025 15:32:07;100;0;314.27;-4;-19.72;-4.18;949.7;10.40;75268;2834.586;-1758.335;1;318;-130;-133.9;44.7;45.1;15;14.4;26.6;0.0;
24/02/2025 15:32:27;100;0;314.39;-4;-19.63;-4.16;952.0;10.40;75256;2834.589;-1758.337;1;318;-130;-135.5;44.7;45.1;15;14.9;26.6;0.0;
24/02/2025 15:32:47;100;0;314.84;-4;-19.61;-4.17;954.3;10.40;75266;2834.591;-1758.340;1;318;-130;-133.9;44.7;45.1;15;14.9;26.6;0.0;
24/02/2025 15:33:07;100;0;315.17;-4;-19.70;-4.12;956.5;10.40;75247;2834.594;-1758.342;1;318;-130;-133.9;44.7;45.1;15;14.4;26.6;0.0;
24/02/2025 15:33:27;100;0;314.91;-4;-19.74;-4.15;958.8;10.40;75256;2834.596;-1758.344;1;318;-130;-135.5;44.7;45.1;15;14.9;26.6;0.0;
24/02/2025 15:33:48;100;0;313.90;-4;-19.73;-4.15;961.1;10.40;75249;2834.599;-1758.347;1;318;-130;-135.5;44.7;45.1;15;14.4;26.6;0.0;
24/02/2025 15:34:08;100;0;314.40;-4;-19.67;-4.14;963.5;10.30;75253;2834.601;-1758.349;1;318;-130;-133.9;44.7;45.1;15;14.4;26.6;0.0;
24/02/2025 15:34:28;100;0;314.82;-4;-19.61;-4.11;965.8;10.30;75239;2834.604;-1758.352;1;318;-130;-133.9;44.7;45.1;15;14.4;26.6;0.0;
24/02/2025 15:34:48;100;0;314.82;-4;-19.59;-4.16;968.1;10.30;75238;2834.606;-1758.354;1;318;-130;-133.9;44.7;45.1;15;14.4;26.6;0.0;
24/02/2025 15:35:08;100;0;314.65;-4;-19.37;-4.17;970.4;10.30;75246;2834.609;-1758.357;1;318;-130;-133.9;44.7;45.1;15;14.9;26.6;0.0;
24/02/2025 15:35:28;100;0;314.37;-4;-19.49;-4.17;972.6;10.30;75237;2834.611;-1758.359;1;318;-130;-135.5;44.7;45.1;15;14.9;26.6;0.0;
24/02/2025 15:35:48;100;0;314.52;-4;-19.48;-4.14;974.9;10.30;75229;2834.614;-1758.361;1;318;-130;-135.5;44.7;45.1;15;14.4;26.6;0.0;
24/02/2025 15:36:08;100;0;314.56;-4;-19.49;-4.13;977.0;10.20;75225;2834.616;-1758.364;1;318;-130;-135.5;44.7;45.1;15;14.9;26.6;0.0;
24/02/2025 15:36:28;100;0;316.16;-4;-19.63;-4.12;979.3;10.20;75223;2834.619;-1758.366;1;318;-130;-135.5;44.7;45.1;15;14.4;26.6;0.0;
24/02/2025 15:36:48;100;0;316.74;-4;-19.62;-4.15;981.6;10.20;75219;2834.621;-1758.368;1;318;-130;-133.9;44.7;45.1;15;14.9;26.6;0.0;
24/02/2025 15:37:08;100;0;316.27;-4;-19.41;-4.13;983.8;10.20;75219;2834.624;-1758.371;1;318;-130;-133.9;44.7;45.1;15;14.4;26.6;0.0;
24/02/2025 15:37:28;100;0;315.26;-4;-19.66;-4.01;986.1;10.20;75195;2834.626;-1758.373;1;318;-130;-133.9;44.7;45.1;15;14.4;26.6;0.0;
24/02/2025 15:37:48;100;0;313.17;-4;-19.67;-4.17;988.4;10.20;75199;2834.629;-1758.375;1;318;-130;-135.5;44.7;45.1;15;14.4;26.6;0.0;
24/02/2025 15:38:08;100;0;309.73;-4;-19.43;-4.16;990.7;10.10;75197;2834.631;-1758.378;1;318;-130;-135.5;44.7;45.2;15;14.4;26.6;0.0;
24/02/2025 15:38:28;100;0;308.94;-4;-19.53;-4.15;993.0;10.10;75189;2834.633;-1758.381;1;318;-130;-133.9;44.7;45.1;15;14.4;26.6;0.0;
24/02/2025 15:38:48;100;0;308.33;-4;-19.49;-4.15;995.5;10.10;75191;2834.636;-1758.384;1;318;-130;-135.5;44.7;45.1;15;14.9;26.6;0.0;
24/02/2025 15:39:08;100;0;308.91;-4;-19.31;-4.16;997.8;10.10;75197;2834.638;-1758.386;1;318;-130;-135.5;44.7;45.1;15;14.4;26.6;0.0;
24/02/2025 15:39:18;118;0;309.46;-4;-19.36;-4.18;999.0;10.10;75192;2834.639;-1758.388;1;318;450;-135.5;23.4;23.3;7;7.2;26.6;0.0;
24/02/2025 15:39:28;118;0;348.74;-4;-6.50;-8.62;999.8;10.10;75181;2834.641;-1758.388;1;318;450;-9.7;23.4;23.1;7;7.2;25.3;-1.0;
24/02/2025 15:39:38;118;0;41.30;-4;18.54;-8.61;999.7;10.10;74915;2834.641;-1758.388;1;318;450;114.5;23.4;23.6;7;6.8;25.0;-1.0;
24/02/2025 15:39:48;118;0;34.90;-4;27.08;-9.08;999.0;10.10;74660;2834.642;-1758.388;1;318;450;238.7;23.4;23.6;7;6.8;25.1;-1.0;
24/02/2025 15:39:58;118;0;33.34;-4;26.22;-8.97;997.7;10.10;74415;2834.643;-1758.387;1;318;450;359.7;23.4;23.6;7;7.2;25.0;-1.0;
24/02/2025 15:40:08;118;0;38.35;-4;23.89;-8.57;996.3;10.10;74178;2834.645;-1758.386;1;318;450;451.6;23.4;23.6;7;6.8;25.1;-1.0;
24/02/2025 15:40:18;118;0;301.69;-4;21.03;-7.73;994.5;10.10;73972;2834.646;-1758.388;1;318;450;451.6;23.4;23.6;7;6.8;26.5;-1.0;
24/02/2025 15:40:28;118;0;298.42;-4;19.11;-7.82;992.8;10.10;73973;2834.647;-1758.390;1;318;450;451.6;23.4;23.6;7;7.2;26.5;-1.0;
24/02/2025 15:40:48;117;0;294.40;-4;17.67;-7.81;989.6;10.20;73986;2834.650;-1758.395;1;318;450;450.0;23.4;23.6;7;7.2;26.5;-1.0;
24/02/2025 15:41:08;117;0;288.69;-4;17.00;-7.75;986.2;10.20;73984;2834.652;-1758.400;1;318;450;451.6;22.5;22.2;55;55.1;26.5;-1.0;
24/02/2025 15:41:28;117;0;297.84;-4;20.84;16.83;982.8;10.20;73983;2834.654;-1758.404;1;318;450;453.2;22.5;22.7;40;40.2;26.6;-1.0;
24/02/2025 15:41:48;117;0;303.52;-4;22.26;9.15;978.9;10.20;73972;2834.657;-1758.408;1;318;450;450.0;23.2;23.4;33;32.9;26.6;-1.0;
24/02/2025 15:42:08;117;0;304.96;-4;20.84;5.26;975.0;10.20;73977;2834.660;-1758.413;1;318;450;451.6;23.2;23.4;33;32.5;26.6;-1.0;
24/02/2025 15:42:28;117;0;306.30;-4;20.12;5.26;971.3;10.20;73979;2834.663;-1758.417;1;318;450;451.6;23.2;23.6;31;30.7;26.6;-1.0;
24/02/2025 15:42:48;117;0;307.59;-4;19.92;4.17;967.6;10.20;73972;2834.667;-1758.422;1;318;450;451.6;23.2;23.4;31;30.7;26.6;-1.0;
24/02/2025 15:43:08;117;0;309.02;-4;19.83;4.24;964.0;10.20;73975;2834.670;-1758.426;1;318;450;451.6;23.2;23.4;31;30.7;26.6;-1.0;
24/02/2025 15:43:28;117;0;310.46;-4;19.74;4.18;960.4;10.20;73970;2834.674;-1758.430;1;318;450;451.6;23.2;23.6;29;28.9;26.5;-1.0;
24/02/2025 15:43:48;117;0;310.52;-4;19.80;3.10;956.9;10.20;73974;2834.677;-1758.433;1;318;450;450.0;23.2;23.4;29;28.4;26.6;-1.0;
24/02/2025 15:44:08;117;0;310.58;-4;19.75;3.16;953.4;10.20;73966;2834.680;-1758.437;1;318;450;451.6;23.2;23.4;29;28.4;26.6;-1.0;
24/02/2025 15:44:28;117;0;310.81;-4;19.60;3.20;949.9;10.20;73972;2834.684;-1758.441;1;318;450;450.0;23.2;23.6;29;28.4;26.6;-1.0;
24/02/2025 15:44:48;117;0;311.62;-4;19.44;3.17;946.5;10.20;73962;2834.687;-1758.445;1;318;450;451.6;23.2;23.4;29;28.4;26.6;-1.0;
24/02/2025 15:45:08;117;0;313.01;-4;19.62;3.11;943.2;10.10;73952;2834.690;-1758.449;1;318;450;451.6;23.2;23.4;29;28.4;26.6;-1.0;
24/02/2025 15:45:28;117;0;314.09;-4;19.51;3.09;939.8;10.10;73963;2834.694;-1758.452;1;318;450;451.6;23.2;23.4;29;28.4;26.6;-1.0;
24/02/2025 15:45:48;117;0;314.82;-4;19.46;3.02;936.6;10.10;73951;2834.697;-1758.456;1;318;450;451.6;23.2;23.4;29;28.4;26.6;-1.0;
24/02/2025 15:46:08;117;0;315.44;-4;19.52;3.11;933.4;10.10;73952;2834.701;-1758.459;1;318;450;451.6;23.2;23.4;29;28.4;26.6;-1.0;
24/02/2025 15:46:28;117;0;315.88;-4;19.28;3.19;930.3;10.10;73954;2834.704;-1758.462;1;318;450;451.6;23.2;23.4;29;28.4;26.6;-1.0;
24/02/2025 15:46:48;117;0;315.88;-4;19.63;3.21;927.3;10.10;73947;2834.707;-1758.465;1;318;450;451.6;23.2;23.4;29;28.4;26.6;-1.0;
24/02/2025 15:47:08;117;0;316.32;-4;19.59;3.19;924.3;10.10;73945;2834.710;-1758.468;1;318;450;451.6;23.2;23.4;29;28.4;26.6;-1.0;
24/02/2025 15:47:28;117;0;315.80;-4;19.63;3.06;921.4;10.10;73945;2834.713;-1758.471;1;318;450;453.2;23.2;23.4;29;28.4;26.6;-1.0;
24/02/2025 15:47:48;117;0;315.48;-4;19.53;3.36;918.4;10.10;73953;2834.717;-1758.474;1;318;450;451.6;23.2;23.4;29;28.4;26.5;-1.0;
24/02/2025 15:48:08;117;0;315.99;-4;20.12;2.93;915.6;10.00;73937;2834.720;-1758.477;1;318;450;451.6;23.2;23.4;29;28.4;26.5;-1.0;
24/02/2025 15:48:28;117;0;315.49;-4;19.54;3.18;912.6;10.00;73926;2834.723;-1758.480;1;318;450;451.6;23.2;23.4;29;28.4;26.6;-1.0;
24/02/2025 15:48:48;117;0;316.26;-4;19.61;3.15;909.8;10.00;73933;2834.726;-1758.483;1;318;450;451.6;23.2;23.4;29;28.4;26.6;-1.0;
24/02/2025 15:49:08;117;0;317.01;-4;19.48;3.14;906.9;10.00;73937;2834.729;-1758.486;1;318;450;451.6;23.2;23.4;29;28.4;26.6;-1.0;
24/02/2025 15:49:28;117;0;317.70;-4;19.64;3.22;904.1;10.00;73935;2834.732;-1758.489;1;318;450;450.0;23.2;23.6;29;28.4;26.6;-1.0;
24/02/2025 15:49:48;117;0;318.46;-4;19.80;3.16;901.3;10.00;73921;2834.735;-1758.491;1;318;450;453.2;23.2;23.4;29;28.4;26.6;-1.0;
