Timestamp;NavState;SecurityLevel;Heading;Declination;Pitch;Roll;Depth;Temperature;Pa;Lat;Lon;DeadReckoning;DesiredH;BallastCmd;BallastPos;LinCmd;LinPos;AngCmd;AngPos;Voltage;Altitude;
04/03/2025 10:34:52;119;0;233.86;-4;-57.88;-35.55;0.2;16.80;75602;2834.743;-1758.395;0;148;500;508.1;100.0;100.4;0;-0.5;24.9;-1.0;
04/03/2025 10:35:01;116;0;238.40;-4;-71.99;-43.64;0.7;16.90;75606;2834.751;-1758.400;0;148;500;504.8;100.0;100.6;0;-0.5;24.9;-1.0;
04/03/2025 10:35:26;116;0;239.70;-4;-61.09;-20.24;0.2;17.00;75618;2834.754;-1758.405;0;148;500;506.5;100.0;100.6;0;-0.5;24.9;-1.0;
04/03/2025 10:35:53;116;0;270.64;-4;-52.16;-14.26;-0.1;17.00;75628;2834.755;-1758.406;0;148;500;504.8;100.0;100.6;0;-0.5;24.9;-1.0;
04/03/2025 10:36:13;116;0;313.92;-4;-42.16;-11.70;-0.2;17.10;75632;2834.755;-1758.409;0;317;500;506.5;100.0;100.6;0;-0.5;25.0;-1.0;
04/03/2025 10:36:24;116;0;298.43;-4;-65.05;-18.38;-0.1;17.10;75636;2834.758;-1758.415;0;317;500;506.5;100.0;100.6;0;-0.5;24.9;-1.0;
04/03/2025 10:37:27;116;0;253.33;-4;-59.73;-2.86;-0.1;17.30;75658;2834.764;-1758.429;0;317;500;506.5;100.0;100.4;0;-0.5;24.9;-1.0;
04/03/2025 10:39:43;116;0;315.33;-4;-53.82;-8.97;-0.3;18.00;75707;2834.786;-1758.465;0;317;500;504.8;100.0;100.6;0;-0.5;24.9;-1.0;
04/03/2025 10:40:09;116;0;305.47;-4;-52.87;-4.47;0.0;18.10;75722;2834.787;-1758.466;0;317;500;504.8;100.0;100.4;0;-0.5;24.9;-1.0;
04/03/2025 10:40:31;116;0;308.07;-4;-61.43;-27.66;-0.1;18.20;75731;2834.791;-1758.471;0;317;500;504.8;100.0;100.7;0;-0.5;24.9;-1.0;
04/03/2025 10:41:34;116;0;285.62;-4;-50.17;-3.64;-0.2;18.40;75748;2834.802;-1758.486;0;317;500;506.5;100.0;100.6;0;-0.5;24.9;-1.0;
04/03/2025 10:42:54;116;0;311.43;-4;-49.68;-10.97;-0.2;18.70;75777;2834.820;-1758.511;0;317;500;504.8;100.0;100.7;0;-0.5;24.9;-1.0;
04/03/2025 10:43:25;116;0;308.91;-4;-57.56;-4.60;-0.1;18.80;75783;2834.822;-1758.512;0;317;500;504.8;100.0;100.6;0;-0.5;24.9;-1.0;
04/03/2025 10:43:45;116;0;272.42;-4;-51.25;-11.85;-0.2;18.80;75788;2834.826;-1758.516;0;317;500;506.5;100.0;100.6;0;-0.5;24.9;-1.0;
04/03/2025 10:43:58;116;0;293.78;-4;-59.00;-12.40;0.0;18.90;75797;2834.827;-1758.519;0;317;500;504.8;100.0;100.6;0;-0.5;24.9;-1.0;
04/03/2025 10:44:18;116;0;289.69;-4;-56.43;-8.96;0.0;18.90;75794;2834.830;-1758.524;0;317;500;506.5;100.0;100.6;0;-0.5;24.9;-1.0;
04/03/2025 10:44:38;116;0;322.08;-4;-45.18;-13.31;-0.2;19.00;75801;2834.834;-1758.528;0;317;500;504.8;100.0;100.6;0;-0.5;24.9;-1.0;
04/03/2025 10:45:41;116;0;306.03;-4;-56.30;-10.61;-0.2;19.10;75823;2834.844;-1758.543;0;317;500;506.5;100.0;100.7;0;-0.5;24.9;-1.0;
04/03/2025 10:47:06;116;0;328.31;-4;-46.97;-12.79;-0.0;19.40;75842;2834.863;-1758.567;0;317;500;506.5;100.0;100.7;0;-0.5;24.9;-1.0;
04/03/2025 10:47:28;116;0;326.78;-4;-49.96;1.91;-0.2;19.40;75847;2834.867;-1758.573;0;317;500;506.5;100.0;100.6;0;-0.5;24.9;-1.0;
04/03/2025 10:47:55;116;0;326.34;-4;-46.88;-13.08;-0.2;19.50;75854;2834.871;-1758.578;0;317;500;506.5;100.0;100.6;0;-0.5;24.9;-1.0;
04/03/2025 10:48:22;116;0;355.31;-4;-45.90;-6.69;-0.1;19.60;75867;2834.872;-1758.580;0;317;500;506.5;100.0;100.6;0;-0.5;24.9;-1.0;
04/03/2025 10:48:40;116;0;4.55;-4;-61.01;-8.12;-0.2;19.60;75863;2834.875;-1758.584;0;317;500;506.5;100.0;100.4;0;-0.5;24.9;-1.0;
04/03/2025 10:48:54;116;0;341.79;-4;-44.99;-11.91;-0.1;19.70;75872;2834.876;-1758.587;0;317;500;506.5;100.0;100.6;0;-0.5;24.9;-1.0;
04/03/2025 10:49:14;110;0;351.43;-4;-53.71;-11.98;-0.1;19.70;75868;2834.876;-1758.587;0;317;-110;383.9;100.0;100.6;-7;-7.2;24.9;-1.0;
04/03/2025 10:49:24;110;0;15.62;-4;-57.94;-34.26;-0.2;19.70;76238;2834.876;-1758.587;1;317;-110;237.1;100.0;100.6;-7;-7.7;24.9;-1.0;
04/03/2025 10:49:34;110;0;3.24;-4;-66.00;-19.99;0.3;19.70;76459;2834.876;-1758.587;1;317;-110;83.9;100.0;100.6;-7;-7.7;24.9;-1.0;
04/03/2025 10:49:44;110;0;357.09;-4;-69.57;-32.30;0.9;19.80;76781;2834.876;-1758.587;1;317;-110;-75.8;100.0;100.6;-7;-7.7;24.9;-1.0;
04/03/2025 10:49:54;110;0;336.90;-4;-67.54;-26.97;1.0;19.80;77128;2834.876;-1758.587;1;317;-110;-109.7;43.4;56.4;-7;-7.7;24.9;-1.0;
04/03/2025 10:50:04;110;0;331.00;-4;-51.88;-11.84;2.2;19.80;77153;2834.877;-1758.587;1;317;-110;-108.1;43.4;43.4;-7;-7.7;24.9;-1.0;
04/03/2025 10:50:24;100;0;344.27;-4;-23.17;-15.53;5.2;19.80;77149;2834.880;-1758.588;1;317;-110;-106.5;43.4;43.2;-7;-7.7;24.9;-1.0;
04/03/2025 10:50:44;100;0;351.59;-4;-20.81;-15.46;8.0;19.80;77149;2834.883;-1758.589;1;317;-110;-104.8;43.4;43.0;53;52.8;24.9;-1.0;
04/03/2025 10:51:04;100;0;355.22;-4;-23.63;14.85;10.9;19.80;77166;2834.886;-1758.589;1;317;-110;-106.5;42.4;42.3;58;58.7;24.9;-1.0;
04/03/2025 10:51:24;100;0;348.97;-4;-23.24;17.68;13.8;19.80;77161;2834.889;-1758.589;1;317;-110;-104.8;41.4;41.2;50;50.1;24.9;0.0;
04/03/2025 10:51:44;100;0;340.56;-4;-20.24;13.22;16.6;19.80;77153;2834.892;-1758.591;1;317;-110;-104.8;41.4;41.4;36;36.1;24.9;0.0;
04/03/2025 10:52:04;100;0;333.87;-4;-20.08;5.84;19.1;19.80;77163;2834.895;-1758.592;1;317;-110;-104.8;41.4;41.2;25;24.8;24.9;0.0;
04/03/2025 10:52:24;100;0;330.19;-4;-19.00;0.67;21.4;19.80;77166;2834.897;-1758.594;1;317;-110;-103.2;41.4;41.2;20;19.9;24.9;0.0;
04/03/2025 10:52:44;100;0;328.45;-4;-19.22;-1.90;24.0;19.80;77166;2834.900;-1758.596;1;317;-110;-104.8;41.4;41.2;18;18.1;24.9;0.0;
04/03/2025 10:53:04;100;0;328.54;-4;-18.33;-2.87;26.5;19.80;77173;2834.903;-1758.598;1;317;-110;-103.2;41.9;41.8;18;17.6;24.9;0.0;
04/03/2025 10:53:24;100;0;326.74;-4;-19.33;-2.82;29.0;19.80;77167;2834.905;-1758.600;1;317;-110;-104.8;41.9;42.1;18;17.6;24.9;0.0;
04/03/2025 10:53:44;100;0;325.61;-4;-19.32;-2.85;31.4;19.70;77173;2834.908;-1758.601;1;317;-110;-103.2;41.9;42.1;16;15.3;25.0;0.0;
04/03/2025 10:54:04;100;0;325.74;-4;-19.30;-4.26;34.0;19.70;77173;2834.910;-1758.604;1;317;-110;-103.2;41.9;42.3;16;14.9;24.9;0.0;
04/03/2025 10:54:24;100;0;323.39;-4;-19.23;-4.15;36.5;19.70;77173;2834.913;-1758.606;1;317;-110;-103.2;41.9;42.1;16;14.9;24.9;0.0;
04/03/2025 10:54:44;100;0;321.14;-4;-19.45;-4.11;39.1;19.70;77180;2834.915;-1758.608;1;317;-110;-103.2;41.9;42.1;16;14.9;24.9;0.0;
04/03/2025 10:55:04;100;0;320.14;-4;-19.15;-4.10;41.7;19.70;77188;2834.918;-1758.610;1;317;-110;-103.2;41.9;42.1;16;15.3;24.9;0.0;
04/03/2025 10:55:24;100;0;319.81;-4;-19.01;-4.09;44.2;19.70;77175;2834.920;-1758.613;1;317;-110;-104.8;41.9;42.1;16;15.3;24.9;0.0;
04/03/2025 10:55:44;100;0;319.74;-4;-19.40;-4.18;46.5;19.70;77175;2834.922;-1758.615;1;317;-110;-104.8;41.9;42.1;16;15.3;24.9;0.0;
04/03/2025 10:56:04;100;0;322.25;-4;-19.18;-4.13;49.2;19.70;77175;2834.925;-1758.617;1;317;-110;-103.2;41.9;42.1;16;15.3;24.9;0.0;
04/03/2025 10:56:24;100;0;324.80;-4;-19.21;-4.11;51.7;19.70;77185;2834.927;-1758.619;1;317;-110;-104.8;41.9;42.1;16;15.3;24.9;0.0;
04/03/2025 10:56:44;100;0;329.00;-4;-19.43;-4.05;54.5;19.70;77188;2834.930;-1758.621;1;317;-110;-103.2;41.9;42.1;19;19.0;24.9;0.0;
04/03/2025 10:57:04;100;0;331.59;-4;-19.59;-1.83;57.4;19.70;77177;2834.933;-1758.623;1;317;-110;-104.8;41.9;42.3;22;22.1;24.9;0.0;
04/03/2025 10:57:24;100;0;329.49;-4;-19.54;-0.26;60.2;19.70;77191;2834.936;-1758.625;1;317;-110;-103.2;41.9;42.1;19;19.0;24.9;0.0;
04/03/2025 10:57:44;100;0;327.22;-4;-19.55;-2.21;63.1;19.60;77173;2834.939;-1758.628;1;317;-110;-103.2;41.9;42.3;19;18.5;24.9;0.0;
04/03/2025 10:58:04;100;0;323.50;-4;-19.36;-2.24;65.8;19.60;77181;2834.942;-1758.630;1;317;-110;-103.2;41.9;42.1;16;15.8;24.9;0.0;
04/03/2025 10:58:24;100;0;319.58;-4;-19.19;-3.76;68.6;19.60;77176;2834.944;-1758.632;1;317;-110;-103.2;41.9;42.1;16;15.8;24.9;0.0;
04/03/2025 10:58:44;100;0;314.93;-4;-19.36;-3.79;71.6;19.60;77179;2834.947;-1758.636;1;317;-110;-101.6;41.9;42.1;16;15.8;24.9;0.0;
04/03/2025 10:59:04;100;0;311.23;-4;-19.72;-3.82;74.4;19.60;77174;2834.949;-1758.638;1;317;-110;-103.2;41.9;42.1;14;14.0;24.9;0.0;
04/03/2025 10:59:24;100;0;312.37;-4;-18.65;-4.80;77.2;19.60;77153;2834.951;-1758.642;1;317;-110;-103.2;42.3;42.4;14;13.5;24.9;0.0;
04/03/2025 10:59:44;100;0;315.19;-4;-19.02;-4.84;79.9;19.60;77134;2834.954;-1758.644;1;317;-110;-104.8;42.3;42.6;14;13.5;24.9;0.0;
04/03/2025 11:00:04;100;0;320.93;-4;-19.26;-4.85;82.6;19.50;77116;2834.956;-1758.647;1;317;-110;-103.2;42.3;42.6;14;13.5;24.9;0.0;
04/03/2025 11:00:24;100;0;324.41;-4;-19.27;-4.89;85.3;19.50;77106;2834.959;-1758.649;1;317;-110;-101.6;42.3;42.6;16;15.8;24.9;0.0;
04/03/2025 11:00:44;100;0;327.89;-4;-19.46;-3.55;88.0;19.50;77098;2834.962;-1758.651;1;317;-110;-104.8;42.3;42.6;18;18.1;24.9;0.0;
04/03/2025 11:01:04;100;0;328.49;-4;-19.63;-2.43;90.7;19.50;77083;2834.965;-1758.653;1;317;-110;-101.6;42.3;42.6;18;18.5;24.9;0.0;
04/03/2025 11:01:24;100;0;329.27;-4;-19.43;-2.40;93.4;19.40;77084;2834.967;-1758.655;1;317;-110;-101.6;42.3;42.6;18;18.5;24.9;0.0;
04/03/2025 11:01:44;100;0;333.71;-4;-19.71;-2.39;96.2;19.40;77080;2834.970;-1758.657;1;317;-110;-103.2;42.3;42.6;25;24.8;24.9;0.0;
04/03/2025 11:02:04;100;0;332.81;-4;-19.70;1.07;98.7;19.40;77060;2834.973;-1758.658;1;317;-110;-103.2;42.3;42.6;25;25.3;24.9;0.0;
04/03/2025 11:02:24;100;0;332.34;-4;-19.98;1.09;101.3;19.30;77053;2834.976;-1758.660;1;317;-110;-101.6;42.3;42.6;23;23.0;24.9;0.0;
04/03/2025 11:02:44;100;0;326.50;-4;-19.97;-0.31;103.8;19.30;77034;2834.978;-1758.662;1;317;-110;-104.8;42.3;42.6;17;17.1;24.9;0.0;
04/03/2025 11:03:04;100;0;321.58;-4;-19.86;-3.14;106.4;19.30;77034;2834.981;-1758.664;1;317;-110;-101.6;42.3;42.6;15;14.9;24.9;0.0;
04/03/2025 11:03:24;100;0;317.92;-4;-19.80;-4.42;108.9;19.20;77021;2834.983;-1758.666;1;317;-110;-101.6;42.3;42.6;15;14.4;24.9;0.0;
04/03/2025 11:03:44;100;0;313.61;-4;-19.51;-4.42;111.4;19.20;77017;2834.985;-1758.669;1;317;-110;-103.2;42.3;42.6;15;14.4;25.0;0.0;
04/03/2025 11:04:04;100;0;311.41;-4;-19.21;-4.50;113.8;19.20;77001;2834.987;-1758.671;1;317;-110;-101.6;42.3;42.6;15;14.4;24.9;0.0;
04/03/2025 11:04:24;100;0;313.88;-4;-19.35;-4.46;116.0;19.10;76988;2834.989;-1758.674;1;317;-110;-101.6;42.3;42.6;15;14.4;24.9;0.0;
04/03/2025 11:04:44;100;0;314.84;-4;-19.21;-4.46;118.4;19.10;76975;2834.991;-1758.676;1;317;-110;-101.6;42.3;42.6;15;14.4;24.9;0.0;
04/03/2025 11:05:04;100;0;312.36;-4;-18.92;-4.46;120.5;19.10;76979;2834.992;-1758.678;1;317;-110;-103.2;42.6;42.6;15;14.4;24.9;0.0;
04/03/2025 11:05:24;100;0;312.75;-4;-18.97;-4.48;122.8;19.00;76970;2834.994;-1758.681;1;317;-110;-101.6;42.9;42.9;15;14.4;25.0;0.0;
04/03/2025 11:05:44;100;0;313.96;-4;-20.15;-4.36;125.1;19.00;76958;2834.996;-1758.683;1;317;-110;-104.8;42.9;43.2;15;14.4;24.9;0.0;
04/03/2025 11:06:04;100;0;311.90;-4;-19.76;-4.41;127.5;19.00;76956;2834.998;-1758.686;1;317;-110;-101.6;42.9;43.2;15;14.4;24.9;0.0;
04/03/2025 11:06:24;100;0;311.97;-4;-19.90;-4.44;130.0;19.00;76949;2835.000;-1758.688;1;317;-110;-103.2;42.9;43.2;15;14.4;24.9;0.0;
04/03/2025 11:06:44;100;0;313.49;-4;-19.96;-4.44;132.4;18.90;76934;2835.002;-1758.691;1;317;-110;-104.8;42.9;43.0;15;14.4;24.9;0.0;
04/03/2025 11:07:04;100;0;314.02;-4;-20.23;-4.49;135.0;18.90;76944;2835.004;-1758.693;1;317;-110;-103.2;42.9;43.0;15;14.4;25.0;0.0;
04/03/2025 11:07:24;100;0;314.64;-4;-20.21;-4.41;137.6;18.80;76940;2835.006;-1758.696;1;317;-110;-101.6;42.9;43.0;15;14.4;24.9;0.0;
04/03/2025 11:07:44;100;0;314.71;-4;-20.08;-4.44;140.1;18.80;76938;2835.008;-1758.698;1;317;-110;-101.6;42.9;43.0;15;14.4;24.9;0.0;
04/03/2025 11:08:04;100;0;314.50;-4;-20.35;-4.49;142.7;18.80;76930;2835.010;-1758.701;1;317;-110;-101.6;42.9;43.2;15;14.4;24.9;0.0;
04/03/2025 11:08:24;100;0;314.41;-4;-20.28;-4.45;145.4;18.80;76922;2835.012;-1758.704;1;317;-110;-103.2;42.9;43.0;15;14.4;24.9;0.0;
04/03/2025 11:08:44;100;0;315.24;-4;-20.30;-4.42;148.2;18.70;76909;2835.015;-1758.706;1;317;-110;-101.6;42.9;43.2;15;14.4;24.9;0.0;
04/03/2025 11:09:04;100;0;319.41;-4;-20.33;-4.37;151.0;18.70;76905;2835.017;-1758.709;1;317;-110;-100.0;42.9;43.0;15;14.4;24.9;0.0;
04/03/2025 11:09:24;100;0;320.96;-4;-20.39;-4.48;153.8;18.70;76909;2835.020;-1758.712;1;317;-110;-101.6;42.9;43.0;15;14.4;24.9;0.0;
04/03/2025 11:09:44;100;0;321.92;-4;-20.64;-4.35;156.5;18.60;76902;2835.022;-1758.714;1;317;-110;-101.6;42.9;43.2;15;14.4;24.9;0.0;
04/03/2025 11:10:04;100;0;320.77;-4;-20.68;-4.40;159.6;18.60;76895;2835.025;-1758.716;1;317;-110;-101.6;42.9;43.0;15;14.4;24.9;0.0;
04/03/2025 11:10:24;100;0;320.97;-4;-20.38;-4.39;162.4;18.60;76888;2835.027;-1758.719;1;317;-110;-101.6;42.9;43.2;15;14.4;24.9;0.0;
04/03/2025 11:10:44;100;0;322.65;-4;-20.55;-4.29;165.1;18.50;76870;2835.030;-1758.721;1;317;-110;-101.6;42.9;43.2;15;14.4;24.9;0.0;
04/03/2025 11:11:04;100;0;324.39;-4;-20.06;-4.36;168.0;18.50;76850;2835.033;-1758.723;1;317;-110;-101.6;42.9;43.0;15;14.4;24.9;0.0;
04/03/2025 11:11:24;100;0;325.86;-4;-19.94;-4.38;170.7;18.50;76849;2835.035;-1758.725;1;317;-110;-103.2;42.9;43.2;17;17.1;24.9;0.0;
04/03/2025 11:11:44;100;0;326.40;-4;-20.32;-2.82;173.4;18.40;76839;2835.038;-1758.728;1;317;-110;-103.2;42.9;43.0;17;17.6;24.9;0.0;
04/03/2025 11:12:04;100;0;326.81;-4;-20.35;-2.70;176.3;18.40;76838;2835.041;-1758.730;1;317;-110;-101.6;42.9;43.2;17;17.6;24.9;0.0;
04/03/2025 11:12:24;100;0;326.59;-4;-20.26;-2.77;179.0;18.40;76834;2835.043;-1758.732;1;317;-110;-101.6;42.9;43.0;17;17.6;24.9;0.0;
04/03/2025 11:12:44;100;0;326.45;-4;-20.58;-2.67;182.1;18.30;76830;2835.046;-1758.734;1;317;-110;-103.2;42.9;43.2;17;17.6;24.9;0.0;
04/03/2025 11:13:04;100;0;324.97;-4;-20.73;-2.72;184.9;18.30;76823;2835.049;-1758.736;1;317;-110;-101.6;42.9;43.0;17;17.6;24.9;0.0;
04/03/2025 11:13:24;100;0;324.22;-4;-20.98;-2.80;187.9;18.20;76820;2835.052;-1758.739;1;317;-110;-103.2;42.9;43.0;17;17.6;24.9;0.0;
04/03/2025 11:13:44;100;0;320.49;-4;-20.44;-2.67;190.8;18.20;76812;2835.054;-1758.741;1;317;-110;-101.6;42.9;43.2;15;14.9;24.9;0.0;
04/03/2025 11:14:04;100;0;317.73;-4;-20.42;-4.22;193.5;18.20;76797;2835.057;-1758.744;1;317;-110;-103.2;42.9;43.0;15;14.4;24.9;0.0;
04/03/2025 11:14:24;100;0;315.79;-4;-20.13;-4.28;196.5;18.20;76799;2835.059;-1758.747;1;317;-110;-106.5;42.9;43.2;15;14.9;24.9;0.0;
04/03/2025 11:14:44;100;0;314.34;-4;-20.96;-4.09;199.4;18.10;76794;2835.062;-1758.749;1;317;-110;-101.6;42.9;43.2;15;14.9;24.9;0.0;
04/03/2025 11:15:04;100;0;309.50;-4;-20.61;-4.33;202.3;18.10;76793;2835.064;-1758.752;1;317;-110;-101.6;42.9;43.2;13;13.1;24.9;0.0;
04/03/2025 11:15:24;100;0;305.25;-4;-20.27;-5.30;205.3;18.00;76781;2835.066;-1758.756;1;317;-110;-101.6;42.9;43.2;9;9.0;24.9;0.0;
04/03/2025 11:15:44;100;0;303.39;-4;-19.93;-6.99;208.1;18.00;76788;2835.068;-1758.759;1;317;-110;-103.2;42.9;43.2;7;7.2;24.9;0.0;
04/03/2025 11:16:04;100;0;305.40;-4;-18.90;-8.23;210.9;18.00;76775;2835.069;-1758.763;1;317;-110;-103.2;43.2;43.6;9;9.0;24.9;0.0;
04/03/2025 11:16:24;100;0;305.34;-4;-20.89;-6.81;213.9;18.00;76768;2835.071;-1758.766;1;317;-110;-103.2;43.2;43.6;9;9.5;24.9;0.0;
04/03/2025 11:16:44;100;0;304.11;-4;-20.80;-6.74;216.9;17.90;76778;2835.073;-1758.769;1;317;-110;-101.6;43.2;43.6;9;9.5;24.9;0.0;
04/03/2025 11:17:04;100;0;301.56;-4;-21.39;-6.76;219.8;17.90;76766;2835.075;-1758.773;1;317;-110;-103.2;43.2;43.6;4;4.1;24.9;0.0;
04/03/2025 11:17:24;100;0;300.66;-4;-20.74;-9.71;222.7;17.80;76750;2835.077;-1758.776;1;317;-110;-101.6;43.2;43.7;4;3.6;24.9;0.0;
04/03/2025 11:17:44;100;0;299.81;-4;-21.22;-9.72;225.9;17.80;76751;2835.078;-1758.780;1;317;-110;-103.2;43.2;43.6;1;0.9;24.9;0.0;
04/03/2025 11:18:04;100;0;301.75;-4;-21.22;-11.11;229.0;17.80;76735;2835.080;-1758.783;1;317;-110;-103.2;43.2;43.6;4;4.1;24.9;0.0;
04/03/2025 11:18:24;100;0;303.07;-4;-20.96;-9.30;232.3;17.80;76717;2835.082;-1758.787;1;317;-110;-103.2;43.2;43.7;6;5.9;24.9;0.0;
04/03/2025 11:18:44;100;0;307.51;-4;-20.81;-8.38;235.2;17.70;76698;2835.084;-1758.790;1;317;-110;-101.6;43.2;43.6;11;10.8;24.9;0.0;
04/03/2025 11:19:04;100;0;309.48;-4;-20.98;-5.83;238.2;17.70;76699;2835.086;-1758.793;1;317;-110;-103.2;43.2;43.6;13;13.1;24.9;0.0;
04/03/2025 11:19:24;100;0;308.97;-4;-20.97;-4.83;241.1;17.60;76686;2835.088;-1758.797;1;317;-110;-101.6;43.2;43.6;13;13.5;24.9;0.0;
04/03/2025 11:19:44;100;0;306.88;-4;-21.07;-4.86;244.0;17.60;76673;2835.090;-1758.800;1;317;-110;-103.2;43.2;43.7;11;10.8;24.9;0.0;
04/03/2025 11:20:04;100;0;308.64;-4;-20.93;-6.28;246.8;17.60;76675;2835.092;-1758.803;1;317;-110;-103.2;43.2;43.7;11;10.8;24.9;0.0;
04/03/2025 11:20:24;100;0;308.20;-4;-21.08;-6.30;249.8;17.60;76671;2835.094;-1758.806;1;317;-110;-103.2;43.2;43.7;11;10.4;24.9;0.0;
04/03/2025 11:20:44;100;0;307.66;-4;-21.08;-6.33;253.0;17.50;76664;2835.096;-1758.809;1;317;-110;-101.6;43.2;43.7;11;10.8;24.9;0.0;
04/03/2025 11:21:04;100;0;306.68;-4;-21.04;-6.32;255.8;17.50;76657;2835.098;-1758.812;1;317;-110;-101.6;43.2;43.7;11;10.8;24.9;0.0;
04/03/2025 11:21:24;100;0;309.09;-4;-20.98;-6.31;258.8;17.40;76653;2835.100;-1758.815;1;317;-110;-101.6;43.2;43.7;11;10.8;24.9;0.0;
04/03/2025 11:21:45;100;0;311.20;-4;-20.64;-6.41;261.8;17.40;76647;2835.103;-1758.819;1;317;-110;-103.2;43.2;43.7;13;13.1;24.9;0.0;
04/03/2025 11:22:05;100;0;314.57;-4;-20.73;-4.78;264.8;17.40;76643;2835.105;-1758.821;1;317;-110;-101.6;43.2;43.7;13;13.5;24.9;0.0;
04/03/2025 11:22:25;100;0;315.31;-4;-20.79;-4.89;267.7;17.30;76642;2835.107;-1758.824;1;317;-110;-104.8;43.2;43.7;13;13.5;24.9;0.0;
04/03/2025 11:22:45;100;0;316.48;-4;-21.23;-4.89;270.3;17.30;76632;2835.109;-1758.827;1;317;-110;-103.2;43.2;43.7;13;13.5;24.9;0.0;
04/03/2025 11:23:05;100;0;320.02;-4;-21.33;-4.83;273.4;17.30;76634;2835.112;-1758.829;1;317;-110;-103.2;43.2;43.6;15;14.9;24.9;0.0;
04/03/2025 11:23:25;100;0;323.31;-4;-21.41;-4.03;276.2;17.20;76635;2835.115;-1758.832;1;317;-110;-104.8;43.2;43.7;15;15.3;24.9;0.0;
04/03/2025 11:23:45;100;0;328.18;-4;-21.20;-3.91;279.1;17.20;76612;2835.118;-1758.834;1;317;-110;-101.6;43.2;43.7;18;18.1;24.9;0.0;
04/03/2025 11:24:05;100;0;329.81;-4;-21.24;-2.46;282.1;17.20;76603;2835.120;-1758.836;1;317;-110;-101.6;43.2;43.7;18;18.1;24.9;0.0;
04/03/2025 11:24:25;100;0;333.94;-4;-21.15;-2.42;285.1;17.10;76599;2835.124;-1758.837;1;317;-110;-104.8;43.2;43.6;25;24.8;24.9;0.0;
04/03/2025 11:24:45;100;0;331.64;-4;-22.06;1.03;287.7;17.10;76588;2835.126;-1758.839;1;317;-110;-103.2;42.6;42.6;22;22.1;24.9;0.0;
04/03/2025 11:25:05;100;0;323.64;-4;-19.20;-0.50;290.3;17.10;76579;2835.129;-1758.841;1;317;-110;-103.2;42.6;42.3;15;14.4;24.9;0.0;
04/03/2025 11:25:25;100;0;320.14;-4;-18.92;-4.43;292.7;17.00;76555;2835.131;-1758.843;1;317;-110;-101.6;43.0;43.2;15;14.4;24.9;0.0;
04/03/2025 11:25:45;100;0;315.62;-4;-19.50;-4.39;295.1;17.00;76549;2835.133;-1758.846;1;317;-110;-103.2;43.0;43.3;15;14.4;24.9;0.0;
04/03/2025 11:26:05;100;0;313.92;-4;-19.79;-4.29;297.4;17.00;76539;2835.135;-1758.848;1;317;-110;-103.2;43.0;43.3;15;14.4;24.9;0.0;
04/03/2025 11:26:25;100;0;311.28;-4;-20.39;-4.42;299.7;16.90;76533;2835.136;-1758.850;1;317;-110;-103.2;43.0;43.4;15;14.4;24.9;0.0;
04/03/2025 11:26:45;100;0;308.75;-4;-20.18;-4.43;302.0;16.90;76531;2835.138;-1758.853;1;317;-110;-101.6;43.0;43.3;12;12.2;24.9;0.0;
04/03/2025 11:27:05;100;0;307.26;-4;-20.33;-5.66;304.3;16.90;76520;2835.140;-1758.855;1;317;-110;-101.6;43.0;43.3;12;12.2;24.9;0.0;
04/03/2025 11:27:25;100;0;306.69;-4;-19.87;-5.37;306.5;16.80;76515;2835.141;-1758.858;1;317;-110;-103.2;43.0;43.3;10;9.9;24.9;0.0;
04/03/2025 11:27:45;100;0;301.40;-4;-20.64;-6.78;308.7;16.80;76506;2835.142;-1758.860;1;317;-110;-103.2;43.0;43.3;2;1.8;24.9;0.0;
04/03/2025 11:28:05;100;0;301.43;-4;-20.04;-10.80;311.1;16.70;76493;2835.144;-1758.863;1;317;-110;-103.2;43.0;43.3;2;1.4;24.9;0.0;
04/03/2025 11:28:25;100;0;304.17;-4;-19.97;-10.64;313.5;16.70;76480;2835.145;-1758.866;1;317;-110;-101.6;43.0;43.3;7;7.2;24.9;0.0;
04/03/2025 11:28:45;100;0;305.53;-4;-19.93;-7.77;315.7;16.70;76473;2835.147;-1758.869;1;317;-110;-103.2;43.0;43.3;7;7.2;24.9;0.0;
04/03/2025 11:29:05;100;0;308.26;-4;-20.04;-7.91;318.0;16.60;76470;2835.148;-1758.871;1;317;-110;-101.6;43.0;43.3;11;10.8;24.9;0.0;
04/03/2025 11:29:25;100;0;310.61;-4;-19.99;-6.07;319.9;16.60;76459;2835.150;-1758.873;1;317;-130;-132.3;43.0;43.3;11;10.8;24.9;0.0;
04/03/2025 11:29:45;100;0;311.45;-4;-19.77;-5.95;322.3;16.60;76531;2835.151;-1758.876;1;317;-130;-133.9;43.0;43.3;13;13.5;24.9;0.0;
04/03/2025 11:30:05;100;0;312.50;-4;-19.45;-4.66;324.5;16.50;76500;2835.153;-1758.878;1;317;-130;-133.9;43.0;43.3;13;13.5;24.9;0.0;
04/03/2025 11:30:25;100;0;313.02;-4;-19.33;-4.65;326.7;16.50;76492;2835.155;-1758.880;1;317;-130;-133.9;43.0;43.3;13;14.0;24.9;0.0;
04/03/2025 11:30:45;100;0;313.96;-4;-18.81;-4.64;329.0;16.50;76492;2835.157;-1758.883;1;317;-130;-135.5;43.3;43.3;13;13.5;24.9;0.0;
04/03/2025 11:31:05;100;0;314.74;-4;-19.49;-4.68;330.8;16.40;76467;2835.158;-1758.884;1;317;-150;-153.2;43.3;43.3;13;13.5;24.9;0.0;
04/03/2025 11:31:25;100;0;314.24;-4;-18.53;-4.35;333.0;16.40;76507;2835.160;-1758.887;1;317;-150;-151.6;43.7;43.9;13;13.5;24.9;0.0;
04/03/2025 11:31:45;100;0;314.19;-4;-20.45;-4.42;335.3;16.30;76506;2835.162;-1758.889;1;317;-150;-153.2;43.7;44.0;13;13.5;24.9;0.0;
04/03/2025 11:32:05;100;0;315.77;-4;-21.19;-4.55;337.9;16.30;76493;2835.164;-1758.891;1;317;-150;-151.6;43.7;44.0;13;13.5;24.9;0.0;
04/03/2025 11:32:25;100;0;314.48;-4;-21.42;-4.85;340.6;16.30;76492;2835.166;-1758.894;1;317;-150;-151.6;43.7;44.0;13;14.0;24.9;0.0;
04/03/2025 11:32:45;100;0;314.25;-4;-20.59;-4.58;343.6;16.20;76487;2835.169;-1758.897;1;317;-150;-153.2;43.7;44.0;13;13.5;24.9;0.0;
04/03/2025 11:33:05;100;0;316.50;-4;-19.00;-4.33;346.3;16.20;76480;2835.171;-1758.900;1;317;-150;-151.6;43.7;44.0;13;13.5;24.9;0.0;
04/03/2025 11:33:25;100;0;317.49;-4;-20.29;-4.53;348.6;16.10;76480;2835.173;-1758.902;1;317;-150;-151.6;43.7;44.0;13;13.5;24.9;0.0;
04/03/2025 11:33:45;100;0;318.74;-4;-20.26;-4.51;351.2;16.10;76478;2835.175;-1758.904;1;317;-150;-151.6;43.7;44.0;13;13.5;24.9;0.0;
04/03/2025 11:34:05;100;0;321.79;-4;-20.77;-4.50;354.0;16.10;76472;2835.178;-1758.906;1;317;-150;-151.6;43.7;44.0;13;13.5;24.9;0.0;
04/03/2025 11:34:25;100;0;325.63;-4;-20.78;-4.33;356.6;16.10;76462;2835.180;-1758.908;1;317;-150;-151.6;43.7;44.0;16;16.2;24.9;0.0;
04/03/2025 11:34:45;100;0;326.70;-4;-20.97;-3.12;359.4;16.00;76456;2835.183;-1758.910;1;317;-150;-151.6;43.7;44.0;16;16.2;24.9;0.0;
04/03/2025 11:35:05;100;0;326.66;-4;-20.65;-3.15;362.0;16.00;76448;2835.185;-1758.912;1;317;-150;-151.6;43.7;44.0;16;16.2;24.9;0.0;
04/03/2025 11:35:25;100;0;326.54;-4;-21.36;-3.20;364.6;16.00;76439;2835.188;-1758.914;1;317;-150;-153.2;43.7;44.0;16;16.2;24.9;0.0;
04/03/2025 11:35:45;100;0;327.04;-4;-21.37;-3.07;367.6;15.90;76427;2835.191;-1758.916;1;317;-150;-151.6;43.7;44.0;16;16.2;24.9;0.0;
04/03/2025 11:36:05;100;0;325.77;-4;-21.16;-3.11;370.6;15.90;76417;2835.194;-1758.919;1;317;-150;-151.6;43.7;44.0;16;16.2;24.9;0.0;
04/03/2025 11:36:25;100;0;324.85;-4;-21.15;-3.10;373.5;15.90;76414;2835.196;-1758.921;1;317;-150;-154.8;43.7;44.0;16;16.2;24.9;0.0;
04/03/2025 11:36:45;100;0;324.93;-4;-21.51;-3.12;376.7;15.80;76412;2835.199;-1758.923;1;317;-150;-153.2;43.7;44.0;16;16.2;24.9;0.0;
04/03/2025 11:37:05;100;0;322.91;-4;-21.28;-3.15;379.9;15.80;76408;2835.202;-1758.926;1;317;-150;-153.2;43.7;44.0;16;16.2;24.9;0.0;
04/03/2025 11:37:25;100;0;321.99;-4;-21.28;-3.15;383.0;15.80;76398;2835.205;-1758.929;1;317;-150;-151.6;43.7;44.0;16;16.2;24.9;0.0;
04/03/2025 11:37:45;100;0;319.84;-4;-20.94;-3.17;386.3;15.70;76392;2835.208;-1758.931;1;317;-150;-153.2;43.7;44.0;14;14.0;24.9;0.0;
04/03/2025 11:38:05;100;0;317.81;-4;-20.81;-4.42;389.6;15.70;76382;2835.211;-1758.934;1;317;-150;-153.2;43.7;44.0;14;13.5;24.9;0.0;
04/03/2025 11:38:25;100;0;316.21;-4;-20.70;-4.46;392.8;15.60;76373;2835.213;-1758.937;1;317;-150;-151.6;43.7;44.0;14;14.0;24.9;0.0;
04/03/2025 11:38:45;100;0;315.07;-4;-20.72;-4.50;396.2;15.60;76368;2835.216;-1758.941;1;317;-150;-153.2;43.7;44.0;14;14.0;24.9;0.0;
04/03/2025 11:39:05;100;0;314.24;-4;-20.77;-4.46;399.3;15.60;76358;2835.218;-1758.944;1;317;-150;-153.2;43.7;44.0;14;14.0;24.9;0.0;
04/03/2025 11:39:25;100;0;313.44;-4;-20.91;-4.43;402.9;15.50;76357;2835.221;-1758.947;1;317;-150;-151.6;43.7;44.0;14;14.0;24.9;0.0;
04/03/2025 11:39:45;100;0;312.04;-4;-21.11;-4.45;406.4;15.50;76356;2835.224;-1758.951;1;317;-150;-153.2;43.7;44.0;14;14.0;24.9;0.0;
04/03/2025 11:40:05;100;0;311.32;-4;-20.56;-4.53;409.9;15.50;76345;2835.227;-1758.954;1;317;-150;-150.0;43.7;44.0;14;14.0;24.9;0.0;
04/03/2025 11:40:25;100;0;311.19;-4;-20.41;-4.47;413.4;15.40;76330;2835.229;-1758.958;1;317;-150;-151.6;43.7;44.0;14;13.5;24.9;0.0;
04/03/2025 11:40:45;100;0;311.11;-4;-20.46;-4.52;416.9;15.40;76326;2835.232;-1758.962;1;317;-150;-151.6;43.7;44.0;14;14.0;24.9;0.0;
04/03/2025 11:41:05;100;0;311.59;-4;-20.40;-4.31;420.5;15.40;76322;2835.235;-1758.966;1;317;-150;-151.6;43.7;44.0;14;13.5;24.9;0.0;
04/03/2025 11:41:25;100;0;312.71;-4;-20.15;-4.47;423.9;15.30;76315;2835.238;-1758.969;1;317;-150;-153.2;43.7;44.0;14;14.0;24.9;0.0;
04/03/2025 11:41:45;100;0;311.23;-4;-20.09;-4.52;427.5;15.30;76303;2835.240;-1758.973;1;317;-150;-151.6;43.7;44.0;14;13.5;24.9;0.0;
04/03/2025 11:42:05;100;0;310.65;-4;-20.32;-4.51;431.0;15.30;76296;2835.243;-1758.977;1;317;-150;-151.6;43.7;44.0;14;14.0;24.9;0.0;
04/03/2025 11:42:25;100;0;308.64;-4;-20.59;-4.47;434.5;15.20;76303;2835.246;-1758.981;1;317;-150;-151.6;43.7;44.0;12;12.2;24.9;0.0;
04/03/2025 11:42:45;100;0;306.87;-4;-20.66;-5.18;438.1;15.20;76289;2835.248;-1758.984;1;317;-150;-153.2;43.7;44.0;10;9.9;24.9;0.0;
04/03/2025 11:43:05;100;0;305.66;-4;-20.29;-6.57;441.6;15.20;76295;2835.250;-1758.988;1;317;-150;-153.2;43.7;44.0;10;9.5;24.9;0.0;
04/03/2025 11:43:25;100;0;304.96;-4;-20.64;-6.79;445.0;15.20;76282;2835.253;-1758.992;1;317;-150;-153.2;43.7;44.0;8;8.1;24.9;0.0;
04/03/2025 11:43:45;100;0;305.60;-4;-20.45;-7.29;448.5;15.10;76287;2835.255;-1758.996;1;317;-150;-151.6;43.7;44.0;8;7.7;24.9;0.0;
04/03/2025 11:44:05;100;0;301.05;-4;-20.66;-7.58;452.0;15.10;76272;2835.257;-1759.000;1;317;-150;-153.2;43.7;44.2;2;1.8;24.9;0.0;
04/03/2025 11:44:25;100;0;304.64;-4;-19.76;-10.28;455.4;15.10;76273;2835.259;-1759.004;1;317;-150;-153.2;43.7;44.0;7;7.2;24.9;0.0;
04/03/2025 11:44:45;100;0;303.97;-4;-20.48;-7.66;458.6;15.00;76263;2835.261;-1759.008;1;317;-150;-153.2;43.7;44.2;7;7.2;24.9;0.0;
04/03/2025 11:45:05;100;0;308.06;-4;-19.93;-7.57;462.1;15.00;76250;2835.264;-1759.012;1;317;-150;-153.2;43.7;44.0;11;10.8;24.9;0.0;
04/03/2025 11:45:25;100;0;312.95;-4;-20.12;-5.57;465.4;15.00;76240;2835.267;-1759.015;1;317;-150;-153.2;43.7;44.0;13;13.1;24.9;0.0;
04/03/2025 11:45:45;100;0;314.58;-4;-20.57;-4.71;468.7;14.90;76244;2835.269;-1759.019;1;317;-150;-151.6;43.7;44.0;13;13.1;24.9;0.0;
04/03/2025 11:46:05;100;0;312.37;-4;-21.14;-4.77;472.2;14.90;76240;2835.272;-1759.022;1;317;-150;-153.2;43.7;44.0;13;13.5;24.9;0.0;
04/03/2025 11:46:25;100;0;315.03;-4;-20.27;-4.87;475.4;14.90;76236;2835.275;-1759.025;1;317;-150;-151.6;43.7;44.0;13;13.5;24.9;0.0;
04/03/2025 11:46:45;100;0;317.63;-4;-20.26;-4.55;478.7;14.90;76240;2835.278;-1759.028;1;317;-150;-153.2;43.7;44.0;13;13.5;24.9;0.0;
04/03/2025 11:47:05;100;0;316.06;-4;-20.85;-4.84;482.0;14.80;76233;2835.280;-1759.032;1;317;-150;-151.6;43.7;44.0;13;13.5;24.9;0.0;
04/03/2025 11:47:25;100;0;317.12;-4;-19.88;-4.50;485.1;14.80;76224;2835.283;-1759.035;1;317;-150;-153.2;43.7;44.0;13;13.5;24.9;0.0;
04/03/2025 11:47:45;100;0;317.97;-4;-20.82;-4.59;488.4;14.80;76225;2835.286;-1759.038;1;317;-150;-151.6;43.7;44.0;13;13.5;24.9;0.0;
04/03/2025 11:48:05;100;0;319.27;-4;-21.03;-4.65;492.0;14.70;76204;2835.289;-1759.041;1;317;-150;-153.2;43.7;44.2;13;13.5;24.9;0.0;
04/03/2025 11:48:25;100;0;322.39;-4;-19.79;-4.64;495.5;14.70;76208;2835.292;-1759.044;1;317;-150;-151.6;43.7;44.0;13;13.5;24.9;0.0;
04/03/2025 11:48:45;100;0;326.46;-4;-20.33;-5.13;498.8;14.70;76206;2835.296;-1759.046;1;317;-150;-151.6;43.7;44.0;16;16.2;24.9;0.0;
04/03/2025 11:49:05;100;0;326.33;-4;-20.45;-3.27;502.4;14.70;76208;2835.299;-1759.049;1;317;-150;-151.6;43.7;44.0;16;16.2;24.9;0.0;
04/03/2025 11:49:25;100;0;325.58;-4;-20.75;-3.17;505.8;14.60;76203;2835.302;-1759.052;1;317;-150;-154.8;43.7;44.0;16;16.7;24.9;0.0;
04/03/2025 11:49:45;100;0;324.70;-4;-20.67;-3.11;509.1;14.60;76199;2835.306;-1759.054;1;317;-150;-153.2;43.7;44.0;16;16.2;24.9;0.0;
04/03/2025 11:50:05;100;0;324.77;-4;-20.27;-2.96;512.5;14.60;76192;2835.309;-1759.057;1;317;-150;-153.2;43.7;44.2;16;16.2;24.9;0.0;
04/03/2025 11:50:25;100;0;325.84;-4;-20.73;-2.93;515.8;14.60;76196;2835.312;-1759.059;1;317;-150;-153.2;43.7;44.0;16;16.2;24.9;0.0;
04/03/2025 11:50:45;100;0;327.95;-4;-20.39;-3.03;519.0;14.50;76181;2835.315;-1759.062;1;317;-150;-153.2;43.7;44.2;16;16.7;24.9;0.0;
04/03/2025 11:51:05;100;0;329.16;-4;-20.18;-3.16;522.1;14.50;76182;2835.319;-1759.064;1;317;-150;-151.6;43.7;44.0;18;18.1;24.9;0.0;
04/03/2025 11:51:25;100;0;332.34;-4;-20.35;-2.02;525.2;14.50;76178;2835.322;-1759.066;1;317;-150;-153.2;43.7;44.0;22;22.1;24.9;0.0;
04/03/2025 11:51:45;100;0;331.35;-4;-20.62;-0.36;528.2;14.40;76174;2835.325;-1759.068;1;317;-150;-153.2;43.7;44.0;22;22.6;24.9;0.0;
04/03/2025 11:52:05;100;0;329.42;-4;-20.44;-0.18;531.3;14.40;76164;2835.328;-1759.070;1;317;-150;-151.6;43.7;44.0;19;19.0;24.9;0.0;
04/03/2025 11:52:25;100;0;327.97;-4;-20.66;-2.22;534.3;14.40;76173;2835.331;-1759.072;1;317;-150;-151.6;43.7;44.0;17;17.1;24.9;0.0;
04/03/2025 11:52:45;100;0;327.00;-4;-20.67;-3.15;537.1;14.40;76166;2835.334;-1759.074;1;317;-150;-151.6;43.7;44.2;17;16.7;24.9;0.0;
04/03/2025 11:53:05;100;0;325.50;-4;-20.62;-3.13;540.1;14.40;76159;2835.337;-1759.077;1;317;-150;-153.2;43.7;44.0;17;16.7;24.9;0.0;
04/03/2025 11:53:25;100;0;324.39;-4;-20.59;-3.10;543.1;14.30;76157;2835.339;-1759.079;1;317;-150;-154.8;43.7;44.0;15;14.9;24.9;0.0;
04/03/2025 11:53:45;100;0;323.20;-4;-20.49;-4.04;545.8;14.30;76155;2835.342;-1759.081;1;317;-150;-153.2;43.7;44.0;15;14.4;24.9;0.0;
04/03/2025 11:54:05;100;0;321.78;-4;-20.72;-4.05;548.6;14.30;76148;2835.344;-1759.083;1;317;-150;-153.2;43.7;44.0;15;14.4;24.9;0.0;
04/03/2025 11:54:25;100;0;319.20;-4;-20.81;-4.04;551.3;14.30;76137;2835.347;-1759.086;1;317;-150;-151.6;43.7;44.0;15;14.4;24.9;0.0;
04/03/2025 11:54:45;100;0;317.69;-4;-20.81;-4.02;554.0;14.20;76127;2835.349;-1759.088;1;317;-150;-153.2;43.7;44.0;15;14.9;24.9;0.0;
04/03/2025 11:55:05;100;0;316.25;-4;-20.68;-4.05;556.7;14.20;76133;2835.351;-1759.091;1;317;-150;-153.2;43.7;44.0;15;14.4;24.9;0.0;
04/03/2025 11:55:25;100;0;316.47;-4;-20.08;-4.14;559.2;14.20;76121;2835.353;-1759.093;1;317;-150;-151.6;43.7;44.0;15;14.9;24.9;0.0;
04/03/2025 11:55:45;100;0;317.19;-4;-20.08;-4.09;561.7;14.20;76105;2835.355;-1759.096;1;317;-150;-153.2;43.7;44.2;15;14.9;24.9;0.0;
04/03/2025 11:56:05;100;0;318.26;-4;-20.07;-4.09;564.1;14.10;76117;2835.357;-1759.098;1;317;-150;-153.2;43.7;44.0;15;14.4;24.9;0.0;
04/03/2025 11:56:26;100;0;319.10;-4;-20.21;-4.15;566.5;14.10;76104;2835.360;-1759.100;1;317;-150;-153.2;43.7;44.0;15;14.9;24.9;0.0;
04/03/2025 11:56:46;100;0;320.45;-4;-20.30;-4.10;568.8;14.10;76095;2835.362;-1759.102;1;317;-150;-153.2;43.7;44.0;15;14.9;24.9;0.0;
04/03/2025 11:57:06;100;0;322.50;-4;-20.33;-4.11;571.2;14.10;76099;2835.364;-1759.104;1;317;-150;-151.6;43.7;44.2;15;14.9;24.9;0.0;
04/03/2025 11:57:26;100;0;324.89;-4;-20.15;-4.12;573.5;14.00;76081;2835.366;-1759.106;1;317;-150;-151.6;43.7;44.0;15;14.4;24.9;0.0;
04/03/2025 11:57:46;100;0;329.30;-4;-20.09;-4.15;575.7;14.00;76087;2835.368;-1759.107;1;317;-150;-151.6;43.7;44.0;19;19.4;24.9;0.0;
04/03/2025 11:58:06;100;0;330.78;-4;-20.49;-1.65;578.1;14.00;76091;2835.371;-1759.109;1;317;-150;-153.2;43.7;44.0;19;19.4;24.9;0.0;
04/03/2025 11:58:26;100;0;326.95;-4;-20.49;-1.70;580.5;14.00;76076;2835.373;-1759.111;1;317;-150;-151.6;43.7;44.0;17;17.1;24.9;0.0;
04/03/2025 11:58:46;100;0;323.82;-4;-20.39;-2.94;582.9;13.90;76071;2835.375;-1759.113;1;317;-150;-153.2;43.7;44.0;15;14.9;24.9;0.0;
04/03/2025 11:59:06;100;0;321.71;-4;-20.45;-4.10;585.2;13.90;76067;2835.377;-1759.115;1;317;-150;-151.6;43.7;44.2;15;14.4;24.9;0.0;
04/03/2025 11:59:26;100;0;319.75;-4;-20.28;-4.09;587.6;13.90;76063;2835.380;-1759.117;1;317;-150;-151.6;43.7;44.0;15;14.4;24.9;0.0;
04/03/2025 11:59:46;100;0;315.98;-4;-20.43;-4.12;589.9;13.90;76063;2835.382;-1759.119;1;317;-150;-151.6;43.7;44.0;15;14.4;24.9;0.0;
04/03/2025 12:00:06;100;0;314.11;-4;-20.52;-4.16;592.3;13.80;76045;2835.383;-1759.121;1;317;-150;-151.6;43.7;44.2;15;14.9;24.9;0.0;
04/03/2025 12:00:26;100;0;312.57;-4;-20.28;-4.10;594.9;13.80;76043;2835.385;-1759.124;1;317;-150;-151.6;43.7;44.0;15;14.4;24.9;0.0;
04/03/2025 12:00:46;100;0;312.63;-4;-20.28;-4.11;597.3;13.80;76033;2835.387;-1759.126;1;317;-150;-151.6;43.7;44.0;15;14.9;24.9;0.0;
04/03/2025 12:01:06;100;0;314.06;-4;-20.15;-4.11;599.9;13.80;76021;2835.389;-1759.129;1;317;-150;-153.2;43.7;44.0;15;14.4;24.9;0.0;
04/03/2025 12:01:26;100;0;312.95;-4;-20.12;-4.15;602.4;13.70;76016;2835.391;-1759.132;1;317;-150;-151.6;43.7;44.0;15;14.9;24.9;0.0;
04/03/2025 12:01:46;100;0;311.64;-4;-20.12;-4.09;605.0;13.70;76007;2835.393;-1759.134;1;317;-150;-156.5;43.7;44.0;13;13.1;24.9;0.0;
04/03/2025 12:02:06;100;0;309.27;-4;-19.55;-5.10;607.6;13.70;76016;2835.395;-1759.137;1;317;-150;-151.6;43.7;44.0;13;12.6;24.9;0.0;
04/03/2025 12:02:26;100;0;311.55;-4;-19.90;-5.11;610.3;13.70;76009;2835.397;-1759.140;1;317;-150;-151.6;43.7;44.0;13;13.1;24.9;0.0;
04/03/2025 12:02:46;100;0;315.30;-4;-19.70;-5.03;612.8;13.60;75992;2835.399;-1759.142;1;317;-150;-153.2;43.7;44.0;13;12.6;24.9;0.0;
04/03/2025 12:03:06;100;0;318.29;-4;-19.87;-5.05;615.7;13.60;75998;2835.402;-1759.145;1;317;-150;-153.2;43.7;44.0;13;12.6;24.9;0.0;
04/03/2025 12:03:26;100;0;320.63;-4;-19.81;-5.05;618.4;13.60;75991;2835.404;-1759.148;1;317;-150;-153.2;43.7;44.0;13;12.6;24.9;0.0;
04/03/2025 12:03:46;100;0;322.77;-4;-19.92;-5.02;621.2;13.60;75982;2835.407;-1759.150;1;317;-150;-151.6;43.7;44.0;15;15.3;25.0;0.0;
04/03/2025 12:04:06;100;0;323.45;-4;-20.07;-3.72;624.1;13.60;75985;2835.410;-1759.152;1;317;-150;-153.2;43.7;44.0;15;15.3;24.9;0.0;
04/03/2025 12:04:26;100;0;324.04;-4;-20.15;-3.67;627.0;13.50;75978;2835.413;-1759.155;1;317;-150;-151.6;43.7;44.2;15;15.3;24.9;0.0;
04/03/2025 12:04:46;100;0;324.78;-4;-20.23;-3.71;629.9;13.50;75972;2835.415;-1759.157;1;317;-150;-151.6;43.7;44.0;15;15.3;24.9;0.0;
04/03/2025 12:05:06;100;0;324.96;-4;-20.13;-3.72;633.0;13.50;75967;2835.418;-1759.159;1;317;-150;-153.2;43.7;44.0;15;15.3;24.9;0.0;
04/03/2025 12:05:26;100;0;325.53;-4;-19.70;-3.73;636.0;13.50;75971;2835.421;-1759.162;1;317;-150;-151.6;43.7;44.0;15;15.3;24.9;0.0;
04/03/2025 12:05:46;100;0;326.79;-4;-19.90;-3.77;639.1;13.40;75955;2835.424;-1759.164;1;317;-150;-153.2;43.7;44.2;17;17.1;24.9;0.0;
04/03/2025 12:06:06;100;0;325.50;-4;-20.17;-2.66;642.2;13.40;75962;2835.428;-1759.167;1;317;-150;-153.2;43.7;44.0;17;17.6;24.9;0.0;
04/03/2025 12:06:26;100;0;323.92;-4;-20.04;-2.71;645.2;13.40;75949;2835.430;-1759.169;1;317;-150;-151.6;43.7;44.0;15;14.9;24.9;0.0;
04/03/2025 12:06:46;100;0;320.77;-4;-19.33;-4.47;648.3;13.30;75952;2835.433;-1759.172;1;317;-150;-151.6;43.7;44.0;15;14.4;24.9;0.0;
04/03/2025 12:07:06;100;0;320.15;-4;-19.67;-4.26;651.4;13.30;75952;2835.436;-1759.175;1;317;-150;-154.8;43.7;44.0;15;14.4;24.9;0.0;
04/03/2025 12:07:26;100;0;320.11;-4;-19.59;-3.99;654.3;13.30;75935;2835.439;-1759.177;1;317;-150;-151.6;43.7;44.0;15;14.4;24.9;0.0;
04/03/2025 12:07:46;100;0;321.04;-4;-19.72;-4.27;657.4;13.30;75937;2835.442;-1759.180;1;317;-150;-153.2;43.7;44.2;15;14.4;24.9;0.0;
04/03/2025 12:08:06;100;0;322.05;-4;-19.17;-4.33;660.4;13.30;75929;2835.445;-1759.183;1;317;-150;-153.2;43.7;44.0;15;14.4;24.9;0.0;
04/03/2025 12:08:26;100;0;319.59;-4;-19.54;-4.29;663.2;13.30;75936;2835.447;-1759.185;1;317;-150;-153.2;43.7;44.0;15;14.4;24.9;0.0;
04/03/2025 12:08:46;100;0;317.04;-4;-19.78;-4.26;666.1;13.20;75929;2835.450;-1759.188;1;317;-150;-151.6;43.7;44.0;15;14.4;24.9;0.0;
04/03/2025 12:09:06;100;0;313.04;-4;-19.70;-4.28;668.9;13.20;75918;2835.452;-1759.191;1;317;-150;-153.2;43.7;44.0;15;14.4;24.9;0.0;
04/03/2025 12:09:26;100;0;311.48;-4;-19.99;-4.23;671.8;13.20;75903;2835.454;-1759.194;1;317;-150;-153.2;43.7;44.0;15;14.4;24.9;0.0;
04/03/2025 12:09:46;100;0;308.49;-4;-19.75;-4.21;674.8;13.20;75895;2835.456;-1759.197;1;317;-150;-153.2;43.7;44.0;12;12.2;24.9;0.0;
04/03/2025 12:10:06;100;0;305.13;-4;-19.35;-5.44;677.5;13.10;75897;2835.458;-1759.201;1;317;-150;-151.6;43.7;44.0;8;8.1;24.9;0.0;
04/03/2025 12:10:26;100;0;304.36;-4;-19.43;-7.48;680.4;13.10;75892;2835.460;-1759.204;1;317;-150;-153.2;43.7;44.0;8;7.7;24.9;0.0;
04/03/2025 12:10:46;100;0;303.94;-4;-19.05;-7.48;683.0;13.10;75884;2835.462;-1759.207;1;317;-150;-153.2;43.7;44.0;8;8.1;24.9;0.0;
04/03/2025 12:11:06;100;0;304.57;-4;-19.25;-7.55;685.7;13.10;75874;2835.464;-1759.210;1;317;-150;-153.2;43.7;44.0;8;8.1;24.9;0.0;
04/03/2025 12:11:26;100;0;307.00;-4;-18.95;-7.43;688.3;13.00;75870;2835.466;-1759.213;1;317;-150;-153.2;44.1;44.0;10;9.9;24.9;0.0;
04/03/2025 12:11:46;100;0;309.69;-4;-19.32;-6.38;691.0;13.00;75859;2835.468;-1759.216;1;317;-150;-153.2;44.1;44.0;12;12.2;24.9;0.0;
04/03/2025 12:12:06;100;0;311.71;-4;-19.46;-5.16;693.6;13.00;75861;2835.470;-1759.219;1;317;-150;-153.2;44.1;44.0;12;12.6;24.9;0.0;
04/03/2025 12:12:26;100;0;317.64;-4;-19.23;-5.02;696.1;13.00;75856;2835.472;-1759.222;1;317;-150;-151.6;44.1;44.0;14;14.0;24.9;0.0;
04/03/2025 12:12:46;100;0;320.50;-4;-19.27;-4.23;698.6;13.00;75854;2835.474;-1759.224;1;317;-150;-151.6;44.1;44.0;14;14.4;24.9;0.0;
04/03/2025 12:13:06;100;0;323.25;-4;-19.71;-4.34;701.0;12.90;75834;2835.477;-1759.226;1;317;-150;-151.6;44.1;44.0;14;14.4;24.9;0.0;
04/03/2025 12:13:26;100;0;325.79;-4;-19.54;-4.34;703.5;12.90;75834;2835.479;-1759.228;1;317;-150;-151.6;44.1;44.0;16;15.8;24.9;0.0;
04/03/2025 12:13:46;100;0;327.87;-4;-19.71;-3.49;706.2;12.90;75824;2835.482;-1759.230;1;317;-150;-151.6;44.1;44.0;16;16.2;24.9;0.0;
04/03/2025 12:14:06;100;0;330.94;-4;-19.81;-3.52;708.7;12.90;75823;2835.484;-1759.232;1;317;-150;-151.6;44.1;44.0;21;21.2;24.9;0.0;
04/03/2025 12:14:26;100;0;331.54;-4;-19.75;-0.71;711.3;12.80;75816;2835.487;-1759.233;1;317;-150;-151.6;44.1;44.2;21;21.2;24.9;0.0;
04/03/2025 12:14:46;100;0;330.89;-4;-19.82;-0.63;713.8;12.80;75817;2835.490;-1759.235;1;317;-150;-151.6;44.1;44.0;21;21.7;24.9;0.0;
04/03/2025 12:15:06;100;0;331.53;-4;-20.18;-0.67;716.4;12.80;75818;2835.492;-1759.237;1;317;-150;-151.6;44.1;44.0;21;21.7;24.9;0.0;
04/03/2025 12:15:26;100;0;330.19;-4;-19.64;-0.63;719.2;12.80;75805;2835.495;-1759.239;1;317;-150;-153.2;44.1;44.0;21;21.7;24.9;0.0;
04/03/2025 12:15:46;100;0;329.63;-4;-19.46;-0.85;721.8;12.70;75806;2835.498;-1759.240;1;317;-150;-153.2;44.1;44.2;19;19.0;24.9;0.0;
04/03/2025 12:16:06;100;0;329.55;-4;-19.47;-2.13;724.5;12.70;75799;2835.501;-1759.242;1;317;-150;-151.6;44.1;44.0;19;19.0;24.9;0.0;
04/03/2025 12:16:26;100;0;329.75;-4;-19.59;-2.19;727.1;12.70;75797;2835.504;-1759.244;1;317;-150;-156.5;44.1;44.0;19;18.5;24.9;0.0;
04/03/2025 12:16:46;100;0;329.36;-4;-20.02;-2.28;730.0;12.70;75791;2835.506;-1759.246;1;317;-150;-153.2;44.1;44.0;19;18.5;24.9;0.0;
04/03/2025 12:17:06;100;0;329.68;-4;-19.54;-2.28;732.9;12.70;75791;2835.509;-1759.248;1;317;-150;-151.6;44.1;44.0;19;18.5;24.9;0.0;
04/03/2025 12:17:26;100;0;328.80;-4;-19.84;-2.23;735.7;12.60;75782;2835.512;-1759.250;1;317;-150;-151.6;44.1;44.0;19;18.5;24.9;0.0;
04/03/2025 12:17:46;100;0;329.52;-4;-19.97;-2.21;738.3;12.60;75783;2835.515;-1759.252;1;317;-150;-153.2;44.1;44.0;19;18.5;24.9;0.0;
04/03/2025 12:18:06;100;0;329.85;-4;-19.64;-2.20;741.3;12.60;75778;2835.518;-1759.254;1;317;-150;-151.6;44.1;44.0;19;18.5;24.9;0.0;
04/03/2025 12:18:26;100;0;329.32;-4;-19.86;-2.13;744.2;12.60;75768;2835.521;-1759.256;1;317;-150;-153.2;44.1;44.0;19;19.0;24.9;0.0;
04/03/2025 12:18:46;100;0;326.14;-4;-19.68;-2.08;747.3;12.60;75774;2835.524;-1759.259;1;317;-150;-151.6;44.1;44.0;17;17.1;24.9;0.0;
04/03/2025 12:19:06;100;0;320.30;-4;-20.14;-3.12;750.3;12.50;75762;2835.527;-1759.261;1;317;-150;-153.2;44.1;44.0;15;14.9;24.9;0.0;
04/03/2025 12:19:26;100;0;316.61;-4;-19.78;-4.26;753.3;12.50;75749;2835.529;-1759.264;1;317;-150;-153.2;44.1;44.0;15;14.4;24.9;0.0;
04/03/2025 12:19:46;100;0;314.73;-4;-19.46;-4.23;756.0;12.50;75741;2835.532;-1759.267;1;317;-150;-153.2;44.1;44.0;15;14.4;24.9;0.0;
04/03/2025 12:20:06;100;0;312.71;-4;-19.58;-4.23;758.8;12.40;75738;2835.534;-1759.270;1;317;-150;-153.2;44.1;44.2;15;14.4;24.9;0.0;
04/03/2025 12:20:26;100;0;311.42;-4;-19.68;-4.27;761.5;12.40;75729;2835.536;-1759.273;1;317;-150;-153.2;44.1;44.0;15;14.4;24.9;0.0;
04/03/2025 12:20:46;100;0;309.51;-4;-20.12;-4.29;764.1;12.40;75725;2835.538;-1759.276;1;317;-150;-151.6;44.1;44.0;13;13.1;24.9;0.0;
04/03/2025 12:21:06;100;0;307.09;-4;-19.27;-5.02;767.0;12.40;75724;2835.540;-1759.279;1;317;-150;-153.2;44.1;44.0;11;10.8;24.9;0.0;
04/03/2025 12:21:26;100;0;305.88;-4;-18.67;-6.10;769.8;12.40;75721;2835.542;-1759.282;1;317;-150;-153.2;44.5;44.5;11;10.8;24.9;0.0;
04/03/2025 12:21:46;100;0;305.15;-4;-19.42;-5.91;772.4;12.30;75716;2835.544;-1759.285;1;317;-150;-153.2;44.5;44.8;9;9.0;24.9;0.0;
04/03/2025 12:22:06;100;0;306.34;-4;-20.77;-7.11;775.1;12.30;75704;2835.546;-1759.288;1;317;-150;-151.6;44.5;44.8;9;9.0;24.9;0.0;
04/03/2025 12:22:26;100;0;307.63;-4;-20.12;-6.90;777.8;12.30;75700;2835.547;-1759.291;1;317;-150;-153.2;44.5;44.8;11;10.8;24.9;0.0;
04/03/2025 12:22:46;100;0;306.76;-4;-19.79;-6.40;780.6;12.30;75698;2835.549;-1759.294;1;317;-150;-153.2;44.5;44.8;11;10.8;24.9;0.0;
04/03/2025 12:23:06;100;0;306.66;-4;-20.70;-5.97;783.1;12.30;75696;2835.551;-1759.297;1;317;-150;-151.6;44.5;44.8;11;10.8;24.9;0.0;
04/03/2025 12:23:26;100;0;306.81;-4;-20.27;-6.00;785.7;12.20;75690;2835.553;-1759.300;1;317;-150;-151.6;44.5;44.8;11;10.8;24.9;0.0;
04/03/2025 12:23:46;100;0;306.96;-4;-20.18;-6.12;788.2;12.20;75685;2835.555;-1759.303;1;317;-150;-153.2;44.5;44.8;11;11.3;24.9;0.0;
04/03/2025 12:24:06;100;0;309.45;-4;-20.73;-5.91;790.9;12.20;75675;2835.556;-1759.306;1;317;-150;-151.6;44.5;44.8;11;10.8;24.9;0.0;
04/03/2025 12:24:26;100;0;315.62;-4;-20.51;-6.11;793.5;12.20;75670;2835.558;-1759.308;1;317;-150;-151.6;44.5;44.9;14;14.0;24.9;0.0;
04/03/2025 12:24:46;100;0;317.86;-4;-21.03;-4.24;796.1;12.10;75652;2835.561;-1759.310;1;317;-150;-151.6;44.5;44.9;14;14.4;24.9;0.0;
04/03/2025 12:25:06;100;0;320.81;-4;-20.48;-4.12;798.9;12.10;75646;2835.563;-1759.313;1;317;-150;-153.2;44.5;44.8;14;14.4;24.9;0.0;
04/03/2025 12:25:26;100;0;320.80;-4;-20.84;-4.18;801.6;12.10;75623;2835.566;-1759.315;1;317;-150;-153.2;44.5;44.8;14;14.4;25.0;0.0;
04/03/2025 12:25:46;100;0;322.74;-4;-20.47;-4.27;804.2;12.10;75623;2835.568;-1759.317;1;317;-150;-153.2;44.5;44.8;14;14.4;24.9;0.0;
04/03/2025 12:26:06;100;0;326.40;-4;-20.58;-4.16;806.8;12.00;75617;2835.570;-1759.319;1;317;-150;-153.2;44.5;44.8;16;15.8;24.9;0.0;
04/03/2025 12:26:26;100;0;326.28;-4;-20.85;-3.49;809.5;12.00;75617;2835.573;-1759.321;1;317;-150;-151.6;44.5;44.8;16;16.2;24.9;0.0;
04/03/2025 12:26:46;100;0;325.78;-4;-20.66;-3.42;812.4;12.00;75602;2835.576;-1759.323;1;317;-150;-153.2;44.5;44.8;16;16.2;24.9;0.0;
04/03/2025 12:27:06;100;0;325.60;-4;-20.30;-3.30;815.2;11.90;75593;2835.578;-1759.326;1;317;-150;-153.2;44.5;44.9;16;16.2;24.9;0.0;
04/03/2025 12:27:26;100;0;326.16;-4;-20.43;-3.44;818.0;11.90;75575;2835.581;-1759.328;1;317;-150;-153.2;44.5;44.8;16;16.2;24.9;0.0;
04/03/2025 12:27:46;100;0;326.78;-4;-20.63;-3.44;820.7;11.90;75581;2835.584;-1759.330;1;317;-150;-153.2;44.5;44.8;16;16.2;24.9;0.0;
04/03/2025 12:28:06;100;0;327.80;-4;-20.46;-3.41;823.5;11.90;75583;2835.587;-1759.332;1;317;-150;-151.6;44.5;44.8;18;18.1;24.9;0.0;
04/03/2025 12:28:26;100;0;328.24;-4;-20.67;-2.41;826.5;11.80;75576;2835.590;-1759.334;1;317;-150;-151.6;44.5;44.8;18;18.1;24.9;0.0;
04/03/2025 12:28:46;100;0;327.47;-4;-21.11;-2.28;829.3;11.80;75574;2835.592;-1759.336;1;317;-150;-153.2;44.5;44.8;18;18.1;24.9;0.0;
04/03/2025 12:29:06;100;0;329.17;-4;-21.25;-2.36;832.3;11.80;75553;2835.595;-1759.338;1;317;-150;-153.2;44.5;44.8;18;18.1;24.9;0.0;
04/03/2025 12:29:26;100;0;330.09;-4;-20.56;-2.44;835.5;11.80;75559;2835.598;-1759.340;1;317;-150;-153.2;44.5;44.8;20;19.9;24.9;0.0;
04/03/2025 12:29:46;100;0;330.24;-4;-20.55;-1.39;838.1;11.70;75553;2835.601;-1759.342;1;317;-150;-151.6;44.5;44.8;20;19.9;24.9;0.0;
04/03/2025 12:30:06;100;0;328.82;-4;-20.86;-1.43;841.1;11.70;75547;2835.604;-1759.344;1;317;-150;-153.2;44.5;44.8;20;20.3;24.9;0.0;
04/03/2025 12:30:26;100;0;327.75;-4;-20.92;-1.35;843.9;11.70;75542;2835.607;-1759.346;1;317;-150;-153.2;44.5;44.8;18;18.1;24.9;0.0;
04/03/2025 12:30:46;100;0;328.40;-4;-20.92;-2.63;846.8;11.70;75540;2835.610;-1759.348;1;317;-150;-151.6;44.5;44.8;18;17.6;24.9;0.0;
04/03/2025 12:31:06;100;0;328.40;-4;-21.30;-2.74;849.8;11.60;75522;2835.612;-1759.350;1;317;-150;-153.2;44.5;44.8;18;17.6;24.9;0.0;
04/03/2025 12:31:27;100;0;325.90;-4;-20.74;-2.58;853.0;11.60;75520;2835.616;-1759.352;1;317;-150;-153.2;44.5;44.8;18;18.1;24.9;0.0;
04/03/2025 12:31:47;100;0;324.25;-4;-20.50;-2.58;855.9;11.60;75510;2835.618;-1759.355;1;317;-150;-151.6;44.5;44.8;16;15.8;24.9;0.0;
04/03/2025 12:32:07;100;0;320.24;-4;-20.64;-3.68;858.7;11.60;75504;2835.621;-1759.357;1;317;-150;-153.2;44.5;44.8;16;15.3;24.9;0.0;
04/03/2025 12:32:27;100;0;318.34;-4;-19.93;-3.99;861.7;11.50;75502;2835.623;-1759.360;1;317;-150;-153.2;44.5;44.8;16;15.8;24.9;0.0;
04/03/2025 12:32:47;100;0;317.92;-4;-19.71;-3.87;864.6;11.50;75492;2835.626;-1759.363;1;317;-150;-153.2;44.5;44.8;16;15.8;24.9;0.0;
04/03/2025 12:33:07;100;0;317.95;-4;-20.57;-3.91;867.5;11.50;75494;2835.628;-1759.365;1;317;-150;-151.6;44.5;44.8;16;15.3;24.9;0.0;
04/03/2025 12:33:27;100;0;313.45;-4;-20.83;-3.79;870.4;11.50;75492;2835.631;-1759.368;1;317;-150;-153.2;44.5;44.8;16;15.3;24.9;0.0;
04/03/2025 12:33:47;100;0;311.60;-4;-20.25;-3.65;873.5;11.40;75480;2835.633;-1759.371;1;317;-150;-151.6;44.5;44.8;14;14.0;24.9;0.0;
04/03/2025 12:34:07;100;0;310.23;-4;-19.85;-4.59;876.5;11.40;75472;2835.635;-1759.375;1;317;-150;-151.6;44.5;44.8;14;13.5;24.9;0.0;
04/03/2025 12:34:27;100;0;308.05;-4;-20.49;-4.67;879.7;11.40;75464;2835.638;-1759.378;1;317;-150;-151.6;44.5;44.9;12;12.2;24.9;0.0;
04/03/2025 12:34:47;100;0;310.42;-4;-18.92;-5.83;882.4;11.40;75470;2835.640;-1759.381;1;317;-150;-151.6;44.8;44.8;14;14.0;24.9;0.0;
04/03/2025 12:35:07;100;0;311.95;-4;-20.37;-4.47;885.3;11.40;75460;2835.642;-1759.384;1;317;-150;-153.2;44.8;44.8;14;14.4;24.9;0.0;
04/03/2025 12:35:27;100;0;312.39;-4;-20.83;-4.71;888.4;11.30;75461;2835.644;-1759.387;1;317;-150;-153.2;44.8;44.8;14;14.4;24.9;0.0;
04/03/2025 12:35:47;100;0;312.57;-4;-18.94;-3.74;891.6;11.30;75455;2835.647;-1759.391;1;317;-150;-151.6;45.1;45.1;14;14.4;24.9;0.0;
04/03/2025 12:36:07;100;0;307.17;-4;-19.11;-4.12;894.4;11.30;75459;2835.649;-1759.394;1;317;-150;-153.2;45.1;45.2;11;10.8;24.9;0.0;
04/03/2025 12:36:27;100;0;303.44;-4;-22.00;-6.37;896.9;11.30;75456;2835.651;-1759.397;1;317;-150;-151.6;44.5;44.5;7;7.2;24.9;0.0;
04/03/2025 12:36:47;100;0;307.90;-4;-19.98;-7.50;900.0;11.20;75445;2835.653;-1759.400;1;317;-150;-151.6;44.5;44.3;12;12.2;24.9;0.0;
04/03/2025 12:37:07;100;0;304.28;-4;-20.15;-5.33;903.0;11.20;75443;2835.655;-1759.404;1;317;-150;-153.2;44.5;44.3;8;8.1;24.9;0.0;
04/03/2025 12:37:27;100;0;304.07;-4;-19.83;-7.55;906.0;11.20;75441;2835.657;-1759.407;1;317;-150;-153.2;44.5;44.3;8;8.1;24.9;0.0;
04/03/2025 12:37:47;100;0;306.53;-4;-19.64;-7.49;909.0;11.20;75434;2835.659;-1759.411;1;317;-150;-153.2;44.5;44.2;10;9.9;24.9;0.0;
04/03/2025 12:38:07;100;0;307.07;-4;-19.42;-6.27;911.9;11.10;75427;2835.661;-1759.414;1;317;-150;-151.6;44.5;44.3;10;10.4;24.9;0.0;
04/03/2025 12:38:27;100;0;308.07;-4;-19.30;-6.27;915.0;11.10;75431;2835.663;-1759.418;1;317;-150;-153.2;44.5;44.3;12;12.2;24.9;0.0;
04/03/2025 12:38:47;100;0;310.67;-4;-18.97;-5.30;918.1;11.10;75418;2835.666;-1759.421;1;317;-150;-153.2;44.8;44.9;12;12.6;24.9;0.0;
04/03/2025 12:39:07;100;0;308.38;-4;-20.39;-5.21;921.0;11.10;75424;2835.668;-1759.424;1;317;-150;-153.2;44.8;45.1;12;12.6;24.9;0.0;
04/03/2025 12:39:27;100;0;307.38;-4;-20.83;-5.23;924.1;11.00;75406;2835.670;-1759.428;1;317;-150;-151.6;44.8;45.2;12;12.6;24.9;0.0;
04/03/2025 12:39:47;100;0;305.92;-4;-20.77;-5.22;927.2;11.00;75417;2835.672;-1759.431;1;317;-150;-153.2;44.8;45.1;9;9.0;24.9;0.0;
04/03/2025 12:40:07;100;0;310.36;-4;-20.79;-6.80;930.6;11.00;75406;2835.674;-1759.435;1;317;-150;-151.6;44.8;45.1;13;13.1;24.9;0.0;
04/03/2025 12:40:27;100;0;311.79;-4;-20.79;-4.56;934.0;11.00;75400;2835.677;-1759.438;1;317;-150;-151.6;44.8;45.1;13;13.5;24.9;0.0;
04/03/2025 12:40:47;100;0;311.14;-4;-20.74;-4.74;937.4;11.00;75397;2835.679;-1759.441;1;317;-150;-153.2;44.8;45.2;13;13.5;24.9;0.0;
04/03/2025 12:41:07;100;0;310.47;-4;-20.96;-4.73;940.7;11.00;75405;2835.682;-1759.445;1;317;-150;-151.6;44.8;45.1;13;13.5;24.9;0.0;
04/03/2025 12:41:27;100;0;311.02;-4;-20.94;-4.77;944.1;10.90;75403;2835.684;-1759.448;1;317;-150;-151.6;44.8;45.2;13;13.5;24.9;0.0;
04/03/2025 12:41:47;100;0;311.41;-4;-20.78;-4.76;947.6;10.90;75390;2835.687;-1759.452;1;317;-150;-153.2;44.8;45.1;13;13.5;24.9;0.0;
04/03/2025 12:42:07;100;0;312.16;-4;-20.73;-4.54;950.9;10.90;75380;2835.690;-1759.455;1;317;-150;-153.2;44.8;45.2;13;13.5;24.9;0.0;
04/03/2025 12:42:27;100;0;312.64;-4;-20.52;-4.75;954.3;10.90;75381;2835.692;-1759.459;1;317;-150;-151.6;44.8;45.1;13;13.5;24.9;0.0;
04/03/2025 12:42:47;100;0;314.40;-4;-20.65;-4.66;957.6;10.80;75376;2835.695;-1759.462;1;317;-150;-153.2;44.8;45.2;13;13.5;24.9;0.0;
04/03/2025 12:43:07;100;0;317.34;-4;-20.80;-4.77;960.8;10.80;75377;2835.698;-1759.465;1;317;-150;-151.6;44.8;45.1;13;13.5;24.9;0.0;
04/03/2025 12:43:27;100;0;318.90;-4;-20.37;-4.62;964.2;10.80;75367;2835.701;-1759.468;1;317;-150;-153.2;44.8;45.1;13;13.5;24.9;0.0;
04/03/2025 12:43:47;100;0;318.94;-4;-20.39;-4.83;967.3;10.80;75370;2835.703;-1759.471;1;317;-150;-151.6;44.8;45.1;13;13.5;24.9;0.0;
04/03/2025 12:44:07;100;0;320.31;-4;-20.52;-4.78;970.6;10.80;75364;2835.706;-1759.474;1;317;-150;-151.6;44.8;45.1;13;13.5;24.9;0.0;
04/03/2025 12:44:27;100;0;323.26;-4;-20.02;-4.71;973.7;10.70;75370;2835.709;-1759.476;1;317;-150;-153.2;44.8;45.1;15;14.9;24.9;0.0;
04/03/2025 12:44:47;100;0;325.15;-4;-20.66;-3.93;976.7;10.70;75360;2835.712;-1759.479;1;317;-150;-151.6;44.8;45.2;15;14.9;24.9;0.0;
04/03/2025 12:45:07;100;0;326.06;-4;-20.57;-3.79;979.9;10.70;75348;2835.715;-1759.481;1;317;-150;-153.2;44.8;45.1;15;14.9;24.9;0.0;
04/03/2025 12:45:27;100;0;323.72;-4;-21.09;-4.03;982.9;10.70;75357;2835.718;-1759.483;1;317;-150;-151.6;44.8;45.2;15;15.3;24.9;0.0;
04/03/2025 12:45:47;100;0;322.25;-4;-20.18;-4.14;986.1;10.70;75353;2835.721;-1759.486;1;317;-150;-151.6;44.8;45.1;15;14.9;24.9;0.0;
04/03/2025 12:46:07;100;0;321.67;-4;-20.81;-4.07;989.0;10.60;75340;2835.724;-1759.489;1;317;-150;-151.6;44.8;45.1;15;15.3;24.9;0.0;
04/03/2025 12:46:27;100;0;323.29;-4;-20.76;-3.99;992.3;10.60;75346;2835.727;-1759.491;1;317;-150;-153.2;44.8;45.1;15;15.3;24.9;0.0;
04/03/2025 12:46:47;100;0;322.29;-4;-20.75;-3.98;995.5;10.60;75338;2835.730;-1759.494;1;317;-150;-153.2;44.8;45.1;15;14.9;24.9;0.0;
04/03/2025 12:47:07;100;0;323.07;-4;-20.83;-4.01;998.8;10.60;75329;2835.733;-1759.497;1;317;-150;-153.2;44.8;45.1;15;14.9;24.9;0.0;
04/03/2025 12:47:10;118;0;323.17;-4;-20.78;-3.94;999.2;10.60;75327;2835.733;-1759.497;1;317;450;-150.0;21.1;21.1;7;7.2;24.9;0.0;
04/03/2025 12:47:20;118;0;9.74;-4;-8.20;-8.63;1000.5;10.60;75319;2835.735;-1759.496;1;317;450;-25.8;21.1;20.8;7;7.2;23.5;-1.0;
04/03/2025 12:47:30;118;0;41.09;-4;20.49;-8.80;1001.0;10.60;75052;2835.736;-1759.496;1;317;450;98.4;21.1;21.1;7;6.8;23.5;-1.0;
04/03/2025 12:47:40;118;0;38.15;-4;29.94;-9.10;1000.5;10.60;74793;2835.736;-1759.496;1;317;450;222.6;21.1;21.2;7;6.8;23.2;-1.0;
04/03/2025 12:47:50;118;0;35.54;-4;30.69;-9.00;999.6;10.50;74543;2835.736;-1759.495;1;317;450;346.8;21.1;21.2;7;6.8;23.4;-1.0;
04/03/2025 12:48:00;118;0;37.85;-4;29.20;-8.57;998.4;10.60;74298;2835.737;-1759.494;1;317;450;453.2;21.1;21.1;7;7.2;23.5;-1.0;
04/03/2025 12:48:10;118;0;327.21;-4;26.03;-7.38;996.6;10.60;74074;2835.738;-1759.495;1;317;450;453.2;21.1;21.2;7;7.2;24.9;-1.0;
04/03/2025 12:48:20;118;0;313.40;-4;23.53;-7.51;994.9;10.60;74082;2835.740;-1759.497;1;317;450;451.6;21.1;21.1;7;7.2;24.9;-1.0;
04/03/2025 12:48:40;117;0;304.75;-4;21.69;-7.71;991.6;10.70;74087;2835.742;-1759.500;1;317;450;451.6;21.1;21.2;7;7.2;24.9;-1.0;
04/03/2025 12:49:00;117;0;295.02;-4;21.13;-7.77;988.2;10.70;74079;2835.743;-1759.504;1;317;450;451.6;21.1;21.2;51;51.0;24.9;-1.0;
04/03/2025 12:49:20;117;0;302.05;-4;22.19;15.20;985.0;10.70;74074;2835.745;-1759.508;1;317;450;451.6;21.7;21.9;40;40.2;24.9;-1.0;
04/03/2025 12:49:40;117;0;305.91;-4;22.02;9.67;981.6;10.70;74069;2835.747;-1759.512;1;317;450;451.6;22.3;22.5;35;35.2;24.9;-1.0;
04/03/2025 12:50:00;117;0;308.57;-4;21.00;6.80;978.3;10.70;74069;2835.749;-1759.515;1;317;450;451.6;22.3;22.5;32;32.0;24.9;-1.0;
04/03/2025 12:50:20;117;0;308.20;-4;20.45;5.09;975.5;10.70;74069;2835.752;-1759.518;1;317;450;453.2;22.3;22.5;32;31.6;24.9;-1.0;
04/03/2025 12:50:40;117;0;309.32;-4;20.59;4.98;972.4;10.70;74078;2835.754;-1759.522;1;317;450;453.2;22.3;22.7;32;31.6;24.9;-1.0;
04/03/2025 12:51:00;117;0;311.13;-4;20.14;5.21;969.4;10.70;74065;2835.756;-1759.525;1;317;450;451.6;22.3;22.5;32;31.6;24.9;-1.0;
04/03/2025 12:51:20;117;0;311.46;-4;20.59;5.11;966.4;10.70;74072;2835.758;-1759.528;1;317;450;451.6;22.3;22.7;32;31.6;24.9;-1.0;
04/03/2025 12:51:40;117;0;313.32;-4;20.50;4.63;963.6;10.60;74063;2835.760;-1759.531;1;317;450;451.6;22.3;22.5;30;29.8;24.9;-1.0;
04/03/2025 12:52:00;117;0;312.60;-4;20.57;3.79;960.6;10.60;74056;2835.763;-1759.533;1;317;450;453.2;22.3;22.5;30;29.3;24.9;-1.0;
04/03/2025 12:52:20;117;0;313.67;-4;20.67;3.70;957.6;10.60;74066;2835.765;-1759.536;1;317;450;451.6;22.3;22.5;30;29.3;24.9;-1.0;
04/03/2025 12:52:40;117;0;314.55;-4;20.55;3.66;954.5;10.60;74055;2835.767;-1759.539;1;317;450;451.6;22.3;22.5;30;29.3;24.9;-1.0;
04/03/2025 12:53:00;117;0;313.67;-4;20.45;3.58;951.3;10.60;74050;2835.770;-1759.543;1;317;450;451.6;22.3;22.5;30;29.3;24.9;-1.0;
04/03/2025 12:53:20;117;0;313.85;-4;20.38;3.89;948.1;10.60;74050;2835.773;-1759.546;1;317;450;451.6;22.3;22.5;30;29.3;24.9;-1.0;
04/03/2025 12:53:40;117;0;314.35;-4;20.76;3.77;944.8;10.60;74056;2835.775;-1759.549;1;317;450;453.2;22.3;22.5;30;29.3;24.9;-1.0;
04/03/2025 12:54:00;117;0;315.39;-4;20.78;3.73;941.3;10.50;74034;2835.778;-1759.552;1;317;450;453.2;22.3;22.5;30;29.3;24.9;-1.0;
04/03/2025 12:54:20;117;0;316.47;-4;20.38;3.85;937.7;10.50;74046;2835.781;-1759.556;1;317;450;451.6;22.3;22.7;30;29.3;24.9;-1.0;
04/03/2025 12:54:40;117;0;318.02;-4;20.47;3.75;934.2;10.50;74038;2835.784;-1759.559;1;317;450;453.2;22.3;22.5;30;29.3;24.9;-1.0;
04/03/2025 12:55:00;117;0;319.08;-4;20.21;3.82;930.8;10.50;74039;2835.788;-1759.562;1;317;450;453.2;22.3;22.5;30;29.3;24.9;-1.0;
04/03/2025 12:55:20;117;0;320.70;-4;20.37;3.81;927.2;10.40;74035;2835.791;-1759.566;1;317;450;451.6;22.3;22.5;30;29.3;24.9;-1.0;
04/03/2025 12:55:40;117;0;322.39;-4;20.25;3.64;923.6;10.40;74025;2835.794;-1759.569;1;317;450;453.2;22.3;22.5;30;29.3;24.9;-1.0;
04/03/2025 12:56:00;117;0;324.58;-4;20.19;3.79;920.1;10.40;74027;2835.798;-1759.572;1;317;450;453.2;22.3;22.5;30;29.3;24.9;-1.0;
04/03/2025 12:56:20;117;0;325.75;-4;20.12;3.78;916.7;10.40;74022;2835.801;-1759.574;1;317;450;451.6;22.3;22.5;28;28.0;24.9;-1.0;
04/03/2025 12:56:40;117;0;325.96;-4;19.99;2.93;913.2;10.40;74019;2835.805;-1759.577;1;317;450;451.6;22.3;22.5;28;27.5;24.9;-1.0;
04/03/2025 12:57:00;117;0;326.62;-4;20.00;2.81;910.0;10.40;74030;2835.808;-1759.579;1;317;450;453.2;22.3;22.5;28;27.5;24.9;-1.0;
04/03/2025 12:57:20;117;0;326.92;-4;19.94;2.85;906.7;10.40;74028;2835.811;-1759.582;1;317;450;451.6;22.3;22.5;28;27.5;24.9;-1.0;
04/03/2025 12:57:40;117;0;326.55;-4;19.69;2.75;903.4;10.40;74034;2835.815;-1759.584;1;317;450;454.8;22.3;22.5;28;27.5;24.9;-1.0;
04/03/2025 12:58:00;117;0;325.27;-4;19.16;2.77;900.4;10.30;74033;2835.818;-1759.587;1;317;450;454.8;22.3;22.5;28;27.5;24.9;-1.0;
04/03/2025 12:58:20;117;0;325.02;-4;20.67;2.67;897.6;10.30;74022;2835.820;-1759.589;1;317;450;453.2;22.3;22.5;28;27.5;24.9;-1.0;
04/03/2025 12:58:40;117;0;325.47;-4;21.92;2.77;894.4;10.30;74024;2835.823;-1759.591;1;317;450;454.8;22.3;22.5;28;27.5;24.9;-1.0;
04/03/2025 12:59:00;117;0;326.18;-4;21.08;2.63;890.8;10.30;74021;2835.827;-1759.594;1;317;450;453.2;22.3;22.5;28;27.5;24.9;-1.0;
04/03/2025 12:59:20;117;0;330.96;-4;20.26;2.70;887.5;10.30;74016;2835.830;-1759.596;1;317;450;453.2;22.3;22.5;23;23.0;24.9;-1.0;
04/03/2025 12:59:40;117;0;327.54;-4;19.78;0.30;884.3;10.30;74016;2835.833;-1759.599;1;317;450;453.2;22.3;22.5;27;27.1;24.9;-1.0;
04/03/2025 13:00:00;117;0;330.32;-4;19.83;2.53;881.0;10.30;74020;2835.837;-1759.601;1;317;450;453.2;22.3;22.5;24;23.9;24.9;-1.0;
04/03/2025 13:00:20;117;0;329.65;-4;20.11;0.82;877.8;10.30;74017;2835.840;-1759.603;1;317;450;450.0;22.3;22.5;24;23.9;24.9;-1.0;
04/03/2025 13:00:40;117;0;328.30;-4;20.49;1.06;874.5;10.30;74014;2835.843;-1759.606;1;317;450;453.2;22.3;22.5;26;26.2;24.9;-1.0;
04/03/2025 13:01:00;117;0;326.63;-4;20.29;2.67;870.9;10.30;74014;2835.847;-1759.608;1;317;450;453.2;22.3;22.5;26;26.6;24.9;-1.0;
04/03/2025 13:01:20;117;0;326.82;-4;20.07;2.98;867.2;10.20;73999;2835.851;-1759.611;1;317;450;453.2;22.3;22.4;26;26.6;24.9;-1.0;
04/03/2025 13:01:40;117;0;330.14;-4;19.89;2.86;863.2;10.20;74000;2835.855;-1759.614;1;317;450;453.2;22.3;22.5;24;23.9;24.9;-1.0;
04/03/2025 13:02:00;117;0;329.84;-4;18.50;0.97;859.3;10.20;74000;2835.859;-1759.617;1;317;450;453.2;21.9;21.9;24;23.5;24.9;-1.0;
04/03/2025 13:02:20;117;0;332.67;-4;21.28;0.57;855.6;10.20;74001;2835.863;-1759.619;1;317;450;453.2;21.9;21.4;21;21.2;24.9;-1.0;
04/03/2025 13:02:40;117;0;329.21;-4;21.36;-0.75;851.3;10.20;74003;2835.868;-1759.622;1;317;450;451.6;21.9;22.2;25;24.8;24.9;-1.0;
04/03/2025 13:03:00;117;0;327.54;-4;21.52;1.17;847.0;10.20;73991;2835.872;-1759.625;1;317;450;453.2;21.9;22.2;25;25.3;24.9;-1.0;
04/03/2025 13:03:20;117;0;326.03;-4;20.44;1.30;842.8;10.20;73991;2835.876;-1759.629;1;317;450;453.2;21.9;22.2;27;27.1;24.9;-1.0;
04/03/2025 13:03:40;117;0;325.50;-4;20.60;2.62;838.8;10.20;73991;2835.880;-1759.632;1;317;450;453.2;21.9;22.2;27;27.1;24.9;-1.0;
04/03/2025 13:04:00;117;0;325.30;-4;20.62;2.66;834.6;10.20;73994;2835.884;-1759.635;1;317;450;453.2;21.9;22.2;27;27.1;24.9;-1.0;
04/03/2025 13:04:20;117;0;325.45;-4;20.44;2.75;830.5;10.20;73989;2835.888;-1759.638;1;317;450;453.2;21.9;22.2;27;27.5;24.9;-1.0;
04/03/2025 13:04:40;117;0;325.14;-4;20.40;2.89;826.5;10.20;73991;2835.892;-1759.641;1;317;450;453.2;21.9;22.1;27;27.5;24.9;-1.0;
04/03/2025 13:05:00;117;0;324.03;-4;20.35;2.81;822.4;10.20;73987;2835.896;-1759.645;1;317;450;453.2;21.9;22.2;27;27.5;24.9;-1.0;
04/03/2025 13:05:20;117;0;322.31;-4;20.08;2.70;818.6;10.10;73993;2835.900;-1759.648;1;317;450;453.2;21.9;22.2;29;28.9;24.9;-1.0;
04/03/2025 13:05:40;117;0;321.74;-4;20.18;3.60;814.8;10.10;74007;2835.903;-1759.651;1;317;450;453.2;21.9;22.2;29;29.3;24.9;-1.0;
04/03/2025 13:06:00;117;0;321.61;-4;20.27;3.80;811.2;10.10;74001;2835.907;-1759.655;1;317;450;451.6;21.9;22.2;29;29.3;24.9;-1.0;
04/03/2025 13:06:20;117;0;321.48;-4;20.46;3.60;807.5;10.10;73995;2835.910;-1759.658;1;317;450;453.2;21.9;22.2;29;29.3;24.9;-1.0;
04/03/2025 13:06:40;117;0;320.64;-4;20.56;3.66;803.9;10.10;73996;2835.913;-1759.661;1;317;450;453.2;21.9;22.2;29;29.3;24.9;-1.0;
04/03/2025 13:07:00;117;0;321.33;-4;20.55;3.78;800.1;10.10;74003;2835.917;-1759.664;1;317;450;453.2;21.9;22.2;29;29.3;24.9;-1.0;
04/03/2025 13:07:20;117;0;321.07;-4;20.67;3.75;796.6;10.10;74000;2835.920;-1759.667;1;317;450;451.6;21.9;22.2;29;29.3;24.9;-1.0;
04/03/2025 13:07:40;117;0;320.56;-4;20.48;3.85;792.9;10.10;73987;2835.923;-1759.670;1;317;450;453.2;21.9;22.2;29;29.3;24.9;-1.0;
04/03/2025 13:08:00;117;0;320.62;-4;20.49;3.76;789.4;10.10;73999;2835.927;-1759.674;1;317;450;453.2;21.9;22.2;29;29.3;24.9;-1.0;
04/03/2025 13:08:20;117;0;321.17;-4;20.83;3.89;785.7;10.10;73993;2835.930;-1759.677;1;317;450;453.2;21.9;22.2;29;29.3;24.9;-1.0;
04/03/2025 13:08:40;117;0;322.39;-4;20.23;3.81;782.1;10.10;74000;2835.933;-1759.680;1;317;450;451.6;21.9;22.2;29;29.3;24.9;-1.0;
04/03/2025 13:09:00;117;0;322.07;-4;20.33;3.78;778.7;10.10;73999;2835.937;-1759.683;1;317;450;451.6;21.9;22.2;29;29.3;24.9;-1.0;
04/03/2025 13:09:20;117;0;323.36;-4;20.32;3.75;775.2;10.10;73999;2835.940;-1759.686;1;317;450;451.6;21.9;22.2;29;29.3;24.9;-1.0;
04/03/2025 13:09:40;117;0;322.97;-4;20.21;3.61;771.8;10.10;74012;2835.943;-1759.689;1;317;450;453.2;21.9;22.2;29;29.3;24.9;-1.0;
04/03/2025 13:10:00;117;0;322.62;-4;20.31;3.68;768.6;10.10;74016;2835.946;-1759.691;1;317;450;453.2;21.9;22.2;29;29.3;24.9;-1.0;
04/03/2025 13:10:20;117;0;321.35;-4;20.60;3.94;765.3;10.10;74021;2835.949;-1759.694;1;317;450;451.6;21.9;22.2;29;29.3;24.9;-1.0;
