Timestamp;NavState;SecurityLevel;Heading;Declination;Pitch;Roll;Depth;Temperature;Pa;Lat;Lon;DeadReckoning;DesiredH;BallastCmd;BallastPos;LinCmd;LinPos;AngCmd;AngPos;Voltage;Altitude;
12/02/2025 11:48:13;119;0;196.90;-4;-50.03;-19.83;-0.2;22.90;76979;2837.394;-1757.963;0;230;500;508.1;100.0;100.7;0;-0.9;29.2;-1.0;
12/02/2025 11:48:23;116;0;184.36;-4;-53.95;-4.03;0.0;22.90;76972;2837.396;-1757.966;0;230;500;508.1;100.0;100.7;0;-0.9;29.2;-1.0;
12/02/2025 11:48:50;116;0;197.31;-4;-51.01;-28.29;0.1;22.90;76970;2837.396;-1757.966;0;230;500;509.7;100.0;100.7;0;-0.9;29.1;-1.0;
12/02/2025 11:49:17;116;0;201.83;-4;-53.50;-9.46;0.1;22.80;76985;2837.396;-1757.965;0;230;500;506.5;100.0;100.7;0;-0.5;29.2;-1.0;
12/02/2025 11:49:37;116;0;195.45;-4;-60.16;-18.30;0.2;22.80;76988;2837.398;-1757.966;0;230;500;509.7;100.0;100.7;0;-0.5;29.2;-1.0;
12/02/2025 11:49:47;116;0;192.40;-4;-56.63;-8.61;0.1;22.80;76977;2837.397;-1757.967;0;230;500;509.7;100.0;100.7;0;-0.5;29.2;-1.0;
12/02/2025 11:50:07;116;0;192.58;-4;-50.85;-14.41;0.3;22.80;76982;2837.398;-1757.968;0;230;500;508.1;100.0;100.7;0;-0.9;29.2;-1.0;
12/02/2025 11:50:27;116;0;205.02;-4;-57.57;-20.64;0.1;22.80;76980;2837.397;-1757.970;0;230;500;509.7;100.0;100.7;0;-0.5;29.2;-1.0;
12/02/2025 11:50:59;116;0;172.83;-4;-51.68;-9.18;0.2;22.90;76981;2837.398;-1757.972;0;230;500;508.1;100.0;100.7;0;-0.5;29.2;-1.0;
12/02/2025 11:51:19;116;0;174.36;-4;-49.21;-10.26;0.2;22.90;76992;2837.398;-1757.973;0;230;500;508.1;100.0;100.7;0;-0.9;29.2;-1.0;
12/02/2025 11:51:39;116;0;188.12;-4;-50.93;-16.12;0.2;22.90;76991;2837.398;-1757.972;0;230;500;508.1;100.0;100.7;0;-0.5;29.2;-1.0;
12/02/2025 11:52:27;116;0;175.48;-4;-46.29;-15.99;0.2;22.90;76989;2837.400;-1757.975;0;69;500;509.7;100.0;100.7;0;-0.9;29.2;-1.0;
12/02/2025 11:52:43;116;0;170.22;-4;-52.58;-4.37;0.2;23.00;77000;2837.400;-1757.975;0;69;500;509.7;100.0;100.7;0;-0.5;29.2;-1.0;
12/02/2025 11:52:54;116;0;169.52;-4;-50.07;-7.92;0.3;23.00;76999;2837.400;-1757.977;0;69;500;509.7;100.0;100.9;0;-0.5;29.2;-1.0;
12/02/2025 11:53:14;116;0;177.71;-4;-52.31;-15.56;0.2;23.00;77000;2837.401;-1757.977;0;69;500;509.7;100.0;100.7;0;-0.9;29.2;-1.0;
12/02/2025 11:53:34;116;0;180.93;-4;-47.49;-17.75;0.2;23.00;76999;2837.401;-1757.977;0;69;500;509.7;100.0;100.7;0;-0.9;29.2;-1.0;
12/02/2025 11:53:54;116;0;190.50;-4;-54.82;-11.13;0.2;23.10;77001;2837.401;-1757.979;0;69;500;509.7;100.0;100.7;0;-0.5;29.2;-1.0;
12/02/2025 11:54:14;116;0;193.35;-4;-50.74;-17.05;0.2;23.10;77005;2837.402;-1757.979;0;69;500;509.7;100.0;100.7;0;-0.5;29.2;-1.0;
12/02/2025 11:54:34;116;0;200.19;-4;-51.73;-3.40;0.2;23.10;77009;2837.402;-1757.980;0;69;500;509.7;100.0;100.7;0;-0.5;29.2;-1.0;
12/02/2025 11:54:50;116;0;202.28;-4;-47.10;-19.15;0.3;23.10;77012;2837.403;-1757.982;0;69;500;508.1;100.0;100.7;0;-0.5;29.1;-1.0;
12/02/2025 11:55:24;116;0;175.47;-4;-54.58;-8.80;0.1;23.20;77016;2837.403;-1757.982;0;69;500;508.1;100.0;100.9;0;-0.9;29.2;-1.0;
12/02/2025 11:55:46;116;0;182.97;-4;-58.70;-23.48;0.2;23.20;77005;2837.406;-1757.983;0;69;500;509.7;100.0;100.9;0;-0.5;29.2;-1.0;
12/02/2025 11:56:06;116;0;184.16;-4;-48.39;-7.72;0.2;23.20;76999;2837.406;-1757.984;0;69;500;508.1;100.0;100.7;0;-0.5;29.2;-1.0;
12/02/2025 11:56:26;116;0;196.99;-4;-49.11;-10.91;0.1;23.20;77009;2837.405;-1757.985;0;69;500;509.7;100.0;100.7;0;-0.9;29.2;-1.0;
12/02/2025 11:56:46;116;0;200.27;-4;-53.65;-20.63;0.2;23.30;77007;2837.406;-1757.985;0;69;500;509.7;100.0;100.7;0;-0.5;29.2;-1.0;
12/02/2025 11:57:06;116;0;187.28;-4;-54.52;-10.16;0.3;23.30;77004;2837.407;-1757.987;0;69;500;509.7;100.0;100.7;0;-0.9;29.1;-1.0;
12/02/2025 11:57:26;116;0;193.94;-4;-49.80;-13.26;0.2;23.30;77003;2837.406;-1757.988;0;69;500;509.7;100.0;100.7;0;-0.5;29.2;-1.0;
12/02/2025 11:57:46;116;0;189.20;-4;-49.13;-21.83;0.2;23.30;77004;2837.407;-1757.989;0;225;500;508.1;100.0;100.7;0;-0.5;29.2;-1.0;
12/02/2025 11:58:07;116;0;189.56;-4;-54.76;-23.91;0.2;23.30;77006;2837.408;-1757.990;0;225;500;508.1;100.0;100.7;0;-0.5;29.2;-1.0;
12/02/2025 11:58:22;116;0;185.80;-4;-55.04;-16.49;0.2;23.40;77018;2837.409;-1757.992;0;225;500;509.7;100.0;100.7;0;-0.5;29.2;-1.0;
12/02/2025 11:58:39;116;0;198.19;-4;-49.83;-24.81;0.3;23.40;77023;2837.409;-1757.992;0;225;500;508.1;100.0;100.7;0;-0.5;29.2;-1.0;
12/02/2025 11:58:59;110;0;181.60;-4;-48.48;-10.48;0.1;23.40;77012;2837.409;-1757.992;0;225;-200;387.1;100.0;100.7;0;-0.9;29.2;-1.0;
12/02/2025 11:59:09;110;0;185.16;-4;-47.98;-12.91;0.1;23.40;77371;2837.409;-1757.992;1;225;-200;238.7;100.0;100.7;0;-0.9;29.2;-1.0;
12/02/2025 11:59:19;110;0;185.32;-4;-51.91;-14.47;0.5;23.40;77625;2837.409;-1757.992;1;225;-200;83.9;100.0;100.7;0;-0.9;29.2;-1.0;
12/02/2025 11:59:29;110;0;203.53;-4;-65.74;-26.74;0.9;23.40;77954;2837.409;-1757.992;1;225;-200;-79.0;100.0;100.9;0;-0.9;29.1;-1.0;
12/02/2025 11:59:39;110;0;203.09;-4;-67.85;-10.66;1.0;23.40;78302;2837.409;-1757.992;1;225;-200;-198.4;50.0;49.9;0;-0.5;29.1;-1.0;
12/02/2025 11:59:49;110;0;203.58;-4;-53.09;-9.76;2.1;23.40;78540;2837.408;-1757.992;1;225;-200;-198.4;50.0;49.8;0;-0.9;29.2;-1.0;
12/02/2025 12:00:09;100;0;213.68;-4;-31.78;-12.33;6.5;23.40;78517;2837.406;-1757.995;1;225;-200;-198.4;50.0;49.6;0;-0.5;29.2;-1.0;
12/02/2025 12:00:29;100;0;218.65;-4;-30.87;-11.08;12.2;23.40;78504;2837.402;-1757.998;1;225;-200;-198.4;50.0;49.6;0;-0.5;29.2;-1.0;
12/02/2025 12:00:49;100;0;218.26;-4;-31.18;-11.30;17.6;23.40;78498;2837.399;-1758.002;1;225;-200;-198.4;50.0;49.6;0;-0.5;29.2;0.0;
12/02/2025 12:01:09;100;0;218.43;-4;-31.15;-11.23;23.2;23.30;78490;2837.396;-1758.005;1;225;-200;-196.8;50.0;49.6;0;-0.5;29.2;0.0;
12/02/2025 12:01:29;100;0;217.12;-4;-30.76;-10.92;28.7;23.30;78489;2837.392;-1758.008;1;225;-200;-198.4;50.0;49.5;0;-0.5;29.2;0.0;
12/02/2025 12:01:49;100;0;216.66;-4;-30.46;-11.06;34.2;23.20;78480;2837.389;-1758.012;1;225;-200;-196.8;50.0;49.5;0;-0.5;29.2;0.0;
12/02/2025 12:02:09;100;0;220.58;-4;-30.98;-11.04;39.6;23.20;78491;2837.386;-1758.015;1;225;-200;-198.4;50.0;49.5;0;-0.5;29.2;0.0;
12/02/2025 12:02:29;100;0;226.02;-4;-31.28;-10.93;45.2;23.20;78483;2837.383;-1758.019;1;225;-200;-196.8;50.0;49.6;0;-0.5;29.2;0.0;
12/02/2025 12:02:49;100;0;233.22;-4;-31.13;-11.09;50.9;23.10;78468;2837.380;-1758.024;1;225;-200;-196.8;50.0;49.6;4;4.1;29.2;0.0;
12/02/2025 12:03:09;100;0;234.12;-4;-31.88;-8.51;56.4;23.10;78462;2837.378;-1758.028;1;225;-200;-196.8;50.0;49.5;6;5.9;29.2;0.0;
12/02/2025 12:03:29;100;0;233.61;-4;-31.80;-7.58;62.1;23.00;78458;2837.375;-1758.032;1;225;-200;-196.8;50.0;49.5;6;6.3;29.2;0.0;
12/02/2025 12:03:49;100;0;232.70;-4;-32.47;-7.65;68.1;23.00;78460;2837.373;-1758.037;1;225;-200;-196.8;49.3;49.0;4;4.1;29.2;0.0;
12/02/2025 12:04:09;100;0;235.37;-4;-31.08;-9.23;74.1;22.90;78467;2837.370;-1758.042;1;225;-200;-196.8;49.3;48.9;7;7.2;29.2;0.0;
12/02/2025 12:04:29;100;0;240.84;-4;-30.77;-7.18;79.9;22.90;78458;2837.368;-1758.047;1;225;-200;-196.8;49.3;48.9;15;14.9;29.2;0.0;
12/02/2025 12:04:49;100;0;243.41;-4;-30.70;-3.19;85.8;22.80;78429;2837.366;-1758.052;1;225;-200;-198.4;49.3;48.9;19;19.0;29.2;0.0;
12/02/2025 12:05:09;100;0;243.91;-4;-31.21;-1.21;91.6;22.80;78412;2837.364;-1758.057;1;225;-200;-196.8;49.3;48.9;19;19.4;29.2;0.0;
12/02/2025 12:05:29;100;0;242.23;-4;-31.33;-1.17;97.4;22.70;78386;2837.362;-1758.062;1;225;-200;-196.8;49.3;48.9;17;17.1;29.2;0.0;
12/02/2025 12:05:34;118;0;239.31;-4;-30.91;-2.50;98.9;22.70;78384;2837.362;-1758.063;1;225;200;-190.3;34.0;34.0;0;-0.5;29.2;0.0;
12/02/2025 12:05:44;118;0;221.21;-4;-22.97;-11.90;100.9;22.70;78348;2837.360;-1758.065;1;225;200;-64.5;34.0;33.7;0;-0.5;28.9;-1.0;
12/02/2025 12:05:54;118;0;228.23;-4;-11.56;-11.90;102.7;22.70;78060;2837.359;-1758.067;1;225;200;61.3;34.0;33.7;0;-0.5;28.9;-1.0;
12/02/2025 12:06:04;118;0;232.73;-4;-5.14;-12.74;103.6;22.60;77777;2837.358;-1758.068;1;225;200;187.1;34.0;33.6;0;-0.5;28.9;-1.0;
12/02/2025 12:06:14;118;0;233.28;-4;-3.14;-13.07;103.9;22.60;77513;2837.358;-1758.069;1;225;200;204.8;34.0;33.6;0;-0.5;28.9;-1.0;
12/02/2025 12:06:24;118;0;246.50;-4;-3.70;-13.02;103.8;22.60;77483;2837.358;-1758.069;1;225;200;204.8;34.0;33.6;0;-0.5;29.2;-1.0;
12/02/2025 12:06:44;117;0;239.12;-4;-5.46;-13.59;103.5;22.50;77477;2837.358;-1758.069;1;225;200;204.8;34.0;33.6;0;-0.5;29.2;-1.0;
12/02/2025 12:07:04;117;0;250.84;-4;-7.46;-13.50;102.6;22.50;77471;2837.358;-1758.071;1;225;200;204.8;22.8;22.7;-43;-43.3;29.2;-1.0;
12/02/2025 12:07:24;117;0;243.97;-4;23.22;-35.95;101.8;22.40;77460;2837.358;-1758.072;1;225;200;208.1;20.7;20.8;-41;-41.1;29.2;-1.0;
12/02/2025 12:07:44;117;0;234.34;-4;25.90;-33.02;99.9;22.30;77454;2837.357;-1758.074;1;225;200;208.1;19.5;19.1;-14;-14.0;29.2;-1.0;
12/02/2025 12:08:04;117;0;227.91;-4;30.12;-19.08;97.5;22.30;77460;2837.356;-1758.076;1;225;200;209.7;19.5;19.1;-4;-3.6;29.2;-1.0;
12/02/2025 12:08:24;117;0;220.97;-4;31.16;-14.30;94.7;22.20;77460;2837.355;-1758.077;1;225;200;208.1;19.5;19.1;0;0.0;29.2;-1.0;
12/02/2025 12:08:44;117;0;207.69;-4;31.29;-12.11;91.8;22.20;77463;2837.353;-1758.079;1;225;200;208.1;19.5;19.1;3;3.2;29.2;-1.0;
12/02/2025 12:09:04;117;0;200.41;-4;31.65;-10.79;88.7;22.10;77477;2837.351;-1758.080;1;225;200;208.1;19.5;19.1;14;14.0;29.2;-1.0;
12/02/2025 12:09:24;117;0;194.91;-4;32.51;-5.27;85.5;22.10;77478;2837.349;-1758.081;1;225;200;209.7;20.2;20.3;24;23.9;29.2;-1.0;
12/02/2025 12:09:44;117;0;182.96;-4;32.13;0.39;82.1;22.00;77489;2837.346;-1758.081;1;225;200;208.1;20.9;21.1;42;42.0;29.2;-1.0;
12/02/2025 12:10:04;117;0;178.83;-4;31.45;10.03;78.9;22.00;77498;2837.344;-1758.081;1;225;200;208.1;20.9;21.2;48;47.8;29.2;-1.0;
12/02/2025 12:10:24;117;0;180.20;-4;32.66;13.71;75.4;22.00;77502;2837.342;-1758.081;1;225;200;208.1;21.7;21.8;46;46.0;29.2;-1.0;
12/02/2025 12:10:44;117;0;180.10;-4;30.38;10.97;72.0;21.90;77500;2837.339;-1758.081;1;225;200;209.7;21.7;21.8;46;45.6;29.2;-1.0;
12/02/2025 12:11:04;117;0;179.36;-4;30.40;11.40;68.7;21.90;77506;2837.336;-1758.081;1;225;200;206.5;21.7;21.9;46;45.6;29.2;-1.0;
12/02/2025 12:11:24;117;0;182.31;-4;30.44;11.47;65.4;21.80;77512;2837.334;-1758.081;1;225;200;209.7;21.7;21.8;43;42.4;29.2;-1.0;
12/02/2025 12:11:44;117;0;185.44;-4;30.01;9.43;62.2;21.80;77519;2837.331;-1758.082;1;225;200;208.1;21.7;21.8;39;38.8;29.2;-1.0;
12/02/2025 12:12:04;117;0;185.04;-4;29.82;7.36;59.0;21.80;77517;2837.329;-1758.082;1;225;200;209.7;21.7;21.8;39;37.9;29.2;-1.0;
12/02/2025 12:12:24;117;0;185.81;-4;29.72;7.32;55.9;21.80;77522;2837.326;-1758.083;1;225;200;208.1;21.7;21.8;39;37.9;29.2;-1.0;
12/02/2025 12:12:45;117;0;186.26;-4;29.71;7.47;52.7;21.70;77526;2837.324;-1758.083;1;225;200;209.7;21.7;21.8;39;37.9;29.2;-1.0;
12/02/2025 12:13:05;117;0;186.50;-4;29.58;7.39;49.6;21.70;77514;2837.322;-1758.083;1;225;200;209.7;21.7;21.9;37;36.1;29.2;-1.0;
12/02/2025 12:13:25;117;0;186.64;-4;29.68;6.43;46.6;21.70;77520;2837.319;-1758.084;1;225;200;209.7;21.7;21.8;37;36.1;29.2;-1.0;
12/02/2025 12:13:45;117;0;186.38;-4;29.79;6.45;43.5;21.70;77532;2837.317;-1758.084;1;225;200;208.1;21.7;21.9;37;36.6;29.2;-1.0;
12/02/2025 12:14:05;117;0;185.31;-4;29.80;6.49;40.4;21.60;77523;2837.315;-1758.085;1;225;200;208.1;21.7;21.8;39;38.8;29.2;-1.0;
12/02/2025 12:14:25;117;0;185.65;-4;29.93;8.01;37.3;21.60;77529;2837.312;-1758.085;1;225;200;208.1;21.7;21.8;39;38.8;29.2;-1.0;
12/02/2025 12:14:45;117;0;184.90;-4;30.26;8.03;34.2;21.60;77529;2837.310;-1758.085;1;225;200;208.1;21.7;21.8;39;39.3;29.2;-1.0;
12/02/2025 12:15:05;117;0;183.17;-4;29.98;8.04;31.0;21.60;77533;2837.307;-1758.086;1;225;200;208.1;21.7;21.8;42;42.0;29.1;-1.0;
12/02/2025 12:15:25;117;0;184.39;-4;30.24;9.78;27.6;21.50;77539;2837.305;-1758.086;1;225;200;208.1;21.7;21.8;40;40.2;29.2;-1.0;
12/02/2025 12:15:45;117;0;185.88;-4;29.95;7.82;24.3;21.50;77535;2837.302;-1758.086;1;225;200;209.7;21.7;21.8;38;37.9;29.2;-1.0;
12/02/2025 12:16:05;117;0;188.02;-4;30.13;7.20;21.1;21.50;77535;2837.300;-1758.087;1;225;200;209.7;21.7;21.8;35;35.2;29.2;-1.0;
12/02/2025 12:16:25;117;0;188.56;-4;30.15;6.20;17.9;21.50;77528;2837.297;-1758.087;1;225;200;208.1;21.7;21.9;35;36.1;29.2;-1.0;
12/02/2025 12:16:45;117;0;188.14;-4;29.85;6.16;14.7;21.50;77529;2837.295;-1758.088;1;225;200;208.1;21.7;21.8;35;36.1;29.2;-1.0;
12/02/2025 12:17:05;117;0;188.73;-4;29.31;6.27;11.4;21.50;77532;2837.292;-1758.088;1;225;200;208.1;21.7;21.8;35;36.1;29.2;-1.0;
12/02/2025 12:17:25;117;0;191.90;-4;31.14;6.38;8.2;21.40;77523;2837.290;-1758.089;1;225;200;209.7;21.7;21.8;29;28.9;29.2;-1.0;
