Timestamp;NavState;SecurityLevel;Heading;Declination;Pitch;Roll;Depth;Temperature;Pa;Lat;Lon;DeadReckoning;DesiredH;BallastCmd;BallastPos;LinCmd;LinPos;AngCmd;AngPos;Voltage;Altitude;
05/03/2025 13:13:13;119;0;270.85;-4;-55.94;-18.10;-0.2;19.40;76494;2837.884;-1757.717;0;121;500;506.5;100.0;100.7;0;-0.5;24.6;-1.0;
05/03/2025 13:13:23;116;0;276.39;-4;-43.53;-10.28;-0.4;19.50;76494;2837.884;-1757.715;0;121;500;506.5;100.0;100.7;0;-0.5;24.7;-1.0;
05/03/2025 13:13:48;116;0;308.46;-4;-43.53;-16.44;-0.2;19.50;76507;2837.885;-1757.713;0;121;500;506.5;100.0;100.7;0;-0.5;24.6;-1.0;
05/03/2025 13:14:05;116;0;315.65;-4;-40.59;-14.49;-0.2;19.50;76511;2837.885;-1757.713;0;141;500;506.5;100.0;100.7;0;-0.5;24.6;-1.0;
05/03/2025 13:14:24;116;0;305.82;-4;-48.46;-10.72;-0.1;19.60;76523;2837.887;-1757.712;0;141;500;506.5;100.0;100.7;0;-0.5;24.6;-1.0;
05/03/2025 13:14:35;116;0;309.71;-4;-46.02;-16.76;-0.2;19.60;76515;2837.887;-1757.712;0;141;500;506.5;100.0;100.7;0;-0.5;24.6;-1.0;
05/03/2025 13:14:55;110;0;291.65;-4;-50.48;-5.93;0.1;19.60;76526;2837.887;-1757.712;0;141;-500;388.7;100.0;99.9;-14;-14.0;24.7;-1.0;
05/03/2025 13:15:05;110;0;299.58;-4;-61.08;-23.29;0.3;19.60;76870;2837.888;-1757.713;1;141;-500;240.3;100.0;99.9;-14;-14.4;24.6;-1.0;
05/03/2025 13:15:15;110;0;302.18;-4;-64.36;-7.57;0.6;19.60;77124;2837.888;-1757.714;1;141;-500;88.7;100.0;99.7;-14;-14.4;24.6;-1.0;
05/03/2025 13:15:25;110;0;319.66;-4;-64.71;-23.06;0.7;19.70;77450;2837.889;-1757.715;1;141;-500;-71.0;100.0;99.9;-14;-14.4;24.6;-1.0;
05/03/2025 13:15:35;110;0;320.50;-4;-66.95;-12.46;1.3;19.70;77786;2837.890;-1757.716;1;141;-500;-248.4;51.6;54.3;-14;-14.4;24.6;-1.0;
05/03/2025 13:15:45;110;0;327.07;-4;-54.40;-19.79;3.1;19.70;78185;2837.892;-1757.717;1;141;-500;-480.6;51.6;51.5;-14;-14.4;24.6;-1.0;
05/03/2025 13:15:55;110;0;338.60;-4;-38.38;-16.88;6.4;19.70;78732;2837.895;-1757.719;1;141;-500;-498.4;51.6;51.4;-14;-14.4;24.5;-1.0;
05/03/2025 13:16:05;110;0;342.21;-4;-36.50;-15.32;10.7;19.70;78706;2837.898;-1757.721;1;141;-500;-501.6;51.6;51.3;-14;-14.4;24.6;-1.0;
05/03/2025 13:16:25;100;0;344.57;-4;-35.67;-15.42;21.3;19.80;78707;2837.907;-1757.725;1;141;-500;-501.6;51.6;51.4;-14;-14.4;24.6;0.0;
05/03/2025 13:16:45;100;0;351.48;-4;-35.27;-14.76;32.5;19.80;78700;2837.917;-1757.728;1;141;-500;-504.8;51.6;51.1;-70;-69.9;24.6;0.0;
05/03/2025 13:17:05;100;0;8.77;-4;-29.64;-40.14;42.7;19.80;78694;2837.928;-1757.728;1;141;-500;-501.6;53.2;53.2;-70;-69.9;24.6;0.0;
05/03/2025 13:17:25;100;0;29.95;-4;-28.87;-40.63;50.9;19.80;78690;2837.936;-1757.725;1;141;-500;-501.6;55.1;55.1;-70;-69.9;24.6;0.0;
05/03/2025 13:17:45;100;0;50.03;-4;-31.94;-40.71;59.5;19.80;78704;2837.942;-1757.721;1;141;-500;-498.4;56.0;56.1;-70;-69.9;24.6;0.0;
05/03/2025 13:18:05;100;0;70.64;-4;-33.89;-39.97;69.1;19.80;78695;2837.946;-1757.714;1;141;-500;-500.0;56.3;56.3;-70;-69.9;24.6;0.0;
05/03/2025 13:18:25;100;0;88.11;-4;-35.83;-39.02;78.8;19.80;78687;2837.948;-1757.708;1;141;-500;-500.0;56.3;56.3;-51;-50.5;24.6;0.0;
05/03/2025 13:18:45;100;0;102.67;-4;-36.94;-30.20;89.1;19.90;78690;2837.948;-1757.702;1;141;-500;-501.6;56.3;56.4;-32;-32.0;24.7;0.0;
05/03/2025 13:19:05;100;0;118.25;-4;-39.38;-21.93;100.2;19.90;78683;2837.946;-1757.696;1;141;-500;-503.2;55.0;54.8;-8;-8.1;24.6;0.0;
05/03/2025 13:19:25;100;0;125.00;-4;-39.73;-10.96;111.9;19.90;78674;2837.943;-1757.691;1;141;-500;-504.8;53.6;53.6;3;3.2;24.7;0.0;
05/03/2025 13:19:45;100;0;128.97;-4;-39.60;-5.29;123.7;19.80;78663;2837.940;-1757.686;1;141;-500;-506.5;52.2;52.0;8;8.1;24.6;0.0;
05/03/2025 13:20:05;100;0;123.14;-4;-38.21;-2.88;134.8;19.80;78654;2837.938;-1757.680;1;141;-500;-506.5;51.2;51.1;0;0.0;24.6;0.0;
05/03/2025 13:20:25;100;0;120.69;-4;-37.75;-7.81;145.9;19.80;78607;2837.936;-1757.675;1;141;-500;-504.8;50.4;50.1;-4;-4.5;24.7;0.0;
05/03/2025 13:20:45;100;0;123.83;-4;-35.31;-10.21;156.5;19.80;78487;2837.933;-1757.669;1;141;-500;-506.5;50.4;50.1;1;0.9;24.7;0.0;
05/03/2025 13:21:05;100;0;126.51;-4;-33.37;-8.03;166.0;19.70;78413;2837.930;-1757.664;1;141;-500;-506.5;50.9;50.1;5;0.9;24.7;3.8;
05/03/2025 13:21:08;118;0;128.03;-4;-32.73;-5.66;167.3;19.70;78418;2837.930;-1757.663;1;141;500;-501.6;15.7;15.6;14;14.4;24.6;0.0;
05/03/2025 13:21:18;118;0;118.54;-4;-11.65;-4.88;170.0;19.70;78385;2837.928;-1757.660;1;141;500;-375.8;15.7;15.5;14;14.4;24.2;-1.0;
05/03/2025 13:21:28;118;0;113.90;-4;3.67;13.71;170.3;19.70;78083;2837.929;-1757.660;1;141;500;-250.0;15.7;15.2;14;14.4;24.2;-1.0;
05/03/2025 13:21:38;118;0;117.19;-4;4.87;9.62;170.3;19.70;77809;2837.930;-1757.661;1;141;500;-122.6;15.7;15.2;14;14.4;24.2;-1.0;
05/03/2025 13:21:48;118;0;119.00;-4;5.45;5.80;170.2;19.60;77522;2837.931;-1757.662;1;141;500;1.6;15.7;15.3;14;14.4;24.2;-1.0;
05/03/2025 13:21:58;118;0;124.25;-4;9.87;-5.22;169.8;19.60;77259;2837.931;-1757.662;1;141;500;125.8;15.7;15.2;14;14.4;24.2;-1.0;
05/03/2025 13:22:08;118;0;136.61;-4;16.48;-5.11;169.7;19.60;76996;2837.932;-1757.663;1;141;500;250.0;15.7;15.8;14;14.4;24.2;-1.0;
05/03/2025 13:22:18;118;0;145.74;-4;33.71;-5.42;169.2;19.60;76727;2837.932;-1757.663;1;141;500;375.8;15.7;15.9;14;14.4;24.2;-1.0;
05/03/2025 13:22:28;118;0;148.56;-4;38.59;-4.31;168.1;19.60;76469;2837.932;-1757.664;1;141;500;480.6;15.7;15.9;14;14.4;24.2;-1.0;
05/03/2025 13:22:38;118;0;146.11;-4;35.34;-4.71;165.9;19.60;76207;2837.932;-1757.663;1;141;500;504.8;15.7;15.9;14;14.4;24.2;-1.0;
05/03/2025 13:22:48;118;0;178.86;-4;33.58;-4.31;163.4;19.60;76159;2837.931;-1757.664;1;141;500;504.8;15.7;15.9;14;14.4;24.6;-1.0;
05/03/2025 13:23:08;117;0;168.16;-4;33.59;-3.71;157.3;19.50;76156;2837.928;-1757.665;1;141;500;504.8;14.5;14.6;14;14.4;24.6;-1.0;
05/03/2025 13:23:28;117;0;159.38;-4;31.57;-4.19;149.8;19.50;76180;2837.924;-1757.664;1;141;500;506.5;13.5;13.3;24;23.9;24.6;-1.0;
05/03/2025 13:23:48;117;0;150.81;-4;34.92;1.82;143.5;19.40;76180;2837.921;-1757.663;1;141;500;504.8;13.5;13.4;36;36.1;24.6;-1.0;
05/03/2025 13:24:08;117;0;154.47;-4;34.41;8.21;137.0;19.40;76219;2837.918;-1757.662;1;141;500;506.5;13.5;13.4;32;32.0;24.6;-1.0;
05/03/2025 13:24:28;117;0;151.45;-4;36.19;5.47;130.4;19.40;76275;2837.916;-1757.661;1;141;500;506.5;13.5;13.4;35;35.2;24.6;-1.0;
05/03/2025 13:24:48;117;0;151.20;-4;36.93;7.83;123.1;19.40;76318;2837.913;-1757.660;1;141;500;504.8;13.5;13.4;35;35.2;24.6;-1.0;
05/03/2025 13:25:08;117;0;145.85;-4;36.26;8.30;115.7;19.40;76338;2837.910;-1757.658;1;141;500;506.5;13.5;13.3;39;38.8;24.6;-1.0;
05/03/2025 13:25:28;117;0;136.11;-4;37.93;10.75;108.2;19.40;76366;2837.908;-1757.656;1;141;500;506.5;14.4;14.4;39;38.8;24.6;-1.0;
