Timestamp;NavState;SecurityLevel;Heading;Declination;Pitch;Roll;Depth;Temperature;Pa;Lat;Lon;DeadReckoning;DesiredH;BallastCmd;BallastPos;LinCmd;LinPos;AngCmd;AngPos;Voltage;Altitude;
03/03/2025 11:23:05;119;0;167.33;-4;-40.24;-5.89;0.0;17.50;75774;2836.386;-1758.410;0;158;500;506.5;100.0;100.6;0;-0.5;25.2;-1.0;
03/03/2025 11:23:15;116;0;180.44;-4;-54.77;-8.15;0.3;17.60;75783;2836.396;-1758.418;0;158;500;506.5;100.0;100.6;0;-0.5;25.1;-1.0;
03/03/2025 11:23:40;116;0;179.34;-4;-50.75;-10.51;0.2;17.60;75791;2836.402;-1758.422;0;158;500;506.5;100.0;100.6;0;-0.5;25.2;-1.0;
03/03/2025 11:24:07;116;0;188.69;-4;-47.06;-8.86;-0.1;17.70;75811;2836.405;-1758.423;0;160;500;504.8;100.0;100.6;0;-0.5;25.1;-1.0;
03/03/2025 11:24:21;116;0;173.46;-4;-56.61;-24.34;0.1;17.80;75813;2836.408;-1758.426;0;160;500;506.5;100.0;100.6;0;-0.5;25.1;-1.0;
03/03/2025 11:25:19;116;0;172.84;-4;-49.02;-14.80;0.0;17.90;75830;2836.420;-1758.436;0;160;500;506.5;100.0;100.6;0;-0.5;25.2;-1.0;
03/03/2025 11:25:30;116;0;176.92;-4;-54.39;-16.64;0.2;18.00;75840;2836.423;-1758.437;0;160;500;506.5;100.0;100.6;0;-0.5;25.0;-1.0;
03/03/2025 11:25:46;116;0;190.47;-4;-59.91;-32.32;0.2;18.00;75853;2836.427;-1758.441;0;160;500;504.8;100.0;100.6;0;-0.5;25.2;-1.0;
03/03/2025 11:26:36;116;0;171.42;-4;-54.42;-0.10;0.2;18.20;75854;2836.440;-1758.450;0;160;500;508.1;100.0;100.6;0;-0.5;25.2;-1.0;
03/03/2025 11:26:47;116;0;174.97;-4;-48.25;-8.75;0.2;18.20;75864;2836.444;-1758.453;0;160;500;508.1;100.0;100.6;0;-0.5;25.1;-1.0;
03/03/2025 11:27:35;116;0;175.58;-4;-53.47;-20.39;0.1;18.40;75874;2836.456;-1758.463;0;160;500;506.5;100.0;100.6;0;-0.5;25.2;-1.0;
03/03/2025 11:27:46;116;0;175.86;-4;-60.51;-8.47;0.1;18.40;75881;2836.460;-1758.464;0;160;500;506.5;100.0;100.6;0;-0.5;25.2;-1.0;
03/03/2025 11:28:06;110;0;170.34;-4;-48.84;-5.01;0.3;18.50;75880;2836.460;-1758.464;0;160;-110;382.3;100.0;99.9;-8;-8.1;25.2;-1.0;
03/03/2025 11:28:16;110;0;165.43;-4;-56.59;-19.78;0.2;18.50;76247;2836.460;-1758.465;1;160;-110;238.7;100.0;99.9;-8;-8.1;25.1;-1.0;
03/03/2025 11:28:26;110;0;157.31;-4;-52.69;-23.59;0.6;18.60;76487;2836.460;-1758.465;1;160;-110;87.1;100.0;99.9;-8;-8.1;25.1;-1.0;
03/03/2025 11:28:36;110;0;161.16;-4;-67.49;-26.45;0.9;18.60;76805;2836.461;-1758.465;1;160;-110;-69.4;100.0;99.9;-8;-8.1;25.1;-1.0;
03/03/2025 11:28:46;110;0;165.88;-4;-67.04;-15.49;1.2;18.60;77140;2836.461;-1758.466;1;160;-110;-109.7;43.4;54.5;-8;-8.1;25.1;-1.0;
03/03/2025 11:28:56;110;0;173.88;-4;-53.44;-14.27;2.1;18.70;77180;2836.461;-1758.466;1;160;-110;-109.7;43.4;43.3;-8;-8.1;25.1;-1.0;
03/03/2025 11:29:16;100;0;182.11;-4;-22.35;-16.81;5.0;18.70;77175;2836.459;-1758.467;1;160;-110;-104.8;43.4;42.9;-8;-8.1;25.2;-1.0;
03/03/2025 11:29:36;100;0;190.39;-4;-20.46;-15.41;7.7;18.80;77181;2836.457;-1758.469;1;160;-110;-103.2;43.4;42.9;56;56.0;25.1;-1.0;
03/03/2025 11:29:56;100;0;184.83;-4;-23.84;16.45;10.3;18.80;77192;2836.455;-1758.470;1;160;-110;-103.2;42.2;42.1;49;49.2;25.2;-1.0;
03/03/2025 11:30:16;100;0;175.17;-4;-21.92;12.39;13.1;18.80;77180;2836.453;-1758.470;1;160;-110;-103.2;42.2;42.1;31;30.7;25.1;0.0;
03/03/2025 11:30:36;100;0;167.78;-4;-21.33;3.34;15.7;18.80;77185;2836.450;-1758.470;1;160;-110;-103.2;42.2;42.1;19;18.5;25.1;0.0;
03/03/2025 11:30:56;100;0;168.00;-4;-19.91;-2.40;18.4;18.80;77193;2836.448;-1758.470;1;160;-110;-104.8;42.2;42.0;21;21.7;25.2;0.0;
03/03/2025 11:31:16;100;0;165.01;-4;-20.00;-0.61;20.8;18.80;77195;2836.446;-1758.470;1;160;-110;-103.2;42.2;42.0;18;18.1;25.2;0.0;
03/03/2025 11:31:36;100;0;163.58;-4;-20.27;-2.84;23.2;18.90;77196;2836.444;-1758.470;1;160;-110;-103.2;42.2;42.1;16;15.8;25.2;0.0;
03/03/2025 11:31:56;100;0;164.26;-4;-19.65;-3.96;25.6;18.90;77202;2836.442;-1758.469;1;160;-110;-103.2;42.2;42.1;16;15.8;25.2;0.0;
03/03/2025 11:32:16;100;0;164.66;-4;-19.78;-3.95;28.1;18.90;77199;2836.440;-1758.469;1;160;-110;-103.2;42.2;42.1;16;15.8;25.2;0.0;
03/03/2025 11:32:36;100;0;164.92;-4;-20.07;-3.89;30.4;18.90;77201;2836.438;-1758.469;1;160;-110;-101.6;42.2;42.0;18;18.5;25.1;0.0;
03/03/2025 11:32:56;100;0;165.62;-4;-20.22;-2.36;32.9;18.90;77211;2836.436;-1758.469;1;160;-110;-103.2;42.2;42.0;18;18.5;25.2;0.0;
03/03/2025 11:33:16;100;0;163.17;-4;-20.02;-2.36;35.3;18.90;77211;2836.435;-1758.469;1;160;-110;-103.2;42.2;42.1;16;15.8;25.2;0.0;
03/03/2025 11:33:36;100;0;161.81;-4;-19.71;-3.96;37.7;18.90;77202;2836.433;-1758.468;1;160;-110;-104.8;42.2;42.1;16;15.3;25.2;0.0;
03/03/2025 11:33:56;100;0;161.14;-4;-19.67;-3.85;40.1;19.00;77215;2836.431;-1758.468;1;160;-110;-103.2;42.2;42.1;16;15.3;25.1;0.0;
03/03/2025 11:34:16;100;0;160.60;-4;-20.20;-4.00;42.4;19.00;77215;2836.429;-1758.468;1;160;-110;-103.2;42.2;42.0;16;15.3;25.2;0.0;
03/03/2025 11:34:36;100;0;159.86;-4;-20.36;-3.75;44.9;19.00;77218;2836.427;-1758.467;1;160;-110;-103.2;42.2;42.1;16;15.3;25.2;0.0;
03/03/2025 11:34:56;100;0;158.23;-4;-19.67;-3.99;47.2;19.00;77223;2836.425;-1758.467;1;160;-110;-103.2;42.2;42.1;16;15.3;25.1;0.0;
03/03/2025 11:35:16;100;0;157.65;-4;-19.52;-3.99;49.6;19.00;77216;2836.424;-1758.466;1;160;-110;-103.2;42.2;42.1;16;15.3;25.2;0.0;
03/03/2025 11:35:36;100;0;156.98;-4;-20.14;-4.04;52.0;19.00;77222;2836.422;-1758.466;1;160;-110;-106.5;42.2;42.0;16;15.3;25.2;0.0;
03/03/2025 11:35:56;100;0;156.58;-4;-19.93;-3.99;54.4;19.00;77230;2836.420;-1758.465;1;160;-110;-103.2;42.2;42.0;16;15.3;25.2;0.0;
03/03/2025 11:36:16;100;0;156.07;-4;-19.53;-3.92;56.8;19.00;77230;2836.418;-1758.464;1;160;-110;-103.2;42.2;42.0;16;15.3;25.1;0.0;
03/03/2025 11:36:36;100;0;155.32;-4;-20.00;-3.95;59.2;19.00;77230;2836.417;-1758.464;1;160;-110;-103.2;42.2;42.1;16;15.3;25.2;0.0;
03/03/2025 11:36:56;100;0;155.12;-4;-19.81;-4.03;61.6;19.00;77236;2836.415;-1758.463;1;160;-110;-103.2;42.2;42.1;16;15.3;25.2;0.0;
03/03/2025 11:37:16;100;0;154.52;-4;-19.93;-4.07;64.1;19.00;77243;2836.413;-1758.462;1;160;-110;-103.2;42.2;42.1;16;15.3;25.1;0.0;
03/03/2025 11:37:36;100;0;153.58;-4;-20.02;-3.96;66.5;19.00;77240;2836.411;-1758.461;1;160;-110;-103.2;42.2;42.0;16;15.3;25.2;0.0;
03/03/2025 11:37:56;100;0;152.38;-4;-19.68;-4.01;69.0;19.00;77239;2836.409;-1758.461;1;160;-110;-103.2;42.2;42.1;16;15.3;25.2;0.0;
03/03/2025 11:38:16;100;0;152.19;-4;-20.02;-4.00;71.7;19.10;77244;2836.407;-1758.459;1;160;-110;-103.2;42.2;42.0;16;15.3;25.2;0.0;
03/03/2025 11:38:36;100;0;151.13;-4;-19.97;-3.98;74.3;19.10;77255;2836.406;-1758.458;1;160;-110;-103.2;42.2;42.0;16;15.3;25.2;0.0;
03/03/2025 11:38:56;100;0;148.14;-4;-19.89;-3.98;76.9;19.10;77262;2836.404;-1758.457;1;160;-110;-104.8;42.2;42.0;14;14.0;25.2;0.0;
03/03/2025 11:39:16;100;0;147.74;-4;-19.92;-4.76;79.3;19.10;77270;2836.402;-1758.456;1;160;-110;-104.8;42.2;42.0;14;14.0;25.1;0.0;
03/03/2025 11:39:36;100;0;150.74;-4;-19.41;-4.75;82.0;19.10;77255;2836.400;-1758.455;1;160;-110;-104.8;42.2;42.1;14;14.0;25.1;0.0;
03/03/2025 11:39:56;100;0;151.60;-4;-19.64;-4.73;84.5;19.10;77262;2836.398;-1758.454;1;160;-110;-103.2;42.2;42.0;14;14.0;25.2;0.0;
03/03/2025 11:40:16;100;0;154.08;-4;-19.99;-4.66;87.1;19.10;77267;2836.396;-1758.453;1;160;-110;-103.2;42.2;42.3;14;14.0;25.1;0.0;
03/03/2025 11:40:36;100;0;152.84;-4;-19.63;-4.78;89.8;19.10;77273;2836.394;-1758.452;1;160;-110;-103.2;42.2;42.0;14;14.0;25.1;0.0;
03/03/2025 11:40:56;100;0;152.30;-4;-19.83;-4.74;92.3;19.10;77272;2836.393;-1758.451;1;160;-110;-104.8;42.2;42.1;14;14.0;25.1;0.0;
03/03/2025 11:41:16;100;0;151.83;-4;-19.81;-4.77;95.0;19.10;77275;2836.391;-1758.450;1;160;-110;-104.8;42.2;42.0;14;14.0;25.1;0.0;
03/03/2025 11:41:36;100;0;150.87;-4;-20.02;-4.73;97.6;19.10;77286;2836.389;-1758.449;1;160;-110;-103.2;42.2;42.1;14;14.0;25.1;0.0;
03/03/2025 11:41:56;100;0;147.31;-4;-19.64;-4.64;100.4;19.10;77284;2836.387;-1758.447;1;160;-110;-103.2;42.2;42.0;12;12.2;25.1;0.0;
03/03/2025 11:42:16;100;0;144.64;-4;-18.66;-5.81;103.0;19.10;77274;2836.385;-1758.446;1;160;-110;-104.8;42.6;42.7;12;11.7;25.2;0.0;
03/03/2025 11:42:36;100;0;148.82;-4;-19.00;-5.70;105.4;19.10;77248;2836.383;-1758.445;1;160;-110;-103.2;42.9;42.9;14;14.0;25.1;0.0;
03/03/2025 11:42:56;100;0;148.79;-4;-19.24;-4.17;107.8;19.10;77234;2836.382;-1758.444;1;160;-110;-103.2;42.9;42.9;14;14.4;25.2;0.0;
03/03/2025 11:43:16;100;0;151.83;-4;-19.26;-4.42;110.0;19.10;77228;2836.380;-1758.443;1;160;-110;-103.2;42.9;42.9;14;14.4;25.2;0.0;
03/03/2025 11:43:36;100;0;153.80;-4;-20.35;-4.58;112.3;19.10;77217;2836.378;-1758.442;1;160;-110;-103.2;42.9;42.9;14;14.4;25.1;0.0;
03/03/2025 11:43:56;100;0;158.54;-4;-20.29;-4.48;114.8;19.10;77207;2836.377;-1758.442;1;160;-110;-103.2;42.9;42.9;14;14.4;25.2;0.0;
03/03/2025 11:44:16;100;0;159.08;-4;-19.37;-4.25;117.2;19.10;77201;2836.375;-1758.441;1;160;-110;-106.5;42.9;42.9;14;14.4;25.1;0.0;
03/03/2025 11:44:36;100;0;161.59;-4;-21.19;-4.29;119.9;19.00;77191;2836.373;-1758.441;1;160;-110;-106.5;42.9;42.9;14;14.4;25.2;0.0;
03/03/2025 11:44:56;100;0;159.85;-4;-20.32;-4.42;122.9;19.00;77186;2836.370;-1758.440;1;160;-110;-104.8;42.9;42.7;14;14.4;25.2;0.0;
03/03/2025 11:45:16;100;0;163.18;-4;-20.42;-4.43;125.8;19.00;77190;2836.368;-1758.440;1;160;-110;-101.6;42.9;42.7;16;15.8;25.1;0.0;
03/03/2025 11:45:36;100;0;165.09;-4;-19.93;-3.56;128.7;19.00;77185;2836.365;-1758.439;1;160;-110;-104.8;42.9;43.0;16;16.2;25.2;0.0;
03/03/2025 11:45:56;100;0;166.12;-4;-20.03;-3.57;131.9;19.00;77171;2836.362;-1758.439;1;160;-110;-103.2;42.9;42.9;18;18.1;25.2;0.0;
03/03/2025 11:46:16;100;0;165.18;-4;-19.09;-2.39;135.0;19.00;77177;2836.359;-1758.439;1;160;-110;-103.2;42.9;42.9;18;18.5;25.1;0.0;
03/03/2025 11:46:37;100;0;163.38;-4;-21.25;-2.19;138.1;19.00;77169;2836.356;-1758.438;1;160;-110;-103.2;42.9;42.9;16;15.3;25.1;0.0;
03/03/2025 11:46:57;100;0;159.55;-4;-19.57;-4.05;141.2;18.90;77167;2836.354;-1758.437;1;160;-110;-103.2;42.9;42.9;16;15.3;25.2;0.0;
03/03/2025 11:47:17;100;0;157.57;-4;-19.93;-4.00;144.3;18.90;77154;2836.351;-1758.436;1;160;-110;-103.2;42.9;42.9;16;15.3;25.2;0.0;
03/03/2025 11:47:37;100;0;156.21;-4;-19.47;-4.02;147.2;18.90;77141;2836.349;-1758.435;1;160;-110;-103.2;42.9;42.9;16;15.3;25.2;0.0;
03/03/2025 11:47:57;100;0;153.34;-4;-20.07;-4.06;150.3;18.90;77130;2836.346;-1758.434;1;160;-110;-103.2;42.9;42.9;16;15.3;25.1;0.0;
03/03/2025 11:48:17;100;0;152.86;-4;-19.99;-4.07;153.1;18.90;77117;2836.344;-1758.433;1;160;-110;-103.2;42.9;42.9;16;15.3;25.1;0.0;
03/03/2025 11:48:37;100;0;151.40;-4;-19.78;-4.04;156.3;18.90;77111;2836.341;-1758.431;1;160;-110;-103.2;42.9;42.9;14;14.0;25.1;0.0;
03/03/2025 11:48:57;100;0;149.52;-4;-19.75;-4.74;159.3;18.80;77099;2836.339;-1758.430;1;160;-110;-103.2;42.9;42.9;14;14.0;25.2;0.0;
03/03/2025 11:49:17;100;0;146.14;-4;-19.41;-4.82;162.2;18.80;77088;2836.337;-1758.428;1;160;-110;-104.8;42.9;42.9;12;12.2;25.1;0.0;
03/03/2025 11:49:37;100;0;148.32;-4;-19.59;-5.73;165.1;18.80;77062;2836.335;-1758.427;1;160;-110;-103.2;42.9;42.9;12;11.7;25.2;0.0;
03/03/2025 11:49:57;100;0;150.96;-4;-19.51;-5.74;167.9;18.80;77049;2836.333;-1758.426;1;160;-110;-103.2;42.9;42.9;14;14.0;25.2;0.0;
03/03/2025 11:50:17;100;0;153.85;-4;-19.20;-4.43;170.6;18.70;77039;2836.331;-1758.425;1;160;-110;-103.2;42.9;42.9;14;14.4;25.1;0.0;
03/03/2025 11:50:37;100;0;154.13;-4;-19.41;-4.49;173.1;18.70;77031;2836.329;-1758.424;1;160;-110;-103.2;42.9;42.9;14;14.0;25.1;0.0;
03/03/2025 11:50:57;100;0;148.90;-4;-19.18;-4.58;175.6;18.70;77011;2836.327;-1758.423;1;160;-110;-103.2;42.9;42.9;14;14.4;25.1;0.0;
03/03/2025 11:51:17;100;0;146.34;-4;-19.33;-4.48;178.0;18.70;77010;2836.325;-1758.421;1;160;-110;-103.2;42.9;42.9;12;11.7;25.1;0.0;
03/03/2025 11:51:37;100;0;142.50;-4;-19.44;-5.94;180.4;18.60;76989;2836.324;-1758.420;1;160;-110;-103.2;42.9;42.9;9;9.0;25.2;0.0;
03/03/2025 11:51:57;100;0;137.61;-4;-19.13;-7.34;182.9;18.60;76973;2836.322;-1758.418;1;160;-110;-103.2;42.9;42.9;2;1.8;25.1;0.0;
03/03/2025 11:52:17;100;0;134.07;-4;-19.22;-10.84;185.1;18.50;76967;2836.321;-1758.417;1;160;-110;-104.8;42.9;42.9;-4;-4.1;25.1;0.0;
03/03/2025 11:52:37;100;0;139.90;-4;-18.64;-13.77;187.7;18.50;76943;2836.320;-1758.415;1;160;-110;-101.6;43.3;43.6;5;5.0;25.1;0.0;
03/03/2025 11:52:57;100;0;143.31;-4;-20.23;-8.90;190.0;18.50;76939;2836.319;-1758.414;1;160;-110;-101.6;43.3;43.6;11;11.3;25.2;0.0;
03/03/2025 11:53:17;100;0;147.89;-4;-20.35;-5.97;192.4;18.40;76930;2836.317;-1758.413;1;160;-110;-101.6;43.3;43.6;13;13.1;25.2;0.0;
03/03/2025 11:53:37;100;0;151.99;-4;-20.48;-4.96;194.8;18.40;76922;2836.315;-1758.412;1;160;-110;-103.2;43.3;43.6;13;13.5;25.2;0.0;
03/03/2025 11:53:57;100;0;155.25;-4;-20.86;-4.87;197.2;18.40;76915;2836.314;-1758.411;1;160;-110;-103.2;43.3;43.6;13;13.5;25.1;0.0;
03/03/2025 11:54:17;100;0;161.17;-4;-20.20;-4.88;199.6;18.30;76896;2836.312;-1758.411;1;160;-110;-103.2;43.3;43.6;15;14.9;25.1;0.0;
03/03/2025 11:54:37;100;0;162.23;-4;-20.91;-4.02;202.1;18.30;76886;2836.310;-1758.410;1;160;-110;-103.2;43.3;43.6;15;14.9;25.1;0.0;
03/03/2025 11:54:57;100;0;163.99;-4;-20.65;-4.10;204.6;18.30;76873;2836.308;-1758.410;1;160;-110;-101.6;43.3;43.6;17;17.1;25.2;0.0;
03/03/2025 11:55:17;100;0;163.51;-4;-21.06;-3.02;207.1;18.20;76866;2836.306;-1758.410;1;160;-110;-103.2;43.3;43.6;17;17.1;25.1;0.0;
03/03/2025 11:55:37;100;0;164.18;-4;-21.03;-2.98;209.6;18.20;76854;2836.304;-1758.410;1;160;-110;-101.6;43.3;43.6;17;17.1;25.2;0.0;
03/03/2025 11:55:57;100;0;164.04;-4;-21.10;-3.01;212.3;18.20;76847;2836.302;-1758.409;1;160;-110;-103.2;43.3;43.6;17;17.1;25.2;0.0;
03/03/2025 11:56:17;100;0;165.48;-4;-21.01;-2.84;214.8;18.10;76835;2836.300;-1758.409;1;160;-110;-103.2;43.3;43.6;17;17.1;25.1;0.0;
03/03/2025 11:56:37;100;0;165.04;-4;-21.12;-2.96;217.6;18.10;76836;2836.298;-1758.409;1;160;-110;-103.2;43.3;43.6;17;17.1;25.2;0.0;
03/03/2025 11:56:57;100;0;163.70;-4;-21.31;-2.94;220.3;18.00;76824;2836.296;-1758.409;1;160;-110;-103.2;43.3;43.7;17;17.6;25.2;0.0;
03/03/2025 11:57:17;100;0;162.50;-4;-21.43;-2.99;223.0;18.00;76828;2836.293;-1758.408;1;160;-110;-101.6;43.3;43.6;17;17.1;25.1;0.0;
03/03/2025 11:57:37;100;0;163.52;-4;-21.22;-2.88;225.8;18.00;76808;2836.291;-1758.408;1;160;-110;-104.8;43.3;43.6;17;17.1;25.1;0.0;
03/03/2025 11:57:57;100;0;161.84;-4;-21.34;-2.91;228.9;17.90;76812;2836.289;-1758.408;1;160;-110;-101.6;43.3;43.6;15;14.4;25.1;0.0;
03/03/2025 11:58:17;100;0;164.13;-4;-20.74;-4.48;231.7;17.90;76783;2836.286;-1758.407;1;160;-110;-103.2;43.3;43.6;17;17.1;25.2;0.0;
03/03/2025 11:58:37;100;0;165.84;-4;-21.06;-2.82;234.6;17.90;76795;2836.284;-1758.407;1;160;-110;-101.6;43.3;43.6;17;17.6;25.2;0.0;
03/03/2025 11:58:57;100;0;164.19;-4;-21.37;-2.82;237.4;17.80;76775;2836.282;-1758.407;1;160;-110;-103.2;43.3;43.6;17;17.6;25.1;0.0;
03/03/2025 11:59:17;100;0;163.09;-4;-21.36;-2.77;240.5;17.80;76776;2836.279;-1758.406;1;160;-110;-103.2;43.3;43.6;17;17.6;25.2;0.0;
03/03/2025 11:59:37;100;0;156.11;-4;-20.46;-2.90;243.3;17.70;76759;2836.277;-1758.405;1;160;-110;-103.2;43.3;43.6;15;14.9;25.2;0.0;
03/03/2025 11:59:57;100;0;153.35;-4;-20.63;-4.46;246.0;17.70;76749;2836.275;-1758.404;1;160;-110;-101.6;43.3;43.7;15;14.4;25.1;0.0;
03/03/2025 12:00:17;100;0;151.79;-4;-20.89;-4.43;248.8;17.70;76733;2836.273;-1758.403;1;160;-110;-103.2;43.3;43.7;15;14.4;25.1;0.0;
03/03/2025 12:00:37;100;0;149.68;-4;-20.87;-4.48;251.6;17.60;76732;2836.271;-1758.402;1;160;-110;-101.6;43.3;43.6;15;14.4;25.1;0.0;
03/03/2025 12:00:57;100;0;152.06;-4;-20.47;-4.42;254.5;17.60;76728;2836.269;-1758.401;1;160;-110;-103.2;43.3;43.6;15;14.4;25.1;0.0;
03/03/2025 12:01:17;100;0;153.76;-4;-20.79;-4.41;257.2;17.60;76717;2836.267;-1758.400;1;160;-110;-103.2;43.3;43.6;15;14.4;25.2;0.0;
03/03/2025 12:01:37;100;0;149.91;-4;-20.97;-4.47;260.2;17.50;76709;2836.265;-1758.399;1;160;-110;-103.2;43.3;43.7;15;14.4;25.2;0.0;
03/03/2025 12:01:57;100;0;146.16;-4;-21.25;-4.38;263.2;17.50;76714;2836.263;-1758.397;1;160;-110;-101.6;43.3;43.6;12;12.2;25.2;0.0;
03/03/2025 12:02:17;100;0;144.44;-4;-21.33;-5.58;266.1;17.40;76688;2836.261;-1758.395;1;160;-110;-101.6;43.3;43.7;10;9.9;25.1;0.0;
03/03/2025 12:02:37;100;0;142.46;-4;-20.80;-6.81;269.1;17.40;76673;2836.259;-1758.394;1;160;-110;-101.6;43.3;43.6;8;8.1;25.2;0.0;
03/03/2025 12:02:57;100;0;143.26;-4;-20.34;-7.58;272.1;17.40;76660;2836.257;-1758.392;1;160;-110;-101.6;43.3;43.6;8;8.1;25.2;0.0;
03/03/2025 12:03:17;100;0;145.31;-4;-19.82;-7.63;274.9;17.30;76645;2836.255;-1758.390;1;160;-110;-103.2;43.3;43.6;11;10.8;25.1;0.0;
03/03/2025 12:03:37;100;0;151.13;-4;-19.77;-6.33;277.6;17.30;76632;2836.253;-1758.389;1;160;-110;-103.2;43.3;43.6;14;14.0;25.2;0.0;
03/03/2025 12:03:57;100;0;152.69;-4;-20.30;-4.43;280.6;17.20;76622;2836.251;-1758.388;1;160;-110;-103.2;43.3;43.6;14;14.4;25.1;0.0;
03/03/2025 12:04:17;100;0;154.19;-4;-20.62;-4.56;283.3;17.20;76612;2836.249;-1758.387;1;160;-110;-101.6;43.3;43.6;14;14.4;25.2;0.0;
03/03/2025 12:04:37;100;0;156.60;-4;-20.33;-4.63;286.1;17.20;76603;2836.246;-1758.386;1;160;-110;-101.6;43.3;43.6;14;14.4;25.1;0.0;
03/03/2025 12:04:57;100;0;161.65;-4;-20.52;-4.49;288.9;17.10;76594;2836.244;-1758.386;1;160;-110;-103.2;43.3;43.6;14;14.4;25.1;0.0;
03/03/2025 12:05:17;100;0;164.64;-4;-20.46;-4.44;291.7;17.10;76579;2836.242;-1758.385;1;160;-110;-103.2;43.3;43.6;17;17.1;25.1;0.0;
03/03/2025 12:05:37;100;0;165.86;-4;-20.77;-3.01;294.4;17.00;76570;2836.239;-1758.385;1;160;-110;-103.2;43.3;43.6;17;17.1;25.1;0.0;
03/03/2025 12:05:57;100;0;166.11;-4;-20.51;-3.06;297.3;17.00;76560;2836.237;-1758.385;1;160;-110;-103.2;43.3;43.6;19;19.4;25.1;0.0;
03/03/2025 12:06:17;100;0;166.06;-4;-20.88;-1.89;299.9;16.90;76551;2836.235;-1758.385;1;160;-110;-103.2;43.3;43.7;19;19.4;25.1;0.0;
03/03/2025 12:06:37;100;0;165.90;-4;-20.95;-1.85;302.6;16.90;76545;2836.233;-1758.385;1;160;-110;-101.6;43.3;43.6;19;19.4;25.2;0.0;
03/03/2025 12:06:57;100;0;166.29;-4;-20.89;-1.93;305.3;16.90;76545;2836.231;-1758.385;1;160;-110;-103.2;43.3;43.6;19;19.4;25.1;0.0;
03/03/2025 12:07:17;100;0;166.32;-4;-21.18;-1.86;308.0;16.80;76537;2836.228;-1758.385;1;160;-110;-101.6;43.3;43.6;19;19.4;25.1;0.0;
03/03/2025 12:07:37;100;0;166.81;-4;-20.56;-1.81;310.6;16.80;76536;2836.226;-1758.385;1;160;-110;-103.2;43.3;43.7;19;19.4;25.2;0.0;
03/03/2025 12:07:57;100;0;165.73;-4;-20.44;-1.87;313.2;16.80;76530;2836.224;-1758.384;1;160;-110;-103.2;43.3;43.6;19;19.4;25.1;0.0;
03/03/2025 12:08:17;100;0;166.15;-4;-20.25;-1.87;315.7;16.70;76536;2836.222;-1758.384;1;160;-110;-101.6;43.3;43.7;19;19.4;25.2;0.0;
03/03/2025 12:08:37;100;0;165.35;-4;-21.07;-1.61;318.4;16.70;76521;2836.220;-1758.384;1;160;-110;-103.2;43.3;43.6;19;19.4;25.2;0.0;
03/03/2025 12:08:57;100;0;166.11;-4;-20.44;-1.88;320.7;16.70;76514;2836.218;-1758.384;1;160;-110;-103.2;43.3;43.6;19;19.4;25.1;0.0;
03/03/2025 12:09:17;100;0;168.16;-4;-19.43;-2.00;323.1;16.60;76509;2836.216;-1758.384;1;160;-110;-100.0;43.3;43.6;21;21.2;25.1;0.0;
03/03/2025 12:09:37;100;0;167.96;-4;-21.50;-0.86;325.3;16.60;76510;2836.215;-1758.384;1;160;-110;-103.2;43.3;43.6;21;21.7;25.2;0.0;
03/03/2025 12:09:57;100;0;168.39;-4;-20.79;-0.86;327.7;16.50;76491;2836.213;-1758.384;1;160;-110;-104.8;43.3;43.7;21;21.7;25.2;0.0;
03/03/2025 12:10:17;100;0;170.70;-4;-20.18;-1.03;330.1;16.50;76488;2836.211;-1758.385;1;160;-110;-100.0;43.3;43.6;25;24.8;25.1;0.0;
03/03/2025 12:10:37;100;0;171.95;-4;-21.04;1.00;332.4;16.50;76480;2836.209;-1758.385;1;160;-110;-101.6;43.3;43.6;27;27.1;25.2;0.0;
03/03/2025 12:10:57;100;0;167.20;-4;-21.21;1.99;334.9;16.40;76468;2836.207;-1758.385;1;160;-110;-101.6;43.3;43.7;20;19.9;25.2;0.0;
03/03/2025 12:11:17;100;0;164.43;-4;-20.97;-1.81;337.0;16.40;76450;2836.206;-1758.385;1;160;-110;-103.2;43.3;43.6;20;19.9;25.1;0.0;
03/03/2025 12:11:37;100;0;160.67;-4;-21.38;-1.88;339.3;16.40;76438;2836.204;-1758.385;1;160;-110;-103.2;43.3;43.6;16;15.3;25.1;0.0;
03/03/2025 12:11:57;100;0;156.93;-4;-20.93;-4.25;341.5;16.30;76437;2836.202;-1758.384;1;160;-110;-103.2;43.3;43.6;16;15.3;25.1;0.0;
03/03/2025 12:12:17;100;0;154.01;-4;-20.89;-4.13;343.9;16.30;76425;2836.201;-1758.383;1;160;-110;-103.2;43.3;43.6;16;14.9;25.2;0.0;
03/03/2025 12:12:37;100;0;149.35;-4;-20.47;-4.18;346.1;16.30;76423;2836.199;-1758.383;1;160;-110;-104.8;43.3;43.6;16;15.3;25.1;0.0;
03/03/2025 12:12:57;100;0;147.66;-4;-20.46;-3.98;348.4;16.20;76416;2836.198;-1758.382;1;160;-110;-103.2;43.3;43.6;14;14.0;25.2;0.0;
03/03/2025 12:13:17;100;0;146.41;-4;-20.34;-4.84;350.3;16.20;76410;2836.197;-1758.381;1;160;-130;-132.3;43.3;43.6;14;14.0;25.1;0.0;
03/03/2025 12:13:37;100;0;144.96;-4;-19.75;-4.71;352.7;16.20;76485;2836.196;-1758.380;1;160;-130;-132.3;43.3;43.6;12;12.2;25.1;0.0;
03/03/2025 12:13:57;100;0;143.81;-4;-19.87;-5.69;355.1;16.10;76468;2836.194;-1758.378;1;160;-130;-132.3;43.3;43.7;12;11.7;25.1;0.0;
03/03/2025 12:14:17;100;0;143.52;-4;-19.79;-5.66;357.4;16.10;76468;2836.193;-1758.377;1;160;-130;-133.9;43.3;43.6;12;11.7;25.1;0.0;
03/03/2025 12:14:37;100;0;143.90;-4;-19.78;-5.61;359.8;16.10;76460;2836.191;-1758.376;1;160;-130;-133.9;43.3;43.6;12;11.7;25.2;0.0;
03/03/2025 12:14:57;100;0;143.65;-4;-19.90;-5.64;362.2;16.00;76453;2836.190;-1758.374;1;160;-130;-132.3;43.3;43.6;12;11.7;25.1;0.0;
03/03/2025 12:15:17;100;0;143.19;-4;-19.88;-5.65;364.6;16.00;76452;2836.189;-1758.373;1;160;-130;-132.3;43.3;43.6;10;9.9;25.1;0.0;
03/03/2025 12:15:37;100;0;142.15;-4;-19.81;-6.78;366.8;16.00;76456;2836.187;-1758.372;1;160;-130;-132.3;43.3;43.6;10;9.5;25.2;0.0;
03/03/2025 12:15:57;100;0;142.25;-4;-19.57;-6.74;369.3;15.90;76446;2836.186;-1758.370;1;160;-130;-132.3;43.3;43.6;10;9.5;25.2;0.0;
03/03/2025 12:16:17;100;0;141.31;-4;-19.93;-6.78;371.6;15.90;76445;2836.185;-1758.369;1;160;-130;-133.9;43.3;43.6;10;9.5;25.1;0.0;
03/03/2025 12:16:37;100;0;141.99;-4;-19.93;-6.57;373.9;15.90;76436;2836.183;-1758.368;1;160;-130;-135.5;43.3;43.6;10;9.9;25.1;0.0;
03/03/2025 12:16:57;100;0;142.76;-4;-19.77;-6.53;376.2;15.80;76432;2836.182;-1758.367;1;160;-130;-133.9;43.3;43.6;10;9.9;25.2;0.0;
03/03/2025 12:17:17;100;0;142.57;-4;-19.92;-6.89;378.7;15.80;76428;2836.181;-1758.365;1;160;-130;-132.3;43.3;43.7;10;9.5;25.2;0.0;
03/03/2025 12:17:37;100;0;142.97;-4;-19.71;-6.70;380.9;15.80;76410;2836.179;-1758.364;1;160;-130;-133.9;43.3;43.6;10;9.9;25.1;0.0;
03/03/2025 12:17:57;100;0;139.93;-4;-20.01;-6.62;383.2;15.80;76418;2836.178;-1758.363;1;160;-130;-133.9;43.3;43.6;6;5.9;25.1;0.0;
03/03/2025 12:18:17;100;0;143.15;-4;-19.34;-8.76;385.6;15.70;76404;2836.177;-1758.361;1;160;-130;-133.9;43.3;43.6;10;9.9;25.1;0.0;
03/03/2025 12:18:37;100;0;144.69;-4;-19.49;-6.29;387.7;15.70;76402;2836.175;-1758.360;1;160;-130;-132.3;43.3;43.6;12;12.2;25.2;0.0;
03/03/2025 12:18:57;100;0;145.65;-4;-19.59;-5.08;389.8;15.60;76398;2836.174;-1758.359;1;160;-130;-132.3;43.3;43.6;12;12.6;25.1;0.0;
03/03/2025 12:19:17;100;0;147.07;-4;-19.50;-5.29;391.9;15.60;76391;2836.173;-1758.358;1;160;-130;-133.9;43.3;43.6;12;12.6;25.2;0.0;
03/03/2025 12:19:37;100;0;148.49;-4;-19.70;-5.25;394.0;15.60;76382;2836.172;-1758.357;1;160;-130;-132.3;43.3;43.7;14;14.0;25.1;0.0;
03/03/2025 12:19:57;100;0;148.22;-4;-19.73;-4.29;396.0;15.60;76372;2836.171;-1758.357;1;160;-150;-151.6;43.3;43.6;14;14.4;25.1;0.0;
03/03/2025 12:20:17;100;0;146.79;-4;-19.36;-4.18;398.3;15.50;76422;2836.169;-1758.356;1;160;-150;-151.6;43.3;43.7;14;14.4;25.1;0.0;
03/03/2025 12:20:37;100;0;148.79;-4;-19.51;-4.21;400.5;15.50;76406;2836.168;-1758.355;1;160;-150;-153.2;43.3;43.6;14;14.4;25.1;0.0;
03/03/2025 12:20:57;100;0;151.42;-4;-19.56;-4.22;402.7;15.50;76401;2836.166;-1758.354;1;160;-150;-153.2;43.3;43.6;14;14.4;25.2;0.0;
03/03/2025 12:21:17;100;0;153.90;-4;-19.52;-4.17;404.9;15.40;76392;2836.165;-1758.353;1;160;-150;-151.6;43.3;43.6;14;14.4;25.2;0.0;
03/03/2025 12:21:37;100;0;155.07;-4;-19.41;-4.19;407.0;15.40;76387;2836.163;-1758.353;1;160;-150;-151.6;43.3;43.6;14;14.4;25.1;0.0;
03/03/2025 12:21:58;100;0;158.62;-4;-19.35;-4.11;409.4;15.40;76389;2836.161;-1758.352;1;160;-150;-151.6;43.3;43.6;14;14.4;25.2;0.0;
03/03/2025 12:22:18;100;0;161.27;-4;-19.37;-4.21;411.5;15.40;76379;2836.160;-1758.352;1;160;-150;-154.8;43.3;43.6;16;15.8;25.2;0.0;
03/03/2025 12:22:38;100;0;155.90;-4;-19.65;-3.33;413.8;15.30;76367;2836.158;-1758.351;1;160;-150;-151.6;43.3;43.6;14;14.0;25.2;0.0;
03/03/2025 12:22:58;100;0;155.40;-4;-19.71;-4.63;416.1;15.30;76363;2836.157;-1758.351;1;160;-150;-151.6;43.3;43.6;14;13.5;25.1;0.0;
03/03/2025 12:23:18;100;0;157.64;-4;-19.11;-4.51;418.2;15.30;76356;2836.155;-1758.350;1;160;-150;-151.6;43.3;43.7;14;13.5;25.2;0.0;
03/03/2025 12:23:38;100;0;163.66;-4;-18.50;-4.75;420.4;15.20;76352;2836.153;-1758.350;1;160;-150;-151.6;43.8;43.6;17;17.6;25.1;0.0;
03/03/2025 12:23:58;100;0;164.19;-4;-19.36;-2.35;422.5;15.20;76332;2836.152;-1758.350;1;160;-150;-153.2;43.8;43.6;17;17.6;25.1;0.0;
03/03/2025 12:24:18;100;0;165.98;-4;-20.81;-2.80;424.6;15.20;76338;2836.150;-1758.350;1;160;-150;-154.8;43.8;43.7;20;19.9;25.2;0.0;
03/03/2025 12:24:38;100;0;163.40;-4;-20.66;-1.15;426.6;15.10;76326;2836.149;-1758.350;1;160;-150;-153.2;43.8;43.6;17;17.1;25.1;0.0;
03/03/2025 12:24:58;100;0;161.45;-4;-19.84;-3.17;428.9;15.10;76319;2836.147;-1758.350;1;160;-150;-151.6;43.8;43.6;17;16.7;25.2;0.0;
03/03/2025 12:25:18;100;0;161.42;-4;-21.11;-3.06;431.2;15.10;76317;2836.145;-1758.349;1;160;-150;-153.2;43.8;43.6;17;16.7;25.1;0.0;
03/03/2025 12:25:38;100;0;162.00;-4;-19.31;-3.04;433.6;15.10;76322;2836.143;-1758.349;1;160;-150;-153.2;43.8;43.6;17;17.1;25.1;0.0;
03/03/2025 12:25:58;100;0;163.78;-4;-19.91;-3.18;436.0;15.00;76306;2836.142;-1758.349;1;160;-150;-153.2;43.8;43.6;17;17.1;25.2;0.0;
03/03/2025 12:26:18;100;0;164.70;-4;-20.32;-2.91;438.1;15.00;76305;2836.140;-1758.349;1;160;-150;-153.2;43.8;43.7;17;16.7;25.2;0.0;
03/03/2025 12:26:38;100;0;164.64;-4;-20.38;-3.00;440.7;15.00;76290;2836.138;-1758.349;1;160;-150;-153.2;43.8;43.6;17;17.1;25.2;0.0;
03/03/2025 12:26:58;100;0;164.77;-4;-19.92;-2.99;443.3;14.90;76288;2836.136;-1758.348;1;160;-150;-153.2;43.8;43.6;17;16.7;25.2;0.0;
03/03/2025 12:27:18;100;0;163.93;-4;-20.10;-3.05;445.8;14.90;76289;2836.134;-1758.348;1;160;-150;-153.2;43.8;43.6;17;17.1;25.2;0.0;
03/03/2025 12:27:38;100;0;162.89;-4;-19.80;-2.99;448.5;14.90;76274;2836.131;-1758.348;1;160;-150;-153.2;43.8;43.6;17;17.1;25.2;0.0;
03/03/2025 12:27:58;100;0;162.61;-4;-19.65;-3.04;451.2;14.90;76285;2836.129;-1758.347;1;160;-150;-153.2;43.8;43.7;17;17.1;25.2;0.0;
03/03/2025 12:28:18;100;0;160.61;-4;-19.50;-3.11;453.5;14.80;76274;2836.127;-1758.347;1;160;-150;-153.2;43.8;43.6;17;16.7;25.2;0.0;
03/03/2025 12:28:38;100;0;159.39;-4;-19.78;-3.00;455.9;14.80;76259;2836.126;-1758.347;1;160;-150;-151.6;43.8;43.6;15;14.9;25.2;0.0;
03/03/2025 12:28:58;100;0;158.05;-4;-19.61;-4.17;458.6;14.80;76254;2836.123;-1758.346;1;160;-150;-153.2;43.8;43.6;15;14.4;25.1;0.0;
03/03/2025 12:29:18;100;0;155.91;-4;-19.52;-4.28;461.3;14.80;76252;2836.121;-1758.345;1;160;-150;-153.2;43.8;43.6;15;14.4;25.1;0.0;
03/03/2025 12:29:38;100;0;154.05;-4;-18.85;-4.15;463.8;14.70;76248;2836.119;-1758.344;1;160;-150;-154.8;44.1;44.3;15;14.4;25.2;0.0;
03/03/2025 12:29:58;100;0;154.42;-4;-21.20;-4.12;466.6;14.70;76237;2836.117;-1758.343;1;160;-150;-153.2;44.1;44.5;15;14.4;25.2;0.0;
03/03/2025 12:30:18;100;0;151.38;-4;-20.91;-4.31;469.6;14.70;76238;2836.115;-1758.342;1;160;-150;-153.2;44.1;44.5;15;14.4;25.1;0.0;
03/03/2025 12:30:38;100;0;151.50;-4;-21.31;-4.04;472.4;14.60;76232;2836.113;-1758.341;1;160;-150;-151.6;44.1;44.5;15;14.4;25.2;0.0;
03/03/2025 12:30:58;100;0;150.66;-4;-20.92;-4.01;475.6;14.60;76237;2836.111;-1758.340;1;160;-150;-153.2;44.1;44.5;15;14.4;25.2;0.0;
03/03/2025 12:31:18;100;0;147.59;-4;-21.15;-4.25;478.5;14.60;76227;2836.109;-1758.338;1;160;-150;-151.6;44.1;44.5;15;14.4;25.1;0.0;
03/03/2025 12:31:38;100;0;143.61;-4;-21.26;-4.07;481.5;14.60;76224;2836.107;-1758.336;1;160;-150;-153.2;44.1;44.5;9;9.0;25.1;0.0;
03/03/2025 12:31:58;100;0;144.55;-4;-21.01;-6.96;484.4;14.60;76227;2836.105;-1758.335;1;160;-150;-151.6;44.1;44.5;11;10.8;25.1;0.0;
03/03/2025 12:32:18;100;0;144.19;-4;-21.17;-5.20;487.4;14.50;76212;2836.103;-1758.333;1;160;-150;-151.6;44.1;44.6;11;11.3;25.1;0.0;
03/03/2025 12:32:38;100;0;140.10;-4;-21.11;-5.71;490.7;14.50;76208;2836.101;-1758.331;1;160;-150;-151.6;44.1;44.5;5;5.0;25.1;0.0;
03/03/2025 12:32:58;100;0;147.49;-4;-21.11;-8.97;493.6;14.50;76206;2836.099;-1758.329;1;160;-150;-153.2;44.1;44.5;13;13.5;25.2;0.0;
03/03/2025 12:33:18;100;0;151.96;-4;-20.97;-4.45;496.8;14.40;76194;2836.096;-1758.328;1;160;-150;-153.2;44.1;44.6;13;14.0;25.2;0.0;
03/03/2025 12:33:38;100;0;156.79;-4;-21.72;-4.65;500.0;14.40;76184;2836.094;-1758.327;1;160;-150;-153.2;44.1;44.5;15;15.3;25.2;0.0;
03/03/2025 12:33:58;100;0;158.22;-4;-21.41;-3.71;503.0;14.40;76177;2836.092;-1758.326;1;160;-150;-153.2;44.1;44.6;15;15.3;25.1;0.0;
03/03/2025 12:34:18;100;0;163.03;-4;-21.43;-3.51;506.1;14.40;76174;2836.089;-1758.326;1;160;-150;-153.2;44.1;44.5;15;15.3;25.1;0.0;
03/03/2025 12:34:38;100;0;164.85;-4;-21.37;-3.52;509.1;14.40;76181;2836.086;-1758.326;1;160;-150;-153.2;44.1;44.5;17;17.1;25.1;0.0;
03/03/2025 12:34:58;100;0;161.98;-4;-21.37;-2.47;512.0;14.30;76166;2836.084;-1758.325;1;160;-150;-153.2;44.1;44.5;17;17.6;25.1;0.0;
03/03/2025 12:35:18;100;0;155.12;-4;-21.22;-2.47;515.0;14.30;76164;2836.082;-1758.324;1;160;-150;-153.2;44.1;44.5;15;14.9;25.1;0.0;
03/03/2025 12:35:38;100;0;147.82;-4;-21.15;-4.09;517.6;14.30;76150;2836.080;-1758.323;1;160;-150;-151.6;44.1;44.6;15;14.9;25.1;0.0;
03/03/2025 12:35:58;100;0;147.39;-4;-21.15;-4.04;520.2;14.30;76155;2836.078;-1758.322;1;160;-150;-154.8;44.1;44.6;13;13.1;25.1;0.0;
03/03/2025 12:36:18;100;0;147.46;-4;-21.29;-5.00;522.9;14.20;76146;2836.077;-1758.320;1;160;-150;-153.2;44.1;44.6;13;12.6;25.2;0.0;
03/03/2025 12:36:38;100;0;144.98;-4;-21.72;-4.98;525.6;14.20;76137;2836.075;-1758.319;1;160;-150;-153.2;44.1;44.6;13;12.6;25.1;0.0;
03/03/2025 12:36:58;100;0;149.30;-4;-20.28;-5.01;528.2;14.20;76139;2836.073;-1758.318;1;160;-150;-151.6;44.1;44.5;13;13.1;25.2;0.0;
03/03/2025 12:37:18;100;0;150.41;-4;-20.94;-5.03;530.7;14.10;76134;2836.072;-1758.317;1;160;-150;-153.2;44.1;44.5;13;12.6;25.2;0.0;
03/03/2025 12:37:38;100;0;151.67;-4;-20.88;-4.94;533.2;14.10;76130;2836.070;-1758.316;1;160;-150;-151.6;44.1;44.5;13;12.6;25.2;0.0;
03/03/2025 12:37:58;100;0;151.30;-4;-21.45;-4.64;535.6;14.10;76136;2836.068;-1758.315;1;160;-150;-153.2;44.1;44.5;13;12.6;25.1;0.0;
03/03/2025 12:38:18;100;0;150.01;-4;-20.72;-4.97;538.2;14.10;76118;2836.067;-1758.314;1;160;-150;-154.8;44.1;44.6;13;13.1;25.1;0.0;
03/03/2025 12:38:38;100;0;147.83;-4;-21.19;-5.09;540.8;14.10;76127;2836.065;-1758.313;1;160;-150;-153.2;44.1;44.6;13;13.1;25.2;0.0;
03/03/2025 12:38:58;100;0;144.54;-4;-22.51;-5.14;543.8;14.00;76112;2836.063;-1758.312;1;160;-150;-153.2;43.4;43.3;11;10.4;25.1;0.0;
03/03/2025 12:39:18;100;0;143.96;-4;-19.88;-6.13;546.8;14.00;76104;2836.061;-1758.310;1;160;-150;-153.2;43.4;43.2;9;8.6;25.1;0.0;
03/03/2025 12:39:38;100;0;146.78;-4;-19.01;-7.22;549.7;14.00;76097;2836.059;-1758.308;1;160;-150;-153.2;43.4;43.2;12;12.2;25.2;0.0;
03/03/2025 12:39:58;100;0;148.23;-4;-17.99;-5.02;552.6;14.00;76093;2836.057;-1758.306;1;160;-150;-153.2;44.0;44.2;12;12.6;25.1;0.0;
03/03/2025 12:40:18;100;0;150.44;-4;-19.44;-4.78;555.1;13.90;76095;2836.055;-1758.305;1;160;-150;-154.8;44.0;44.3;14;14.0;25.1;0.0;
03/03/2025 12:40:38;100;0;149.60;-4;-20.61;-4.26;557.7;13.90;76084;2836.053;-1758.304;1;160;-150;-153.2;44.0;44.3;14;14.4;25.2;0.0;
03/03/2025 12:40:58;100;0;149.00;-4;-21.00;-4.27;560.5;13.90;76088;2836.051;-1758.303;1;160;-150;-154.8;44.0;44.3;14;14.4;25.2;0.0;
03/03/2025 12:41:18;100;0;147.28;-4;-21.08;-4.30;563.5;13.90;76090;2836.049;-1758.302;1;160;-150;-153.2;44.0;44.3;12;12.2;25.1;0.0;
03/03/2025 12:41:38;100;0;146.81;-4;-20.51;-5.44;566.5;13.80;76074;2836.047;-1758.300;1;160;-150;-151.6;44.0;44.3;12;11.7;25.1;0.0;
03/03/2025 12:41:58;100;0;147.95;-4;-20.18;-5.15;569.6;13.80;76077;2836.045;-1758.298;1;160;-150;-153.2;44.0;44.3;12;11.7;25.2;0.0;
03/03/2025 12:42:18;100;0;149.50;-4;-20.09;-5.64;572.9;13.80;76070;2836.042;-1758.297;1;160;-150;-151.6;44.0;44.3;12;12.2;25.1;0.0;
03/03/2025 12:42:38;100;0;150.17;-4;-19.49;-5.48;575.7;13.80;76069;2836.040;-1758.295;1;160;-150;-153.2;44.0;44.3;12;11.7;25.1;0.0;
03/03/2025 12:42:58;100;0;154.64;-4;-19.82;-5.56;578.5;13.80;76067;2836.038;-1758.294;1;160;-150;-153.2;44.0;44.3;14;14.0;25.1;0.0;
03/03/2025 12:43:18;100;0;157.70;-4;-19.91;-4.20;581.4;13.70;76065;2836.035;-1758.294;1;160;-150;-153.2;44.0;44.3;14;14.4;25.1;0.0;
03/03/2025 12:43:38;100;0;159.20;-4;-21.10;-4.05;584.2;13.70;76061;2836.033;-1758.293;1;160;-150;-151.6;44.0;44.5;14;14.4;25.1;0.0;
03/03/2025 12:43:58;100;0;160.66;-4;-20.58;-4.24;587.1;13.70;76048;2836.031;-1758.292;1;160;-150;-153.2;44.0;44.5;14;14.4;25.1;0.0;
03/03/2025 12:44:18;100;0;161.09;-4;-20.77;-4.13;590.0;13.70;76037;2836.029;-1758.292;1;160;-150;-151.6;44.0;44.3;14;14.4;25.1;0.0;
03/03/2025 12:44:38;100;0;163.48;-4;-20.93;-4.08;593.2;13.70;76052;2836.026;-1758.291;1;160;-150;-153.2;44.0;44.3;16;15.8;25.1;0.0;
03/03/2025 12:44:58;100;0;166.78;-4;-20.53;-3.26;596.3;13.60;76044;2836.023;-1758.291;1;160;-150;-151.6;44.0;44.3;18;18.1;25.1;0.0;
03/03/2025 12:45:18;100;0;167.41;-4;-20.66;-2.28;599.5;13.60;76040;2836.020;-1758.291;1;160;-150;-153.2;44.0;44.5;18;18.5;25.2;0.0;
03/03/2025 12:45:38;100;0;166.50;-4;-20.99;-2.19;602.7;13.60;76034;2836.018;-1758.291;1;160;-150;-153.2;44.0;44.3;18;18.1;25.1;0.0;
03/03/2025 12:45:58;100;0;166.18;-4;-20.99;-2.31;605.9;13.60;76022;2836.015;-1758.290;1;160;-150;-151.6;44.0;44.3;18;18.5;25.1;0.0;
03/03/2025 12:46:18;100;0;166.35;-4;-21.30;-2.15;609.3;13.50;76029;2836.012;-1758.290;1;160;-150;-151.6;44.0;44.3;18;18.1;25.2;0.0;
03/03/2025 12:46:38;100;0;164.43;-4;-21.23;-2.23;612.6;13.50;76024;2836.009;-1758.290;1;160;-150;-153.2;44.0;44.3;16;15.8;25.2;0.0;
03/03/2025 12:46:58;100;0;160.65;-4;-20.77;-3.68;616.1;13.50;76018;2836.006;-1758.289;1;160;-150;-153.2;44.0;44.3;16;15.3;25.1;0.0;
03/03/2025 12:47:18;100;0;159.07;-4;-20.86;-3.66;619.6;13.50;76013;2836.003;-1758.288;1;160;-150;-151.6;44.0;44.5;16;15.3;25.1;0.0;
03/03/2025 12:47:38;100;0;158.30;-4;-20.84;-3.61;623.2;13.50;76007;2836.000;-1758.287;1;160;-150;-151.6;44.0;44.5;16;15.3;25.1;0.0;
03/03/2025 12:47:58;100;0;155.47;-4;-20.31;-3.79;626.6;13.40;76007;2835.997;-1758.285;1;160;-150;-153.2;44.0;44.5;16;15.3;25.1;0.0;
03/03/2025 12:48:18;100;0;154.41;-4;-20.32;-3.82;630.0;13.40;76000;2835.994;-1758.284;1;160;-150;-151.6;44.0;44.3;16;15.3;25.1;0.0;
03/03/2025 12:48:38;100;0;153.87;-4;-20.30;-3.77;633.5;13.40;75993;2835.991;-1758.282;1;160;-150;-151.6;44.0;44.3;14;14.0;25.1;0.0;
03/03/2025 12:48:58;100;0;153.38;-4;-20.74;-4.49;636.7;13.40;75976;2835.988;-1758.281;1;160;-150;-154.8;44.0;44.3;14;14.0;25.1;0.0;
03/03/2025 12:49:18;100;0;153.56;-4;-20.05;-4.52;640.0;13.40;75988;2835.986;-1758.280;1;160;-150;-153.2;44.0;44.3;14;14.0;25.1;0.0;
03/03/2025 12:49:38;100;0;151.81;-4;-20.41;-4.57;643.2;13.30;75983;2835.983;-1758.278;1;160;-150;-153.2;44.0;44.5;14;14.0;25.2;0.0;
03/03/2025 12:49:58;100;0;151.25;-4;-20.26;-4.54;646.4;13.30;75978;2835.981;-1758.277;1;160;-150;-151.6;44.0;44.3;14;14.0;25.1;0.0;
03/03/2025 12:50:18;100;0;151.91;-4;-20.31;-4.53;649.5;13.30;75980;2835.978;-1758.276;1;160;-150;-151.6;44.0;44.3;14;14.0;25.1;0.0;
03/03/2025 12:50:38;100;0;152.41;-4;-20.68;-4.60;652.4;13.30;75980;2835.976;-1758.274;1;160;-150;-153.2;44.0;44.3;14;14.0;25.1;0.0;
03/03/2025 12:50:58;100;0;151.94;-4;-19.86;-4.60;655.3;13.30;75973;2835.974;-1758.273;1;160;-150;-153.2;44.0;44.3;14;13.5;25.1;0.0;
03/03/2025 12:51:18;100;0;152.18;-4;-20.27;-4.65;658.0;13.20;75960;2835.972;-1758.272;1;160;-150;-153.2;44.0;44.3;14;14.0;25.2;0.0;
03/03/2025 12:51:38;100;0;153.92;-4;-20.13;-4.64;660.9;13.20;75960;2835.970;-1758.271;1;160;-150;-153.2;44.0;44.3;14;14.0;25.1;0.0;
03/03/2025 12:51:58;100;0;152.45;-4;-19.41;-4.43;663.4;13.20;75952;2835.968;-1758.270;1;160;-150;-151.6;44.0;44.3;14;14.0;25.2;0.0;
03/03/2025 12:52:18;100;0;154.10;-4;-20.57;-4.57;665.9;13.20;75952;2835.966;-1758.269;1;160;-150;-153.2;44.0;44.3;14;13.5;25.1;0.0;
03/03/2025 12:52:38;100;0;152.63;-4;-21.69;-4.53;668.6;13.20;75950;2835.964;-1758.268;1;160;-150;-153.2;44.0;44.3;14;14.0;25.1;0.0;
03/03/2025 12:52:58;100;0;150.37;-4;-20.02;-4.43;671.7;13.10;75943;2835.962;-1758.267;1;160;-150;-151.6;44.0;44.3;14;14.0;25.1;0.0;
03/03/2025 12:53:18;100;0;152.37;-4;-20.84;-5.04;674.8;13.10;75941;2835.959;-1758.266;1;160;-150;-153.2;44.0;44.3;14;14.0;25.1;0.0;
03/03/2025 12:53:38;100;0;156.70;-4;-20.53;-4.34;678.0;13.10;75937;2835.957;-1758.265;1;160;-150;-153.2;44.0;44.3;14;14.0;25.1;0.0;
03/03/2025 12:53:58;100;0;155.96;-4;-20.35;-4.56;680.6;13.10;75924;2835.955;-1758.264;1;160;-150;-153.2;44.0;44.5;14;14.0;25.1;0.0;
03/03/2025 12:54:18;100;0;155.31;-4;-20.24;-4.63;683.6;13.00;75922;2835.952;-1758.263;1;160;-150;-153.2;44.0;44.5;14;14.0;25.1;0.0;
03/03/2025 12:54:38;100;0;156.26;-4;-20.14;-4.52;686.6;13.00;75923;2835.950;-1758.262;1;160;-150;-153.2;44.0;44.3;14;14.0;25.1;0.0;
03/03/2025 12:54:58;100;0;156.89;-4;-20.65;-4.59;690.0;13.00;75915;2835.947;-1758.261;1;160;-150;-153.2;44.0;44.3;14;14.0;25.1;0.0;
03/03/2025 12:55:18;100;0;156.71;-4;-19.40;-4.60;693.3;13.00;75903;2835.944;-1758.260;1;160;-150;-153.2;44.0;44.3;14;14.0;25.1;0.0;
03/03/2025 12:55:38;100;0;156.38;-4;-20.19;-4.50;696.1;13.00;75901;2835.942;-1758.259;1;160;-150;-153.2;44.0;44.3;14;14.0;25.1;0.0;
03/03/2025 12:55:58;100;0;154.47;-4;-20.57;-4.49;699.3;13.00;75891;2835.939;-1758.258;1;160;-150;-151.6;44.0;44.5;14;14.0;25.2;0.0;
03/03/2025 12:56:18;100;0;151.58;-4;-20.05;-4.52;702.7;12.90;75882;2835.937;-1758.256;1;160;-150;-153.2;44.0;44.5;14;14.0;25.1;0.0;
03/03/2025 12:56:39;100;0;151.39;-4;-19.70;-4.73;706.2;12.90;75864;2835.934;-1758.254;1;160;-150;-151.6;44.0;44.3;14;14.0;25.1;0.0;
03/03/2025 12:56:59;100;0;151.42;-4;-20.11;-4.55;709.3;12.90;75873;2835.931;-1758.253;1;160;-150;-151.6;44.0;44.5;14;14.0;25.2;0.0;
03/03/2025 12:57:19;100;0;151.14;-4;-19.82;-4.49;712.4;12.90;75854;2835.929;-1758.252;1;160;-150;-151.6;44.0;44.5;14;14.0;25.2;0.0;
03/03/2025 12:57:39;100;0;150.36;-4;-20.22;-4.67;715.5;12.80;75858;2835.926;-1758.250;1;160;-150;-151.6;44.0;44.3;14;13.5;25.1;0.0;
03/03/2025 12:57:59;100;0;149.79;-4;-20.15;-4.56;718.3;12.80;75854;2835.924;-1758.249;1;160;-150;-153.2;44.0;44.3;14;14.0;25.1;0.0;
03/03/2025 12:58:19;100;0;150.61;-4;-20.53;-4.64;721.4;12.80;75830;2835.922;-1758.247;1;160;-150;-153.2;44.0;44.3;14;14.0;25.1;0.0;
03/03/2025 12:58:39;100;0;151.16;-4;-20.40;-4.62;724.5;12.80;75836;2835.920;-1758.246;1;160;-150;-153.2;44.0;44.3;14;14.0;25.1;0.0;
03/03/2025 12:58:59;100;0;150.61;-4;-20.21;-4.55;727.5;12.70;75821;2835.917;-1758.245;1;160;-150;-151.6;44.0;44.3;14;14.0;25.2;0.0;
03/03/2025 12:59:19;100;0;157.32;-4;-21.01;-3.90;730.7;12.70;75825;2835.915;-1758.244;1;160;-150;-153.2;44.0;44.3;14;14.0;25.1;0.0;
03/03/2025 12:59:39;100;0;161.68;-4;-17.80;-4.52;733.6;12.70;75805;2835.912;-1758.243;1;160;-150;-153.2;44.6;44.6;14;14.0;25.2;0.0;
03/03/2025 12:59:59;100;0;163.41;-4;-20.37;-4.80;736.1;12.70;75791;2835.910;-1758.243;1;160;-150;-151.6;44.6;44.9;16;15.8;25.2;0.0;
03/03/2025 13:00:19;100;0;161.27;-4;-22.38;-3.48;738.6;12.60;75788;2835.908;-1758.242;1;160;-150;-153.2;43.9;43.9;16;16.2;25.1;0.0;
03/03/2025 13:00:39;100;0;157.62;-4;-18.07;-3.25;741.6;12.60;75772;2835.905;-1758.241;1;160;-150;-153.2;44.5;44.6;14;14.4;25.1;0.0;
03/03/2025 13:00:59;100;0;156.99;-4;-22.06;-4.52;744.6;12.60;75773;2835.903;-1758.241;1;160;-150;-153.2;43.9;43.9;14;14.0;25.1;0.0;
03/03/2025 13:01:19;100;0;159.90;-4;-18.87;-4.39;747.6;12.50;75771;2835.900;-1758.240;1;160;-150;-153.2;44.2;44.2;14;14.0;25.2;0.0;
03/03/2025 13:01:39;100;0;160.41;-4;-19.10;-4.44;750.6;12.50;75764;2835.898;-1758.239;1;160;-150;-153.2;44.2;44.3;14;14.0;25.2;0.0;
03/03/2025 13:01:59;100;0;162.50;-4;-19.16;-4.29;753.5;12.50;75749;2835.895;-1758.239;1;160;-150;-151.6;44.2;44.3;14;14.0;25.1;0.0;
03/03/2025 13:02:19;100;0;163.60;-4;-20.52;-4.65;756.6;12.50;75741;2835.892;-1758.238;1;160;-150;-153.2;44.2;44.3;16;15.8;25.2;0.0;
03/03/2025 13:02:39;100;0;164.57;-4;-19.24;-3.02;760.0;12.40;75739;2835.889;-1758.237;1;160;-150;-153.2;44.2;44.3;16;16.2;25.1;0.0;
03/03/2025 13:02:59;100;0;166.92;-4;-20.26;-3.26;763.3;12.40;75722;2835.886;-1758.237;1;160;-150;-151.6;44.2;44.2;18;18.5;25.1;0.0;
03/03/2025 13:03:19;100;0;164.36;-4;-19.98;-1.93;766.5;12.40;75723;2835.883;-1758.237;1;160;-150;-151.6;44.2;44.3;16;15.8;25.1;0.0;
03/03/2025 13:03:39;100;0;161.78;-4;-21.46;-3.87;769.7;12.40;75716;2835.881;-1758.236;1;160;-150;-153.2;44.2;44.3;16;15.3;25.2;0.0;
03/03/2025 13:03:59;100;0;161.96;-4;-19.63;-3.76;772.9;12.30;75719;2835.878;-1758.235;1;160;-150;-151.6;44.2;44.3;16;15.3;25.1;0.0;
03/03/2025 13:04:19;100;0;161.67;-4;-19.73;-3.81;776.0;12.30;75709;2835.875;-1758.235;1;160;-150;-153.2;44.2;44.3;16;15.3;25.1;0.0;
03/03/2025 13:04:39;100;0;161.60;-4;-20.29;-3.79;779.1;12.30;75703;2835.872;-1758.234;1;160;-150;-151.6;44.2;44.3;16;15.3;25.1;0.0;
03/03/2025 13:04:59;100;0;161.68;-4;-19.75;-3.68;782.4;12.30;75696;2835.869;-1758.233;1;160;-150;-153.2;44.2;44.3;16;15.3;25.1;0.0;
03/03/2025 13:05:19;100;0;160.17;-4;-19.47;-3.90;785.5;12.30;75696;2835.866;-1758.233;1;160;-150;-153.2;44.2;44.5;16;15.3;25.1;0.0;
03/03/2025 13:05:39;100;0;159.90;-4;-19.31;-3.77;788.5;12.20;75682;2835.864;-1758.232;1;160;-150;-153.2;44.2;44.3;16;15.3;25.1;0.0;
03/03/2025 13:05:59;100;0;157.71;-4;-19.75;-3.75;791.5;12.20;75674;2835.861;-1758.231;1;160;-150;-153.2;44.2;44.3;16;15.3;25.1;0.0;
03/03/2025 13:06:19;100;0;158.47;-4;-18.66;-3.76;794.3;12.20;75667;2835.859;-1758.230;1;160;-150;-153.2;44.6;44.6;16;15.3;25.2;0.0;
03/03/2025 13:06:39;100;0;156.53;-4;-19.38;-3.70;797.1;12.10;75666;2835.856;-1758.229;1;160;-150;-153.2;44.6;44.8;16;15.3;25.2;0.0;
03/03/2025 13:06:59;100;0;156.24;-4;-20.75;-3.91;799.8;12.10;75653;2835.854;-1758.228;1;160;-150;-153.2;44.6;44.9;16;15.3;25.2;0.0;
03/03/2025 13:07:19;100;0;155.55;-4;-20.27;-3.84;802.4;12.10;75649;2835.852;-1758.228;1;160;-150;-153.2;44.6;44.9;16;15.3;25.1;0.0;
03/03/2025 13:07:39;100;0;153.25;-4;-20.76;-3.85;805.0;12.10;75643;2835.851;-1758.227;1;160;-150;-151.6;44.6;44.8;16;15.3;25.1;0.0;
03/03/2025 13:07:59;100;0;153.35;-4;-20.52;-3.82;807.5;12.00;75644;2835.849;-1758.226;1;160;-150;-151.6;44.6;44.8;16;15.3;25.1;0.0;
03/03/2025 13:08:19;100;0;152.37;-4;-21.08;-3.96;810.3;12.00;75639;2835.847;-1758.225;1;160;-150;-153.2;44.6;44.8;16;15.3;25.1;0.0;
03/03/2025 13:08:39;100;0;149.91;-4;-21.30;-3.73;813.2;12.00;75636;2835.845;-1758.224;1;160;-150;-153.2;44.6;44.8;14;14.0;25.1;0.0;
03/03/2025 13:08:59;100;0;148.00;-4;-20.39;-4.52;816.1;11.90;75627;2835.843;-1758.222;1;160;-150;-151.6;44.6;44.8;14;14.0;25.1;0.0;
03/03/2025 13:09:19;100;0;151.57;-4;-20.51;-4.28;818.8;11.90;75622;2835.841;-1758.221;1;160;-150;-153.2;44.6;44.9;14;14.0;25.1;0.0;
03/03/2025 13:09:39;100;0;152.74;-4;-20.68;-4.16;822.1;11.90;75615;2835.838;-1758.220;1;160;-150;-151.6;44.6;44.8;14;14.0;25.1;0.0;
03/03/2025 13:09:59;100;0;155.44;-4;-21.92;-4.46;825.0;11.90;75605;2835.836;-1758.219;1;160;-150;-151.6;44.6;44.9;14;14.0;25.1;0.0;
03/03/2025 13:10:19;100;0;156.33;-4;-20.60;-4.66;828.0;11.90;75619;2835.834;-1758.218;1;160;-150;-153.2;44.6;44.9;14;14.0;25.2;0.0;
03/03/2025 13:10:39;100;0;158.25;-4;-20.16;-4.32;830.9;11.80;75601;2835.831;-1758.217;1;160;-150;-153.2;44.6;44.9;14;14.0;25.1;0.0;
03/03/2025 13:10:59;100;0;160.87;-4;-20.05;-4.52;833.7;11.80;75600;2835.829;-1758.217;1;160;-150;-153.2;44.6;44.8;14;14.0;25.1;0.0;
03/03/2025 13:11:19;100;0;162.54;-4;-19.71;-4.30;836.5;11.80;75598;2835.827;-1758.216;1;160;-150;-153.2;44.6;44.8;16;15.8;25.1;0.0;
03/03/2025 13:11:39;100;0;162.96;-4;-20.40;-3.52;839.1;11.80;75594;2835.825;-1758.216;1;160;-150;-151.6;44.6;44.9;16;15.8;25.1;0.0;
03/03/2025 13:11:59;100;0;161.03;-4;-20.10;-3.77;841.5;11.70;75581;2835.823;-1758.216;1;160;-150;-153.2;44.6;44.8;16;16.2;25.1;0.0;
03/03/2025 13:12:19;100;0;163.72;-4;-20.31;-3.49;844.1;11.70;75577;2835.821;-1758.215;1;160;-150;-151.6;44.6;44.8;16;16.2;25.2;0.0;
03/03/2025 13:12:39;100;0;163.47;-4;-20.64;-3.52;846.6;11.70;75575;2835.819;-1758.215;1;160;-150;-153.2;44.6;44.8;16;15.8;25.1;0.0;
03/03/2025 13:12:59;100;0;162.47;-4;-20.73;-3.46;849.3;11.70;75565;2835.817;-1758.215;1;160;-150;-153.2;44.6;44.9;16;16.2;25.2;0.0;
03/03/2025 13:13:19;100;0;161.89;-4;-20.99;-3.30;852.1;11.60;75567;2835.814;-1758.214;1;160;-150;-151.6;44.6;44.9;16;16.2;25.1;0.0;
03/03/2025 13:13:39;100;0;161.87;-4;-19.94;-3.24;855.1;11.60;75551;2835.812;-1758.214;1;160;-150;-153.2;44.6;44.8;16;16.2;25.1;0.0;
03/03/2025 13:13:59;100;0;160.84;-4;-20.77;-3.56;857.7;11.60;75552;2835.810;-1758.213;1;160;-150;-153.2;44.6;44.9;16;16.2;25.1;0.0;
03/03/2025 13:14:19;100;0;160.32;-4;-20.94;-3.60;860.5;11.60;75546;2835.808;-1758.213;1;160;-150;-151.6;44.6;44.9;16;16.2;25.1;0.0;
03/03/2025 13:14:39;100;0;157.87;-4;-20.22;-3.17;862.9;11.50;75544;2835.806;-1758.212;1;160;-150;-153.2;44.6;44.8;16;16.2;25.2;0.0;
03/03/2025 13:14:59;100;0;157.06;-4;-19.72;-3.60;865.3;11.50;75544;2835.804;-1758.212;1;160;-150;-151.6;44.6;44.9;16;16.2;25.1;0.0;
03/03/2025 13:15:19;100;0;155.99;-4;-20.22;-3.49;867.6;11.50;75527;2835.802;-1758.211;1;160;-150;-153.2;44.6;44.8;16;16.2;25.1;0.0;
03/03/2025 13:15:39;100;0;154.76;-4;-20.03;-3.65;870.0;11.50;75533;2835.801;-1758.210;1;160;-150;-151.6;44.6;44.9;16;16.2;25.1;0.0;
03/03/2025 13:15:59;100;0;157.30;-4;-20.78;-3.43;872.3;11.40;75523;2835.799;-1758.210;1;160;-150;-151.6;44.6;44.9;16;16.2;25.2;0.0;
03/03/2025 13:16:19;100;0;157.94;-4;-20.44;-3.34;874.8;11.40;75514;2835.797;-1758.209;1;160;-150;-153.2;44.6;44.8;16;16.2;25.2;0.0;
03/03/2025 13:16:39;100;0;157.43;-4;-20.49;-3.50;877.2;11.40;75521;2835.795;-1758.209;1;160;-150;-151.6;44.6;44.8;16;16.2;25.1;0.0;
03/03/2025 13:16:59;100;0;156.78;-4;-20.23;-3.49;879.7;11.40;75506;2835.793;-1758.208;1;160;-150;-151.6;44.6;44.8;16;15.8;25.1;0.0;
03/03/2025 13:17:19;100;0;156.73;-4;-20.69;-3.51;882.0;11.40;75514;2835.792;-1758.207;1;160;-150;-153.2;44.6;44.8;16;16.2;25.1;0.0;
03/03/2025 13:17:39;100;0;154.72;-4;-20.51;-3.47;884.3;11.30;75497;2835.790;-1758.207;1;160;-150;-153.2;44.6;44.9;16;16.2;25.2;0.0;
03/03/2025 13:17:59;100;0;155.14;-4;-18.56;-3.67;886.6;11.30;75503;2835.789;-1758.206;1;160;-150;-153.2;45.1;45.2;16;16.2;25.1;0.0;
03/03/2025 13:18:19;100;0;155.29;-4;-21.46;-3.65;888.8;11.30;75491;2835.787;-1758.206;1;160;-150;-153.2;45.1;45.4;16;16.2;25.1;0.0;
03/03/2025 13:18:39;100;0;151.55;-4;-22.13;-3.11;891.2;11.30;75492;2835.786;-1758.205;1;160;-150;-153.2;44.4;44.5;16;16.2;25.2;0.0;
03/03/2025 13:18:59;100;0;149.28;-4;-21.27;-3.47;893.7;11.20;75487;2835.784;-1758.204;1;160;-150;-153.2;44.4;44.3;14;14.0;25.2;0.0;
03/03/2025 13:19:19;100;0;146.24;-4;-19.32;-4.50;895.9;11.20;75485;2835.783;-1758.203;1;160;-150;-151.6;44.4;44.3;14;14.0;25.1;0.0;
03/03/2025 13:19:39;100;0;141.65;-4;-20.47;-4.64;897.8;11.20;75474;2835.782;-1758.202;1;160;-170;-171.0;44.4;44.3;10;9.9;25.1;0.0;
03/03/2025 13:19:59;100;0;142.13;-4;-20.61;-6.23;900.5;11.20;75521;2835.780;-1758.200;1;160;-170;-172.6;44.4;44.3;10;9.9;25.2;0.0;
03/03/2025 13:20:19;100;0;146.26;-4;-19.82;-6.47;903.4;11.10;75499;2835.778;-1758.199;1;160;-170;-172.6;44.4;44.3;12;12.2;25.1;0.0;
03/03/2025 13:20:39;100;0;151.72;-4;-17.81;-5.03;906.4;11.10;75509;2835.776;-1758.197;1;160;-170;-172.6;45.1;45.1;14;14.4;25.1;0.0;
03/03/2025 13:20:59;100;0;149.24;-4;-21.90;-4.74;909.3;11.10;75503;2835.774;-1758.196;1;160;-170;-172.6;45.1;45.2;14;14.4;25.1;0.0;
03/03/2025 13:21:19;100;0;147.22;-4;-21.45;-4.26;912.8;11.10;75486;2835.771;-1758.194;1;160;-170;-174.2;45.1;45.4;12;12.2;25.1;0.0;
03/03/2025 13:21:39;100;0;148.58;-4;-20.91;-5.15;915.8;11.10;75494;2835.769;-1758.193;1;160;-170;-174.2;45.1;45.4;12;12.2;25.1;0.0;
03/03/2025 13:21:59;100;0;148.41;-4;-21.15;-4.57;918.9;11.00;75474;2835.767;-1758.191;1;160;-170;-174.2;45.1;45.4;12;12.2;25.1;43.8;
03/03/2025 13:22:19;100;0;149.09;-4;-23.41;-5.50;921.9;11.00;75482;2835.765;-1758.190;1;160;-170;-174.2;44.0;44.0;14;14.4;25.1;40.4;
03/03/2025 13:22:39;100;0;150.31;-4;-15.15;-4.00;924.9;11.00;75476;2835.762;-1758.188;1;160;-170;-172.6;45.5;45.7;14;14.4;25.1;37.1;
03/03/2025 13:22:59;100;0;146.63;-4;-20.80;-4.24;927.0;11.00;75469;2835.761;-1758.187;1;160;-170;-172.6;45.5;45.8;14;14.4;25.1;35.0;
03/03/2025 13:23:19;100;0;147.20;-4;-22.71;-4.20;929.7;11.00;75467;2835.759;-1758.186;1;160;-170;-172.6;44.7;44.6;14;14.4;25.1;32.0;
03/03/2025 13:23:25;118;0;147.35;-4;-22.85;-4.39;930.7;11.00;75467;2835.759;-1758.186;1;160;450;-171.0;22.5;22.4;8;8.1;25.1;31.2;
03/03/2025 13:23:35;118;0;117.43;-4;-8.78;-8.20;932.1;10.90;75443;2835.758;-1758.183;1;160;450;-43.5;22.5;22.2;8;8.1;23.8;-1.0;
03/03/2025 13:23:45;118;0;102.18;-4;17.63;-7.88;932.1;10.90;75170;2835.758;-1758.184;1;160;450;80.6;22.5;22.5;8;8.1;23.8;-1.0;
03/03/2025 13:23:55;118;0;97.91;-4;27.82;-8.25;931.2;10.90;74925;2835.759;-1758.183;1;160;450;204.8;22.5;22.8;8;8.1;23.6;-1.0;
03/03/2025 13:24:05;118;0;97.88;-4;26.95;-8.41;930.1;11.00;74688;2835.759;-1758.182;1;160;450;325.8;22.5;22.8;8;8.1;23.9;-1.0;
03/03/2025 13:24:15;118;0;97.41;-4;24.77;-8.09;928.4;11.00;74433;2835.760;-1758.181;1;160;450;440.3;22.5;22.7;8;7.7;23.8;-1.0;
03/03/2025 13:24:25;118;0;98.23;-4;22.24;-7.10;927.0;11.00;74193;2835.760;-1758.179;1;160;450;451.6;22.5;22.8;8;8.1;23.7;-1.0;
03/03/2025 13:24:35;118;0;141.49;-4;19.25;-7.26;925.1;11.00;74167;2835.758;-1758.178;1;160;450;451.6;22.5;22.7;8;8.1;25.1;-1.0;
03/03/2025 13:24:55;117;0;140.34;-4;17.27;-7.29;922.8;11.00;74181;2835.757;-1758.176;1;160;450;450.0;22.5;22.8;8;8.1;25.1;-1.0;
03/03/2025 13:25:15;117;0;132.46;-4;17.14;-6.21;919.6;11.10;74171;2835.755;-1758.173;1;160;450;451.6;21.6;21.4;53;53.2;25.1;-1.0;
03/03/2025 13:25:35;117;0;134.96;-4;21.15;16.47;916.4;11.10;74164;2835.753;-1758.171;1;160;450;451.6;21.6;21.8;48;47.8;25.1;-1.0;
03/03/2025 13:25:55;117;0;143.85;-4;23.74;13.30;912.2;11.10;74164;2835.751;-1758.168;1;160;450;453.2;22.8;23.0;36;36.1;25.1;-1.0;
03/03/2025 13:26:15;117;0;144.05;-4;18.80;7.72;907.8;11.00;74157;2835.747;-1758.165;1;160;450;451.6;22.4;22.2;36;36.1;25.1;-1.0;
03/03/2025 13:26:35;117;0;144.71;-4;20.08;7.32;904.4;11.00;74146;2835.744;-1758.163;1;160;450;451.6;22.4;22.4;34;33.8;25.1;-1.0;
03/03/2025 13:26:55;117;0;150.63;-4;20.03;5.83;901.3;11.00;74147;2835.742;-1758.162;1;160;450;451.6;22.4;22.5;30;29.8;25.1;-1.0;
03/03/2025 13:27:15;117;0;153.12;-4;20.91;4.16;898.4;11.00;74150;2835.740;-1758.161;1;160;450;451.6;22.4;22.5;30;29.3;25.1;-1.0;
03/03/2025 13:27:35;117;0;154.81;-4;19.04;4.30;894.9;11.00;74155;2835.737;-1758.159;1;160;450;451.6;22.4;22.5;30;29.3;25.1;-1.0;
03/03/2025 13:27:55;117;0;154.83;-4;19.53;4.91;892.1;11.00;74148;2835.734;-1758.158;1;160;450;453.2;22.4;22.5;30;29.3;25.1;-1.0;
03/03/2025 13:28:15;117;0;149.97;-4;21.37;3.99;888.2;11.00;74151;2835.731;-1758.156;1;160;450;451.6;22.4;22.5;30;29.3;25.1;-1.0;
03/03/2025 13:28:35;117;0;149.91;-4;20.93;4.30;884.3;10.90;74160;2835.728;-1758.154;1;160;450;453.2;22.4;22.5;30;29.3;25.1;-1.0;
03/03/2025 13:28:55;117;0;149.16;-4;21.18;4.32;880.3;10.90;74152;2835.725;-1758.152;1;160;450;451.6;22.4;22.5;32;32.0;25.1;-1.0;
03/03/2025 13:29:15;117;0;151.49;-4;20.15;5.68;876.0;10.90;74144;2835.721;-1758.150;1;160;450;450.0;22.4;22.5;32;32.5;25.1;-1.0;
03/03/2025 13:29:35;117;0;152.62;-4;19.87;5.32;872.1;10.90;74130;2835.718;-1758.148;1;160;450;451.6;22.4;22.5;30;29.3;25.1;-1.0;
03/03/2025 13:29:56;117;0;153.20;-4;19.78;3.61;868.2;10.90;74128;2835.714;-1758.146;1;160;450;451.6;22.4;22.5;30;29.3;25.1;-1.0;
03/03/2025 13:30:16;117;0;153.01;-4;19.71;3.68;864.8;10.80;74130;2835.712;-1758.145;1;160;450;453.2;22.4;22.5;30;29.3;25.1;-1.0;
03/03/2025 13:30:36;117;0;154.53;-4;20.19;3.52;860.9;10.80;74134;2835.708;-1758.143;1;160;450;451.6;22.4;22.5;30;29.3;25.1;-1.0;
03/03/2025 13:30:56;117;0;153.22;-4;19.83;3.54;857.2;10.80;74134;2835.705;-1758.142;1;160;450;450.0;22.4;22.7;30;29.3;25.1;-1.0;
03/03/2025 13:31:16;117;0;152.92;-4;19.45;4.19;853.5;10.80;74133;2835.702;-1758.140;1;160;450;453.2;22.4;22.5;30;29.3;25.1;-1.0;
03/03/2025 13:31:36;117;0;152.51;-4;19.32;3.78;850.1;10.80;74133;2835.699;-1758.138;1;160;450;451.6;22.4;22.5;30;29.3;25.1;-1.0;
03/03/2025 13:31:56;117;0;152.68;-4;19.32;3.61;847.1;10.80;74118;2835.696;-1758.137;1;160;450;451.6;22.4;22.5;30;29.3;25.1;-1.0;
03/03/2025 13:32:16;117;0;152.08;-4;19.53;3.66;843.9;10.80;74126;2835.694;-1758.136;1;160;450;453.2;22.4;22.5;30;29.3;25.1;-1.0;
03/03/2025 13:32:36;117;0;152.18;-4;19.62;3.75;840.9;10.70;74121;2835.691;-1758.134;1;160;450;451.6;22.4;22.5;30;29.3;25.1;-1.0;
03/03/2025 13:32:56;117;0;152.70;-4;20.28;3.55;837.8;10.70;74128;2835.689;-1758.133;1;160;450;453.2;22.4;22.5;30;29.3;25.1;-1.0;
03/03/2025 13:33:16;117;0;154.63;-4;20.82;3.69;834.6;10.70;74131;2835.686;-1758.132;1;160;450;451.6;22.4;22.5;30;29.3;25.1;-1.0;
03/03/2025 13:33:36;117;0;155.17;-4;20.12;3.70;831.2;10.70;74131;2835.683;-1758.130;1;160;450;453.2;22.4;22.5;30;29.3;25.1;-1.0;
03/03/2025 13:33:56;117;0;153.97;-4;19.88;3.91;827.6;10.70;74124;2835.680;-1758.129;1;160;450;453.2;22.4;22.5;30;29.3;25.1;-1.0;
03/03/2025 13:34:16;117;0;155.10;-4;20.61;3.75;824.1;10.70;74130;2835.677;-1758.128;1;160;450;451.6;22.4;22.7;30;29.3;25.1;-1.0;
03/03/2025 13:34:36;117;0;156.25;-4;19.39;3.84;820.4;10.70;74119;2835.674;-1758.126;1;160;450;453.2;22.4;22.5;30;29.3;25.1;-1.0;
03/03/2025 13:34:56;117;0;156.88;-4;20.26;3.81;816.7;10.70;74110;2835.671;-1758.125;1;160;450;453.2;22.4;22.5;30;29.3;25.2;-1.0;
03/03/2025 13:35:16;117;0;157.14;-4;19.77;3.64;812.8;10.70;74112;2835.667;-1758.123;1;160;450;451.6;22.4;22.5;30;29.3;25.1;-1.0;
03/03/2025 13:35:36;117;0;157.89;-4;20.31;3.83;809.1;10.60;74117;2835.664;-1758.122;1;160;450;453.2;22.4;22.5;30;29.3;25.1;-1.0;
03/03/2025 13:35:56;117;0;158.73;-4;20.05;3.66;805.3;10.60;74108;2835.660;-1758.121;1;160;450;453.2;22.4;22.5;30;29.3;25.1;-1.0;
03/03/2025 13:36:16;117;0;159.29;-4;20.31;3.56;801.2;10.60;74114;2835.656;-1758.120;1;160;450;453.2;22.4;22.5;30;29.3;25.1;-1.0;
03/03/2025 13:36:36;117;0;160.21;-4;19.85;3.69;797.4;10.60;74103;2835.653;-1758.118;1;160;450;453.2;22.4;22.5;30;29.3;25.1;-1.0;
03/03/2025 13:36:56;117;0;161.26;-4;19.80;3.80;793.5;10.60;74101;2835.649;-1758.117;1;160;450;453.2;22.4;22.5;30;29.3;25.1;-1.0;
03/03/2025 13:37:16;117;0;162.64;-4;19.99;3.92;789.7;10.60;74102;2835.646;-1758.117;1;160;450;453.2;22.4;22.5;30;29.3;25.1;-1.0;
03/03/2025 13:37:36;117;0;163.41;-4;20.10;3.47;785.9;10.60;74096;2835.642;-1758.116;1;160;450;450.0;22.4;22.5;30;29.3;25.1;-1.0;
03/03/2025 13:37:56;117;0;164.21;-4;20.12;3.28;782.0;10.60;74100;2835.638;-1758.115;1;160;450;451.6;22.4;22.5;30;29.3;25.1;-1.0;
03/03/2025 13:38:16;117;0;165.53;-4;20.24;3.67;778.2;10.60;74100;2835.634;-1758.114;1;160;450;453.2;22.4;22.5;28;28.0;25.1;-1.0;
03/03/2025 13:38:36;117;0;165.38;-4;19.69;2.82;774.3;10.60;74103;2835.631;-1758.114;1;160;450;451.6;22.4;22.5;28;27.5;25.1;-1.0;
03/03/2025 13:38:56;117;0;165.31;-4;19.46;2.79;770.7;10.60;74098;2835.627;-1758.113;1;160;450;453.2;22.4;22.5;28;27.5;25.1;-1.0;
03/03/2025 13:39:16;117;0;165.10;-4;20.09;2.99;767.2;10.50;74097;2835.624;-1758.113;1;160;450;453.2;22.4;22.5;28;27.5;25.1;-1.0;
03/03/2025 13:39:36;117;0;163.92;-4;19.72;3.12;763.6;10.60;74120;2835.620;-1758.112;1;160;450;451.6;22.4;22.5;28;27.5;25.1;-1.0;
03/03/2025 13:39:56;117;0;164.08;-4;20.16;3.11;760.1;10.60;74120;2835.617;-1758.111;1;160;450;453.2;22.4;22.5;28;27.5;25.1;-1.0;
03/03/2025 13:40:16;117;0;162.70;-4;18.84;2.92;756.6;10.60;74126;2835.614;-1758.110;1;160;450;453.2;22.1;22.1;28;27.5;25.1;-1.0;
03/03/2025 13:40:36;117;0;162.10;-4;19.35;2.89;753.3;10.60;74130;2835.611;-1758.110;1;160;450;453.2;22.1;22.1;28;27.5;25.1;-1.0;
03/03/2025 13:40:56;117;0;161.87;-4;19.80;2.79;750.1;10.60;74130;2835.608;-1758.109;1;160;450;451.6;22.1;22.1;28;27.5;25.1;-1.0;
03/03/2025 13:41:16;117;0;162.20;-4;19.97;2.85;746.7;10.60;74135;2835.605;-1758.108;1;160;450;453.2;22.1;22.1;28;27.5;25.1;-1.0;
03/03/2025 13:41:36;117;0;161.87;-4;20.02;2.74;743.3;10.60;74137;2835.602;-1758.108;1;160;450;453.2;22.1;22.1;28;27.5;25.1;-1.0;
03/03/2025 13:41:56;117;0;161.16;-4;19.78;2.90;739.8;10.60;74146;2835.598;-1758.107;1;160;450;453.2;22.1;22.1;28;27.5;25.1;-1.0;
03/03/2025 13:42:16;117;0;160.82;-4;19.88;2.85;736.3;10.60;74140;2835.595;-1758.106;1;160;450;453.2;22.1;22.1;28;27.5;25.1;-1.0;
03/03/2025 13:42:36;117;0;160.29;-4;19.92;2.75;732.8;10.50;74138;2835.592;-1758.105;1;160;450;453.2;22.1;21.9;30;29.8;25.1;-1.0;
03/03/2025 13:42:56;117;0;161.26;-4;20.46;4.08;729.1;10.60;74139;2835.589;-1758.104;1;160;450;454.8;22.1;21.9;30;30.2;25.1;-1.0;
03/03/2025 13:43:16;117;0;160.52;-4;19.25;4.12;725.2;10.60;74149;2835.585;-1758.103;1;160;450;453.2;22.1;21.9;30;30.2;25.1;-1.0;
03/03/2025 13:43:36;117;0;159.74;-4;19.90;3.98;721.5;10.60;74137;2835.581;-1758.102;1;160;450;453.2;22.1;21.9;30;30.2;25.1;-1.0;
03/03/2025 13:43:56;117;0;160.73;-4;20.64;4.28;718.0;10.60;74143;2835.578;-1758.101;1;160;450;453.2;22.1;21.9;30;30.2;25.1;-1.0;
03/03/2025 13:44:16;117;0;160.24;-4;20.21;3.79;714.3;10.60;74137;2835.575;-1758.100;1;160;450;453.2;22.1;21.9;30;30.2;25.1;-1.0;
03/03/2025 13:44:36;117;0;161.07;-4;20.47;4.07;710.4;10.60;74143;2835.571;-1758.099;1;160;450;453.2;22.1;21.9;30;30.2;25.1;-1.0;
03/03/2025 13:44:56;117;0;160.69;-4;20.22;4.28;706.7;10.60;74145;2835.568;-1758.098;1;160;450;453.2;22.1;21.9;30;29.8;25.1;-1.0;
03/03/2025 13:45:16;117;0;160.00;-4;20.33;4.40;702.9;10.60;74151;2835.564;-1758.096;1;160;450;453.2;22.1;22.1;30;30.2;25.1;-1.0;
03/03/2025 13:45:36;117;0;159.30;-4;20.19;4.28;699.0;10.60;74151;2835.561;-1758.095;1;160;450;453.2;22.1;21.9;30;29.8;25.1;-1.0;
03/03/2025 13:45:56;117;0;161.44;-4;21.12;4.25;695.2;10.60;74151;2835.557;-1758.094;1;160;450;454.8;22.1;21.9;30;30.2;25.1;-1.0;
03/03/2025 13:46:16;117;0;160.09;-4;20.13;3.58;691.2;10.60;74147;2835.553;-1758.093;1;160;450;453.2;22.1;21.9;30;30.2;25.1;-1.0;
03/03/2025 13:46:36;117;0;160.09;-4;20.25;3.88;687.3;10.60;74152;2835.550;-1758.092;1;160;450;453.2;22.1;21.9;30;30.2;25.1;-1.0;
03/03/2025 13:46:56;117;0;160.79;-4;20.23;4.16;683.3;10.60;74155;2835.546;-1758.091;1;160;450;453.2;22.1;21.9;30;30.2;25.1;-1.0;
03/03/2025 13:47:16;117;0;161.49;-4;20.26;4.02;679.3;10.60;74153;2835.542;-1758.090;1;160;450;454.8;22.1;21.9;30;29.8;25.1;-1.0;
03/03/2025 13:47:36;117;0;162.18;-4;20.33;4.07;675.4;10.60;74141;2835.539;-1758.089;1;160;450;453.2;22.1;21.9;30;29.8;25.1;-1.0;
03/03/2025 13:47:56;117;0;163.40;-4;20.26;4.09;671.3;10.60;74163;2835.535;-1758.088;1;160;450;453.2;22.1;21.9;30;30.2;25.1;-1.0;
03/03/2025 13:48:16;117;0;164.50;-4;19.85;4.13;667.6;10.60;74154;2835.531;-1758.087;1;160;450;453.2;22.1;21.9;28;28.0;25.1;-1.0;
03/03/2025 13:48:36;117;0;164.53;-4;19.92;2.70;663.8;10.60;74155;2835.527;-1758.086;1;160;450;453.2;22.1;21.9;28;27.5;25.1;-1.0;
03/03/2025 13:48:56;117;0;164.48;-4;20.06;2.68;660.1;10.60;74159;2835.524;-1758.086;1;160;450;453.2;22.1;21.9;28;27.5;25.1;-1.0;
03/03/2025 13:49:16;117;0;164.33;-4;19.91;2.79;656.3;10.60;74162;2835.520;-1758.085;1;160;450;453.2;22.1;21.9;28;27.5;25.1;-1.0;
03/03/2025 13:49:36;117;0;164.59;-4;20.21;2.70;652.7;10.60;74157;2835.517;-1758.084;1;160;450;453.2;22.1;21.9;28;27.5;25.1;-1.0;
03/03/2025 13:49:56;117;0;164.90;-4;19.93;2.83;648.9;10.60;74159;2835.513;-1758.084;1;160;450;450.0;22.1;21.8;28;27.5;25.1;-1.0;
03/03/2025 13:50:16;117;0;165.43;-4;20.26;2.73;645.0;10.60;74148;2835.509;-1758.083;1;160;450;454.8;22.1;21.9;28;27.5;25.1;-1.0;
03/03/2025 13:50:36;117;0;165.45;-4;20.10;2.82;641.3;10.60;74155;2835.506;-1758.082;1;160;450;453.2;22.1;21.8;28;27.5;25.1;-1.0;
03/03/2025 13:50:56;117;0;165.29;-4;19.95;2.68;637.5;10.60;74155;2835.502;-1758.082;1;160;450;453.2;22.1;21.9;28;27.5;25.1;-1.0;
03/03/2025 13:51:16;117;0;164.93;-4;19.96;2.82;633.5;10.60;74164;2835.498;-1758.081;1;160;450;453.2;22.1;21.9;28;27.5;25.1;-1.0;
03/03/2025 13:51:36;117;0;162.92;-4;19.94;2.86;629.6;10.70;74176;2835.494;-1758.080;1;160;450;453.2;22.1;21.9;28;27.5;25.1;-1.0;
03/03/2025 13:51:56;117;0;160.81;-4;19.82;2.91;625.9;10.70;74169;2835.491;-1758.079;1;160;450;453.2;22.1;21.9;28;28.0;25.1;-1.0;
03/03/2025 13:52:16;117;0;159.62;-4;20.03;2.83;622.0;10.70;74190;2835.487;-1758.078;1;160;450;454.8;22.1;21.8;28;27.5;25.1;-1.0;
03/03/2025 13:52:36;117;0;158.14;-4;19.78;2.77;618.3;10.70;74192;2835.484;-1758.077;1;160;450;453.2;22.1;21.9;28;27.5;25.1;-1.0;
03/03/2025 13:52:56;117;0;156.99;-4;19.74;2.84;614.6;10.70;74194;2835.481;-1758.075;1;160;450;453.2;22.1;21.9;28;27.5;25.1;-1.0;
03/03/2025 13:53:16;117;0;155.63;-4;19.79;2.77;610.6;10.70;74188;2835.477;-1758.074;1;160;450;454.8;22.1;21.9;28;27.5;25.1;-1.0;
