Timestamp;NavState;SecurityLevel;Heading;Declination;Pitch;Roll;Depth;Temperature;Pa;Lat;Lon;DeadReckoning;DesiredH;BallastCmd;BallastPos;LinCmd;LinPos;AngCmd;AngPos;Voltage;Altitude;
14/02/2025 10:37:16;119;0;349.05;-4;-59.77;-11.50;0.3;18.00;75854;2837.225;-1758.746;0;114;500;509.7;100.0;100.6;0;-0.5;28.6;-1.0;
14/02/2025 10:37:26;116;0;339.94;-4;-57.44;-14.71;0.2;18.00;75861;2837.229;-1758.754;0;114;500;508.1;100.0;100.7;0;-0.5;28.6;-1.0;
14/02/2025 10:37:55;116;0;312.82;-4;-54.72;-13.24;0.2;18.10;75862;2837.232;-1758.758;0;115;500;508.1;100.0;100.7;0;-0.5;28.6;-1.0;
14/02/2025 10:38:14;116;0;324.78;-4;-55.30;-9.13;0.3;18.10;75877;2837.232;-1758.758;0;-9999;500;508.1;100.0;100.6;0;-0.5;28.6;-1.0;
14/02/2025 10:38:34;116;0;332.95;-4;-55.50;-9.31;0.2;18.20;75872;2837.229;-1758.765;0;115;500;509.7;100.0;100.7;0;-0.5;28.6;-1.0;
14/02/2025 10:38:54;116;0;337.54;-4;-53.80;-11.87;0.3;18.20;75884;2837.232;-1758.766;0;114;500;509.7;100.0;100.7;0;-0.5;28.6;-1.0;
14/02/2025 10:39:57;116;0;342.30;-4;-55.78;-17.69;0.4;18.40;75900;2837.237;-1758.771;0;114;500;509.7;100.0;100.7;0;-0.5;28.6;-1.0;
14/02/2025 10:40:21;116;0;338.13;-4;-53.34;-21.16;0.3;18.50;75916;2837.241;-1758.774;0;-9999;500;508.1;100.0;100.7;0;-0.5;28.6;-1.0;
14/02/2025 10:40:32;116;0;332.02;-4;-52.42;-11.82;0.2;18.50;75914;2837.243;-1758.774;0;115;500;509.7;100.0;100.6;0;-0.5;28.5;-1.0;
14/02/2025 10:41:35;116;0;336.55;-4;-56.39;-17.53;0.3;18.70;75933;2837.252;-1758.778;0;115;500;508.1;100.0;100.7;0;-0.5;28.6;-1.0;
14/02/2025 10:42:48;116;0;329.79;-4;-55.23;-11.00;0.3;19.00;75960;2837.263;-1758.783;0;116;500;509.7;100.0;100.7;0;-0.5;28.6;-1.0;
14/02/2025 10:43:08;116;0;339.21;-4;-53.26;-14.20;0.3;19.10;75968;2837.264;-1758.784;0;117;500;508.1;100.0;100.7;0;-0.5;28.6;-1.0;
14/02/2025 10:43:28;116;0;341.76;-4;-52.32;-14.94;0.2;19.20;75973;2837.266;-1758.784;0;117;500;506.5;100.0;100.7;0;-0.5;28.6;-1.0;
14/02/2025 10:43:49;116;0;332.56;-4;-53.56;-14.59;0.2;19.30;75972;2837.270;-1758.786;0;118;500;508.1;100.0;100.7;0;-0.5;28.6;-1.0;
14/02/2025 10:44:00;116;0;318.57;-4;-58.85;-15.48;0.2;19.30;75973;2837.272;-1758.786;0;118;500;508.1;100.0;100.7;0;-0.5;28.6;-1.0;
14/02/2025 10:44:20;110;0;314.57;-4;-54.46;-15.03;0.0;19.40;75985;2837.272;-1758.786;0;118;-100;396.8;100.0;99.7;-9;-9.5;28.6;-1.0;
14/02/2025 10:44:30;110;0;306.37;-4;-53.56;-19.35;0.2;19.40;76326;2837.272;-1758.786;1;118;-100;246.8;100.0;99.7;-9;-9.9;28.6;-1.0;
14/02/2025 10:44:40;110;0;315.68;-4;-57.13;-18.99;0.7;19.50;76580;2837.272;-1758.787;1;118;-100;88.7;100.0;99.7;-9;-9.9;28.6;-1.0;
14/02/2025 10:44:50;110;0;322.63;-4;-65.55;-18.28;1.0;19.50;76895;2837.272;-1758.787;1;118;-100;-72.6;100.0;99.7;-9;-9.9;28.6;-1.0;
14/02/2025 10:45:00;110;0;322.36;-4;-69.22;-26.00;1.3;19.60;77257;2837.272;-1758.787;1;118;-100;-96.8;44.2;44.9;-9;-9.9;28.6;-1.0;
14/02/2025 10:45:10;110;0;329.20;-4;-49.68;-15.93;2.9;19.60;77246;2837.273;-1758.787;1;118;-100;-98.4;44.2;44.0;-9;-9.9;28.6;-1.0;
14/02/2025 10:45:30;100;0;346.88;-4;-24.14;-16.59;6.9;19.70;77262;2837.278;-1758.789;1;119;-100;-91.9;44.2;43.7;-9;-9.9;28.6;-1.0;
14/02/2025 10:45:50;100;0;354.96;-4;-21.28;-16.63;10.5;19.70;77257;2837.282;-1758.789;1;119;-100;-91.9;44.2;44.3;-70;-69.9;28.6;-1.0;
14/02/2025 10:46:10;100;0;4.93;-4;-19.25;-45.03;13.7;19.70;77262;2837.287;-1758.789;1;120;-100;-88.7;44.2;44.3;-70;-69.9;28.6;0.0;
14/02/2025 10:46:30;100;0;16.76;-4;-19.92;-45.58;16.8;19.80;77273;2837.291;-1758.788;1;120;-100;-88.7;44.2;44.3;-70;-69.9;28.6;0.0;
14/02/2025 10:46:50;100;0;29.26;-4;-19.26;-45.52;19.9;19.80;77264;2837.294;-1758.786;1;121;-100;-88.7;44.2;44.3;-70;-69.9;28.6;0.0;
14/02/2025 10:47:10;100;0;43.03;-4;-19.13;-45.58;22.9;19.80;77279;2837.298;-1758.783;1;121;-100;-90.3;44.2;44.3;-70;-69.9;28.6;0.0;
14/02/2025 10:47:30;100;0;54.98;-4;-19.77;-45.46;26.0;19.90;77283;2837.300;-1758.779;1;122;-100;-88.7;44.2;44.3;-67;-66.8;28.6;0.0;
14/02/2025 10:47:50;100;0;68.49;-4;-19.47;-43.26;29.0;19.90;77288;2837.302;-1758.775;1;122;-100;-90.3;44.2;44.5;-51;-51.0;28.6;0.0;
14/02/2025 10:48:10;100;0;81.21;-4;-19.69;-35.67;32.1;19.90;77288;2837.302;-1758.771;1;123;-100;-90.3;44.2;44.5;-37;-37.0;28.6;0.0;
14/02/2025 10:48:30;100;0;93.37;-4;-19.60;-28.70;35.1;19.90;77293;2837.302;-1758.767;1;123;-100;-88.7;44.2;44.5;-20;-19.9;28.6;0.0;
14/02/2025 10:48:50;100;0;102.49;-4;-20.28;-20.23;38.2;19.90;77303;2837.302;-1758.762;1;123;-100;-90.3;44.2;44.6;-5;-5.0;28.6;0.0;
14/02/2025 10:49:10;100;0;107.87;-4;-20.84;-13.55;41.4;19.90;77300;2837.301;-1758.758;1;123;-100;-90.3;44.2;44.6;4;4.1;28.6;0.0;
14/02/2025 10:49:30;100;0;110.29;-4;-21.64;-9.33;44.6;19.90;77301;2837.299;-1758.754;1;124;-100;-90.3;44.2;44.5;6;5.9;28.6;0.0;
14/02/2025 10:49:50;100;0;112.54;-4;-22.15;-8.39;47.9;19.80;77301;2837.298;-1758.750;1;124;-100;-90.3;43.5;43.6;9;9.5;28.6;0.0;
14/02/2025 10:50:10;100;0;113.87;-4;-20.79;-6.90;51.2;19.80;77296;2837.297;-1758.746;1;124;-100;-88.7;43.5;43.4;9;9.5;28.6;0.0;
14/02/2025 10:50:30;100;0;115.61;-4;-20.28;-6.86;54.6;19.80;77292;2837.295;-1758.742;1;124;-100;-88.7;43.5;43.4;12;12.6;28.6;0.0;
14/02/2025 10:50:50;100;0;116.07;-4;-20.54;-5.22;57.6;19.80;77297;2837.294;-1758.738;1;124;-100;-90.3;43.5;43.4;12;12.6;28.6;0.0;
14/02/2025 10:51:10;100;0;115.77;-4;-20.41;-5.23;60.6;19.80;77309;2837.292;-1758.734;1;124;-100;-90.3;43.5;43.4;12;12.6;28.6;0.0;
14/02/2025 10:51:30;100;0;115.23;-4;-20.42;-5.17;63.6;19.80;77312;2837.291;-1758.730;1;124;-100;-88.7;43.5;43.4;12;12.6;28.6;0.0;
14/02/2025 10:51:50;100;0;114.31;-4;-19.99;-5.22;66.5;19.80;77321;2837.289;-1758.727;1;124;-100;-88.7;43.5;43.4;10;9.5;28.6;0.0;
14/02/2025 10:52:10;100;0;115.41;-4;-20.19;-7.11;69.3;19.80;77307;2837.288;-1758.723;1;124;-100;-90.3;43.5;43.4;10;9.5;28.6;0.0;
14/02/2025 10:52:30;100;0;117.49;-4;-20.10;-7.09;72.2;19.80;77324;2837.286;-1758.719;1;124;-100;-88.7;43.5;43.4;13;13.1;28.6;0.0;
14/02/2025 10:52:50;100;0;116.58;-4;-19.95;-5.08;75.0;19.80;77318;2837.285;-1758.716;1;125;-100;-90.3;43.5;43.4;11;10.8;28.6;0.0;
14/02/2025 10:53:10;100;0;119.94;-4;-20.13;-6.74;77.8;19.80;77314;2837.283;-1758.713;1;125;-100;-88.7;43.5;43.3;13;13.1;28.6;0.0;
14/02/2025 10:53:30;100;0;120.87;-4;-20.08;-4.93;80.5;19.80;77316;2837.282;-1758.709;1;125;-100;-91.9;43.5;43.3;13;13.5;28.6;0.0;
14/02/2025 10:53:50;100;0;121.60;-4;-20.20;-4.99;83.4;19.80;77308;2837.280;-1758.706;1;125;-100;-90.3;43.5;43.4;13;13.5;28.6;0.0;
14/02/2025 10:54:10;100;0;120.74;-4;-20.26;-4.90;86.3;19.80;77326;2837.278;-1758.702;1;125;-100;-88.7;43.5;43.4;13;13.5;28.6;0.0;
14/02/2025 10:54:30;100;0;120.37;-4;-20.21;-4.93;89.2;19.80;77320;2837.276;-1758.699;1;125;-100;-88.7;43.5;43.4;13;13.5;28.6;0.0;
14/02/2025 10:54:50;100;0;122.91;-4;-20.41;-4.87;92.2;19.70;77312;2837.275;-1758.695;1;125;-100;-88.7;43.5;43.4;13;13.5;28.6;0.0;
14/02/2025 10:55:10;100;0;123.00;-4;-20.17;-4.88;95.3;19.70;77321;2837.273;-1758.692;1;125;-100;-88.7;43.5;43.3;13;13.5;28.6;0.0;
14/02/2025 10:55:30;100;0;122.16;-4;-19.92;-4.93;98.2;19.70;77323;2837.271;-1758.688;1;125;-100;-90.3;43.5;43.4;13;13.5;28.6;0.0;
14/02/2025 10:55:50;100;0;124.00;-4;-20.21;-4.86;101.0;19.70;77330;2837.269;-1758.685;1;125;-100;-90.3;43.5;43.4;13;13.5;28.6;0.0;
14/02/2025 10:56:10;100;0;124.38;-4;-20.01;-4.97;103.9;19.70;77330;2837.267;-1758.682;1;125;-100;-90.3;43.5;43.4;13;13.5;28.6;0.0;
14/02/2025 10:56:30;100;0;124.90;-4;-20.00;-4.87;106.8;19.70;77322;2837.265;-1758.678;1;125;-100;-88.7;43.5;43.4;13;13.5;28.6;0.0;
14/02/2025 10:56:50;100;0;126.28;-4;-19.78;-4.90;109.6;19.70;77330;2837.263;-1758.675;1;125;-100;-88.7;43.5;43.4;13;13.5;28.6;0.0;
14/02/2025 10:57:10;100;0;130.07;-4;-20.38;-4.80;112.3;19.70;77311;2837.261;-1758.672;1;125;-100;-88.7;43.5;43.4;13;13.5;28.6;0.0;
14/02/2025 10:57:30;100;0;131.87;-4;-20.27;-5.07;115.1;19.70;77305;2837.259;-1758.669;1;125;-100;-90.3;43.5;43.3;15;14.9;28.6;0.0;
14/02/2025 10:57:50;100;0;129.00;-4;-20.39;-4.21;117.8;19.70;77297;2837.257;-1758.666;1;125;-100;-88.7;43.5;43.3;15;15.3;28.6;0.0;
14/02/2025 10:58:10;100;0;126.01;-4;-20.45;-4.08;120.7;19.70;77284;2837.255;-1758.663;1;125;-100;-88.7;43.5;43.3;15;15.3;28.6;0.0;
14/02/2025 10:58:30;100;0;127.33;-4;-20.09;-4.18;123.4;19.60;77259;2837.253;-1758.660;1;125;-100;-88.7;43.5;43.3;15;14.9;28.6;0.0;
14/02/2025 10:58:50;100;0;126.07;-4;-19.88;-4.20;126.0;19.60;77239;2837.251;-1758.657;1;125;-100;-90.3;43.5;43.3;15;15.3;28.6;0.0;
14/02/2025 10:59:10;100;0;121.91;-4;-19.79;-4.12;128.7;19.60;77234;2837.249;-1758.654;1;125;-100;-88.7;43.5;43.3;15;15.3;28.6;0.0;
14/02/2025 10:59:30;100;0;130.15;-4;-19.95;-4.11;131.4;19.60;77208;2837.247;-1758.651;1;125;-100;-90.3;43.5;43.4;15;15.3;28.6;0.0;
14/02/2025 10:59:50;100;0;135.68;-4;-19.63;-4.46;134.1;19.60;77208;2837.245;-1758.648;1;125;-100;-88.7;43.5;43.4;17;17.1;28.6;0.0;
14/02/2025 11:00:10;100;0;137.65;-4;-20.01;-3.09;136.8;19.50;77190;2837.243;-1758.646;1;125;-100;-88.7;43.5;43.3;19;19.0;28.6;0.0;
14/02/2025 11:00:30;100;0;142.53;-4;-20.00;-1.73;139.6;19.50;77179;2837.240;-1758.643;1;124;-100;-88.7;43.5;43.3;27;27.1;28.6;0.0;
14/02/2025 11:00:50;100;0;142.76;-4;-20.96;1.91;142.4;19.50;77175;2837.237;-1758.641;1;124;-100;-90.3;43.5;43.4;27;27.1;28.6;0.0;
14/02/2025 11:01:10;100;0;140.44;-4;-20.54;1.95;145.4;19.40;77149;2837.235;-1758.639;1;124;-100;-90.3;43.5;43.4;24;23.5;28.6;0.0;
14/02/2025 11:01:30;100;0;136.21;-4;-20.29;0.02;148.1;19.40;77132;2837.232;-1758.636;1;124;-100;-88.7;43.5;43.4;18;18.1;28.6;0.0;
14/02/2025 11:01:50;100;0;136.40;-4;-19.47;-2.72;150.8;19.40;77117;2837.230;-1758.633;1;124;-100;-90.3;43.5;43.4;18;17.6;28.6;0.0;
14/02/2025 11:02:10;100;0;135.01;-4;-19.09;-2.86;153.3;19.30;77096;2837.228;-1758.631;1;124;-100;-88.7;43.5;43.4;18;17.6;28.6;0.0;
14/02/2025 11:02:30;100;0;131.36;-4;-19.13;-2.82;155.9;19.30;77083;2837.226;-1758.628;1;123;-100;-88.7;43.5;43.3;16;15.3;28.6;0.0;
14/02/2025 11:02:50;100;0;124.72;-4;-19.19;-4.24;158.4;19.30;77075;2837.224;-1758.625;1;123;-100;-91.9;43.5;43.4;14;14.0;28.6;0.0;
14/02/2025 11:03:10;100;0;122.43;-4;-19.38;-4.96;160.9;19.20;77071;2837.222;-1758.622;1;124;-100;-90.3;43.5;43.4;14;14.0;28.6;0.0;
14/02/2025 11:03:30;100;0;118.66;-4;-19.19;-4.89;163.6;19.20;77058;2837.221;-1758.618;1;124;-100;-90.3;43.5;43.4;14;14.0;28.6;0.0;
14/02/2025 11:03:50;100;0;112.77;-4;-19.01;-4.96;166.2;19.20;77043;2837.220;-1758.615;1;124;-100;-88.7;43.5;43.3;9;9.0;28.6;0.0;
14/02/2025 11:04:10;100;0;113.62;-4;-19.11;-7.54;168.9;19.10;77030;2837.218;-1758.611;1;124;-100;-90.3;43.5;43.4;9;8.6;28.6;0.0;
14/02/2025 11:04:30;100;0;117.96;-4;-19.26;-7.53;171.7;19.10;77023;2837.217;-1758.608;1;124;-100;-88.7;43.5;43.3;13;13.1;28.6;0.0;
14/02/2025 11:04:50;100;0;122.14;-4;-19.69;-5.06;174.5;19.00;77002;2837.215;-1758.605;1;124;-100;-90.3;43.5;43.4;13;13.5;28.6;0.0;
14/02/2025 11:05:10;100;0;124.09;-4;-19.51;-5.19;177.4;19.00;76986;2837.213;-1758.601;1;124;-100;-90.3;43.5;43.4;13;13.5;28.6;0.0;
14/02/2025 11:05:30;100;0;125.33;-4;-19.44;-5.03;180.4;19.00;76988;2837.211;-1758.598;1;124;-100;-90.3;43.5;43.3;13;13.5;28.6;0.0;
14/02/2025 11:05:50;100;0;128.05;-4;-19.38;-4.96;183.3;18.90;76982;2837.209;-1758.594;1;124;-100;-88.7;43.5;43.4;13;13.5;28.6;0.0;
14/02/2025 11:06:10;100;0;127.10;-4;-19.63;-5.05;186.1;18.90;76975;2837.207;-1758.591;1;124;-100;-90.3;43.5;43.3;13;13.5;28.6;0.0;
14/02/2025 11:06:30;100;0;131.14;-4;-19.68;-4.95;188.9;18.80;76969;2837.205;-1758.588;1;124;-100;-90.3;43.5;43.4;15;14.9;28.6;0.0;
14/02/2025 11:06:50;100;0;132.74;-4;-19.18;-4.22;191.7;18.80;76969;2837.202;-1758.585;1;124;-100;-88.7;43.5;43.3;15;15.3;28.6;0.0;
14/02/2025 11:07:10;100;0;132.68;-4;-19.34;-4.22;194.4;18.80;76957;2837.200;-1758.582;1;124;-100;-88.7;43.5;43.3;15;15.3;28.6;0.0;
14/02/2025 11:07:30;100;0;131.54;-4;-18.79;-4.26;197.0;18.70;76923;2837.198;-1758.580;1;124;-100;-88.7;43.9;43.9;15;15.3;28.6;0.0;
14/02/2025 11:07:50;100;0;131.20;-4;-19.37;-4.22;199.6;18.70;76910;2837.196;-1758.577;1;123;-100;-88.7;43.9;44.0;15;15.3;28.6;0.0;
14/02/2025 11:08:10;100;0;131.29;-4;-19.49;-4.19;202.1;18.70;76898;2837.194;-1758.574;1;123;-100;-90.3;43.9;43.9;15;15.3;28.6;0.0;
14/02/2025 11:08:30;100;0;131.31;-4;-19.59;-4.20;204.7;18.60;76886;2837.192;-1758.571;1;123;-100;-88.7;43.9;44.0;15;15.3;28.6;0.0;
14/02/2025 11:08:50;100;0;131.35;-4;-19.48;-4.28;207.3;18.60;76874;2837.190;-1758.568;1;123;-100;-91.9;43.9;43.9;15;15.3;28.6;0.0;
14/02/2025 11:09:10;100;0;130.37;-4;-19.54;-4.25;210.0;18.50;76859;2837.188;-1758.566;1;123;-100;-88.7;43.9;43.9;15;15.3;28.6;0.0;
14/02/2025 11:09:30;100;0;129.54;-4;-19.69;-4.03;212.7;18.50;76842;2837.185;-1758.563;1;123;-100;-90.3;43.9;43.9;15;15.3;28.6;0.0;
14/02/2025 11:09:50;100;0;127.17;-4;-19.50;-4.20;215.4;18.40;76844;2837.184;-1758.560;1;123;-100;-90.3;43.9;43.9;15;15.3;28.6;0.0;
14/02/2025 11:10:10;100;0;125.99;-4;-19.79;-4.15;218.0;18.40;76837;2837.182;-1758.557;1;123;-100;-88.7;43.9;43.9;15;15.3;28.6;0.0;
14/02/2025 11:10:30;100;0;121.78;-4;-19.52;-4.23;220.8;18.40;76831;2837.180;-1758.553;1;123;-100;-88.7;43.9;44.0;15;15.3;28.6;0.0;
14/02/2025 11:10:50;100;0;121.53;-4;-19.61;-4.20;223.5;18.30;76808;2837.178;-1758.550;1;123;-100;-90.3;43.9;44.0;15;15.3;28.6;0.0;
14/02/2025 11:11:10;100;0;119.37;-4;-19.60;-4.22;226.2;18.30;76798;2837.177;-1758.547;1;123;-100;-91.9;43.9;44.0;15;15.3;28.6;0.0;
14/02/2025 11:11:30;100;0;117.82;-4;-19.57;-4.17;228.9;18.20;76781;2837.175;-1758.543;1;123;-100;-90.3;43.9;44.0;15;15.3;28.6;0.0;
14/02/2025 11:11:50;100;0;115.08;-4;-19.57;-4.25;231.6;18.20;76780;2837.174;-1758.540;1;123;-100;-88.7;43.9;44.0;12;12.2;28.6;0.0;
14/02/2025 11:12:10;100;0;114.15;-4;-19.28;-5.82;234.3;18.10;76766;2837.173;-1758.536;1;124;-100;-90.3;43.9;44.0;10;9.9;28.6;0.0;
14/02/2025 11:12:30;100;0;114.75;-4;-19.20;-7.04;237.1;18.10;76762;2837.172;-1758.533;1;124;-100;-90.3;43.9;44.0;10;9.9;28.6;0.0;
14/02/2025 11:12:50;100;0;113.36;-4;-18.80;-6.92;239.7;18.00;76754;2837.170;-1758.529;1;124;-100;-91.9;44.3;44.3;10;9.9;28.6;0.0;
14/02/2025 11:13:10;100;0;111.52;-4;-20.37;-6.91;242.3;18.00;76759;2837.169;-1758.526;1;124;-100;-90.3;44.3;44.6;7;7.2;28.6;0.0;
14/02/2025 11:13:30;100;0;115.71;-4;-21.24;-8.46;245.3;18.00;76745;2837.168;-1758.522;1;125;-100;-88.7;44.3;44.6;11;10.8;28.6;0.0;
14/02/2025 11:13:50;100;0;122.71;-4;-21.90;-5.89;248.6;17.90;76732;2837.166;-1758.519;1;125;-100;-90.3;44.3;44.6;14;14.4;28.6;0.0;
14/02/2025 11:14:10;100;0;122.19;-4;-20.58;-4.23;251.8;17.90;76711;2837.164;-1758.515;1;125;-100;-90.3;44.3;44.6;14;14.9;28.6;0.0;
14/02/2025 11:14:30;100;0;121.58;-4;-21.12;-4.54;255.2;17.80;76713;2837.162;-1758.511;1;125;-100;-90.3;44.3;44.6;14;14.9;28.6;0.0;
14/02/2025 11:14:50;100;0;125.32;-4;-21.77;-4.28;258.6;17.80;76713;2837.160;-1758.507;1;125;-100;-88.7;44.3;44.6;14;14.9;28.6;0.0;
14/02/2025 11:15:10;100;0;127.90;-4;-21.31;-4.43;262.1;17.70;76692;2837.157;-1758.504;1;125;-100;-88.7;44.3;44.6;14;14.9;28.6;0.0;
14/02/2025 11:15:31;100;0;128.71;-4;-21.38;-4.58;265.4;17.70;76707;2837.155;-1758.500;1;125;-100;-90.3;44.3;44.6;14;14.9;28.6;0.0;
14/02/2025 11:15:51;100;0;129.94;-4;-21.60;-4.39;268.9;17.70;76676;2837.152;-1758.497;1;125;-100;-90.3;44.3;44.6;14;14.9;28.6;0.0;
14/02/2025 11:16:11;100;0;132.06;-4;-21.22;-4.42;272.3;17.60;76669;2837.150;-1758.493;1;124;-100;-88.7;44.3;44.6;14;14.9;28.6;0.0;
14/02/2025 11:16:31;100;0;133.31;-4;-20.75;-4.42;275.7;17.60;76669;2837.147;-1758.490;1;124;-100;-90.3;44.3;44.6;16;15.8;28.6;0.0;
14/02/2025 11:16:51;100;0;131.48;-4;-20.14;-3.68;278.9;17.50;76654;2837.145;-1758.486;1;124;-100;-87.1;44.3;44.6;16;16.2;28.6;0.0;
14/02/2025 11:17:11;100;0;128.44;-4;-20.66;-3.67;282.0;17.50;76631;2837.142;-1758.483;1;124;-100;-88.7;44.3;44.6;14;14.0;28.6;0.0;
14/02/2025 11:17:31;100;0;126.38;-4;-20.58;-4.93;285.2;17.50;76625;2837.140;-1758.480;1;124;-100;-88.7;44.3;44.6;14;14.0;28.6;0.0;
14/02/2025 11:17:51;100;0;124.78;-4;-20.63;-4.91;288.4;17.40;76614;2837.138;-1758.476;1;124;-100;-88.7;44.3;44.6;14;14.0;28.6;0.0;
14/02/2025 11:18:11;100;0;120.98;-4;-20.59;-4.92;291.6;17.40;76601;2837.136;-1758.472;1;124;-100;-90.3;44.3;44.6;14;14.0;28.6;0.0;
14/02/2025 11:18:31;100;0;119.86;-4;-20.90;-4.92;294.8;17.30;76586;2837.134;-1758.469;1;124;-100;-88.7;44.3;44.6;14;14.0;28.6;0.0;
14/02/2025 11:18:51;100;0;118.95;-4;-21.01;-4.80;298.0;17.30;76580;2837.133;-1758.465;1;124;-100;-88.7;44.3;44.6;14;14.0;28.6;0.0;
14/02/2025 11:19:11;100;0;117.71;-4;-20.63;-4.88;301.1;17.20;76579;2837.131;-1758.461;1;125;-100;-88.7;44.3;44.6;12;12.2;28.6;0.0;
14/02/2025 11:19:31;100;0;115.64;-4;-20.44;-6.00;304.3;17.20;76572;2837.129;-1758.457;1;125;-100;-90.3;44.3;44.6;12;11.7;28.6;0.0;
14/02/2025 11:19:51;100;0;111.60;-4;-20.57;-6.04;307.4;17.10;76561;2837.128;-1758.453;1;126;-100;-90.3;44.3;44.6;5;5.0;28.6;0.0;
14/02/2025 11:20:11;100;0;109.26;-4;-20.21;-9.45;310.4;17.10;76548;2837.127;-1758.449;1;126;-100;-88.7;44.3;44.6;1;0.9;28.6;0.0;
14/02/2025 11:20:31;100;0;117.09;-4;-20.09;-11.50;313.5;17.10;76539;2837.125;-1758.445;1;127;-100;-90.3;44.3;44.6;10;9.9;28.6;0.0;
14/02/2025 11:20:51;100;0;121.06;-4;-20.23;-6.72;316.6;17.00;76517;2837.124;-1758.441;1;127;-100;-90.3;44.3;44.6;13;13.5;28.6;0.0;
14/02/2025 11:21:11;100;0;126.50;-4;-20.71;-4.85;319.8;17.00;76518;2837.121;-1758.438;1;127;-100;-88.7;44.3;44.6;13;13.5;28.6;0.0;
14/02/2025 11:21:31;100;0;129.24;-4;-20.95;-5.03;322.9;16.90;76497;2837.119;-1758.435;1;127;-100;-90.3;44.3;44.6;13;13.5;28.6;0.0;
14/02/2025 11:21:51;100;0;129.45;-4;-20.42;-4.85;326.0;16.90;76489;2837.117;-1758.431;1;127;-100;-88.7;44.3;44.6;13;13.5;28.6;0.0;
14/02/2025 11:22:11;100;0;130.85;-4;-20.54;-4.89;329.0;16.90;76482;2837.115;-1758.428;1;127;-100;-90.3;44.3;44.6;13;14.0;28.6;0.0;
14/02/2025 11:22:31;100;0;127.55;-4;-20.64;-4.88;332.0;16.80;76464;2837.112;-1758.425;1;127;-100;-88.7;44.3;44.6;13;14.0;28.6;0.0;
14/02/2025 11:22:51;100;0;125.51;-4;-20.40;-4.88;335.0;16.80;76452;2837.110;-1758.421;1;127;-100;-88.7;44.3;44.8;13;14.0;28.6;0.0;
14/02/2025 11:23:11;100;0;123.52;-4;-20.51;-4.88;338.1;16.70;76446;2837.108;-1758.418;1;128;-100;-90.3;44.3;44.6;13;13.5;28.6;0.0;
14/02/2025 11:23:31;100;0;119.67;-4;-20.55;-4.86;341.0;16.70;76433;2837.107;-1758.415;1;128;-100;-90.3;44.3;44.6;11;10.8;28.6;0.0;
14/02/2025 11:23:51;100;0;117.33;-4;-20.15;-6.63;344.0;16.60;76434;2837.105;-1758.411;1;129;-100;-88.7;44.3;44.6;8;8.1;28.6;0.0;
14/02/2025 11:24:11;100;0;115.80;-4;-19.95;-7.99;346.9;16.60;76422;2837.104;-1758.407;1;130;-100;-90.3;44.3;44.6;5;5.0;28.6;0.0;
14/02/2025 11:24:31;100;0;113.79;-4;-19.17;-9.38;349.6;16.50;76418;2837.103;-1758.404;1;132;-100;-90.3;44.3;44.6;-2;-1.8;28.6;0.0;
14/02/2025 11:24:51;100;0;121.07;-4;-19.36;-12.57;352.0;16.50;76400;2837.101;-1758.401;1;133;-100;-88.7;44.3;44.6;8;8.1;28.6;0.0;
14/02/2025 11:25:11;100;0;126.79;-4;-19.94;-7.29;354.5;16.50;76391;2837.099;-1758.398;1;133;-100;-90.3;44.3;44.6;13;13.1;28.6;0.0;
14/02/2025 11:25:31;100;0;134.08;-4;-20.61;-5.01;357.2;16.40;76370;2837.097;-1758.395;1;133;-100;-88.7;44.3;44.6;13;13.5;28.6;0.0;
14/02/2025 11:25:51;100;0;138.14;-4;-20.31;-4.97;359.8;16.40;76368;2837.095;-1758.393;1;133;-100;-88.7;44.3;44.6;13;13.5;28.6;0.0;
14/02/2025 11:26:11;100;0;139.99;-4;-20.65;-4.98;362.6;16.30;76358;2837.092;-1758.390;1;132;-100;-90.3;44.3;44.6;15;14.9;28.6;0.0;
14/02/2025 11:26:31;100;0;141.18;-4;-20.41;-4.27;365.3;16.30;76350;2837.090;-1758.388;1;131;-100;-90.3;44.3;44.8;15;15.3;28.6;0.0;
14/02/2025 11:26:51;100;0;141.17;-4;-21.13;-4.28;368.0;16.20;76349;2837.087;-1758.386;1;129;-100;-88.7;44.3;44.6;18;18.5;28.6;0.0;
14/02/2025 11:27:11;100;0;140.69;-4;-20.70;-2.44;370.8;16.20;76337;2837.085;-1758.383;1;127;-100;-88.7;44.3;44.6;20;19.9;28.6;0.0;
14/02/2025 11:27:31;100;0;139.39;-4;-20.76;-1.67;373.6;16.10;76330;2837.082;-1758.381;1;125;-100;-90.3;44.3;44.6;20;20.3;28.6;0.0;
14/02/2025 11:27:51;100;0;139.37;-4;-20.45;-1.68;376.4;16.10;76325;2837.080;-1758.378;1;121;-100;-88.7;44.3;44.6;26;26.2;28.6;0.0;
14/02/2025 11:28:11;100;0;136.62;-4;-21.17;1.43;379.1;16.10;76321;2837.078;-1758.376;1;115;-100;-90.3;44.3;44.6;30;29.8;28.6;0.0;
14/02/2025 11:28:31;100;0;132.49;-4;-21.06;3.14;381.9;16.00;76303;2837.075;-1758.373;1;105;-100;-88.7;44.3;44.6;40;40.2;28.6;0.0;
14/02/2025 11:28:51;100;0;124.77;-4;-20.99;8.51;384.8;16.00;76285;2837.074;-1758.370;1;82;-100;-90.3;44.3;44.6;61;60.9;28.6;0.0;
14/02/2025 11:29:11;100;0;112.72;-4;-21.73;18.73;387.7;15.90;76290;2837.072;-1758.367;1;344;-100;-90.3;44.3;44.6;70;69.9;28.6;0.0;
14/02/2025 11:29:31;100;0;100.71;-4;-21.80;23.16;390.7;15.90;76284;2837.072;-1758.363;1;298;-100;-88.7;44.3;44.6;70;70.4;28.6;0.0;
14/02/2025 11:29:51;100;0;88.93;-4;-22.04;23.19;393.6;15.80;76279;2837.072;-1758.359;1;284;-100;-90.3;43.7;43.6;70;70.4;28.6;0.0;
14/02/2025 11:30:11;100;0;75.87;-4;-20.24;23.15;396.5;15.80;76275;2837.073;-1758.355;1;274;-100;-88.7;43.7;43.4;70;70.4;28.6;0.0;
14/02/2025 11:30:31;100;0;63.25;-4;-19.65;23.20;399.3;15.80;76257;2837.075;-1758.351;1;265;-100;-88.7;43.7;43.3;70;70.4;28.6;0.0;
14/02/2025 11:30:51;100;0;49.54;-4;-19.67;23.19;402.1;15.70;76239;2837.078;-1758.348;1;257;-100;-90.3;43.7;43.4;70;70.4;28.6;0.0;
14/02/2025 11:31:11;100;0;37.29;-4;-19.51;23.09;404.9;15.70;76247;2837.081;-1758.346;1;250;-100;-88.7;43.7;43.4;70;70.4;28.6;0.0;
14/02/2025 11:31:31;100;0;23.77;-4;-19.85;23.14;407.7;15.60;76231;2837.084;-1758.345;1;243;-100;-88.7;43.7;43.4;70;70.4;28.6;0.0;
14/02/2025 11:31:51;100;0;11.64;-4;-19.85;23.21;410.7;15.60;76221;2837.088;-1758.344;1;235;-100;-90.3;43.7;43.4;70;70.4;28.6;0.0;
14/02/2025 11:32:11;100;0;0.58;-4;-19.09;23.06;413.7;15.50;76214;2837.092;-1758.344;1;228;-100;-90.3;43.7;43.4;70;70.4;28.6;0.0;
14/02/2025 11:32:31;100;0;348.19;-4;-19.79;23.14;416.7;15.50;76208;2837.096;-1758.345;1;221;-100;-90.3;43.7;43.3;70;70.4;28.6;0.0;
14/02/2025 11:32:51;100;0;337.74;-4;-19.84;23.40;419.8;15.50;76202;2837.100;-1758.347;1;214;-100;-90.3;43.7;43.4;70;70.4;28.6;0.0;
14/02/2025 11:33:11;100;0;323.79;-4;-19.41;23.11;422.9;15.40;76203;2837.103;-1758.350;1;207;-100;-88.7;43.7;43.4;70;70.4;28.6;0.0;
14/02/2025 11:33:31;100;0;314.08;-4;-20.32;23.46;425.9;15.40;76195;2837.106;-1758.353;1;201;-100;-90.3;43.7;43.4;70;70.4;28.6;0.0;
14/02/2025 11:33:51;100;0;303.80;-4;-20.17;23.05;429.1;15.30;76185;2837.109;-1758.357;1;194;-100;-88.7;43.7;43.4;70;70.4;28.6;0.0;
14/02/2025 11:34:11;100;0;295.11;-4;-20.84;23.49;432.2;15.30;76183;2837.111;-1758.361;1;188;-100;-90.3;43.7;43.4;70;70.4;28.6;0.0;
14/02/2025 11:34:31;100;0;283.68;-4;-20.03;23.16;435.4;15.30;76194;2837.112;-1758.366;1;182;-100;-88.7;43.7;43.3;70;69.9;28.6;0.0;
14/02/2025 11:34:51;100;0;270.64;-4;-20.11;23.22;438.7;15.20;76181;2837.112;-1758.371;1;175;-100;-88.7;43.7;43.4;70;70.4;28.6;0.0;
14/02/2025 11:35:11;100;0;257.70;-4;-19.84;23.43;441.8;15.20;76177;2837.111;-1758.375;1;169;-100;-90.3;43.7;43.3;70;70.4;28.6;0.0;
14/02/2025 11:35:31;100;0;244.28;-4;-19.82;23.27;445.1;15.20;76170;2837.110;-1758.380;1;163;-100;-90.3;43.7;43.4;70;70.4;28.6;0.0;
14/02/2025 11:35:51;100;0;231.62;-4;-19.59;23.23;448.3;15.10;76170;2837.107;-1758.383;1;157;-100;-90.3;43.7;43.4;70;70.4;28.6;0.0;
14/02/2025 11:36:11;100;0;219.73;-4;-19.55;23.17;451.4;15.10;76151;2837.104;-1758.386;1;151;-100;-88.7;43.7;43.4;70;70.4;28.6;0.0;
14/02/2025 11:36:31;100;0;204.92;-4;-19.36;23.15;454.3;15.10;76148;2837.101;-1758.388;1;145;-100;-90.3;43.7;43.4;70;70.4;28.6;0.0;
14/02/2025 11:36:51;100;0;191.84;-4;-19.20;23.11;457.4;15.00;76149;2837.097;-1758.390;1;140;-100;-90.3;43.7;43.4;70;70.4;28.6;0.0;
14/02/2025 11:37:11;100;0;179.67;-4;-19.14;23.04;460.2;15.00;76140;2837.094;-1758.390;1;135;-100;-88.7;43.7;43.3;66;65.9;28.6;0.0;
14/02/2025 11:37:31;100;0;167.86;-4;-19.40;20.51;463.0;15.00;76125;2837.090;-1758.389;1;130;-100;-90.3;43.7;43.4;58;58.2;28.6;0.0;
14/02/2025 11:37:51;100;0;157.84;-4;-19.44;16.55;465.9;14.90;76124;2837.087;-1758.387;1;126;-100;-90.3;43.7;43.3;49;49.2;28.6;0.0;
14/02/2025 11:38:11;100;0;147.26;-4;-18.90;12.08;468.7;14.90;76114;2837.084;-1758.385;1;121;-100;-88.7;44.0;44.3;40;40.2;28.6;0.0;
14/02/2025 11:38:31;100;0;140.12;-4;-19.60;7.86;471.6;14.90;76110;2837.081;-1758.383;1;117;-100;-91.9;44.0;44.3;33;32.5;28.6;0.0;
14/02/2025 11:38:51;100;0;136.57;-4;-20.53;4.21;474.4;14.80;76106;2837.079;-1758.380;1;113;-100;-88.7;44.0;44.3;33;32.5;28.6;0.0;
14/02/2025 11:39:11;100;0;130.49;-4;-20.60;4.36;477.6;14.80;76099;2837.076;-1758.377;1;105;-100;-90.3;44.0;44.3;37;37.5;28.6;0.0;
14/02/2025 11:39:31;100;0;121.67;-4;-20.42;6.67;480.8;14.80;76090;2837.074;-1758.373;1;94;-100;-90.3;44.0;44.3;41;41.1;28.6;0.0;
14/02/2025 11:39:51;100;0;115.24;-4;-20.24;8.75;484.3;14.70;76094;2837.073;-1758.368;1;42;-100;-90.3;44.0;44.3;70;69.9;28.6;0.0;
14/02/2025 11:40:11;100;0;103.17;-4;-21.31;23.13;487.8;14.70;76087;2837.072;-1758.364;1;308;-100;-88.7;44.0;44.3;70;69.9;28.6;0.0;
14/02/2025 11:40:31;100;0;91.74;-4;-21.08;23.23;491.3;14.70;76086;2837.072;-1758.359;1;287;-100;-90.3;44.0;44.3;70;69.9;28.6;0.0;
14/02/2025 11:40:51;100;0;78.86;-4;-20.75;23.07;494.8;14.70;76079;2837.073;-1758.354;1;276;-100;-88.7;44.0;44.3;70;69.9;28.6;0.0;
14/02/2025 11:41:11;100;0;66.19;-4;-21.08;23.21;498.2;14.60;76068;2837.075;-1758.350;1;267;-100;-90.3;44.0;44.3;70;70.4;28.6;0.0;
14/02/2025 11:41:31;100;0;52.92;-4;-20.72;23.15;501.6;14.60;76055;2837.078;-1758.346;1;259;-100;-88.7;44.0;44.3;70;69.9;28.6;0.0;
14/02/2025 11:41:51;100;0;41.02;-4;-20.38;23.07;505.2;14.60;76074;2837.081;-1758.343;1;251;-100;-88.7;44.0;44.3;70;69.9;28.6;0.0;
14/02/2025 11:42:11;100;0;29.75;-4;-20.57;23.06;508.5;14.50;76062;2837.085;-1758.341;1;245;-100;-90.3;44.0;44.3;70;69.9;28.6;0.0;
14/02/2025 11:42:31;100;0;18.55;-4;-20.41;23.19;511.8;14.50;76058;2837.089;-1758.339;1;238;-100;-90.3;44.0;44.5;70;69.9;28.6;0.0;
14/02/2025 11:42:51;100;0;9.93;-4;-21.39;23.11;515.0;14.50;76059;2837.093;-1758.339;1;232;-100;-88.7;44.0;44.3;70;69.9;28.6;0.0;
14/02/2025 11:43:11;100;0;358.46;-4;-21.01;23.29;518.3;14.50;76051;2837.097;-1758.339;1;226;-100;-88.7;44.0;44.3;70;69.9;28.6;0.0;
14/02/2025 11:43:31;100;0;344.58;-4;-20.35;22.98;521.5;14.40;76048;2837.101;-1758.340;1;220;-100;-88.7;44.0;44.3;70;69.9;28.6;0.0;
14/02/2025 11:43:51;100;0;332.75;-4;-20.34;23.07;524.5;14.40;76032;2837.105;-1758.343;1;215;-100;-88.7;44.0;44.3;70;70.4;28.6;0.0;
14/02/2025 11:44:11;100;0;319.52;-4;-20.74;23.07;527.6;14.40;76021;2837.108;-1758.346;1;209;-100;-90.3;44.0;44.5;70;69.9;28.6;0.0;
14/02/2025 11:44:31;100;0;307.23;-4;-20.37;23.34;530.7;14.40;76018;2837.111;-1758.349;1;203;-100;-90.3;44.0;44.3;70;69.9;28.6;0.0;
14/02/2025 11:44:51;100;0;295.14;-4;-20.75;23.17;533.7;14.30;76011;2837.112;-1758.353;1;197;-100;-88.7;44.0;44.3;70;69.9;28.6;0.0;
14/02/2025 11:45:11;100;0;281.37;-4;-21.00;23.17;536.7;14.30;75988;2837.113;-1758.358;1;192;-100;-90.3;44.0;44.3;70;69.9;28.6;0.0;
14/02/2025 11:45:31;100;0;267.78;-4;-20.72;23.09;539.9;14.30;75988;2837.113;-1758.362;1;186;-100;-90.3;44.0;44.3;70;69.9;28.6;0.0;
14/02/2025 11:45:51;100;0;256.06;-4;-21.34;23.52;543.0;14.20;75985;2837.113;-1758.366;1;181;-100;-88.7;44.0;44.5;70;69.9;28.6;0.0;
14/02/2025 11:46:11;100;0;242.66;-4;-21.00;23.24;546.0;14.20;75975;2837.111;-1758.370;1;175;-100;-88.7;44.0;44.3;70;69.9;28.6;0.0;
14/02/2025 11:46:31;100;0;227.49;-4;-21.04;23.41;549.1;14.20;75976;2837.109;-1758.374;1;170;-100;-88.7;44.0;44.3;70;69.9;28.6;0.0;
14/02/2025 11:46:51;100;0;215.58;-4;-20.95;23.07;552.1;14.10;75960;2837.106;-1758.376;1;166;-100;-90.3;44.0;44.3;70;69.9;28.6;0.0;
14/02/2025 11:47:11;100;0;201.68;-4;-21.08;23.39;555.2;14.10;75962;2837.102;-1758.378;1;161;-100;-90.3;44.0;44.3;64;64.1;28.6;0.0;
14/02/2025 11:47:31;100;0;189.54;-4;-20.35;19.48;558.1;14.10;75958;2837.099;-1758.379;1;157;-100;-90.3;44.0;44.3;53;52.8;28.6;0.0;
14/02/2025 11:47:51;100;0;177.69;-4;-20.21;13.86;560.9;14.00;75941;2837.095;-1758.379;1;154;-100;-90.3;44.0;44.3;37;37.0;28.6;0.0;
14/02/2025 11:48:11;100;0;168.18;-4;-19.49;6.31;563.6;14.00;75937;2837.092;-1758.378;1;152;-100;-90.3;44.0;44.3;25;24.8;28.6;0.0;
14/02/2025 11:48:31;100;0;163.94;-4;-19.75;0.36;566.1;14.00;75942;2837.089;-1758.377;1;149;-100;-90.3;44.0;44.3;23;23.0;28.6;0.0;
14/02/2025 11:48:51;100;0;160.69;-4;-19.22;-0.50;568.7;14.00;75933;2837.086;-1758.376;1;147;-100;-88.7;44.0;44.5;21;21.2;28.6;0.0;
14/02/2025 11:49:11;100;0;158.76;-4;-19.16;-1.35;571.0;13.90;75934;2837.084;-1758.375;1;144;-100;-88.7;44.0;44.3;23;23.0;28.6;0.0;
14/02/2025 11:49:31;100;0;155.05;-4;-19.69;-0.14;573.5;13.90;75924;2837.081;-1758.374;1;140;-100;-88.7;44.0;44.5;23;23.0;28.6;0.0;
14/02/2025 11:49:51;100;0;150.04;-4;-18.79;-0.38;575.5;13.90;75919;2837.079;-1758.372;1;135;-100;-90.3;44.3;44.3;23;23.5;28.6;0.0;
14/02/2025 11:50:11;100;0;145.65;-4;-19.19;-0.25;577.7;13.90;75899;2837.076;-1758.370;1;128;-100;-88.7;44.3;44.3;26;26.2;28.6;0.0;
14/02/2025 11:50:31;100;0;140.58;-4;-20.04;1.42;580.1;13.80;75894;2837.074;-1758.368;1;98;-100;-88.7;44.3;44.3;62;61.8;28.6;0.0;
14/02/2025 11:50:51;100;0;130.25;-4;-20.38;19.01;582.9;13.80;75890;2837.072;-1758.365;1;324;-100;-88.7;44.3;44.3;70;69.9;28.6;0.0;
14/02/2025 11:51:11;100;0;118.40;-4;-20.16;23.03;585.5;13.80;75882;2837.071;-1758.362;1;309;-100;-88.7;44.3;44.5;70;69.9;28.6;0.0;
14/02/2025 11:51:32;100;0;105.36;-4;-21.11;23.18;588.2;13.80;75882;2837.070;-1758.359;1;299;-100;-88.7;44.3;44.3;70;69.9;28.6;0.0;
14/02/2025 11:51:52;100;0;90.72;-4;-19.46;22.85;591.1;13.70;75878;2837.070;-1758.354;1;290;-100;-90.3;44.3;44.3;70;69.9;28.6;0.0;
14/02/2025 11:52:12;100;0;79.42;-4;-19.74;23.37;593.8;13.70;75874;2837.071;-1758.351;1;282;-100;-88.7;44.3;44.3;70;69.9;28.6;0.0;
14/02/2025 11:52:32;100;0;65.74;-4;-20.70;22.90;596.4;13.70;75867;2837.072;-1758.347;1;276;-100;-90.3;44.3;44.5;70;69.9;28.6;0.0;
14/02/2025 11:52:52;100;0;55.04;-4;-20.27;22.61;599.4;13.60;75858;2837.075;-1758.344;1;268;-100;-90.3;44.3;44.3;70;69.9;28.6;0.0;
14/02/2025 11:53:12;100;0;43.41;-4;-22.49;22.80;602.3;13.60;75865;2837.077;-1758.341;1;261;-100;-90.3;43.6;43.4;70;69.9;28.6;0.0;
14/02/2025 11:53:32;100;0;33.73;-4;-20.40;23.57;605.7;13.60;75858;2837.081;-1758.339;1;254;-100;-88.7;43.6;43.3;70;69.9;28.6;0.0;
14/02/2025 11:53:52;100;0;23.43;-4;-18.29;23.00;608.7;13.50;75846;2837.085;-1758.337;1;247;-100;-90.3;44.1;44.2;70;69.9;28.6;0.0;
14/02/2025 11:54:12;100;0;9.77;-4;-19.41;23.14;611.6;13.50;75852;2837.089;-1758.336;1;241;-100;-90.3;44.1;44.5;70;69.9;28.6;0.0;
14/02/2025 11:54:32;100;0;355.60;-4;-19.37;23.05;614.2;13.50;75840;2837.093;-1758.337;1;235;-100;-90.3;44.1;44.5;70;70.4;28.6;0.0;
14/02/2025 11:54:52;100;0;345.62;-4;-19.93;23.27;616.8;13.50;75832;2837.096;-1758.338;1;229;-100;-88.7;44.1;44.5;70;69.9;28.6;0.0;
14/02/2025 11:55:12;100;0;334.98;-4;-20.13;23.23;619.5;13.50;75837;2837.099;-1758.340;1;223;-100;-90.3;44.1;44.5;70;69.9;28.6;0.0;
14/02/2025 11:55:32;100;0;322.97;-4;-20.40;23.08;622.3;13.40;75818;2837.103;-1758.342;1;217;-100;-88.7;44.1;44.6;70;70.4;28.6;0.0;
14/02/2025 11:55:52;100;0;311.08;-4;-20.14;23.12;625.1;13.40;75819;2837.105;-1758.346;1;211;-100;-90.3;44.1;44.5;70;69.9;28.6;0.0;
14/02/2025 11:56:12;100;0;298.02;-4;-19.53;22.76;627.7;13.40;75813;2837.107;-1758.349;1;206;-100;-88.7;44.1;44.5;70;69.9;28.6;0.0;
14/02/2025 11:56:32;100;0;286.67;-4;-20.09;23.18;630.1;13.40;75810;2837.108;-1758.353;1;201;-100;-90.3;44.1;44.3;70;69.9;28.6;0.0;
14/02/2025 11:56:52;100;0;273.87;-4;-20.10;23.06;632.6;13.30;75805;2837.108;-1758.356;1;195;-100;-90.3;44.1;44.5;70;69.9;28.6;0.0;
14/02/2025 11:57:12;100;0;262.48;-4;-20.09;23.07;634.9;13.30;75802;2837.108;-1758.360;1;190;-100;-88.7;44.1;44.5;70;69.9;28.6;0.0;
14/02/2025 11:57:32;100;0;253.31;-4;-21.06;23.04;637.2;13.30;75807;2837.107;-1758.363;1;186;-100;-88.7;44.1;44.5;70;70.4;28.6;0.0;
14/02/2025 11:57:52;100;0;240.69;-4;-20.12;23.34;639.7;13.30;75792;2837.106;-1758.366;1;181;-100;-88.7;44.1;44.5;70;69.9;28.6;0.0;
14/02/2025 11:58:12;100;0;230.03;-4;-20.93;23.18;642.2;13.20;75783;2837.104;-1758.369;1;176;-100;-88.7;44.1;44.5;70;69.9;28.6;0.0;
14/02/2025 11:58:32;100;0;218.79;-4;-21.39;23.13;644.6;13.20;75774;2837.102;-1758.371;1;172;-100;-88.7;44.1;44.5;70;70.4;28.6;0.0;
14/02/2025 11:58:52;100;0;204.11;-4;-20.14;23.14;647.1;13.20;75772;2837.099;-1758.373;1;168;-100;-90.3;44.1;44.5;58;58.2;28.6;0.0;
14/02/2025 11:59:12;100;0;188.80;-4;-18.96;16.63;649.4;13.20;75759;2837.096;-1758.374;1;165;-100;-88.7;44.4;44.6;40;40.2;28.6;0.0;
14/02/2025 11:59:32;100;0;182.02;-4;-20.54;7.67;651.8;13.10;75763;2837.094;-1758.374;1;163;-100;-90.3;44.4;44.6;31;31.1;28.6;0.0;
14/02/2025 11:59:52;100;0;177.92;-4;-21.13;3.36;654.3;13.10;75760;2837.091;-1758.374;1;160;-100;-90.3;44.4;44.6;31;31.1;28.6;0.0;
14/02/2025 12:00:12;100;0;171.29;-4;-19.83;3.61;657.2;13.10;75741;2837.087;-1758.373;1;157;-100;-90.3;44.4;44.6;24;23.9;28.6;0.0;
14/02/2025 12:00:32;100;0;167.61;-4;-17.90;0.01;659.8;13.10;75749;2837.084;-1758.373;1;153;-100;-88.7;45.1;45.2;24;23.9;28.6;0.0;
14/02/2025 12:00:52;100;0;165.94;-4;-20.91;0.13;662.1;13.10;75745;2837.081;-1758.372;1;149;-100;-90.3;45.1;45.5;26;26.2;28.6;0.0;
14/02/2025 12:01:12;100;0;161.45;-4;-20.51;1.14;664.3;13.00;75730;2837.079;-1758.371;1;143;-100;-88.7;45.1;45.5;29;29.3;28.6;0.0;
14/02/2025 12:01:32;100;0;153.74;-4;-24.06;2.55;666.9;13.00;75728;2837.077;-1758.370;1;135;-100;-88.7;43.8;43.9;29;29.8;28.6;0.0;
14/02/2025 12:01:52;100;0;152.14;-4;-20.00;2.44;669.8;13.00;75725;2837.073;-1758.368;1;56;-100;-88.7;43.8;43.6;70;70.4;28.6;0.0;
14/02/2025 12:02:12;100;0;138.37;-4;-19.55;23.40;672.4;13.00;75728;2837.071;-1758.366;1;337;-100;-88.7;43.8;43.6;70;70.4;28.6;0.0;
14/02/2025 12:02:32;100;0;127.48;-4;-19.56;23.00;674.9;12.90;75713;2837.069;-1758.363;1;323;-100;-90.3;43.8;43.6;70;70.4;28.6;0.0;
14/02/2025 12:02:52;100;0;112.03;-4;-18.94;23.01;677.4;12.90;75705;2837.068;-1758.360;1;312;-100;-90.3;44.2;44.2;70;70.4;28.6;0.0;
14/02/2025 12:03:12;100;0;101.09;-4;-19.47;23.09;679.8;12.90;75702;2837.068;-1758.356;1;303;-100;-88.7;44.2;44.5;70;70.4;28.6;0.0;
14/02/2025 12:03:32;100;0;88.42;-4;-19.48;22.98;682.1;12.90;75700;2837.068;-1758.353;1;296;-100;-90.3;44.2;44.5;70;70.4;28.6;44.4;
14/02/2025 12:03:52;100;0;77.34;-4;-20.10;23.12;684.3;12.80;75696;2837.069;-1758.350;1;289;-100;-88.7;44.2;44.5;70;70.4;28.6;39.7;
14/02/2025 12:04:12;100;0;67.53;-4;-20.83;23.21;686.7;12.80;75702;2837.070;-1758.347;1;282;-100;-88.7;44.2;44.5;70;70.4;28.6;35.2;
14/02/2025 12:04:32;100;0;57.16;-4;-19.09;23.33;689.3;12.80;75689;2837.072;-1758.344;1;275;-100;-90.3;44.2;44.5;70;70.4;28.6;30.5;
14/02/2025 12:04:35;118;0;55.28;-4;-18.82;22.80;689.6;12.80;75693;2837.072;-1758.343;1;274;380;-83.9;24.7;24.4;9;9.0;28.6;29.9;
14/02/2025 12:04:45;118;0;75.46;-4;-3.73;-8.23;690.3;12.80;75663;2837.073;-1758.343;1;274;380;43.5;24.7;24.3;9;9.9;27.6;-1.0;
14/02/2025 12:04:55;118;0;67.36;-4;18.53;-7.88;690.0;12.80;75393;2837.073;-1758.342;1;273;380;169.4;24.7;24.7;9;9.5;27.6;-1.0;
14/02/2025 12:05:05;118;0;66.17;-4;24.31;-7.66;689.0;12.80;75133;2837.073;-1758.341;1;271;380;293.5;24.7;24.9;9;9.9;27.6;-1.0;
14/02/2025 12:05:15;118;0;64.59;-4;23.54;-7.90;687.6;12.80;74878;2837.074;-1758.340;1;270;380;382.3;24.7;24.9;9;9.9;27.7;-1.0;
14/02/2025 12:05:25;118;0;50.33;-4;22.34;-7.07;686.0;12.80;74697;2837.075;-1758.338;1;267;380;383.9;24.7;24.9;9;9.9;28.6;-1.0;
14/02/2025 12:05:45;117;0;42.51;-4;17.13;-6.79;682.8;12.80;74714;2837.079;-1758.335;1;260;380;383.9;24.7;24.9;9;9.9;28.6;-1.0;
14/02/2025 12:06:05;117;0;34.73;-4;18.62;-7.20;679.7;12.80;74714;2837.083;-1758.332;1;254;380;383.9;24.3;24.4;-70;-69.9;28.6;-1.0;
14/02/2025 12:06:25;117;0;22.24;-4;10.29;-47.77;676.7;12.80;74687;2837.087;-1758.330;1;248;380;383.9;21.4;21.4;-70;-69.9;28.6;-1.0;
14/02/2025 12:06:45;117;0;12.89;-4;15.04;-46.95;674.0;12.80;74682;2837.091;-1758.329;1;243;380;383.9;19.9;19.9;-70;-69.9;28.6;-1.0;
14/02/2025 12:07:05;117;0;3.24;-4;18.30;-47.30;671.0;12.80;74688;2837.095;-1758.329;1;237;380;383.9;19.4;19.3;-70;-69.9;28.6;-1.0;
14/02/2025 12:07:25;117;0;355.87;-4;19.10;-47.09;667.9;12.70;74681;2837.100;-1758.330;1;232;380;383.9;19.4;19.4;-70;-69.9;28.6;-1.0;
14/02/2025 12:07:45;117;0;347.86;-4;19.85;-47.77;664.9;12.70;74684;2837.104;-1758.331;1;227;380;383.9;19.4;19.4;-70;-70.4;28.6;-1.0;
14/02/2025 12:08:05;117;0;338.68;-4;19.37;-47.44;661.7;12.70;74692;2837.108;-1758.333;1;222;380;383.9;19.4;19.4;-70;-69.9;28.6;-1.0;
14/02/2025 12:08:25;117;0;330.25;-4;18.95;-47.40;658.8;12.70;74683;2837.111;-1758.335;1;217;380;383.9;19.0;18.9;-70;-69.9;28.6;-1.0;
14/02/2025 12:08:45;117;0;320.80;-4;19.87;-47.88;656.0;12.70;74684;2837.114;-1758.338;1;213;380;383.9;19.0;18.7;-70;-69.9;28.6;-1.0;
14/02/2025 12:09:05;117;0;312.69;-4;21.42;-47.00;653.4;12.70;74678;2837.117;-1758.340;1;209;380;382.3;19.0;18.6;-70;-69.9;28.6;-1.0;
14/02/2025 12:09:25;117;0;301.51;-4;20.97;-47.51;650.8;12.70;74689;2837.119;-1758.344;1;205;380;383.9;19.0;18.7;-70;-69.9;28.6;-1.0;
14/02/2025 12:09:45;117;0;289.99;-4;20.89;-47.70;648.0;12.70;74691;2837.120;-1758.348;1;200;380;383.9;19.0;18.9;-70;-69.9;28.6;-1.0;
14/02/2025 12:10:05;117;0;276.25;-4;20.01;-47.44;645.2;12.70;74689;2837.120;-1758.352;1;196;380;383.9;19.0;18.7;-68;-68.1;28.6;-1.0;
14/02/2025 12:10:25;117;0;264.39;-4;20.56;-46.19;642.5;12.60;74693;2837.120;-1758.356;1;192;380;383.9;19.0;18.6;-59;-59.1;28.6;-1.0;
14/02/2025 12:10:45;117;0;254.35;-4;21.13;-41.54;639.8;12.60;74691;2837.120;-1758.359;1;188;380;383.9;19.0;18.6;-50;-50.1;28.6;-1.0;
14/02/2025 12:11:05;117;0;242.12;-4;22.96;-36.76;637.0;12.60;74697;2837.118;-1758.363;1;185;380;383.9;19.9;20.2;-39;-38.8;28.6;-1.0;
14/02/2025 12:11:25;117;0;227.88;-4;21.66;-30.94;633.9;12.60;74692;2837.116;-1758.366;1;181;380;383.9;19.9;20.2;-27;-27.1;28.6;-1.0;
14/02/2025 12:11:45;117;0;213.98;-4;23.62;-25.04;630.9;12.60;74688;2837.113;-1758.368;1;178;380;383.9;21.0;21.4;-13;-12.6;28.6;-1.0;
14/02/2025 12:12:05;117;0;202.90;-4;21.94;-17.58;627.7;12.60;74700;2837.110;-1758.370;1;176;380;383.9;21.0;21.4;0;0.0;28.6;-1.0;
14/02/2025 12:12:25;117;0;192.52;-4;22.98;-11.67;624.7;12.60;74700;2837.107;-1758.371;1;174;380;383.9;21.9;22.4;14;14.0;28.6;-1.0;
14/02/2025 12:12:45;117;0;183.77;-4;23.82;-4.95;621.6;12.50;74695;2837.104;-1758.371;1;172;380;383.9;23.1;23.4;25;24.8;28.6;-1.0;
14/02/2025 12:13:05;117;0;175.92;-4;21.63;1.62;618.6;12.50;74698;2837.100;-1758.371;1;172;380;385.5;23.1;23.4;31;31.1;28.6;-1.0;
14/02/2025 12:13:25;117;0;178.55;-4;23.09;4.17;615.7;12.50;74702;2837.097;-1758.371;1;171;380;382.3;24.0;24.2;29;28.9;28.6;-1.0;
14/02/2025 12:13:45;117;0;177.25;-4;22.68;2.34;612.6;12.50;74694;2837.094;-1758.371;1;169;380;382.3;24.8;24.7;29;28.4;28.6;-1.0;
14/02/2025 12:14:05;117;0;175.87;-4;20.48;2.55;609.7;12.50;74683;2837.090;-1758.371;1;167;380;385.5;24.8;25.0;29;28.4;28.6;-1.0;
14/02/2025 12:14:25;117;0;174.90;-4;19.95;2.76;606.8;12.50;74684;2837.087;-1758.371;1;165;380;383.9;24.8;24.9;29;28.4;28.6;-1.0;
14/02/2025 12:14:45;117;0;174.27;-4;19.79;2.55;604.0;12.50;74698;2837.083;-1758.371;1;161;380;385.5;24.8;24.9;24;23.5;28.6;-1.0;
14/02/2025 12:15:05;117;0;171.56;-4;19.51;0.04;601.3;12.50;74685;2837.080;-1758.370;1;155;380;385.5;24.8;24.9;19;18.5;28.6;-1.0;
14/02/2025 12:15:25;117;0;167.97;-4;18.65;-2.31;598.5;12.40;74686;2837.076;-1758.369;1;140;380;383.9;24.4;24.0;1;0.9;28.6;-1.0;
14/02/2025 12:15:45;117;0;159.96;-4;18.32;-11.63;595.6;12.50;74678;2837.073;-1758.368;1;39;380;382.3;23.9;23.4;-70;-69.9;28.6;-1.0;
14/02/2025 12:16:05;117;0;146.25;-4;11.40;-47.31;592.7;12.40;74681;2837.069;-1758.365;1;342;380;383.9;21.3;21.4;-70;-69.9;28.6;-1.0;
14/02/2025 12:16:25;117;0;135.44;-4;14.84;-47.59;589.8;12.40;74681;2837.067;-1758.362;1;330;380;383.9;19.7;19.6;-70;-70.4;28.6;-1.0;
14/02/2025 12:16:45;117;0;126.04;-4;19.19;-47.23;586.5;12.40;74674;2837.064;-1758.358;1;322;380;383.9;19.7;18.9;-70;-70.4;28.6;-1.0;
14/02/2025 12:17:05;117;0;115.95;-4;20.08;-47.36;582.7;12.40;74666;2837.062;-1758.353;1;314;380;383.9;19.7;18.9;-70;-70.4;28.6;-1.0;
14/02/2025 12:17:25;117;0;104.48;-4;20.14;-47.61;579.0;12.40;74684;2837.061;-1758.348;1;308;380;382.3;19.7;19.0;-70;-69.9;28.6;-1.0;
14/02/2025 12:17:45;117;0;93.68;-4;19.94;-47.35;575.1;12.40;74690;2837.061;-1758.343;1;301;380;382.3;19.7;19.0;-70;-70.4;28.6;-1.0;
14/02/2025 12:18:05;117;0;83.02;-4;19.35;-47.41;571.3;12.40;74690;2837.062;-1758.337;1;295;380;383.9;19.7;18.9;-70;-70.4;28.6;-1.0;
14/02/2025 12:18:25;117;0;72.90;-4;20.11;-47.64;567.7;12.40;74688;2837.063;-1758.332;1;289;380;383.9;19.7;19.0;-70;-70.4;28.6;-1.0;
14/02/2025 12:18:45;117;0;62.06;-4;19.92;-47.46;563.8;12.40;74697;2837.066;-1758.327;1;283;380;385.5;19.7;18.9;-70;-70.4;28.6;-1.0;
14/02/2025 12:19:05;117;0;51.79;-4;19.63;-47.54;560.1;12.40;74690;2837.069;-1758.323;1;277;380;383.9;19.7;18.9;-70;-70.4;28.6;-1.0;
14/02/2025 12:19:25;117;0;42.59;-4;20.13;-47.30;556.2;12.40;74694;2837.073;-1758.319;1;272;380;383.9;19.7;18.9;-70;-70.4;28.6;-1.0;
14/02/2025 12:19:45;117;0;32.71;-4;20.20;-47.35;552.4;12.40;74683;2837.077;-1758.317;1;266;380;383.9;19.7;18.9;-70;-70.4;28.6;-1.0;
14/02/2025 12:20:05;117;0;22.36;-4;19.70;-47.54;548.5;12.40;74693;2837.082;-1758.314;1;260;380;383.9;19.7;19.0;-70;-70.4;28.6;-1.0;
14/02/2025 12:20:25;117;0;12.80;-4;20.34;-47.71;544.6;12.40;74695;2837.087;-1758.313;1;255;380;385.5;19.7;18.9;-70;-70.4;28.6;-1.0;
14/02/2025 12:20:45;117;0;3.97;-4;19.93;-47.25;540.6;12.40;74708;2837.092;-1758.313;1;249;380;383.9;19.7;19.0;-70;-70.4;28.6;-1.0;
14/02/2025 12:21:05;117;0;354.91;-4;19.62;-47.33;536.6;12.40;74719;2837.098;-1758.314;1;243;380;385.5;19.7;19.0;-70;-70.4;28.6;-1.0;
14/02/2025 12:21:25;117;0;345.21;-4;19.54;-47.39;532.4;12.40;74729;2837.103;-1758.315;1;237;380;385.5;19.7;19.0;-70;-70.4;28.6;-1.0;
14/02/2025 12:21:45;117;0;335.23;-4;20.58;-47.69;528.0;12.40;74726;2837.108;-1758.318;1;232;380;383.9;19.7;18.9;-70;-70.4;28.6;-1.0;
14/02/2025 12:22:05;117;0;327.40;-4;19.61;-47.38;523.6;12.40;74731;2837.113;-1758.322;1;226;380;385.5;19.7;18.9;-70;-70.4;28.6;-1.0;
14/02/2025 12:22:25;117;0;319.87;-4;19.77;-47.46;519.3;12.40;74729;2837.117;-1758.326;1;220;380;383.9;19.7;19.0;-70;-70.4;28.6;-1.0;
14/02/2025 12:22:45;117;0;311.72;-4;20.04;-47.43;514.8;12.40;74734;2837.121;-1758.331;1;214;380;383.9;19.7;18.9;-70;-70.4;28.6;-1.0;
14/02/2025 12:23:05;117;0;301.50;-4;19.55;-47.61;510.5;12.40;74728;2837.124;-1758.336;1;208;380;382.3;19.7;19.0;-70;-70.4;28.6;-1.0;
14/02/2025 12:23:25;117;0;291.78;-4;19.13;-47.87;506.2;12.40;74742;2837.127;-1758.343;1;202;380;383.9;19.7;19.0;-70;-70.4;28.6;-1.0;
14/02/2025 12:23:45;117;0;281.91;-4;19.41;-47.60;502.1;12.40;74731;2837.128;-1758.349;1;197;380;382.3;19.7;19.0;-70;-70.4;28.6;-1.0;
14/02/2025 12:24:05;117;0;272.99;-4;20.18;-47.64;498.0;12.40;74739;2837.128;-1758.355;1;191;380;383.9;19.7;19.0;-70;-70.4;28.6;-1.0;
14/02/2025 12:24:25;117;0;261.91;-4;19.55;-47.37;493.7;12.50;74739;2837.128;-1758.361;1;185;380;385.5;19.7;20.0;-63;-62.7;28.6;-1.0;
14/02/2025 12:24:45;117;0;249.63;-4;18.93;-43.52;489.7;12.50;74747;2837.126;-1758.367;1;180;380;383.9;19.4;19.1;-53;-52.8;28.6;-1.0;
14/02/2025 12:25:05;117;0;237.88;-4;21.85;-38.35;486.0;12.50;74741;2837.124;-1758.372;1;175;380;383.9;19.4;19.1;-45;-45.1;28.6;-1.0;
14/02/2025 12:25:25;117;0;223.33;-4;21.02;-33.87;481.8;12.50;74744;2837.120;-1758.376;1;171;380;383.9;19.4;19.1;-32;-31.6;28.6;-1.0;
14/02/2025 12:25:45;117;0;209.54;-4;23.29;-27.41;477.8;12.50;74744;2837.117;-1758.378;1;167;380;383.9;20.4;20.6;-20;-19.9;28.6;-1.0;
14/02/2025 12:26:05;117;0;194.95;-4;22.33;-21.29;474.0;12.50;74747;2837.112;-1758.380;1;164;380;385.5;21.1;21.2;-5;-5.0;28.6;-1.0;
14/02/2025 12:26:25;117;0;182.38;-4;22.49;-14.77;470.6;12.50;74762;2837.108;-1758.380;1;162;380;385.5;21.9;22.1;12;12.2;28.6;-1.0;
14/02/2025 12:26:45;117;0;175.31;-4;23.76;-5.69;467.2;12.50;74761;2837.105;-1758.380;1;160;380;383.9;23.0;23.3;21;21.7;28.6;-1.0;
14/02/2025 12:27:05;117;0;168.53;-4;22.60;-0.61;463.5;12.50;74756;2837.101;-1758.379;1;158;380;385.5;23.8;24.0;27;27.1;28.6;-1.0;
14/02/2025 12:27:25;117;0;165.01;-4;21.76;2.41;460.2;12.50;74754;2837.097;-1758.378;1;157;380;383.9;23.8;23.9;29;28.9;28.6;-1.0;
14/02/2025 12:27:45;117;0;162.26;-4;21.80;3.27;457.0;12.50;74749;2837.094;-1758.377;1;156;380;383.9;23.8;24.0;29;29.8;28.6;-1.0;
14/02/2025 12:28:05;117;0;162.57;-4;21.61;3.23;453.6;12.50;74771;2837.090;-1758.376;1;155;380;385.5;23.8;24.0;29;29.8;28.6;-1.0;
14/02/2025 12:28:25;117;0;165.66;-4;21.57;3.24;450.2;12.50;74765;2837.086;-1758.375;1;152;380;382.3;23.8;24.0;24;23.9;28.6;-1.0;
14/02/2025 12:28:45;117;0;164.59;-4;21.26;0.00;446.8;12.50;74759;2837.083;-1758.374;1;146;380;385.5;23.8;24.0;17;17.1;28.6;-1.0;
14/02/2025 12:29:05;117;0;161.29;-4;20.61;-3.63;443.6;12.50;74770;2837.079;-1758.372;1;137;380;382.3;23.8;24.0;7;7.2;28.6;-1.0;
14/02/2025 12:29:25;117;0;154.09;-4;19.11;-8.79;440.4;12.50;74774;2837.075;-1758.370;1;115;380;385.5;23.8;24.0;-14;-14.0;28.6;-1.0;
14/02/2025 12:29:45;117;0;142.69;-4;16.70;-19.77;437.6;12.50;74776;2837.072;-1758.368;1;16;380;385.5;22.8;22.8;-70;-69.9;28.6;-1.0;
14/02/2025 12:30:05;117;0;128.69;-4;12.42;-46.81;434.8;12.60;74771;2837.070;-1758.364;1;328;380;385.5;20.5;20.3;-70;-69.9;28.6;-1.0;
14/02/2025 12:30:25;117;0;119.80;-4;16.91;-47.03;432.0;12.60;74774;2837.068;-1758.360;1;315;380;385.5;19.6;19.6;-70;-69.9;28.6;-1.0;
14/02/2025 12:30:45;117;0;110.59;-4;19.01;-47.02;428.8;12.60;74769;2837.067;-1758.356;1;306;380;383.9;19.6;19.0;-70;-69.9;28.6;-1.0;
14/02/2025 12:31:05;117;0;99.32;-4;19.31;-47.37;425.3;12.60;74774;2837.066;-1758.351;1;299;380;385.5;19.6;18.9;-70;-69.9;28.6;-1.0;
14/02/2025 12:31:25;117;0;89.93;-4;19.97;-47.02;421.8;12.60;74773;2837.066;-1758.346;1;292;380;385.5;19.6;19.0;-70;-69.9;28.6;-1.0;
14/02/2025 12:31:46;117;0;78.48;-4;19.82;-46.82;418.5;12.60;74773;2837.067;-1758.341;1;286;380;385.5;19.6;19.0;-70;-69.9;28.6;-1.0;
14/02/2025 12:32:06;117;0;67.87;-4;19.70;-47.89;415.2;12.60;74769;2837.069;-1758.337;1;280;380;385.5;19.6;19.1;-70;-69.9;28.6;-1.0;
14/02/2025 12:32:26;117;0;56.90;-4;19.31;-47.62;412.0;12.60;74769;2837.072;-1758.333;1;274;380;385.5;19.6;19.0;-70;-69.9;28.6;-1.0;
14/02/2025 12:32:46;117;0;46.91;-4;19.76;-47.07;408.7;12.60;74774;2837.075;-1758.330;1;269;380;385.5;19.6;19.0;-70;-69.9;28.6;-1.0;
14/02/2025 12:33:06;117;0;36.77;-4;19.52;-47.31;405.6;12.60;74774;2837.078;-1758.327;1;263;380;385.5;19.6;19.0;-70;-69.9;28.6;-1.0;
14/02/2025 12:33:26;117;0;26.81;-4;19.76;-47.15;402.4;12.60;74776;2837.082;-1758.325;1;258;380;383.9;19.6;19.0;-70;-69.9;28.6;-1.0;
14/02/2025 12:33:46;117;0;18.29;-4;19.73;-47.12;399.3;12.60;74762;2837.086;-1758.324;1;253;380;385.5;19.6;19.1;-70;-69.5;28.6;-1.0;
14/02/2025 12:34:06;117;0;10.61;-4;19.88;-47.24;396.1;12.70;74770;2837.090;-1758.323;1;247;380;385.5;19.6;19.0;-70;-69.9;28.6;-1.0;
14/02/2025 12:34:26;117;0;1.45;-4;19.60;-47.59;392.9;12.70;74770;2837.094;-1758.323;1;242;380;385.5;19.6;19.0;-70;-69.9;28.6;-1.0;
14/02/2025 12:34:46;117;0;352.24;-4;19.44;-47.37;389.8;12.70;74791;2837.099;-1758.324;1;237;380;385.5;19.6;19.1;-70;-69.5;28.6;-1.0;
14/02/2025 12:35:06;117;0;343.09;-4;19.57;-47.64;386.8;12.70;74780;2837.102;-1758.325;1;232;380;385.5;19.6;18.9;-70;-69.5;28.6;-1.0;
14/02/2025 12:35:26;117;0;333.70;-4;19.25;-47.49;383.9;12.70;74779;2837.106;-1758.327;1;227;380;385.5;19.6;19.0;-70;-69.9;28.6;-1.0;
14/02/2025 12:35:46;117;0;324.71;-4;19.44;-47.16;381.0;12.70;74803;2837.109;-1758.330;1;222;380;383.9;19.6;19.0;-70;-69.5;28.6;-1.0;
14/02/2025 12:36:06;117;0;315.91;-4;19.89;-47.11;378.0;12.70;74792;2837.112;-1758.333;1;218;380;385.5;19.6;19.0;-70;-69.9;28.6;-1.0;
14/02/2025 12:36:26;117;0;306.61;-4;19.84;-47.38;375.1;12.70;74780;2837.115;-1758.337;1;213;380;383.9;19.6;19.0;-70;-69.9;28.6;-1.0;
14/02/2025 12:36:46;117;0;296.09;-4;19.90;-47.30;372.3;12.70;74799;2837.116;-1758.341;1;209;380;383.9;19.6;18.9;-70;-69.9;28.6;-1.0;
14/02/2025 12:37:06;117;0;286.00;-4;19.86;-47.41;369.6;12.70;74798;2837.118;-1758.345;1;204;380;383.9;19.6;19.0;-70;-69.9;28.6;-1.0;
14/02/2025 12:37:26;117;0;276.58;-4;20.08;-47.27;366.7;12.70;74795;2837.118;-1758.349;1;200;380;385.5;19.6;19.6;-64;-63.6;28.6;-1.0;
14/02/2025 12:37:46;117;0;265.80;-4;19.46;-43.79;363.9;12.80;74805;2837.118;-1758.353;1;195;380;385.5;19.6;19.7;-56;-56.0;28.6;-1.0;
14/02/2025 12:38:06;117;0;254.79;-4;20.03;-39.58;361.1;12.80;74805;2837.117;-1758.357;1;191;380;385.5;19.6;19.7;-48;-47.8;28.6;-1.0;
14/02/2025 12:38:26;117;0;243.19;-4;21.10;-35.85;358.4;12.80;74818;2837.116;-1758.361;1;187;380;382.3;19.6;19.7;-39;-38.8;28.6;-1.0;
14/02/2025 12:38:46;117;0;229.01;-4;21.82;-31.25;355.6;12.80;74818;2837.114;-1758.364;1;184;380;385.5;19.6;19.7;-25;-24.8;28.6;-1.0;
14/02/2025 12:39:06;117;0;215.09;-4;23.30;-23.74;352.6;12.80;74834;2837.111;-1758.366;1;181;380;385.5;20.6;20.9;-11;-10.8;28.6;-1.0;
14/02/2025 12:39:26;117;0;201.85;-4;23.05;-17.09;349.6;12.80;74831;2837.108;-1758.368;1;179;380;385.5;21.5;21.6;6;5.9;28.6;-1.0;
14/02/2025 12:39:46;117;0;191.51;-4;23.51;-8.81;346.7;12.80;74830;2837.105;-1758.369;1;177;380;383.9;22.5;22.8;20;19.9;28.6;-1.0;
14/02/2025 12:40:06;117;0;185.16;-4;23.07;-1.70;343.6;12.80;74832;2837.102;-1758.369;1;176;380;385.5;23.5;23.7;27;27.1;28.6;-1.0;
14/02/2025 12:40:26;117;0;179.84;-4;21.94;2.00;340.7;12.80;74844;2837.099;-1758.369;1;175;380;385.5;23.5;23.7;30;29.8;28.6;-1.0;
14/02/2025 12:40:46;117;0;178.00;-4;21.46;3.68;337.9;12.90;74861;2837.096;-1758.369;1;175;380;385.5;23.5;23.7;30;30.2;28.6;-1.0;
14/02/2025 12:41:06;117;0;178.19;-4;21.53;3.78;335.3;12.90;74866;2837.093;-1758.369;1;174;380;385.5;23.5;23.7;30;30.2;28.6;-1.0;
14/02/2025 12:41:26;117;0;177.85;-4;21.99;3.51;332.7;12.90;74871;2837.090;-1758.369;1;173;380;383.9;23.5;23.7;30;30.2;28.6;-1.0;
14/02/2025 12:41:46;117;0;177.69;-4;21.78;3.68;329.9;12.90;74876;2837.087;-1758.369;1;171;380;385.5;23.5;23.7;30;30.2;28.6;-1.0;
14/02/2025 12:42:06;117;0;179.09;-4;21.75;3.45;327.3;12.90;74878;2837.084;-1758.369;1;168;380;385.5;23.5;23.7;26;26.2;28.6;-1.0;
14/02/2025 12:42:26;117;0;179.10;-4;21.82;1.40;324.7;12.90;74889;2837.081;-1758.369;1;162;380;383.9;23.5;23.7;17;17.1;28.6;-1.0;
14/02/2025 12:42:46;117;0;173.55;-4;21.05;-3.60;322.0;13.00;74887;2837.078;-1758.369;1;152;380;382.3;23.5;23.7;12;12.2;28.6;-1.0;
14/02/2025 12:43:06;117;0;167.49;-4;19.82;-6.04;319.4;13.00;74887;2837.074;-1758.368;1;108;380;383.9;23.5;23.6;-38;-37.9;28.6;-1.0;
14/02/2025 12:43:26;117;0;151.32;-4;14.64;-31.78;317.0;13.00;74892;2837.071;-1758.367;1;352;380;383.9;21.8;21.6;-70;-69.9;28.6;-1.0;
14/02/2025 12:43:46;117;0;140.23;-4;13.45;-47.54;314.7;13.00;74890;2837.069;-1758.364;1;334;380;385.5;19.9;19.9;-70;-69.9;28.6;-1.0;
14/02/2025 12:44:06;117;0;131.42;-4;18.24;-47.31;312.2;13.00;74901;2837.067;-1758.361;1;325;380;385.5;19.3;19.3;-70;-69.9;28.6;-1.0;
14/02/2025 12:44:26;117;0;119.54;-4;18.57;-47.56;309.4;13.00;74897;2837.065;-1758.358;1;318;380;385.5;18.9;18.6;-70;-69.9;28.6;-1.0;
14/02/2025 12:44:46;117;0;107.14;-4;20.29;-47.68;306.5;13.00;74918;2837.064;-1758.354;1;310;380;385.5;18.9;18.4;-70;-69.9;28.6;-1.0;
14/02/2025 12:45:06;117;0;93.64;-4;20.43;-47.75;303.4;13.10;74918;2837.064;-1758.349;1;303;380;385.5;18.9;18.4;-70;-69.9;28.6;-1.0;
14/02/2025 12:45:26;117;0;81.59;-4;20.54;-47.46;300.2;13.10;74930;2837.065;-1758.345;1;295;380;383.9;18.9;18.4;-70;-69.9;28.6;-1.0;
14/02/2025 12:45:46;117;0;70.39;-4;20.65;-47.10;297.2;13.10;74928;2837.066;-1758.341;1;289;380;385.5;18.9;18.4;-70;-69.9;28.6;-1.0;
14/02/2025 12:46:06;117;0;61.55;-4;21.04;-47.53;294.1;13.10;74957;2837.068;-1758.338;1;282;380;383.9;18.9;18.4;-70;-69.9;28.6;-1.0;
14/02/2025 12:46:26;117;0;51.69;-4;20.53;-47.61;290.9;13.20;74968;2837.071;-1758.334;1;276;380;385.5;18.9;18.4;-70;-69.9;28.6;-1.0;
14/02/2025 12:46:46;117;0;42.18;-4;20.42;-47.83;287.7;13.20;74970;2837.074;-1758.331;1;270;380;385.5;18.9;18.4;-70;-69.9;28.6;-1.0;
14/02/2025 12:47:06;117;0;32.17;-4;20.35;-47.68;284.4;13.20;74978;2837.078;-1758.329;1;263;380;383.9;18.9;18.4;-70;-69.9;28.6;-1.0;
14/02/2025 12:47:26;117;0;21.92;-4;20.34;-47.52;281.2;13.20;74988;2837.082;-1758.327;1;257;380;385.5;18.9;18.3;-70;-69.9;28.6;-1.0;
14/02/2025 12:47:46;117;0;11.97;-4;20.09;-47.68;277.8;13.20;74995;2837.086;-1758.326;1;251;380;383.9;18.9;18.4;-70;-69.9;28.6;-1.0;
14/02/2025 12:48:06;117;0;1.35;-4;20.13;-47.74;274.5;13.30;75002;2837.091;-1758.326;1;245;380;382.3;18.9;18.4;-70;-69.9;28.6;-1.0;
14/02/2025 12:48:26;117;0;351.68;-4;19.99;-47.60;271.1;13.30;74995;2837.095;-1758.327;1;239;380;383.9;18.9;18.4;-70;-69.9;28.6;-1.0;
14/02/2025 12:48:46;117;0;340.83;-4;20.11;-47.63;267.6;13.30;75007;2837.100;-1758.329;1;233;380;385.5;18.9;18.4;-70;-69.9;28.6;-1.0;
14/02/2025 12:49:06;117;0;332.35;-4;20.33;-47.09;264.2;13.30;75007;2837.104;-1758.331;1;227;380;385.5;18.9;18.4;-70;-69.9;28.6;-1.0;
14/02/2025 12:49:26;117;0;324.63;-4;20.64;-47.65;260.8;13.40;75021;2837.107;-1758.334;1;221;380;385.5;18.9;18.4;-70;-69.9;28.6;-1.0;
14/02/2025 12:49:46;117;0;317.78;-4;20.73;-47.46;257.1;13.40;75031;2837.111;-1758.338;1;215;380;383.9;18.9;18.4;-70;-69.9;28.6;-1.0;
14/02/2025 12:50:06;117;0;309.08;-4;20.20;-47.48;253.5;13.40;75049;2837.114;-1758.342;1;209;380;385.5;18.9;18.3;-70;-69.9;28.6;-1.0;
14/02/2025 12:50:26;117;0;299.57;-4;20.01;-47.65;250.0;13.40;75062;2837.116;-1758.347;1;203;380;385.5;18.9;18.4;-70;-69.9;28.6;-1.0;
14/02/2025 12:50:46;117;0;290.51;-4;20.52;-47.34;246.5;13.50;75082;2837.118;-1758.351;1;197;380;385.5;18.9;18.4;-70;-69.9;28.6;-1.0;
14/02/2025 12:51:06;117;0;281.20;-4;20.13;-47.58;243.0;13.50;75094;2837.119;-1758.357;1;192;380;385.5;18.9;18.3;-70;-69.9;28.6;-1.0;
14/02/2025 12:51:26;117;0;270.92;-4;20.03;-47.57;239.5;13.50;75085;2837.119;-1758.362;1;186;380;385.5;18.9;18.3;-70;-69.9;28.6;-1.0;
14/02/2025 12:51:46;117;0;259.72;-4;19.84;-47.81;236.1;13.60;75103;2837.119;-1758.367;1;180;380;385.5;18.9;18.4;-67;-66.8;28.6;-1.0;
14/02/2025 12:52:06;117;0;247.50;-4;20.39;-45.41;232.8;13.60;75110;2837.117;-1758.371;1;175;380;385.5;18.9;18.4;-57;-56.9;28.6;-1.0;
14/02/2025 12:52:26;117;0;236.72;-4;21.47;-40.58;229.4;13.60;75119;2837.115;-1758.376;1;170;380;385.5;18.9;18.4;-50;-50.1;28.6;-1.0;
14/02/2025 12:52:46;117;0;224.52;-4;22.48;-36.81;226.1;13.70;75131;2837.112;-1758.379;1;165;380;387.1;19.7;19.9;-42;-41.5;28.6;-1.0;
14/02/2025 12:53:06;117;0;212.29;-4;21.43;-32.37;222.8;13.70;75146;2837.109;-1758.381;1;160;380;385.5;19.7;19.7;-33;-32.9;28.6;-1.0;
14/02/2025 12:53:26;117;0;201.02;-4;22.06;-28.05;219.6;13.70;75137;2837.106;-1758.383;1;156;380;385.5;20.3;20.6;-24;-23.5;28.6;-1.0;
14/02/2025 12:53:46;117;0;187.05;-4;21.81;-23.28;216.6;13.70;75156;2837.102;-1758.384;1;153;380;385.5;20.3;20.6;-9;-9.0;28.6;-1.0;
14/02/2025 12:54:06;117;0;173.75;-4;22.78;-16.38;213.5;13.80;75165;2837.099;-1758.383;1;150;380;385.5;21.1;21.2;8;8.1;28.6;-1.0;
14/02/2025 12:54:26;117;0;164.84;-4;23.57;-7.82;210.4;13.80;75172;2837.096;-1758.383;1;148;380;387.1;22.2;22.5;19;19.4;28.6;-1.0;
14/02/2025 12:54:46;117;0;158.86;-4;23.30;-1.97;207.3;13.90;75185;2837.093;-1758.381;1;146;380;383.9;23.2;23.3;25;24.8;28.6;-1.0;
14/02/2025 12:55:06;117;0;155.61;-4;22.34;1.03;204.2;13.90;75197;2837.090;-1758.380;1;145;380;383.9;23.9;24.0;27;27.5;28.6;-1.0;
14/02/2025 12:55:26;117;0;156.65;-4;20.74;2.28;201.2;13.90;75197;2837.086;-1758.378;1;142;380;383.9;23.9;24.2;22;22.1;28.6;-1.0;
14/02/2025 12:55:46;117;0;153.88;-4;20.09;-0.64;198.5;14.00;75208;2837.083;-1758.376;1;138;380;385.5;23.9;24.2;22;22.6;28.6;-1.0;
14/02/2025 12:56:06;117;0;151.67;-4;19.88;-0.70;195.9;14.00;75213;2837.081;-1758.375;1;134;380;385.5;23.9;24.2;19;19.0;28.6;-1.0;
14/02/2025 12:56:26;117;0;147.76;-4;19.18;-2.40;193.4;14.00;75214;2837.078;-1758.373;1;127;380;385.5;23.9;24.2;14;14.0;28.6;-1.0;
14/02/2025 12:56:46;117;0;143.51;-4;18.85;-5.25;190.9;14.10;75243;2837.076;-1758.371;1;115;380;383.9;23.5;23.7;3;3.2;28.6;-1.0;
14/02/2025 12:57:06;117;0;135.37;-4;18.13;-10.85;188.4;14.10;75256;2837.073;-1758.368;1;53;380;385.5;23.0;23.1;-65;-65.4;28.6;-1.0;
14/02/2025 12:57:26;117;0;121.44;-4;12.38;-45.37;185.9;14.10;75278;2837.072;-1758.365;1;322;380;383.9;20.7;20.6;-70;-70.4;28.6;-1.0;
14/02/2025 12:57:46;117;0;111.86;-4;15.26;-47.42;183.5;14.20;75274;2837.070;-1758.361;1;305;380;385.5;19.3;19.1;-70;-70.4;28.6;-1.0;
14/02/2025 12:58:06;117;0;104.12;-4;19.43;-47.55;180.6;14.20;75289;2837.070;-1758.357;1;297;380;387.1;19.3;18.6;-70;-70.4;28.6;-1.0;
14/02/2025 12:58:26;117;0;92.29;-4;19.53;-47.51;177.3;14.30;75306;2837.070;-1758.352;1;289;380;385.5;19.3;18.6;-70;-70.4;28.6;-1.0;
14/02/2025 12:58:46;117;0;81.09;-4;19.64;-47.52;174.2;14.30;75308;2837.070;-1758.348;1;282;380;387.1;19.3;18.7;-70;-70.4;28.6;-1.0;
14/02/2025 12:59:06;117;0;70.87;-4;19.87;-47.51;171.0;14.30;75332;2837.072;-1758.344;1;276;380;385.5;19.3;18.6;-70;-70.4;28.6;-1.0;
14/02/2025 12:59:26;117;0;61.08;-4;19.71;-47.23;167.9;14.40;75349;2837.074;-1758.340;1;270;380;385.5;19.3;18.7;-70;-70.4;28.6;-1.0;
14/02/2025 12:59:46;117;0;51.60;-4;19.49;-47.53;164.9;14.40;75357;2837.077;-1758.336;1;264;380;385.5;19.3;18.6;-70;-70.4;28.6;-1.0;
14/02/2025 13:00:06;117;0;40.10;-4;20.27;-47.24;161.8;14.50;75357;2837.080;-1758.334;1;259;380;385.5;19.3;18.6;-70;-70.4;28.6;-1.0;
14/02/2025 13:00:26;117;0;31.92;-4;20.21;-47.75;158.7;14.50;75367;2837.083;-1758.331;1;253;380;385.5;19.3;18.6;-70;-70.4;28.6;-1.0;
14/02/2025 13:00:46;117;0;20.16;-4;19.12;-48.03;155.6;14.50;75376;2837.087;-1758.330;1;248;380;385.5;19.3;18.6;-70;-70.4;28.6;-1.0;
14/02/2025 13:01:06;117;0;6.50;-4;18.41;-48.89;152.5;14.60;75403;2837.092;-1758.330;1;241;380;385.5;18.8;18.9;-70;-70.4;28.6;-1.0;
14/02/2025 13:01:26;117;0;357.14;-4;19.31;-47.20;149.4;14.60;75399;2837.096;-1758.330;1;236;380;385.5;18.8;19.0;-70;-70.4;28.6;-1.0;
14/02/2025 13:01:46;117;0;345.26;-4;19.71;-48.18;146.2;14.70;75410;2837.100;-1758.331;1;230;380;385.5;18.8;19.0;-70;-70.4;28.6;-1.0;
14/02/2025 13:02:06;117;0;333.54;-4;19.26;-48.17;143.0;14.70;75432;2837.104;-1758.334;1;224;380;385.5;18.8;19.0;-70;-70.4;28.6;-1.0;
14/02/2025 13:02:26;117;0;322.46;-4;19.32;-47.99;139.9;14.80;75452;2837.108;-1758.337;1;218;380;387.1;18.8;19.0;-70;-70.4;28.6;-1.0;
14/02/2025 13:02:46;117;0;313.27;-4;19.09;-48.53;136.7;14.80;75469;2837.111;-1758.340;1;213;380;385.5;18.8;19.0;-70;-70.4;28.6;-1.0;
14/02/2025 13:03:06;117;0;304.33;-4;19.22;-47.80;133.6;14.90;75486;2837.113;-1758.344;1;207;380;385.5;18.8;18.9;-70;-70.4;28.6;-1.0;
14/02/2025 13:03:26;117;0;296.34;-4;19.88;-47.82;130.5;14.90;75506;2837.115;-1758.348;1;202;380;385.5;18.8;18.9;-70;-70.4;28.6;-1.0;
14/02/2025 13:03:46;117;0;287.06;-4;19.42;-47.74;127.3;15.00;75522;2837.117;-1758.353;1;196;380;385.5;18.8;19.0;-70;-70.4;28.6;-1.0;
14/02/2025 13:04:06;117;0;277.62;-4;19.11;-47.58;124.2;15.00;75552;2837.117;-1758.358;1;190;380;385.5;18.8;19.0;-70;-70.4;28.6;-1.0;
14/02/2025 13:04:26;117;0;266.62;-4;18.98;-48.35;121.0;15.10;75573;2837.117;-1758.363;1;185;380;385.5;18.5;18.3;-70;-70.4;28.6;-1.0;
14/02/2025 13:04:46;117;0;255.75;-4;20.17;-48.21;117.8;15.20;75592;2837.116;-1758.368;1;179;380;385.5;18.5;18.1;-64;-64.1;28.6;-1.0;
14/02/2025 13:05:06;117;0;243.03;-4;20.16;-43.94;114.4;15.20;75599;2837.115;-1758.372;1;174;380;385.5;18.5;18.1;-53;-52.8;28.6;-1.0;
14/02/2025 13:05:26;117;0;231.21;-4;21.77;-38.24;111.1;15.30;75626;2837.112;-1758.376;1;169;380;387.1;18.5;18.1;-45;-44.7;28.6;-1.0;
14/02/2025 13:05:47;117;0;219.14;-4;22.79;-34.42;107.8;15.30;75627;2837.110;-1758.379;1;164;380;387.1;19.3;19.4;-37;-37.0;28.6;-1.0;
14/02/2025 13:06:07;117;0;204.36;-4;21.34;-30.48;104.5;15.40;75673;2837.106;-1758.381;1;159;380;385.5;19.3;19.6;-25;-24.8;28.6;-1.0;
14/02/2025 13:06:27;117;0;190.36;-4;22.63;-23.81;101.4;15.40;75693;2837.103;-1758.382;1;156;380;385.5;20.1;20.3;-11;-10.8;28.6;-1.0;
14/02/2025 13:06:47;117;0;177.69;-4;23.18;-16.90;98.2;15.50;75721;2837.099;-1758.381;1;153;380;385.5;21.1;21.4;6;5.9;28.6;-1.0;
14/02/2025 13:07:07;117;0;165.11;-4;23.20;-9.07;95.0;15.60;75740;2837.096;-1758.381;1;152;380;385.5;22.0;22.5;24;23.9;28.6;-1.0;
14/02/2025 13:07:27;117;0;154.44;-4;22.90;0.48;91.8;15.60;75775;2837.093;-1758.379;1;151;380;385.5;22.9;23.0;30;29.8;28.6;-1.0;
14/02/2025 13:07:47;117;0;152.59;-4;22.20;3.57;88.6;15.70;75806;2837.090;-1758.377;1;151;380;385.5;23.5;23.6;30;30.2;28.6;-1.0;
14/02/2025 13:08:07;117;0;150.36;-4;21.00;3.61;85.6;15.70;75817;2837.087;-1758.375;1;151;380;385.5;23.5;23.6;30;30.2;28.6;-1.0;
14/02/2025 13:08:27;117;0;148.23;-4;20.71;3.45;82.7;15.80;75833;2837.084;-1758.373;1;151;380;387.1;23.5;23.7;30;29.8;28.6;-1.0;
14/02/2025 13:08:47;117;0;145.20;-4;20.56;3.59;79.8;15.90;75849;2837.081;-1758.371;1;154;380;385.5;23.5;23.7;33;32.9;28.6;-1.0;
14/02/2025 13:09:07;117;0;145.57;-4;20.53;5.15;77.0;15.90;75860;2837.078;-1758.369;1;160;380;387.1;23.5;23.7;37;37.0;28.6;-1.0;
