Timestamp;NavState;SecurityLevel;Heading;Declination;Pitch;Roll;Depth;Temperature;Pa;Lat;Lon;DeadReckoning;DesiredH;BallastCmd;BallastPos;LinCmd;LinPos;AngCmd;AngPos;Voltage;Altitude;
16/02/2025 14:55:57;119;0;243.57;-4;-56.29;-17.55;-0.5;19.60;76520;2838.884;-1801.767;0;164;500;509.7;100.0;100.7;0;-0.5;28.4;-1.0;
16/02/2025 14:56:07;116;0;287.35;-4;-52.39;-15.84;-0.2;19.70;76529;2838.885;-1801.769;0;164;500;509.7;100.0;100.7;0;-0.5;28.4;-1.0;
16/02/2025 14:56:37;116;0;294.25;-4;-54.30;-10.57;-0.2;19.70;76540;2838.888;-1801.773;0;164;500;509.7;100.0;100.7;0;-0.5;28.4;-1.0;
16/02/2025 14:56:56;116;0;297.78;-4;-54.36;-16.60;-0.1;19.80;76552;2838.888;-1801.773;0;164;500;509.7;100.0;100.7;0;-0.5;28.4;-1.0;
16/02/2025 14:57:16;116;0;277.14;-4;-65.02;-9.93;-0.1;19.80;76570;2838.890;-1801.775;0;164;500;509.7;100.0;100.7;0;-0.5;28.4;-1.0;
16/02/2025 14:57:56;116;0;288.04;-4;-49.64;-8.83;-0.1;19.90;76575;2838.891;-1801.778;0;164;500;509.7;100.0;100.7;0;-0.5;28.4;-1.0;
16/02/2025 14:58:47;116;0;278.43;-4;-51.07;-8.51;-0.1;20.00;76591;2838.893;-1801.781;0;164;500;509.7;100.0;100.7;0;-0.5;28.4;-1.0;
16/02/2025 14:58:58;116;0;269.58;-4;-49.07;-10.04;-0.1;20.10;76592;2838.893;-1801.782;0;164;500;511.3;100.0;100.7;0;-0.5;28.4;-1.0;
16/02/2025 14:59:18;110;0;253.49;-4;-53.93;-6.87;0.0;20.10;76601;2838.893;-1801.782;0;164;-50;398.4;100.0;99.9;-13;-13.1;28.4;-1.0;
16/02/2025 14:59:28;110;0;254.99;-4;-53.17;-11.46;0.2;20.20;76959;2838.894;-1801.783;1;164;-50;245.2;100.0;99.9;-13;-13.5;28.3;-1.0;
16/02/2025 14:59:38;110;0;267.83;-4;-61.62;-30.22;0.6;20.20;77200;2838.895;-1801.783;1;164;-50;85.5;100.0;99.9;-13;-13.5;28.4;-1.0;
16/02/2025 14:59:48;110;0;296.73;-4;-68.10;-1.68;0.9;20.20;77544;2838.896;-1801.784;1;164;-50;-50.0;100.0;99.9;-13;-13.5;28.3;-1.0;
16/02/2025 14:59:58;110;0;305.37;-4;-64.98;-14.63;1.2;20.30;77809;2838.896;-1801.785;1;164;-50;-50.0;48.4;48.5;-13;-13.5;28.4;-1.0;
16/02/2025 15:00:18;100;0;329.32;-4;-32.99;-18.15;4.4;20.30;77783;2838.900;-1801.787;1;164;-50;-48.4;48.4;48.2;-13;-13.5;28.4;-1.0;
16/02/2025 15:00:38;100;0;336.40;-4;-31.16;-18.26;8.1;20.40;77762;2838.905;-1801.789;1;164;-50;-45.2;48.4;48.0;70;69.9;28.4;-1.0;
16/02/2025 15:00:58;100;0;334.68;-4;-34.26;22.99;12.0;20.40;77782;2838.909;-1801.792;1;164;-50;-46.8;47.2;47.1;70;70.4;28.4;-1.0;
16/02/2025 15:01:18;100;0;325.86;-4;-33.58;23.92;16.1;20.40;77768;2838.913;-1801.795;1;164;-50;-46.8;46.1;46.1;70;69.9;28.4;0.0;
16/02/2025 15:01:38;100;0;314.08;-4;-32.36;23.51;20.3;20.40;77773;2838.917;-1801.798;1;164;-50;-45.2;45.4;45.2;70;70.4;28.4;0.0;
16/02/2025 15:01:58;100;0;302.79;-4;-29.43;23.39;24.2;20.40;77773;2838.921;-1801.803;1;163;-50;-46.8;45.4;45.1;70;69.9;28.4;0.0;
16/02/2025 15:02:18;100;0;290.72;-4;-29.84;23.66;28.1;20.40;77767;2838.924;-1801.807;1;163;-50;-46.8;45.4;45.1;70;70.4;28.4;0.0;
16/02/2025 15:02:38;100;0;279.86;-4;-28.10;23.96;31.8;20.40;77769;2838.926;-1801.812;1;163;-50;-45.2;46.0;45.9;70;70.4;28.4;0.0;
16/02/2025 15:02:58;100;0;268.86;-4;-29.82;23.43;35.4;20.50;77768;2838.927;-1801.817;1;163;-50;-46.8;46.0;46.2;70;69.9;28.4;0.0;
16/02/2025 15:03:18;100;0;258.63;-4;-29.68;23.25;39.1;20.50;77765;2838.928;-1801.821;1;163;-50;-46.8;46.0;46.2;70;69.9;28.4;0.0;
16/02/2025 15:03:38;100;0;249.04;-4;-30.90;23.59;42.8;20.50;77774;2838.929;-1801.826;1;163;-50;-46.8;46.0;46.1;70;70.4;28.4;0.0;
16/02/2025 15:03:58;100;0;237.73;-4;-30.73;23.55;46.6;20.50;77759;2838.929;-1801.830;1;163;-50;-46.8;46.0;46.2;70;69.9;28.4;0.0;
16/02/2025 15:04:18;100;0;225.87;-4;-30.70;23.65;50.6;20.50;77762;2838.928;-1801.833;1;163;-50;-46.8;46.0;46.2;70;69.9;28.4;0.0;
16/02/2025 15:04:38;100;0;214.63;-4;-30.36;23.39;54.5;20.50;77762;2838.927;-1801.837;1;162;-50;-45.2;46.0;46.2;70;70.4;28.4;0.0;
16/02/2025 15:04:58;100;0;202.29;-4;-30.53;23.71;58.5;20.50;77759;2838.925;-1801.839;1;162;-50;-45.2;46.0;46.1;64;64.1;28.4;0.0;
16/02/2025 15:05:18;100;0;191.09;-4;-29.51;19.97;62.4;20.50;77763;2838.923;-1801.841;1;162;-50;-46.8;46.0;46.2;50;50.1;28.4;0.0;
16/02/2025 15:05:38;100;0;182.57;-4;-28.81;12.77;66.2;20.50;77759;2838.921;-1801.842;1;162;-50;-46.8;46.3;46.2;36;36.1;28.4;0.0;
16/02/2025 15:05:58;100;0;176.75;-4;-28.30;5.79;69.9;20.50;77752;2838.919;-1801.842;1;162;-50;-46.8;46.8;47.3;25;24.8;28.4;0.0;
16/02/2025 15:06:18;100;0;172.73;-4;-29.97;0.46;73.7;20.50;77759;2838.918;-1801.843;1;162;-50;-45.2;46.8;47.3;20;19.9;28.4;0.0;
16/02/2025 15:06:38;100;0;166.67;-4;-28.91;-1.80;77.5;20.50;77759;2838.916;-1801.843;1;162;-50;-46.8;47.2;47.0;13;13.1;28.4;0.0;
16/02/2025 15:06:58;100;0;163.76;-4;-28.01;-5.40;81.1;20.50;77752;2838.914;-1801.843;1;162;-50;-46.8;47.7;47.7;11;10.8;28.4;0.0;
16/02/2025 15:07:18;100;0;162.92;-4;-28.85;-6.48;84.6;20.50;77752;2838.913;-1801.843;1;162;-50;-46.8;48.1;48.3;11;10.4;28.4;0.0;
16/02/2025 15:07:38;100;0;158.10;-4;-29.87;-6.52;88.2;20.50;77749;2838.911;-1801.842;1;162;-50;-46.8;48.1;48.6;11;10.4;28.4;0.0;
16/02/2025 15:07:58;100;0;155.45;-4;-29.78;-6.55;91.7;20.50;77732;2838.910;-1801.842;1;162;-50;-45.2;48.1;48.5;11;10.4;28.4;0.0;
16/02/2025 15:08:18;100;0;152.63;-4;-30.16;-6.64;95.3;20.50;77723;2838.909;-1801.841;1;162;-50;-46.8;48.1;48.5;11;10.4;28.4;0.0;
16/02/2025 15:08:38;100;0;149.09;-4;-30.59;-6.57;98.9;20.50;77706;2838.908;-1801.840;1;162;-50;-46.8;48.1;48.6;9;9.0;28.4;0.0;
16/02/2025 15:08:58;100;0;148.21;-4;-30.82;-7.45;102.7;20.40;77690;2838.907;-1801.839;1;162;-50;-46.8;48.1;48.5;9;8.6;28.4;0.0;
16/02/2025 15:09:18;100;0;146.30;-4;-30.84;-7.53;106.6;20.40;77693;2838.906;-1801.838;1;162;-50;-45.2;48.1;48.6;6;5.4;28.4;0.0;
16/02/2025 15:09:38;100;0;147.61;-4;-30.68;-9.21;110.3;20.40;77680;2838.904;-1801.837;1;162;-50;-46.8;48.1;48.6;6;5.4;28.4;0.0;
16/02/2025 15:09:58;100;0;155.50;-4;-30.33;-9.11;114.2;20.40;77643;2838.903;-1801.836;1;162;-50;-46.8;48.1;48.6;10;10.4;28.4;0.0;
16/02/2025 15:10:18;100;0;160.09;-4;-30.73;-6.48;118.0;20.40;77617;2838.901;-1801.836;1;162;-50;-46.8;48.1;48.6;10;10.8;28.4;0.0;
16/02/2025 15:10:38;100;0;161.79;-4;-30.00;-6.27;121.6;20.30;77590;2838.900;-1801.836;1;162;-50;-45.2;48.1;48.6;10;10.8;28.4;0.0;
16/02/2025 15:10:58;100;0;155.58;-4;-29.59;-6.33;125.2;20.30;77580;2838.899;-1801.835;1;162;-50;-48.4;48.1;48.6;10;10.8;28.4;0.0;
16/02/2025 15:11:18;100;0;149.40;-4;-29.49;-6.34;128.5;20.30;77553;2838.898;-1801.834;1;162;-50;-46.8;48.1;48.6;10;10.4;28.4;0.0;
16/02/2025 15:11:38;100;0;143.59;-4;-29.68;-6.46;131.9;20.20;77549;2838.897;-1801.833;1;162;-50;-45.2;48.1;48.6;3;3.2;28.4;0.0;
16/02/2025 15:11:58;100;0;141.68;-4;-29.18;-10.39;135.3;20.20;77530;2838.896;-1801.832;1;162;-50;-45.2;48.1;48.6;1;0.9;28.4;0.0;
16/02/2025 15:12:18;100;0;145.41;-4;-29.08;-11.33;138.7;20.20;77532;2838.895;-1801.831;1;162;-50;-46.8;48.1;48.6;5;5.0;28.4;0.0;
16/02/2025 15:12:38;100;0;149.35;-4;-29.72;-8.93;142.1;20.20;77515;2838.894;-1801.830;1;162;-50;-46.8;48.1;48.6;8;8.1;28.4;0.0;
16/02/2025 15:12:58;100;0;146.83;-4;-29.90;-7.42;145.6;20.10;77497;2838.893;-1801.829;1;162;-50;-46.8;48.1;48.6;8;8.6;28.4;0.0;
16/02/2025 15:13:18;100;0;152.33;-4;-30.30;-7.29;149.2;20.10;77478;2838.892;-1801.828;1;162;-50;-46.8;48.1;48.6;10;10.4;28.4;0.0;
16/02/2025 15:13:38;100;0;148.15;-4;-29.80;-6.34;152.9;20.00;77455;2838.891;-1801.827;1;162;-50;-46.8;48.1;48.6;8;8.1;28.4;0.0;
16/02/2025 15:13:58;100;0;151.87;-4;-30.60;-7.84;156.6;20.00;77442;2838.889;-1801.826;1;162;-50;-46.8;48.1;48.6;8;7.7;28.4;0.0;
16/02/2025 15:14:18;100;0;155.35;-4;-30.46;-7.76;160.4;20.00;77437;2838.888;-1801.826;1;162;-50;-45.2;48.1;48.6;10;10.4;28.4;0.0;
16/02/2025 15:14:38;100;0;152.13;-4;-30.45;-6.38;164.3;19.90;77422;2838.887;-1801.825;1;162;-50;-45.2;48.1;48.6;10;10.8;28.4;0.0;
16/02/2025 15:14:58;100;0;151.97;-4;-29.72;-6.32;167.9;19.90;77390;2838.885;-1801.824;1;162;-50;-45.2;48.1;48.6;10;10.8;28.4;0.0;
16/02/2025 15:15:18;100;0;150.95;-4;-29.60;-6.37;171.4;19.80;77395;2838.884;-1801.823;1;162;-50;-46.8;48.1;48.5;10;10.8;28.4;0.0;
16/02/2025 15:15:38;100;0;145.03;-4;-29.41;-6.40;174.8;19.80;77379;2838.883;-1801.822;1;162;-50;-46.8;48.1;48.6;5;5.0;28.4;0.0;
16/02/2025 15:15:58;100;0;143.49;-4;-29.08;-9.57;178.1;19.80;77365;2838.882;-1801.821;1;162;-50;-45.2;48.1;48.6;3;3.2;28.4;0.0;
16/02/2025 15:16:18;100;0;145.90;-4;-29.11;-10.46;181.4;19.70;77351;2838.881;-1801.820;1;162;-50;-46.8;48.1;48.6;5;5.0;28.4;0.0;
16/02/2025 15:16:38;100;0;154.64;-4;-29.18;-8.99;184.8;19.70;77332;2838.880;-1801.819;1;162;-50;-46.8;48.1;48.5;10;9.9;28.4;0.0;
16/02/2025 15:16:58;100;0;158.63;-4;-29.70;-6.60;188.3;19.60;77309;2838.879;-1801.819;1;162;-50;-45.2;48.1;48.6;10;10.4;28.4;0.0;
16/02/2025 15:17:18;100;0;161.52;-4;-30.11;-6.59;191.8;19.60;77293;2838.878;-1801.819;1;162;-50;-46.8;48.1;48.6;10;10.4;28.4;0.0;
16/02/2025 15:17:38;100;0;166.74;-4;-29.95;-6.54;195.5;19.50;77276;2838.876;-1801.819;1;162;-50;-46.8;48.1;48.6;13;13.1;28.4;0.0;
16/02/2025 15:17:58;100;0;160.41;-4;-30.18;-4.94;199.2;19.50;77262;2838.874;-1801.818;1;162;-50;-46.8;48.1;48.6;10;13.1;28.4;0.0;
16/02/2025 15:18:01;118;0;159.70;-4;-30.16;-7.32;199.7;19.50;77255;2838.874;-1801.818;1;162;210;-38.7;22.5;22.5;13;13.5;28.4;0.0;
16/02/2025 15:18:11;118;0;139.49;-4;-16.89;-5.72;201.1;19.50;77231;2838.873;-1801.817;1;162;210;88.7;22.5;22.4;13;13.5;28.0;-1.0;
16/02/2025 15:18:21;118;0;134.53;-4;9.21;-5.44;201.7;19.40;76956;2838.873;-1801.817;1;162;210;212.9;22.5;21.9;13;13.5;28.0;-1.0;
16/02/2025 15:18:31;118;0;144.83;-4;22.36;-5.77;201.1;19.40;76702;2838.874;-1801.817;1;162;210;214.5;22.5;22.5;13;13.1;28.4;-1.0;
16/02/2025 15:18:41;118;0;160.56;-4;25.46;-5.57;200.0;19.40;76701;2838.873;-1801.817;1;162;210;214.5;22.5;22.7;13;13.5;28.4;-1.0;
16/02/2025 15:19:01;117;0;159.07;-4;26.43;-5.65;197.8;19.40;76696;2838.873;-1801.817;1;162;210;214.5;22.5;22.8;13;13.5;28.4;-1.0;
16/02/2025 15:19:21;117;0;156.27;-4;26.51;-5.62;195.3;19.30;76685;2838.872;-1801.817;1;162;210;214.5;21.5;21.4;36;36.1;28.4;-1.0;
16/02/2025 15:19:41;117;0;154.18;-4;30.07;6.86;193.0;19.30;76690;2838.872;-1801.817;1;162;210;216.1;21.5;21.4;36;36.6;28.4;-1.0;
16/02/2025 15:20:01;117;0;152.03;-4;30.82;6.87;190.3;19.20;76678;2838.872;-1801.816;1;162;210;214.5;21.5;21.2;36;36.6;28.4;-1.0;
16/02/2025 15:20:21;117;0;149.98;-4;30.94;6.89;187.7;19.20;76686;2838.871;-1801.816;1;162;210;212.9;21.5;21.4;36;36.6;28.4;-1.0;
16/02/2025 15:20:41;117;0;146.50;-4;31.01;6.89;185.0;19.10;76672;2838.871;-1801.816;1;162;210;214.5;21.5;21.2;39;38.8;28.4;-1.0;
16/02/2025 15:21:01;117;0;140.02;-4;31.42;8.44;182.2;19.10;76685;2838.871;-1801.815;1;162;210;214.5;21.5;21.2;45;45.1;28.4;-1.0;
16/02/2025 15:21:21;117;0;140.36;-4;31.81;11.83;179.6;19.00;76682;2838.871;-1801.814;1;163;210;214.5;21.5;21.2;45;45.6;28.4;-1.0;
16/02/2025 15:21:41;117;0;145.07;-4;32.00;11.87;176.7;19.00;76694;2838.870;-1801.813;1;163;210;214.5;22.1;22.4;40;39.7;28.4;-1.0;
16/02/2025 15:22:01;117;0;148.42;-4;29.81;8.31;174.0;19.00;76688;2838.870;-1801.813;1;163;210;214.5;22.1;22.4;38;37.9;28.4;-1.0;
16/02/2025 15:22:21;117;0;147.97;-4;29.57;7.44;171.5;18.90;76695;2838.870;-1801.813;1;163;210;214.5;22.1;22.4;38;37.5;28.4;-1.0;
16/02/2025 15:22:41;117;0;148.00;-4;29.35;7.37;169.0;18.90;76705;2838.869;-1801.812;1;163;210;211.3;22.1;22.4;38;37.5;28.4;-1.0;
16/02/2025 15:23:01;117;0;153.34;-4;28.95;7.40;166.6;18.90;76697;2838.869;-1801.812;1;163;210;214.5;21.8;21.6;38;37.5;28.4;-1.0;
16/02/2025 15:23:21;117;0;151.21;-4;30.19;7.32;164.2;18.90;76712;2838.869;-1801.812;1;163;210;214.5;21.8;21.5;38;37.5;28.4;-1.0;
16/02/2025 15:23:41;117;0;150.79;-4;30.42;7.39;161.8;18.80;76708;2838.868;-1801.811;1;163;210;214.5;21.8;21.4;38;37.5;28.4;-1.0;
16/02/2025 15:24:01;117;0;147.91;-4;30.24;7.35;159.5;18.80;76714;2838.868;-1801.811;1;163;210;214.5;21.8;21.4;38;37.5;28.4;-1.0;
16/02/2025 15:24:21;117;0;146.98;-4;30.41;7.29;157.2;18.80;76713;2838.868;-1801.811;1;163;210;216.1;21.8;21.5;38;37.5;28.4;-1.0;
16/02/2025 15:24:41;117;0;149.08;-4;30.61;7.30;154.7;18.80;76722;2838.868;-1801.810;1;163;210;214.5;21.8;21.5;38;37.5;28.4;-1.0;
16/02/2025 15:25:01;117;0;150.37;-4;30.36;7.22;152.3;18.80;76716;2838.868;-1801.810;1;163;210;214.5;21.8;21.4;38;37.5;28.4;-1.0;
16/02/2025 15:25:21;117;0;149.94;-4;30.24;7.25;149.8;18.80;76727;2838.867;-1801.810;1;163;210;214.5;21.8;21.4;38;37.5;28.4;-1.0;
16/02/2025 15:25:41;117;0;148.66;-4;30.66;7.33;147.4;18.70;76728;2838.867;-1801.810;1;163;210;212.9;21.8;21.4;38;37.5;28.4;-1.0;
16/02/2025 15:26:02;117;0;148.75;-4;30.30;7.24;144.9;18.70;76745;2838.867;-1801.809;1;163;210;214.5;21.8;21.4;38;37.5;28.4;-1.0;
16/02/2025 15:26:22;117;0;147.53;-4;30.77;7.29;142.4;18.70;76753;2838.867;-1801.809;1;163;210;214.5;21.8;21.5;38;37.5;28.4;-1.0;
16/02/2025 15:26:42;117;0;148.03;-4;30.50;7.28;139.8;18.70;76765;2838.866;-1801.808;1;163;210;214.5;21.8;21.4;38;37.5;28.4;-1.0;
16/02/2025 15:27:02;117;0;150.00;-4;30.26;7.26;137.3;18.70;76764;2838.866;-1801.808;1;163;210;214.5;21.8;21.5;38;37.9;28.4;-1.0;
16/02/2025 15:27:22;117;0;152.69;-4;30.36;7.21;134.8;18.70;76774;2838.866;-1801.808;1;163;210;214.5;21.8;21.4;38;37.5;28.4;-1.0;
16/02/2025 15:27:42;117;0;155.25;-4;30.55;7.30;132.3;18.70;76777;2838.865;-1801.808;1;163;210;214.5;21.8;21.5;38;37.5;28.4;-1.0;
16/02/2025 15:28:02;117;0;157.70;-4;30.66;7.42;129.7;18.70;76777;2838.865;-1801.808;1;163;210;216.1;21.8;21.4;38;37.5;28.4;-1.0;
16/02/2025 15:28:22;117;0;160.98;-4;30.64;7.33;127.1;18.70;76777;2838.864;-1801.808;1;163;210;216.1;21.8;21.4;36;36.1;28.4;-1.0;
16/02/2025 15:28:42;117;0;160.21;-4;30.42;6.36;124.5;18.70;76789;2838.864;-1801.808;1;163;210;214.5;21.8;21.5;36;36.1;28.4;-1.0;
16/02/2025 15:29:02;117;0;155.25;-4;30.18;6.57;122.0;18.70;76801;2838.863;-1801.808;1;163;210;214.5;21.8;21.4;36;36.1;28.4;-1.0;
16/02/2025 15:29:22;117;0;151.60;-4;29.96;6.51;119.5;18.70;76800;2838.863;-1801.807;1;163;210;214.5;21.8;21.4;36;36.1;28.4;-1.0;
16/02/2025 15:29:42;117;0;148.28;-4;29.91;6.47;117.3;18.70;76821;2838.863;-1801.807;1;163;210;214.5;21.8;21.4;38;37.9;28.4;-1.0;
16/02/2025 15:30:02;117;0;148.90;-4;29.99;7.83;115.0;18.70;76832;2838.863;-1801.807;1;163;210;216.1;21.8;21.4;38;38.8;28.4;-1.0;
16/02/2025 15:30:22;117;0;151.43;-4;30.17;7.92;112.6;18.70;76857;2838.862;-1801.807;1;163;210;216.1;21.8;21.4;38;38.8;28.4;-1.0;
16/02/2025 15:30:42;117;0;153.25;-4;29.78;7.92;110.2;18.70;76859;2838.862;-1801.806;1;163;210;214.5;21.8;21.5;38;38.8;28.4;-1.0;
16/02/2025 15:31:02;117;0;154.54;-4;29.88;7.98;107.9;18.70;76877;2838.862;-1801.806;1;163;210;214.5;21.8;21.4;38;38.8;28.4;-1.0;
16/02/2025 15:31:22;117;0;156.69;-4;29.99;7.76;105.4;18.70;76894;2838.862;-1801.806;1;163;210;214.5;21.8;21.5;38;38.4;28.4;-1.0;
16/02/2025 15:31:42;117;0;158.20;-4;29.98;7.85;103.0;18.70;76906;2838.861;-1801.806;1;163;210;214.5;21.8;21.5;38;38.8;28.4;-1.0;
16/02/2025 15:32:02;117;0;158.17;-4;29.75;7.86;100.6;18.80;76915;2838.861;-1801.806;1;163;210;216.1;21.8;21.5;38;38.4;28.4;-1.0;
16/02/2025 15:32:22;117;0;158.78;-4;29.81;7.90;98.2;18.80;76915;2838.860;-1801.806;1;163;210;214.5;21.8;21.5;38;38.8;28.4;-1.0;
16/02/2025 15:32:42;117;0;157.07;-4;30.01;7.83;95.9;18.80;76928;2838.860;-1801.806;1;163;210;214.5;21.8;21.4;38;38.4;28.4;-1.0;
16/02/2025 15:33:02;117;0;159.66;-4;30.47;7.84;93.4;18.80;76942;2838.860;-1801.806;1;163;210;214.5;21.8;21.5;38;38.8;28.4;-1.0;
16/02/2025 15:33:22;117;0;161.70;-4;30.14;7.91;90.9;18.80;76947;2838.859;-1801.807;1;163;210;214.5;21.8;21.4;36;36.1;28.4;-1.0;
16/02/2025 15:33:42;117;0;163.49;-4;30.04;6.34;88.3;18.80;76961;2838.858;-1801.807;1;163;210;216.1;21.8;21.4;36;35.6;28.4;-1.0;
16/02/2025 15:34:02;117;0;163.95;-4;29.78;6.30;85.7;18.80;76974;2838.858;-1801.807;1;163;210;216.1;21.8;21.4;36;35.6;28.4;-1.0;
16/02/2025 15:34:22;117;0;162.16;-4;29.83;6.37;83.1;18.90;76995;2838.857;-1801.807;1;163;210;214.5;21.8;21.4;36;35.6;28.4;-1.0;
16/02/2025 15:34:42;117;0;163.53;-4;30.34;6.35;80.4;18.90;77010;2838.856;-1801.807;1;163;210;214.5;21.8;21.5;36;35.6;28.4;-1.0;
16/02/2025 15:35:02;117;0;162.19;-4;30.29;6.33;77.7;18.90;77000;2838.856;-1801.807;1;163;210;214.5;21.8;21.4;36;35.6;28.4;-1.0;
16/02/2025 15:35:22;117;0;163.09;-4;29.72;6.32;75.1;18.90;77020;2838.855;-1801.807;1;163;210;214.5;21.8;21.5;36;35.6;28.4;-1.0;
16/02/2025 15:35:42;117;0;164.20;-4;29.68;6.27;72.6;18.90;77024;2838.855;-1801.808;1;163;210;216.1;21.8;21.4;34;31.1;28.4;-1.0;
16/02/2025 15:36:02;117;0;163.88;-4;29.25;5.31;70.1;19.00;77041;2838.854;-1801.808;1;163;210;214.5;21.8;21.4;34;33.8;28.4;-1.0;
16/02/2025 15:36:22;117;0;163.87;-4;30.10;5.40;67.6;19.00;77045;2838.854;-1801.808;1;163;210;216.1;21.8;21.4;34;33.8;28.4;-1.0;
16/02/2025 15:36:42;117;0;163.62;-4;29.83;5.32;65.0;19.00;77041;2838.853;-1801.808;1;162;210;214.5;21.8;21.4;34;33.8;28.4;-1.0;
16/02/2025 15:37:02;117;0;162.90;-4;29.54;5.35;62.5;19.00;77057;2838.852;-1801.808;1;162;210;214.5;21.8;21.4;34;33.8;28.4;-1.0;
16/02/2025 15:37:22;117;0;163.44;-4;29.67;5.34;59.9;19.10;77061;2838.852;-1801.809;1;162;210;216.1;21.8;21.4;34;33.8;28.4;-1.0;
16/02/2025 15:37:42;117;0;161.89;-4;29.47;5.34;57.4;19.10;77060;2838.851;-1801.809;1;162;210;216.1;21.8;21.4;34;33.8;28.4;-1.0;
16/02/2025 15:38:02;117;0;160.99;-4;29.82;5.35;54.8;19.10;77057;2838.851;-1801.809;1;162;210;214.5;21.8;21.4;36;36.1;28.4;-1.0;
16/02/2025 15:38:22;117;0;160.64;-4;30.00;6.69;52.3;19.10;77062;2838.850;-1801.809;1;162;210;216.1;21.8;21.4;36;36.6;28.4;-1.0;
16/02/2025 15:38:42;117;0;160.20;-4;30.38;6.70;49.6;19.10;77058;2838.849;-1801.809;1;162;210;216.1;21.8;21.4;36;36.6;28.4;-1.0;
16/02/2025 15:39:02;117;0;160.33;-4;29.62;6.67;47.0;19.20;77071;2838.849;-1801.809;1;162;210;214.5;21.8;21.4;36;36.6;28.4;-1.0;
16/02/2025 15:39:22;117;0;160.47;-4;29.44;6.74;44.2;19.20;77073;2838.848;-1801.809;1;162;210;214.5;21.8;21.5;36;36.1;28.4;-1.0;
16/02/2025 15:39:42;117;0;161.52;-4;29.26;6.79;41.6;19.20;77069;2838.847;-1801.809;1;162;210;216.1;21.8;21.4;36;36.6;28.4;-1.0;
16/02/2025 15:40:02;117;0;161.64;-4;30.20;6.77;39.0;19.20;77074;2838.847;-1801.809;1;162;210;214.5;21.8;21.5;36;36.6;28.4;-1.0;
16/02/2025 15:40:22;117;0;161.84;-4;29.53;6.84;36.3;19.20;77079;2838.846;-1801.809;1;162;210;216.1;21.8;21.4;36;36.6;28.4;-1.0;
16/02/2025 15:40:42;117;0;160.91;-4;29.94;6.66;33.7;19.30;77086;2838.846;-1801.809;1;162;210;216.1;21.8;21.5;36;36.6;28.4;-1.0;
16/02/2025 15:41:02;117;0;160.01;-4;29.46;6.81;31.1;19.30;77088;2838.845;-1801.809;1;162;210;216.1;21.8;21.4;36;36.6;28.4;-1.0;
16/02/2025 15:41:22;117;0;160.13;-4;29.55;6.69;28.4;19.30;77088;2838.844;-1801.809;1;162;210;216.1;21.8;21.5;36;36.6;28.4;-1.0;
16/02/2025 15:41:42;117;0;159.67;-4;29.34;6.73;25.9;19.30;77100;2838.844;-1801.809;1;162;210;216.1;21.8;21.5;36;36.6;28.4;-1.0;
16/02/2025 15:42:02;117;0;159.96;-4;30.08;6.78;23.3;19.40;77113;2838.843;-1801.809;1;162;210;216.1;21.8;21.4;36;36.6;28.4;-1.0;
16/02/2025 15:42:22;117;0;161.08;-4;29.45;6.71;20.8;19.40;77109;2838.842;-1801.809;1;162;210;217.7;21.8;21.4;36;36.6;28.4;-1.0;
16/02/2025 15:42:42;117;0;161.82;-4;30.04;6.81;18.2;19.40;77122;2838.842;-1801.809;1;162;210;214.5;21.8;21.4;36;36.1;28.4;-1.0;
16/02/2025 15:43:02;117;0;162.50;-4;29.19;6.77;15.6;19.40;77121;2838.841;-1801.810;1;162;210;217.7;21.8;21.4;36;36.1;28.4;-1.0;
16/02/2025 15:43:22;117;0;163.64;-4;30.40;6.95;12.9;19.40;77134;2838.841;-1801.810;1;162;210;216.1;21.8;21.4;34;32.0;28.4;-1.0;
16/02/2025 15:43:42;117;0;163.35;-4;28.97;4.84;10.3;19.40;77127;2838.840;-1801.810;1;162;210;216.1;21.5;21.6;34;33.4;28.4;-1.0;
16/02/2025 15:44:02;117;0;164.10;-4;29.61;5.26;7.7;19.50;77140;2838.839;-1801.810;1;162;210;216.1;21.5;21.6;34;33.4;28.4;-1.0;
16/02/2025 15:44:22;117;0;165.82;-4;30.23;5.00;5.0;19.50;77142;2838.838;-1801.810;1;162;210;214.5;21.5;21.6;32;32.0;28.4;-1.0;
16/02/2025 15:44:36;115;0;164.16;-4;30.43;5.49;3.0;19.50;77147;2838.838;-1801.810;1;162;500;224.2;100.0;65.8;0;-0.5;28.4;-1.0;
16/02/2025 15:44:46;115;0;145.73;-4;9.13;-12.23;2.1;19.50;77118;2838.837;-1801.810;1;162;500;343.5;100.0;100.1;0;-0.5;28.1;-1.0;
16/02/2025 15:44:56;115;0;142.22;-4;-60.41;-16.47;2.8;19.50;76855;2838.838;-1801.810;1;162;500;454.8;100.0;100.7;0;-0.5;28.2;-1.0;
16/02/2025 15:45:06;115;0;138.01;-4;-66.09;-20.31;2.4;19.60;76601;2838.838;-1801.810;1;162;500;508.1;100.0;100.7;0;-0.5;28.2;-1.0;
16/02/2025 15:45:16;115;0;154.38;-4;-38.99;-9.85;-0.8;19.60;76505;2838.837;-1801.810;1;162;500;508.1;100.0;100.7;0;-0.5;28.4;-1.0;
16/02/2025 15:45:36;119;0;204.87;-4;-57.89;-22.68;-0.3;19.60;76534;2838.837;-1801.810;1;162;500;509.7;100.0;100.7;0;-0.5;28.4;-1.0;
16/02/2025 15:45:46;119;0;245.46;-4;-55.24;-14.71;-0.4;19.60;76534;2838.756;-1801.791;0;162;500;508.1;100.0;100.7;0;-0.5;28.4;-1.0;
