Timestamp;NavState;SecurityLevel;Heading;Declination;Pitch;Roll;Depth;Temperature;Pa;Lat;Lon;DeadReckoning;DesiredH;BallastCmd;BallastPos;LinCmd;LinPos;AngCmd;AngPos;Voltage;Altitude;
12/02/2025 11:29:05;119;0;208.02;-4;-55.74;-11.06;-0.0;23.70;77025;2837.410;-1757.896;0;-9999;500;509.7;100.0;100.7;0;0.0;29.2;-1.0;
12/02/2025 11:29:15;116;0;199.17;-4;-56.87;-9.49;0.1;23.70;77021;2837.412;-1757.897;0;-9999;500;509.7;100.0;100.6;0;0.0;29.2;-1.0;
12/02/2025 11:29:42;116;0;185.55;-4;-45.81;-10.50;0.1;23.70;77031;2837.412;-1757.898;0;-9999;500;509.7;100.0;100.7;0;0.0;29.2;-1.0;
12/02/2025 11:30:08;116;0;168.26;-4;-49.45;-18.92;0.1;23.60;77022;2837.413;-1757.899;0;-9999;500;509.7;100.0;100.7;0;0.0;29.2;-1.0;
12/02/2025 11:30:20;116;0;190.59;-4;-58.57;-7.64;0.1;23.60;77017;2837.414;-1757.899;0;-9999;500;509.7;100.0;100.7;0;0.0;29.2;-1.0;
12/02/2025 11:30:31;116;0;189.27;-4;-45.99;-10.70;0.1;23.60;77032;2837.415;-1757.899;0;-9999;500;509.7;100.0;100.7;0;0.0;29.2;-1.0;
12/02/2025 11:31:11;116;0;186.90;-4;-48.19;-14.23;0.2;23.60;77030;2837.416;-1757.900;0;-9999;500;509.7;100.0;100.6;0;0.0;29.2;-1.0;
12/02/2025 11:31:55;116;0;186.82;-4;-56.58;-12.99;0.2;23.60;77019;2837.418;-1757.903;0;-9999;500;509.7;100.0;100.7;0;0.0;29.2;-1.0;
12/02/2025 11:32:15;116;0;202.13;-4;-52.22;-10.75;0.1;23.60;77022;2837.418;-1757.902;0;-9999;500;509.7;100.0;100.6;0;0.0;29.2;-1.0;
12/02/2025 11:32:35;116;0;205.93;-4;-46.69;-22.24;0.1;23.60;77029;2837.418;-1757.903;0;-9999;500;508.1;100.0;100.7;0;0.0;29.2;-1.0;
12/02/2025 11:32:55;116;0;203.38;-4;-47.29;-6.85;0.1;23.60;77032;2837.418;-1757.903;0;-9999;500;509.7;100.0;100.7;0;0.0;29.2;-1.0;
12/02/2025 11:33:15;116;0;199.22;-4;-51.26;-15.84;0.2;23.60;77026;2837.418;-1757.904;0;-9999;500;511.3;100.0;100.7;0;0.5;29.2;-1.0;
12/02/2025 11:33:35;116;0;188.32;-4;-49.77;-12.35;0.2;23.60;77037;2837.419;-1757.905;0;-9999;500;508.1;100.0;100.7;0;0.0;29.2;-1.0;
12/02/2025 11:33:55;116;0;193.74;-4;-49.50;-5.81;0.1;23.60;77025;2837.420;-1757.906;0;-9999;500;509.7;100.0;100.6;0;0.0;29.2;-1.0;
12/02/2025 11:34:15;116;0;192.34;-4;-49.68;-15.79;0.1;23.60;77025;2837.420;-1757.907;0;-9999;500;509.7;100.0;100.7;0;0.0;29.2;-1.0;
12/02/2025 11:34:35;116;0;190.86;-4;-51.50;-10.52;0.2;23.60;77034;2837.421;-1757.908;0;-9999;500;509.7;100.0;100.6;0;0.0;29.2;-1.0;
12/02/2025 11:34:55;116;0;191.46;-4;-47.87;-14.36;0.1;23.60;77024;2837.422;-1757.909;0;-9999;500;509.7;100.0;100.7;0;0.0;29.2;-1.0;
12/02/2025 11:35:15;116;0;195.46;-4;-47.06;-15.59;0.2;23.70;77031;2837.423;-1757.909;0;-9999;500;509.7;100.0;100.7;0;0.0;29.2;-1.0;
12/02/2025 11:35:35;116;0;195.27;-4;-49.81;-6.60;0.1;23.70;77017;2837.424;-1757.910;0;-9999;500;509.7;100.0;100.7;0;0.5;29.2;-1.0;
12/02/2025 11:35:55;116;0;210.76;-4;-49.90;-11.36;0.2;23.70;77033;2837.424;-1757.910;0;-9999;500;509.7;100.0;100.7;0;0.0;29.2;-1.0;
12/02/2025 11:36:15;116;0;203.26;-4;-54.69;-16.51;0.1;23.70;77028;2837.425;-1757.911;0;-9999;500;509.7;100.0;100.6;0;0.0;29.2;-1.0;
12/02/2025 11:36:35;116;0;258.33;-4;-53.79;-1.84;0.1;23.70;77018;2837.426;-1757.912;0;-9999;500;509.7;100.0;100.7;0;0.0;29.2;-1.0;
12/02/2025 11:36:55;116;0;261.58;-4;-54.68;-10.92;0.2;23.70;77021;2837.428;-1757.912;0;-9999;500;509.7;100.0;100.7;0;0.0;29.2;-1.0;
12/02/2025 11:37:15;116;0;259.86;-4;-56.68;-15.30;0.1;23.70;77021;2837.429;-1757.913;0;-9999;500;509.7;100.0;100.7;0;0.0;29.2;-1.0;
12/02/2025 11:37:35;116;0;246.82;-4;-53.93;-3.51;0.1;23.70;77021;2837.430;-1757.914;0;-9999;500;509.7;100.0;100.7;0;0.0;29.2;-1.0;
12/02/2025 11:37:55;116;0;240.34;-4;-51.07;-15.73;0.2;23.70;77015;2837.431;-1757.916;0;-9999;500;509.7;100.0;100.7;0;0.0;29.2;-1.0;
12/02/2025 11:38:15;116;0;220.41;-4;-52.16;-9.23;0.1;23.70;77005;2837.432;-1757.916;0;-9999;500;509.7;100.0;100.7;0;0.0;29.2;-1.0;
12/02/2025 11:38:35;116;0;227.23;-4;-50.72;-6.82;0.1;23.70;77017;2837.432;-1757.917;0;230;500;509.7;100.0;100.7;0;0.0;29.2;-1.0;
12/02/2025 11:39:01;116;0;223.03;-4;-53.46;-13.96;0.1;23.70;77019;2837.433;-1757.919;0;230;500;509.7;100.0;100.7;0;0.0;29.2;-1.0;
12/02/2025 11:39:15;116;0;220.67;-4;-50.78;-10.94;0.1;23.70;77012;2837.434;-1757.919;0;230;500;509.7;100.0;100.7;0;0.0;29.2;-1.0;
12/02/2025 11:39:35;116;0;223.00;-4;-46.73;-6.70;0.2;23.70;77012;2837.434;-1757.920;0;230;500;509.7;100.0;100.6;0;0.0;29.2;-1.0;
12/02/2025 11:39:48;116;0;219.72;-4;-58.31;-14.23;0.0;23.70;77016;2837.435;-1757.920;0;230;500;509.7;100.0;100.7;0;0.0;29.2;-1.0;
12/02/2025 11:40:08;110;0;202.46;-4;-52.56;-9.19;0.2;23.70;77012;2837.435;-1757.920;0;230;-500;385.5;100.0;100.6;0;0.5;29.2;-1.0;
12/02/2025 11:40:18;110;0;194.77;-4;-50.92;-8.18;0.3;23.70;77380;2837.436;-1757.920;1;230;-500;237.1;100.0;100.6;0;0.0;29.2;-1.0;
12/02/2025 11:40:28;110;0;194.35;-4;-54.82;0.62;0.5;23.70;77626;2837.436;-1757.920;1;230;-500;80.6;100.0;100.7;0;0.0;29.2;-1.0;
12/02/2025 11:40:38;110;0;196.18;-4;-71.03;-0.91;0.9;23.70;77962;2837.437;-1757.921;1;230;-500;-80.6;100.0;100.7;0;0.0;29.2;-1.0;
12/02/2025 11:40:48;110;0;190.14;-4;-66.21;-16.68;1.1;23.70;78310;2837.439;-1757.921;1;230;-500;-250.0;48.6;48.6;0;0.0;29.2;-1.0;
12/02/2025 11:40:58;110;0;190.46;-4;-51.49;-15.67;2.2;23.70;78674;2837.439;-1757.921;1;230;-500;-451.6;48.6;48.3;0;0.5;29.2;-1.0;
12/02/2025 11:41:08;110;0;199.75;-4;-32.53;-9.63;4.6;23.70;79157;2837.439;-1757.922;1;230;-500;-503.2;48.6;48.3;0;0.0;29.2;-1.0;
12/02/2025 11:41:18;110;0;212.53;-4;-29.34;-10.04;7.9;23.70;79220;2837.437;-1757.924;1;230;-500;-501.6;48.6;48.2;0;0.0;29.2;-1.0;
12/02/2025 11:41:38;100;0;213.64;-4;-28.19;-8.71;15.4;23.70;79196;2837.434;-1757.928;1;230;-500;-501.6;48.6;48.2;0;0.0;29.2;-1.0;
12/02/2025 11:41:58;100;0;213.75;-4;-28.06;-8.58;24.0;23.70;79189;2837.429;-1757.934;1;230;-500;-501.6;46.2;46.2;0;0.5;29.2;0.0;
12/02/2025 11:42:10;118;0;213.17;-4;-26.30;-8.70;28.6;23.60;79182;2837.427;-1757.937;1;230;500;-501.6;34.0;34.0;0;0.0;29.2;0.0;
12/02/2025 11:42:20;118;0;194.04;-4;-20.66;-9.76;31.3;23.60;79157;2837.424;-1757.938;1;230;500;-377.4;34.0;33.9;0;0.0;29.0;-1.0;
12/02/2025 11:42:30;118;0;196.83;-4;-12.23;-9.72;33.7;23.60;78883;2837.422;-1757.939;1;230;500;-254.8;34.0;33.6;0;0.5;29.0;-1.0;
12/02/2025 11:42:40;118;0;198.87;-4;-5.66;-10.73;35.1;23.60;78610;2837.421;-1757.940;1;230;500;-127.4;34.0;33.6;0;0.0;29.0;-1.0;
12/02/2025 11:42:50;118;0;201.94;-4;-0.76;-11.60;35.7;23.60;78342;2837.422;-1757.940;1;230;500;-6.5;34.0;33.6;0;0.0;29.0;-1.0;
12/02/2025 11:43:00;118;0;204.68;-4;1.76;-12.09;35.9;23.50;78086;2837.423;-1757.940;1;230;500;116.1;34.0;33.4;0;0.5;29.0;-1.0;
12/02/2025 11:43:10;118;0;204.37;-4;1.09;-12.59;36.0;23.50;77823;2837.425;-1757.940;1;230;500;238.7;34.0;33.6;0;0.0;29.0;-1.0;
12/02/2025 11:43:20;118;0;201.77;-4;-1.90;-12.66;35.9;23.50;77561;2837.426;-1757.940;1;230;500;361.3;34.0;33.6;0;0.0;29.0;-1.0;
12/02/2025 11:43:30;118;0;196.33;-4;-6.91;-13.15;35.4;23.50;77299;2837.426;-1757.941;1;230;500;467.7;34.0;33.4;0;0.0;29.0;-1.0;
12/02/2025 11:43:40;118;0;201.40;-4;-16.24;-13.25;34.6;23.40;77043;2837.426;-1757.941;1;230;500;504.8;34.0;33.6;0;0.0;29.0;-1.0;
12/02/2025 11:43:50;118;0;213.81;-4;-8.40;-13.23;33.3;23.40;76973;2837.425;-1757.943;1;230;500;504.8;34.0;33.6;0;0.0;29.2;-1.0;
12/02/2025 11:44:10;117;0;199.85;-4;0.67;-12.15;31.2;23.40;76972;2837.427;-1757.943;1;230;500;508.1;34.0;33.4;0;0.0;29.2;-1.0;
12/02/2025 11:44:30;117;0;255.81;-4;-2.58;-12.85;28.5;23.40;76972;2837.429;-1757.945;1;230;500;508.1;27.2;26.8;-70;-69.9;29.2;-1.0;
12/02/2025 11:44:50;117;0;281.94;-4;-2.99;-49.46;26.5;23.30;76965;2837.431;-1757.947;1;230;500;508.1;20.3;20.3;-70;-70.4;29.2;-1.0;
12/02/2025 11:45:10;117;0;248.74;-4;14.18;-50.45;24.3;23.30;76966;2837.432;-1757.951;1;230;500;508.1;18.6;18.7;-62;-61.4;29.2;-1.0;
12/02/2025 11:45:30;117;0;238.01;-4;10.33;-46.77;21.6;23.30;76964;2837.433;-1757.955;1;230;500;508.1;15.7;15.3;-41;-41.1;29.2;-1.0;
12/02/2025 11:45:50;117;0;217.34;-4;19.06;-31.39;19.0;23.20;76967;2837.432;-1757.958;1;230;500;509.7;15.7;15.9;-16;-15.8;29.2;-1.0;
12/02/2025 11:46:10;117;0;208.10;-4;24.96;-18.19;15.3;23.10;76961;2837.431;-1757.960;1;230;500;508.1;17.2;17.2;-1;-0.9;29.2;-1.0;
12/02/2025 11:46:30;117;0;197.29;-4;25.54;-11.00;10.8;23.10;76956;2837.429;-1757.962;1;230;500;509.7;18.8;18.9;2;2.7;29.2;-1.0;
12/02/2025 11:46:50;117;0;184.92;-4;22.97;-9.89;6.2;23.00;76956;2837.426;-1757.962;1;230;500;509.7;19.7;20.0;24;23.9;29.2;-1.0;
12/02/2025 11:47:10;117;0;182.97;-4;24.35;2.23;1.8;22.90;76962;2837.424;-1757.963;1;230;500;508.1;21.0;20.0;24;23.9;29.2;-1.0;
12/02/2025 11:47:13;115;0;182.65;-4;24.78;3.25;1.1;23.00;76965;2837.423;-1757.963;1;230;500;509.7;100.0;69.5;0;-0.9;29.2;-1.0;
12/02/2025 11:47:23;115;0;178.55;-4;-2.84;-10.65;-0.1;22.90;76960;2837.423;-1757.963;1;230;500;508.1;100.0;100.0;0;-0.5;29.2;-1.0;
12/02/2025 11:47:33;115;0;167.47;-4;-53.27;-8.06;0.8;22.90;76966;2837.424;-1757.963;1;230;500;509.7;100.0;100.6;0;-0.9;29.2;-1.0;
12/02/2025 11:47:53;119;0;183.17;-4;-42.07;-11.41;-0.1;22.90;76968;2837.424;-1757.963;1;230;500;509.7;100.0;100.7;0;-0.9;29.2;-1.0;
12/02/2025 11:48:03;119;0;194.73;-4;-52.17;-14.76;-0.1;22.90;76979;2837.394;-1757.964;0;230;500;508.1;100.0;100.7;0;-0.9;29.2;-1.0;
