Timestamp;NavState;SecurityLevel;Heading;Declination;Pitch;Roll;Depth;Temperature;Pa;Lat;Lon;DeadReckoning;DesiredH;BallastCmd;BallastPos;LinCmd;LinPos;AngCmd;AngPos;Voltage;Altitude;
04/03/2025 02:58:49;119;0;89.66;-4;-56.12;5.85;0.2;16.40;75531;2838.692;-1801.049;0;135;500;504.8;100.0;100.4;0;0.0;25.0;-1.0;
04/03/2025 02:58:58;116;0;66.67;-4;-58.18;-27.48;0.1;16.40;75529;2838.695;-1801.050;0;135;500;506.5;100.0;100.6;0;0.0;25.0;-1.0;
04/03/2025 02:59:23;116;0;116.18;-4;-50.98;-10.23;0.3;16.50;75544;2838.699;-1801.049;0;135;500;506.5;100.0;100.6;0;0.0;25.0;-1.0;
04/03/2025 02:59:44;116;0;97.99;-4;-43.79;-25.71;0.1;16.60;75549;2838.700;-1801.050;0;135;500;506.5;100.0;100.6;0;0.0;25.0;-1.0;
04/03/2025 03:00:04;116;0;107.72;-4;-55.94;-7.63;0.2;16.60;75553;2838.703;-1801.051;0;146;500;504.8;100.0;100.6;0;0.0;25.0;-1.0;
04/03/2025 03:00:18;116;0;124.34;-4;-47.21;-18.54;0.1;16.70;75560;2838.704;-1801.051;0;146;500;506.5;100.0;100.4;0;-0.5;25.0;-1.0;
04/03/2025 03:01:20;116;0;302.79;-4;-57.41;-14.57;0.0;16.90;75576;2838.713;-1801.051;0;146;500;506.5;100.0;100.6;0;0.0;25.0;-1.0;
04/03/2025 03:02:16;116;0;20.06;-4;-54.82;-22.95;0.1;17.20;75597;2838.721;-1801.054;0;146;500;506.5;100.0;100.4;0;0.0;25.0;-1.0;
04/03/2025 03:03:19;116;0;33.33;-4;-50.80;-14.75;0.1;17.40;75614;2838.730;-1801.056;0;146;500;506.5;100.0;100.4;0;-0.5;25.0;-1.0;
04/03/2025 03:04:43;116;0;345.23;-4;-36.27;-8.61;0.1;17.80;75651;2838.740;-1801.061;0;146;500;506.5;100.0;100.4;0;0.0;25.0;-1.0;
04/03/2025 03:05:03;110;0;353.18;-4;-43.68;-22.30;-0.0;17.90;75664;2838.740;-1801.061;0;146;-110;387.1;100.0;100.4;-7;-7.2;25.0;-1.0;
04/03/2025 03:05:13;110;0;348.63;-4;-42.60;-17.83;-0.0;18.00;76013;2838.741;-1801.062;1;146;-110;243.5;100.0;100.4;-7;-7.2;25.0;-1.0;
04/03/2025 03:05:23;110;0;357.58;-4;-51.92;-21.40;0.3;18.00;76240;2838.742;-1801.062;1;146;-110;95.2;100.0;100.6;-7;-7.2;25.0;-1.0;
04/03/2025 03:05:33;110;0;0.24;-4;-69.75;-21.32;0.7;18.00;76552;2838.743;-1801.062;1;146;-110;-61.3;100.0;100.4;-7;-7.2;25.0;-1.0;
04/03/2025 03:05:43;110;0;342.05;-4;-67.07;-9.79;1.0;18.10;76889;2838.744;-1801.062;1;146;-110;-109.7;43.1;54.3;-7;-7.2;25.0;-1.0;
04/03/2025 03:05:53;110;0;338.98;-4;-61.10;-11.22;2.3;18.10;76948;2838.745;-1801.063;1;146;-110;-109.7;43.1;43.2;-7;-7.2;25.0;-1.0;
04/03/2025 03:06:13;100;0;354.14;-4;-21.57;-15.24;5.8;18.20;76958;2838.751;-1801.064;1;146;-110;-104.8;43.1;42.9;-7;-7.2;25.0;-1.0;
04/03/2025 03:06:33;100;0;0.87;-4;-20.18;-15.13;9.1;18.30;76969;2838.757;-1801.065;1;146;-110;-103.2;43.1;42.7;-70;-69.9;25.0;-1.0;
04/03/2025 03:06:53;100;0;7.86;-4;-18.93;-45.77;11.9;18.30;76974;2838.762;-1801.065;1;146;-110;-101.6;43.4;43.4;-70;-70.4;25.0;-1.0;
04/03/2025 03:07:13;100;0;19.48;-4;-21.11;-45.74;14.5;18.40;76979;2838.767;-1801.064;1;146;-110;-101.6;43.4;43.6;-70;-70.4;25.0;0.0;
04/03/2025 03:07:33;100;0;31.91;-4;-20.24;-45.86;17.4;18.40;76972;2838.772;-1801.063;1;146;-110;-101.6;43.4;43.7;-70;-70.4;25.0;0.0;
04/03/2025 03:07:53;100;0;45.02;-4;-20.86;-45.11;20.3;18.50;76984;2838.776;-1801.060;1;146;-110;-103.2;43.4;43.6;-70;-70.4;25.0;0.0;
04/03/2025 03:08:13;100;0;54.45;-4;-21.18;-45.54;22.9;18.50;76996;2838.779;-1801.058;1;146;-110;-101.6;43.4;43.6;-70;-69.9;25.0;0.0;
04/03/2025 03:08:33;100;0;66.13;-4;-21.08;-45.39;25.7;18.50;77006;2838.782;-1801.055;1;146;-110;-101.6;43.4;43.6;-70;-69.9;25.0;0.0;
04/03/2025 03:08:53;100;0;78.54;-4;-20.68;-45.53;28.5;18.60;77007;2838.785;-1801.052;1;146;-110;-101.6;43.4;43.6;-70;-70.4;25.0;0.0;
04/03/2025 03:09:13;100;0;90.20;-4;-20.90;-45.34;31.5;18.60;77012;2838.786;-1801.048;1;146;-110;-101.6;43.4;43.7;-61;-60.9;25.0;0.0;
04/03/2025 03:09:33;100;0;101.71;-4;-20.99;-40.37;34.2;18.60;77017;2838.787;-1801.045;1;146;-110;-101.6;43.4;43.7;-47;-46.9;25.0;0.0;
04/03/2025 03:09:53;100;0;111.41;-4;-20.71;-33.43;37.1;18.60;77026;2838.788;-1801.042;1;146;-110;-101.6;43.4;43.7;-35;-35.2;25.0;0.0;
04/03/2025 03:10:13;100;0;121.67;-4;-20.77;-27.84;39.9;18.70;77039;2838.788;-1801.039;1;146;-110;-104.8;43.4;43.7;-22;-22.1;25.0;0.0;
04/03/2025 03:10:33;100;0;130.68;-4;-21.15;-21.26;42.7;18.70;77042;2838.787;-1801.037;1;146;-110;-101.6;43.4;43.7;-7;-7.2;25.0;0.0;
04/03/2025 03:10:53;100;0;134.71;-4;-21.47;-14.60;45.4;18.70;77044;2838.786;-1801.035;1;146;-110;-101.6;43.4;43.9;0;0.0;25.0;0.0;
04/03/2025 03:11:13;100;0;141.86;-4;-21.46;-11.18;48.1;18.70;77033;2838.785;-1801.033;1;146;-110;-101.6;43.4;43.9;10;9.9;25.0;0.0;
04/03/2025 03:11:33;100;0;140.10;-4;-22.57;-6.38;50.8;18.70;77025;2838.785;-1801.031;1;146;-110;-101.6;42.7;42.7;7;6.8;25.0;0.0;
04/03/2025 03:11:53;100;0;141.13;-4;-20.77;-8.09;53.5;18.70;77025;2838.784;-1801.029;1;146;-110;-101.6;42.7;42.6;9;9.0;25.0;0.0;
04/03/2025 03:12:13;100;0;143.69;-4;-20.27;-6.90;56.2;18.70;77012;2838.783;-1801.028;1;146;-110;-101.6;42.7;42.6;12;12.2;25.0;0.0;
04/03/2025 03:12:33;100;0;147.06;-4;-20.45;-5.30;58.7;18.60;77014;2838.781;-1801.026;1;146;-110;-101.6;42.7;42.6;14;14.0;25.0;0.0;
04/03/2025 03:12:53;100;0;146.66;-4;-20.89;-4.30;61.2;18.60;76996;2838.781;-1801.025;1;146;-110;-101.6;42.7;42.6;14;14.4;25.0;0.0;
04/03/2025 03:13:13;100;0;144.53;-4;-20.93;-4.35;64.1;18.60;76991;2838.779;-1801.023;1;146;-110;-101.6;42.7;42.6;12;12.2;25.0;0.0;
04/03/2025 03:13:33;100;0;141.18;-4;-20.69;-5.71;66.7;18.60;76983;2838.778;-1801.021;1;146;-110;-100.0;42.7;42.6;8;8.1;25.0;0.0;
04/03/2025 03:13:53;100;0;140.25;-4;-20.11;-7.68;69.5;18.60;76983;2838.777;-1801.020;1;146;-110;-101.6;42.7;42.6;8;7.7;25.0;0.0;
04/03/2025 03:14:13;100;0;141.38;-4;-20.36;-7.50;72.0;18.60;76972;2838.776;-1801.018;1;146;-110;-101.6;42.7;42.6;8;7.7;25.0;0.0;
04/03/2025 03:14:33;100;0;145.26;-4;-20.21;-7.67;74.3;18.60;76975;2838.776;-1801.016;1;146;-110;-101.6;42.7;42.6;12;12.2;25.0;0.0;
04/03/2025 03:14:54;100;0;145.56;-4;-20.50;-5.20;77.1;18.60;76970;2838.774;-1801.015;1;146;-110;-101.6;42.7;42.6;12;12.6;25.0;0.0;
04/03/2025 03:15:14;100;0;148.54;-4;-20.89;-5.18;79.4;18.60;76967;2838.774;-1801.014;1;146;-110;-101.6;42.7;42.6;14;14.0;25.0;0.0;
04/03/2025 03:15:34;100;0;148.09;-4;-20.45;-4.50;82.0;18.60;76957;2838.772;-1801.012;1;146;-110;-101.6;42.7;42.6;14;14.4;25.0;0.0;
04/03/2025 03:15:54;100;0;145.50;-4;-20.02;-4.36;84.4;18.60;76948;2838.772;-1801.011;1;146;-110;-103.2;42.7;42.6;12;12.2;25.0;0.0;
04/03/2025 03:16:14;100;0;145.92;-4;-19.87;-5.79;86.5;18.50;76927;2838.771;-1801.010;1;146;-110;-100.0;42.7;42.6;12;11.7;25.0;0.0;
04/03/2025 03:16:34;100;0;146.74;-4;-19.62;-5.82;88.6;18.50;76936;2838.770;-1801.009;1;146;-110;-101.6;42.7;42.6;12;11.7;25.0;0.0;
04/03/2025 03:16:54;100;0;151.84;-4;-19.65;-5.73;90.8;18.50;76917;2838.770;-1801.008;1;146;-110;-101.6;42.7;42.6;15;14.9;25.0;0.0;
04/03/2025 03:17:14;100;0;153.38;-4;-20.21;-4.04;92.9;18.50;76909;2838.769;-1801.007;1;146;-110;-101.6;42.7;42.6;15;14.9;25.0;0.0;
04/03/2025 03:17:34;100;0;150.51;-4;-19.89;-4.15;94.9;18.50;76896;2838.768;-1801.006;1;146;-110;-101.6;42.7;42.6;15;15.3;25.0;0.0;
04/03/2025 03:17:54;100;0;150.89;-4;-20.03;-4.04;97.1;18.40;76886;2838.767;-1801.005;1;146;-110;-101.6;42.7;42.6;15;14.9;25.0;0.0;
04/03/2025 03:18:14;100;0;149.78;-4;-19.75;-4.02;99.2;18.40;76881;2838.767;-1801.004;1;146;-110;-101.6;42.7;42.6;15;14.9;25.0;0.0;
04/03/2025 03:18:34;100;0;144.43;-4;-19.90;-4.16;101.2;18.40;76869;2838.766;-1801.003;1;146;-110;-101.6;42.7;42.6;9;8.6;25.0;0.0;
04/03/2025 03:18:54;100;0;144.94;-4;-19.17;-7.47;103.2;18.40;76862;2838.766;-1801.002;1;146;-110;-101.6;42.7;42.6;11;10.8;25.0;0.0;
04/03/2025 03:19:14;100;0;148.08;-4;-19.76;-5.97;105.1;18.40;76859;2838.765;-1801.001;1;146;-130;-130.6;42.7;42.6;11;11.3;25.0;0.0;
04/03/2025 03:19:34;100;0;149.35;-4;-19.11;-5.87;107.4;18.30;76902;2838.764;-1801.000;1;146;-130;-132.3;42.7;42.4;14;14.0;25.0;0.0;
04/03/2025 03:19:54;100;0;151.73;-4;-19.20;-4.23;109.6;18.30;76909;2838.763;-1800.999;1;146;-130;-133.9;42.7;42.6;14;14.4;25.0;0.0;
04/03/2025 03:20:14;100;0;155.30;-4;-19.59;-4.26;111.9;18.30;76882;2838.762;-1800.998;1;146;-130;-132.3;42.7;42.6;14;14.4;25.0;0.0;
04/03/2025 03:20:34;100;0;155.20;-4;-19.36;-4.41;114.5;18.30;76888;2838.761;-1800.997;1;146;-130;-132.3;42.7;42.7;14;14.4;25.0;0.0;
04/03/2025 03:20:54;100;0;154.46;-4;-19.36;-4.32;116.8;18.20;76879;2838.760;-1800.996;1;146;-130;-132.3;42.7;42.7;14;14.4;25.0;0.0;
04/03/2025 03:21:14;100;0;151.76;-4;-19.25;-4.21;119.4;18.20;76862;2838.758;-1800.995;1;146;-130;-133.9;42.7;42.6;14;14.4;25.0;0.0;
04/03/2025 03:21:34;100;0;153.76;-4;-18.97;-4.15;121.9;18.20;76849;2838.757;-1800.994;1;146;-130;-132.3;43.0;43.0;14;14.4;25.0;0.0;
04/03/2025 03:21:54;100;0;155.53;-4;-19.94;-4.33;124.5;18.10;76839;2838.756;-1800.993;1;146;-130;-132.3;43.0;43.2;14;14.4;25.0;0.0;
04/03/2025 03:22:14;100;0;156.76;-4;-20.24;-4.22;127.1;18.10;76827;2838.754;-1800.992;1;146;-130;-132.3;43.0;43.2;14;14.4;25.0;0.0;
04/03/2025 03:22:34;100;0;155.84;-4;-19.62;-4.19;129.5;18.10;76819;2838.753;-1800.991;1;146;-130;-132.3;43.0;43.2;14;14.4;25.0;0.0;
04/03/2025 03:22:54;100;0;150.31;-4;-19.88;-4.19;132.1;18.00;76801;2838.752;-1800.990;1;146;-130;-132.3;43.0;43.2;14;14.4;25.0;0.0;
04/03/2025 03:23:14;100;0;148.82;-4;-19.75;-4.36;134.4;18.00;76785;2838.751;-1800.989;1;146;-130;-132.3;43.0;43.2;14;14.4;25.0;0.0;
04/03/2025 03:23:34;100;0;148.17;-4;-19.74;-4.10;136.9;18.00;76792;2838.750;-1800.988;1;146;-130;-133.9;43.0;43.2;14;14.4;25.0;0.0;
04/03/2025 03:23:54;100;0;147.53;-4;-19.77;-4.22;139.3;17.90;76778;2838.749;-1800.986;1;146;-130;-132.3;43.0;43.2;14;14.4;25.0;0.0;
04/03/2025 03:24:14;100;0;147.96;-4;-19.22;-4.31;141.8;17.90;76765;2838.748;-1800.985;1;146;-130;-132.3;43.0;43.2;14;14.4;25.0;0.0;
04/03/2025 03:24:34;100;0;145.83;-4;-19.74;-4.31;144.3;17.90;76758;2838.747;-1800.984;1;146;-130;-133.9;43.0;43.3;14;14.4;25.0;0.0;
04/03/2025 03:24:54;100;0;143.31;-4;-19.98;-4.28;146.9;17.80;76751;2838.746;-1800.982;1;146;-130;-132.3;43.0;43.2;11;10.8;25.0;0.0;
04/03/2025 03:25:14;100;0;140.59;-4;-19.73;-6.17;149.8;17.80;76754;2838.745;-1800.980;1;146;-130;-132.3;43.0;43.3;9;9.0;25.0;0.0;
04/03/2025 03:25:34;100;0;139.91;-4;-19.72;-7.11;152.5;17.80;76742;2838.744;-1800.978;1;146;-130;-133.9;43.0;43.3;7;7.2;25.0;0.0;
04/03/2025 03:25:54;100;0;138.86;-4;-19.75;-8.17;155.2;17.80;76746;2838.743;-1800.976;1;146;-130;-132.3;43.0;43.2;5;5.0;25.0;0.0;
04/03/2025 03:26:14;100;0;136.61;-4;-19.92;-9.14;158.2;17.70;76726;2838.741;-1800.974;1;146;-130;-132.3;43.0;43.3;3;3.2;25.0;0.0;
04/03/2025 03:26:34;100;0;139.47;-4;-19.28;-9.86;161.1;17.70;76726;2838.740;-1800.971;1;146;-130;-132.3;43.0;43.3;7;7.7;25.0;0.0;
04/03/2025 03:26:54;100;0;139.79;-4;-19.00;-7.53;164.0;17.70;76706;2838.739;-1800.969;1;146;-130;-133.9;43.0;43.3;7;7.7;25.0;0.0;
04/03/2025 03:27:14;100;0;138.97;-4;-19.43;-7.50;166.9;17.60;76696;2838.738;-1800.967;1;146;-130;-132.3;43.0;43.3;7;8.1;25.0;0.0;
04/03/2025 03:27:34;100;0;142.98;-4;-19.30;-7.55;169.8;17.60;76692;2838.736;-1800.965;1;146;-130;-132.3;43.0;43.2;11;10.8;25.0;0.0;
04/03/2025 03:27:54;100;0;146.78;-4;-19.52;-5.90;172.7;17.60;76688;2838.735;-1800.963;1;146;-130;-132.3;43.0;43.3;13;13.1;25.0;0.0;
04/03/2025 03:28:14;100;0;148.02;-4;-19.78;-4.77;175.6;17.50;76662;2838.733;-1800.962;1;146;-130;-133.9;43.0;43.3;13;13.1;25.0;0.0;
04/03/2025 03:28:34;100;0;149.72;-4;-19.76;-4.80;178.4;17.50;76661;2838.732;-1800.960;1;146;-130;-133.9;43.0;43.3;13;13.1;25.0;0.0;
04/03/2025 03:28:54;100;0;151.51;-4;-19.69;-4.70;181.3;17.40;76655;2838.730;-1800.959;1;146;-130;-132.3;43.0;43.3;13;13.1;25.0;0.0;
04/03/2025 03:29:14;100;0;152.09;-4;-19.57;-4.70;184.1;17.40;76645;2838.729;-1800.957;1;146;-130;-132.3;43.0;43.3;13;13.1;25.0;0.0;
04/03/2025 03:29:34;100;0;152.88;-4;-19.60;-4.77;187.0;17.40;76632;2838.727;-1800.956;1;146;-130;-130.6;43.0;43.3;13;13.1;25.0;0.0;
04/03/2025 03:29:54;100;0;154.30;-4;-19.80;-4.71;189.6;17.30;76627;2838.726;-1800.955;1;146;-130;-132.3;43.0;43.3;13;13.1;25.0;0.0;
04/03/2025 03:30:14;100;0;156.89;-4;-19.84;-4.75;192.4;17.30;76638;2838.724;-1800.954;1;146;-130;-132.3;43.0;43.3;13;13.5;25.0;0.0;
04/03/2025 03:30:34;100;0;157.84;-4;-19.74;-4.70;195.1;17.20;76624;2838.723;-1800.953;1;146;-130;-132.3;43.0;43.3;13;13.5;25.0;0.0;
04/03/2025 03:30:54;100;0;161.76;-4;-19.65;-4.76;197.9;17.20;76611;2838.721;-1800.952;1;146;-130;-132.3;43.0;43.2;16;15.8;25.0;0.0;
04/03/2025 03:31:14;100;0;163.06;-4;-19.73;-3.40;200.4;17.20;76600;2838.719;-1800.952;1;146;-130;-132.3;43.0;43.2;16;16.2;25.0;0.0;
04/03/2025 03:31:34;100;0;163.56;-4;-19.75;-3.41;203.0;17.10;76604;2838.718;-1800.952;1;146;-130;-132.3;43.0;43.2;16;16.2;25.0;0.0;
04/03/2025 03:31:54;100;0;165.44;-4;-19.65;-3.42;205.5;17.10;76598;2838.716;-1800.951;1;146;-130;-132.3;43.0;43.3;18;18.1;25.0;0.0;
04/03/2025 03:32:14;100;0;165.07;-4;-19.96;-2.26;208.1;17.10;76582;2838.715;-1800.951;1;146;-130;-132.3;43.0;43.2;18;18.1;25.0;0.0;
04/03/2025 03:32:34;100;0;167.01;-4;-20.53;-2.23;210.9;17.10;76589;2838.713;-1800.951;1;146;-130;-133.9;43.0;43.2;20;19.9;25.0;0.0;
04/03/2025 03:32:54;100;0;168.84;-4;-20.26;-1.34;213.6;17.00;76569;2838.711;-1800.950;1;146;-130;-132.3;43.0;43.2;23;23.5;25.0;0.0;
04/03/2025 03:33:14;100;0;167.41;-4;-20.74;0.45;216.2;17.00;76570;2838.710;-1800.950;1;146;-130;-132.3;43.0;43.2;20;19.9;25.0;0.0;
04/03/2025 03:33:34;100;0;162.43;-4;-20.30;-1.68;219.0;16.90;76552;2838.708;-1800.950;1;146;-130;-132.3;43.0;43.2;16;15.8;25.0;0.0;
04/03/2025 03:33:54;100;0;158.28;-4;-20.12;-3.70;221.8;16.90;76531;2838.706;-1800.949;1;146;-130;-132.3;43.0;43.3;16;15.3;25.0;0.0;
04/03/2025 03:34:14;100;0;156.85;-4;-20.13;-3.71;224.4;16.90;76528;2838.705;-1800.948;1;146;-130;-132.3;43.0;43.3;14;14.0;25.0;0.0;
04/03/2025 03:34:34;100;0;155.38;-4;-19.96;-4.38;227.3;16.80;76520;2838.703;-1800.947;1;146;-130;-132.3;43.0;43.3;14;14.0;25.0;0.0;
04/03/2025 03:34:54;100;0;154.82;-4;-19.66;-4.47;230.1;16.80;76507;2838.702;-1800.946;1;146;-130;-133.9;43.0;43.3;14;14.0;25.0;0.0;
04/03/2025 03:35:14;100;0;153.99;-4;-19.39;-4.54;232.6;16.70;76498;2838.700;-1800.944;1;146;-130;-132.3;43.0;43.4;14;14.0;25.0;0.0;
04/03/2025 03:35:34;100;0;152.86;-4;-19.35;-4.57;235.1;16.70;76488;2838.699;-1800.943;1;146;-130;-132.3;43.0;43.2;14;14.0;25.0;0.0;
04/03/2025 03:35:54;100;0;152.43;-4;-18.99;-4.37;237.8;16.70;76482;2838.697;-1800.942;1;146;-130;-135.5;43.3;43.3;14;14.0;25.0;0.0;
04/03/2025 03:36:14;100;0;151.42;-4;-19.44;-4.56;240.6;16.60;76487;2838.696;-1800.941;1;146;-130;-132.3;43.3;43.2;14;14.0;25.0;0.0;
04/03/2025 03:36:34;100;0;148.36;-4;-19.44;-4.54;243.4;16.60;76474;2838.694;-1800.939;1;146;-130;-133.9;43.3;43.2;14;14.0;25.0;0.0;
04/03/2025 03:36:54;100;0;145.74;-4;-19.51;-4.49;246.3;16.60;76470;2838.693;-1800.937;1;146;-130;-132.3;43.3;43.2;14;14.0;25.0;0.0;
04/03/2025 03:37:14;100;0;144.87;-4;-19.51;-4.56;249.1;16.50;76466;2838.692;-1800.936;1;146;-130;-132.3;43.3;43.3;12;12.2;25.0;0.0;
04/03/2025 03:37:34;100;0;143.57;-4;-19.33;-5.52;251.9;16.50;76459;2838.690;-1800.934;1;146;-130;-132.3;43.3;43.2;12;12.2;25.0;0.0;
04/03/2025 03:37:54;100;0;143.51;-4;-18.96;-5.65;254.8;16.50;76448;2838.689;-1800.932;1;146;-130;-132.3;43.6;43.7;12;12.2;25.0;0.0;
04/03/2025 03:38:14;100;0;143.57;-4;-20.23;-5.41;257.8;16.40;76452;2838.687;-1800.930;1;146;-130;-135.5;43.6;43.9;12;12.2;25.0;0.0;
04/03/2025 03:38:34;100;0;142.71;-4;-20.38;-5.45;261.0;16.40;76437;2838.686;-1800.927;1;146;-130;-132.3;43.6;43.9;12;12.2;25.0;0.0;
04/03/2025 03:38:54;100;0;141.59;-4;-20.80;-5.44;264.1;16.40;76439;2838.684;-1800.925;1;146;-130;-132.3;43.6;44.0;10;9.9;25.0;0.0;
04/03/2025 03:39:14;100;0;140.64;-4;-20.82;-6.64;267.5;16.30;76429;2838.683;-1800.923;1;146;-130;-132.3;43.6;43.9;10;9.5;25.0;0.0;
04/03/2025 03:39:34;100;0;139.65;-4;-20.91;-6.59;270.7;16.30;76411;2838.681;-1800.921;1;146;-130;-132.3;43.6;44.0;7;6.8;25.0;0.0;
04/03/2025 03:39:54;100;0;139.13;-4;-20.58;-8.05;273.9;16.30;76415;2838.680;-1800.918;1;146;-130;-132.3;43.6;43.9;7;6.8;25.0;0.0;
04/03/2025 03:40:14;100;0;139.70;-4;-20.50;-8.04;277.3;16.20;76417;2838.678;-1800.916;1;146;-130;-132.3;43.6;44.0;9;9.0;25.0;0.0;
04/03/2025 03:40:34;100;0;138.62;-4;-20.47;-6.72;280.6;16.20;76393;2838.677;-1800.913;1;146;-130;-133.9;43.6;44.0;7;7.2;25.0;0.0;
04/03/2025 03:40:54;100;0;142.90;-4;-20.71;-7.96;283.9;16.10;76389;2838.675;-1800.911;1;146;-130;-132.3;43.6;43.9;11;10.8;25.0;0.0;
04/03/2025 03:41:14;100;0;147.83;-4;-21.18;-6.17;287.2;16.10;76373;2838.673;-1800.909;1;146;-130;-132.3;43.6;44.0;13;13.1;25.0;0.0;
04/03/2025 03:41:34;100;0;158.28;-4;-20.81;-5.25;290.5;16.10;76361;2838.671;-1800.908;1;146;-130;-132.3;43.6;44.2;13;13.1;25.0;0.0;
04/03/2025 03:41:54;100;0;160.51;-4;-21.48;-4.87;293.8;16.00;76349;2838.669;-1800.907;1;146;-130;-132.3;43.6;44.0;15;14.9;25.0;0.0;
04/03/2025 03:42:14;100;0;166.74;-4;-20.91;-3.77;297.2;16.00;76342;2838.667;-1800.907;1;146;-130;-132.3;43.6;44.0;21;21.2;25.0;0.0;
04/03/2025 03:42:34;100;0;164.94;-4;-21.36;-0.66;300.3;16.00;76357;2838.665;-1800.906;1;146;-130;-133.9;43.6;44.0;19;18.5;25.0;0.0;
04/03/2025 03:42:54;100;0;163.88;-4;-21.43;-2.18;303.5;15.90;76336;2838.662;-1800.905;1;146;-130;-132.3;43.6;44.0;19;18.5;25.0;0.0;
04/03/2025 03:43:14;100;0;163.78;-4;-21.50;-2.22;306.8;15.90;76337;2838.660;-1800.905;1;146;-130;-132.3;43.6;44.0;19;18.5;25.0;0.0;
04/03/2025 03:43:34;100;0;163.47;-4;-21.40;-2.19;310.0;15.90;76320;2838.658;-1800.904;1;146;-130;-132.3;43.6;44.0;19;18.5;25.0;0.0;
04/03/2025 03:43:54;100;0;163.95;-4;-21.47;-2.22;313.5;15.80;76308;2838.656;-1800.903;1;146;-130;-133.9;43.6;44.0;19;18.5;25.0;0.0;
04/03/2025 03:44:14;100;0;163.66;-4;-21.45;-2.37;316.7;15.80;76327;2838.653;-1800.903;1;146;-130;-132.3;43.6;44.0;19;18.5;25.0;0.0;
04/03/2025 03:44:34;100;0;163.71;-4;-21.42;-2.23;320.2;15.80;76308;2838.651;-1800.902;1;146;-130;-132.3;43.6;44.0;19;18.5;25.0;0.0;
04/03/2025 03:44:54;100;0;162.54;-4;-21.31;-2.28;323.5;15.70;76307;2838.649;-1800.901;1;146;-130;-132.3;43.6;44.0;17;17.1;25.0;0.0;
04/03/2025 03:45:14;100;0;162.57;-4;-21.10;-3.02;326.7;15.70;76304;2838.647;-1800.900;1;146;-130;-132.3;43.6;44.0;17;17.1;25.0;0.0;
04/03/2025 03:45:34;100;0;163.32;-4;-21.35;-2.99;330.1;15.60;76299;2838.644;-1800.900;1;146;-130;-132.3;43.6;44.0;17;17.1;25.0;0.0;
04/03/2025 03:45:54;100;0;162.62;-4;-21.16;-2.98;333.3;15.60;76301;2838.642;-1800.899;1;146;-130;-135.5;43.6;44.0;17;17.1;25.0;0.0;
04/03/2025 03:46:14;100;0;161.65;-4;-21.10;-3.00;336.7;15.60;76291;2838.640;-1800.898;1;146;-130;-132.3;43.6;44.0;17;17.1;25.0;0.0;
04/03/2025 03:46:34;100;0;160.47;-4;-21.15;-3.04;340.0;15.60;76284;2838.638;-1800.897;1;146;-130;-133.9;43.6;44.0;17;17.1;25.0;0.0;
04/03/2025 03:46:54;100;0;158.90;-4;-21.42;-3.05;343.1;15.50;76281;2838.636;-1800.896;1;146;-130;-132.3;43.6;44.0;15;14.9;25.0;0.0;
04/03/2025 03:47:14;100;0;156.05;-4;-21.22;-4.23;346.6;15.50;76279;2838.633;-1800.895;1;146;-130;-132.3;43.6;44.0;15;14.4;25.0;0.0;
04/03/2025 03:47:34;100;0;154.91;-4;-21.33;-4.15;350.0;15.50;76273;2838.631;-1800.893;1;146;-130;-133.9;43.6;44.0;15;14.4;25.0;0.0;
04/03/2025 03:47:54;100;0;153.45;-4;-21.31;-4.11;353.3;15.40;76270;2838.629;-1800.892;1;146;-130;-132.3;43.6;44.0;15;14.4;25.0;0.0;
04/03/2025 03:48:14;100;0;149.13;-4;-20.54;-4.15;356.7;15.40;76255;2838.627;-1800.890;1;146;-130;-132.3;43.6;43.9;15;14.4;25.0;0.0;
04/03/2025 03:48:34;100;0;145.34;-4;-20.89;-4.25;359.9;15.40;76254;2838.626;-1800.888;1;146;-130;-132.3;43.6;44.0;13;13.1;25.0;0.0;
04/03/2025 03:48:54;100;0;144.18;-4;-20.99;-5.16;363.1;15.30;76243;2838.624;-1800.886;1;146;-130;-132.3;43.6;44.0;13;12.6;25.0;0.0;
04/03/2025 03:49:14;100;0;145.21;-4;-20.85;-5.07;366.4;15.30;76229;2838.622;-1800.884;1;146;-130;-132.3;43.6;44.0;13;12.6;25.0;0.0;
04/03/2025 03:49:34;100;0;148.11;-4;-20.89;-5.13;369.7;15.30;76230;2838.620;-1800.882;1;146;-130;-133.9;43.6;44.0;13;12.6;25.0;0.0;
04/03/2025 03:49:55;100;0;152.36;-4;-21.06;-5.10;373.0;15.20;76221;2838.619;-1800.880;1;146;-130;-133.9;43.6;44.0;13;12.6;25.0;0.0;
04/03/2025 03:50:15;100;0;155.27;-4;-20.78;-5.09;376.4;15.20;76191;2838.616;-1800.879;1;146;-130;-133.9;43.6;44.0;13;12.6;25.0;0.0;
04/03/2025 03:50:35;100;0;157.13;-4;-20.46;-5.05;379.5;15.20;76195;2838.614;-1800.878;1;146;-130;-132.3;43.6;44.0;15;14.9;25.0;0.0;
04/03/2025 03:50:55;100;0;157.40;-4;-20.53;-3.79;382.6;15.10;76183;2838.612;-1800.877;1;146;-130;-132.3;43.6;44.0;15;15.3;25.0;0.0;
04/03/2025 03:51:15;100;0;157.30;-4;-20.27;-3.83;385.8;15.10;76181;2838.610;-1800.876;1;146;-130;-132.3;43.6;44.0;15;15.3;25.0;0.0;
04/03/2025 03:51:35;100;0;156.66;-4;-20.86;-3.76;388.8;15.10;76175;2838.609;-1800.875;1;146;-130;-133.9;43.6;44.0;15;15.3;25.0;0.0;
04/03/2025 03:51:55;100;0;155.92;-4;-20.61;-3.69;391.9;15.00;76174;2838.607;-1800.873;1;146;-130;-132.3;43.6;44.0;15;15.3;25.0;0.0;
04/03/2025 03:52:15;100;0;156.02;-4;-20.98;-3.66;394.9;15.00;76181;2838.605;-1800.872;1;146;-130;-133.9;43.6;44.0;15;15.3;25.0;0.0;
04/03/2025 03:52:35;100;0;155.72;-4;-20.29;-3.80;398.1;15.00;76161;2838.603;-1800.871;1;146;-130;-132.3;43.6;44.0;15;15.3;25.0;0.0;
04/03/2025 03:52:55;100;0;152.58;-4;-20.55;-3.86;401.2;14.90;76159;2838.601;-1800.870;1;146;-130;-132.3;43.6;43.9;15;15.3;25.0;0.0;
04/03/2025 03:53:15;100;0;149.65;-4;-20.58;-3.82;404.0;14.90;76154;2838.600;-1800.868;1;146;-130;-132.3;43.6;44.0;15;15.3;25.0;0.0;
04/03/2025 03:53:35;100;0;146.49;-4;-20.26;-3.89;407.0;14.90;76148;2838.598;-1800.866;1;146;-130;-133.9;43.6;44.0;13;13.1;25.0;0.0;
04/03/2025 03:53:55;100;0;144.05;-4;-20.22;-5.15;409.9;14.90;76143;2838.597;-1800.865;1;146;-130;-132.3;43.6;44.0;13;12.6;25.0;0.0;
04/03/2025 03:54:15;100;0;144.07;-4;-20.70;-4.99;412.8;14.80;76142;2838.596;-1800.863;1;146;-130;-133.9;43.6;44.0;11;10.8;25.0;0.0;
04/03/2025 03:54:35;100;0;147.37;-4;-20.57;-6.11;415.7;14.80;76125;2838.594;-1800.861;1;146;-130;-135.5;43.6;43.9;13;13.5;25.0;0.0;
04/03/2025 03:54:55;100;0;150.02;-4;-20.66;-4.90;418.6;14.80;76118;2838.593;-1800.860;1;146;-130;-133.9;43.6;44.0;13;13.5;25.0;0.0;
04/03/2025 03:55:15;100;0;153.78;-4;-20.57;-4.67;421.4;14.70;76114;2838.591;-1800.859;1;146;-130;-133.9;43.6;43.9;13;13.5;25.0;0.0;
04/03/2025 03:55:35;100;0;155.82;-4;-20.43;-4.60;424.3;14.70;76110;2838.590;-1800.857;1;146;-130;-133.9;43.6;44.0;13;13.5;25.0;0.0;
04/03/2025 03:55:55;100;0;157.40;-4;-20.48;-4.68;427.0;14.70;76114;2838.588;-1800.857;1;146;-130;-132.3;43.6;44.0;13;13.5;25.0;0.0;
04/03/2025 03:56:15;100;0;159.12;-4;-20.41;-4.60;429.8;14.60;76094;2838.586;-1800.856;1;146;-130;-132.3;43.6;44.0;15;14.9;25.0;0.0;
04/03/2025 03:56:35;100;0;159.99;-4;-20.49;-3.74;432.6;14.60;76098;2838.585;-1800.855;1;146;-130;-132.3;43.6;44.0;15;15.3;25.0;0.0;
04/03/2025 03:56:55;100;0;162.06;-4;-20.42;-3.75;435.5;14.60;76090;2838.583;-1800.854;1;146;-130;-133.9;43.6;44.0;17;17.1;25.0;0.0;
04/03/2025 03:57:15;100;0;163.15;-4;-20.63;-2.76;438.3;14.60;76089;2838.581;-1800.854;1;146;-130;-132.3;43.6;43.9;17;17.6;25.0;0.0;
04/03/2025 03:57:35;100;0;165.67;-4;-20.53;-2.75;441.1;14.50;76086;2838.580;-1800.853;1;146;-130;-132.3;43.6;44.0;19;19.0;25.0;0.0;
04/03/2025 03:57:55;100;0;166.14;-4;-20.91;-1.87;444.0;14.50;76081;2838.578;-1800.853;1;146;-130;-133.9;43.6;44.0;19;19.0;25.0;0.0;
04/03/2025 03:58:15;100;0;166.88;-4;-21.88;-1.78;446.9;14.50;76085;2838.576;-1800.853;1;146;-130;-132.3;43.6;44.0;21;21.2;25.0;0.0;
04/03/2025 03:58:35;100;0;164.30;-4;-21.08;-1.27;450.0;14.40;76070;2838.574;-1800.852;1;146;-130;-133.9;43.6;43.9;19;18.5;25.0;0.0;
04/03/2025 03:58:55;100;0;167.11;-4;-20.57;-2.38;452.9;14.40;76066;2838.572;-1800.852;1;146;-130;-133.9;43.6;44.0;21;21.2;25.0;0.0;
04/03/2025 03:59:15;100;0;167.41;-4;-21.78;-0.52;456.0;14.40;76077;2838.570;-1800.852;1;146;-130;-132.3;43.6;44.0;23;23.0;25.0;0.0;
04/03/2025 03:59:35;100;0;164.29;-4;-21.38;0.25;459.3;14.40;76066;2838.568;-1800.851;1;146;-130;-132.3;43.6;44.0;19;19.0;25.0;0.0;
04/03/2025 03:59:55;100;0;159.30;-4;-20.89;-2.17;462.5;14.30;76048;2838.566;-1800.850;1;146;-130;-133.9;43.6;44.0;16;15.8;25.0;0.0;
04/03/2025 04:00:15;100;0;157.26;-4;-20.45;-3.54;465.5;14.30;76047;2838.564;-1800.849;1;146;-130;-135.5;43.6;44.0;16;15.3;25.0;0.0;
04/03/2025 04:00:35;100;0;155.75;-4;-20.61;-3.70;468.7;14.30;76042;2838.562;-1800.848;1;146;-130;-135.5;43.6;44.0;16;15.8;25.0;0.0;
04/03/2025 04:00:55;100;0;151.48;-4;-21.07;-3.76;472.0;14.30;76040;2838.560;-1800.846;1;146;-130;-132.3;43.6;44.0;16;15.3;25.0;0.0;
04/03/2025 04:01:15;100;0;150.05;-4;-20.82;-3.84;475.0;14.20;76039;2838.558;-1800.844;1;146;-130;-132.3;43.6;44.0;16;15.3;25.0;0.0;
04/03/2025 04:01:35;100;0;147.24;-4;-20.17;-3.81;478.3;14.20;76034;2838.557;-1800.842;1;146;-130;-132.3;43.6;44.0;14;14.0;25.0;0.0;
04/03/2025 04:01:55;100;0;145.38;-4;-20.27;-4.84;481.6;14.20;76036;2838.555;-1800.840;1;146;-130;-133.9;43.6;44.0;14;13.5;25.0;0.0;
04/03/2025 04:02:15;100;0;145.38;-4;-21.00;-4.27;484.7;14.20;76037;2838.553;-1800.839;1;146;-130;-132.3;43.6;44.0;14;14.0;25.0;0.0;
04/03/2025 04:02:35;100;0;142.66;-4;-20.89;-4.56;487.9;14.10;76032;2838.552;-1800.836;1;146;-130;-132.3;43.6;44.0;11;10.8;25.0;0.0;
04/03/2025 04:02:55;100;0;140.77;-4;-20.63;-6.00;491.2;14.10;76019;2838.550;-1800.834;1;146;-130;-130.6;43.6;44.0;9;9.0;25.0;0.0;
04/03/2025 04:03:15;100;0;137.96;-4;-20.65;-6.97;494.4;14.10;76023;2838.549;-1800.832;1;146;-130;-132.3;43.6;43.9;6;5.9;25.0;0.0;
04/03/2025 04:03:35;100;0;136.78;-4;-20.31;-8.62;497.6;14.00;76009;2838.548;-1800.829;1;146;-130;-132.3;43.6;44.0;4;4.1;25.0;0.0;
04/03/2025 04:03:55;100;0;137.00;-4;-20.20;-9.53;500.8;14.00;75997;2838.546;-1800.826;1;146;-130;-132.3;43.6;44.0;4;3.6;25.0;0.0;
04/03/2025 04:04:15;100;0;139.79;-4;-19.43;-9.57;503.8;14.00;75985;2838.545;-1800.824;1;146;-130;-133.9;43.6;44.0;8;8.1;25.0;0.0;
04/03/2025 04:04:35;100;0;145.26;-4;-19.60;-7.16;506.9;14.00;75980;2838.543;-1800.822;1;146;-130;-132.3;43.6;44.0;13;13.1;25.0;0.0;
04/03/2025 04:04:55;100;0;147.01;-4;-19.82;-4.76;509.6;13.90;75968;2838.542;-1800.821;1;146;-130;-132.3;43.6;44.0;13;13.5;25.0;0.0;
04/03/2025 04:05:15;100;0;147.80;-4;-19.64;-4.74;512.5;13.90;75958;2838.540;-1800.819;1;146;-130;-132.3;43.6;44.0;13;13.5;25.0;0.0;
04/03/2025 04:05:35;100;0;146.53;-4;-19.85;-4.77;515.2;13.90;75956;2838.539;-1800.817;1;146;-130;-132.3;43.6;44.0;13;13.5;25.0;0.0;
04/03/2025 04:05:55;100;0;147.00;-4;-19.96;-4.81;518.0;13.90;75950;2838.538;-1800.816;1;146;-130;-133.9;43.6;44.0;13;13.5;25.0;0.0;
04/03/2025 04:06:15;100;0;147.65;-4;-19.92;-4.84;520.7;13.80;75943;2838.537;-1800.814;1;146;-130;-132.3;43.6;44.0;13;13.5;25.0;0.0;
04/03/2025 04:06:35;100;0;146.21;-4;-20.29;-4.84;523.5;13.80;75932;2838.535;-1800.813;1;146;-130;-132.3;43.6;44.0;13;13.5;25.0;0.0;
04/03/2025 04:06:55;100;0;145.44;-4;-19.92;-4.74;526.4;13.80;75932;2838.534;-1800.811;1;146;-130;-130.6;43.6;44.0;13;13.5;25.0;0.0;
04/03/2025 04:07:15;100;0;144.36;-4;-20.28;-4.81;529.2;13.80;75933;2838.533;-1800.809;1;146;-130;-132.3;43.6;44.0;11;10.8;25.0;0.0;
04/03/2025 04:07:35;100;0;145.40;-4;-19.70;-6.24;532.1;13.70;75923;2838.531;-1800.807;1;146;-130;-132.3;43.6;44.0;13;13.1;25.0;0.0;
04/03/2025 04:07:55;100;0;145.97;-4;-19.72;-4.66;535.0;13.70;75910;2838.530;-1800.806;1;146;-130;-132.3;43.6;44.0;13;13.1;25.0;0.0;
04/03/2025 04:08:15;100;0;147.59;-4;-19.57;-4.81;537.8;13.70;75911;2838.528;-1800.804;1;146;-130;-132.3;43.6;44.0;13;13.1;25.0;0.0;
04/03/2025 04:08:35;100;0;148.38;-4;-19.73;-4.90;540.5;13.70;75909;2838.527;-1800.802;1;146;-130;-132.3;43.6;44.0;13;13.1;25.0;0.0;
04/03/2025 04:08:55;100;0;150.44;-4;-19.84;-4.84;543.3;13.60;75895;2838.526;-1800.801;1;146;-130;-132.3;43.6;44.0;13;13.1;25.0;0.0;
04/03/2025 04:09:15;100;0;150.75;-4;-19.71;-4.77;546.0;13.60;75893;2838.524;-1800.800;1;146;-130;-133.9;43.6;44.0;13;13.1;25.0;0.0;
04/03/2025 04:09:35;100;0;152.81;-4;-19.58;-4.91;548.6;13.60;75891;2838.523;-1800.799;1;146;-130;-133.9;43.6;44.0;13;13.1;25.0;0.0;
04/03/2025 04:09:55;100;0;153.67;-4;-19.95;-4.84;551.2;13.60;75898;2838.522;-1800.798;1;146;-130;-133.9;43.6;44.0;13;13.1;25.0;0.0;
04/03/2025 04:10:15;100;0;157.09;-4;-18.85;-4.78;553.6;13.50;75890;2838.520;-1800.797;1;146;-130;-132.3;43.9;43.9;13;13.1;25.0;0.0;
04/03/2025 04:10:35;100;0;159.33;-4;-19.61;-4.89;555.7;13.50;75888;2838.519;-1800.796;1;146;-130;-132.3;43.9;43.7;13;13.1;25.0;0.0;
04/03/2025 04:10:55;100;0;163.25;-4;-19.51;-4.87;558.0;13.50;75873;2838.518;-1800.796;1;146;-130;-132.3;43.9;43.7;16;15.8;25.0;0.0;
04/03/2025 04:11:15;100;0;165.26;-4;-19.61;-3.45;560.2;13.50;75872;2838.517;-1800.796;1;146;-130;-132.3;43.9;43.9;16;16.2;25.0;0.0;
04/03/2025 04:11:35;100;0;166.75;-4;-20.37;-3.40;562.3;13.40;75869;2838.516;-1800.796;1;146;-130;-133.9;43.9;43.9;18;18.1;25.0;0.0;
04/03/2025 04:11:55;100;0;167.71;-4;-20.49;-2.20;564.8;13.40;75859;2838.515;-1800.795;1;146;-130;-132.3;43.9;43.7;20;19.9;25.0;0.0;
04/03/2025 04:12:15;100;0;166.38;-4;-20.14;-1.32;567.2;13.40;75854;2838.513;-1800.795;1;146;-130;-132.3;43.9;43.9;20;20.3;25.0;0.0;
04/03/2025 04:12:35;100;0;163.23;-4;-20.62;-1.18;569.4;13.30;75837;2838.512;-1800.795;1;146;-130;-132.3;43.9;43.9;15;14.9;25.0;0.0;
04/03/2025 04:12:55;100;0;159.83;-4;-21.08;-3.90;572.0;13.30;75834;2838.511;-1800.794;1;146;-130;-132.3;43.9;43.7;15;14.9;25.0;0.0;
04/03/2025 04:13:15;100;0;162.04;-4;-20.10;-3.78;574.8;13.30;75824;2838.509;-1800.794;1;146;-130;-132.3;43.9;43.7;15;14.9;25.0;0.0;
04/03/2025 04:13:35;100;0;158.98;-4;-20.19;-4.10;577.5;13.30;75822;2838.508;-1800.793;1;146;-130;-132.3;43.9;43.7;15;14.9;25.0;0.0;
04/03/2025 04:13:55;100;0;159.19;-4;-19.83;-3.85;580.1;13.30;75824;2838.506;-1800.792;1;146;-130;-132.3;43.9;43.7;15;14.9;25.0;0.0;
04/03/2025 04:14:15;100;0;157.79;-4;-20.44;-3.94;582.8;13.20;75809;2838.505;-1800.791;1;146;-130;-132.3;43.9;43.7;15;14.9;25.0;0.0;
04/03/2025 04:14:35;100;0;155.58;-4;-20.32;-3.99;585.4;13.20;75802;2838.503;-1800.790;1;146;-130;-132.3;43.9;43.9;15;14.9;25.0;0.0;
04/03/2025 04:14:55;100;0;154.38;-4;-20.19;-4.00;588.2;13.20;75800;2838.502;-1800.789;1;146;-130;-132.3;43.9;43.7;15;14.9;25.0;0.0;
04/03/2025 04:15:15;100;0;154.09;-4;-20.17;-4.01;590.8;13.10;75796;2838.500;-1800.788;1;146;-130;-132.3;43.9;43.7;15;14.9;25.0;0.0;
04/03/2025 04:15:35;100;0;153.84;-4;-19.90;-4.01;593.5;13.10;75793;2838.499;-1800.787;1;146;-130;-132.3;43.9;43.7;15;14.9;25.0;0.0;
04/03/2025 04:15:55;100;0;153.87;-4;-19.59;-4.02;596.3;13.10;75780;2838.497;-1800.786;1;146;-130;-133.9;43.9;43.7;15;14.9;25.0;0.0;
04/03/2025 04:16:15;100;0;153.79;-4;-19.81;-4.02;598.9;13.10;75783;2838.496;-1800.785;1;146;-130;-132.3;43.9;43.7;15;14.9;25.0;0.0;
04/03/2025 04:16:35;100;0;154.15;-4;-19.90;-3.95;601.5;13.00;75779;2838.495;-1800.784;1;146;-130;-132.3;43.9;43.7;15;14.9;25.0;0.0;
04/03/2025 04:16:55;100;0;155.46;-4;-20.30;-4.00;604.4;13.00;75777;2838.493;-1800.783;1;146;-130;-132.3;43.9;43.7;15;14.9;25.0;0.0;
04/03/2025 04:17:15;100;0;155.86;-4;-19.74;-3.96;607.1;13.00;75768;2838.491;-1800.782;1;146;-130;-132.3;43.9;43.7;15;14.9;25.0;0.0;
04/03/2025 04:17:35;100;0;155.65;-4;-19.71;-4.01;609.9;13.00;75768;2838.490;-1800.780;1;146;-130;-133.9;43.9;43.7;15;14.9;25.0;0.0;
04/03/2025 04:17:55;100;0;154.24;-4;-19.56;-4.13;612.6;12.90;75751;2838.488;-1800.779;1;146;-130;-132.3;43.9;43.7;15;14.9;25.0;0.0;
04/03/2025 04:18:15;100;0;152.62;-4;-19.35;-3.93;615.2;12.90;75744;2838.487;-1800.778;1;146;-130;-133.9;43.9;43.9;15;14.9;25.0;0.0;
04/03/2025 04:18:35;100;0;154.37;-4;-19.48;-4.18;617.9;12.90;75746;2838.485;-1800.777;1;146;-130;-135.5;43.9;43.7;15;14.9;25.0;0.0;
04/03/2025 04:18:55;100;0;155.45;-4;-19.99;-4.01;620.6;12.90;75728;2838.484;-1800.776;1;146;-130;-132.3;43.9;43.7;15;14.9;25.0;0.0;
04/03/2025 04:19:15;100;0;157.43;-4;-19.35;-4.05;623.3;12.80;75722;2838.482;-1800.775;1;146;-130;-132.3;43.9;43.7;15;14.9;25.0;0.0;
04/03/2025 04:19:35;100;0;158.24;-4;-19.69;-4.12;625.9;12.80;75717;2838.481;-1800.774;1;146;-130;-133.9;43.9;43.7;15;14.9;25.0;0.0;
04/03/2025 04:19:55;100;0;158.33;-4;-19.54;-4.12;628.6;12.80;75715;2838.479;-1800.773;1;146;-130;-132.3;43.9;43.7;15;14.9;25.0;0.0;
04/03/2025 04:20:15;100;0;158.80;-4;-19.73;-3.97;631.4;12.80;75708;2838.477;-1800.772;1;146;-130;-133.9;43.9;43.9;15;14.9;25.0;0.0;
04/03/2025 04:20:35;100;0;159.28;-4;-19.61;-4.00;634.2;12.70;75714;2838.476;-1800.772;1;146;-130;-132.3;43.9;43.9;15;14.9;25.0;0.0;
04/03/2025 04:20:55;100;0;160.20;-4;-19.87;-4.13;636.9;12.70;75709;2838.474;-1800.771;1;146;-130;-133.9;43.9;43.7;15;14.9;25.0;0.0;
04/03/2025 04:21:15;100;0;161.20;-4;-19.66;-4.04;639.9;12.70;75703;2838.472;-1800.770;1;146;-130;-133.9;43.9;43.7;15;14.9;25.0;0.0;
04/03/2025 04:21:35;100;0;161.37;-4;-19.64;-4.08;642.6;12.70;75700;2838.471;-1800.769;1;146;-130;-132.3;43.9;43.9;15;14.9;25.0;0.0;
04/03/2025 04:21:55;100;0;161.41;-4;-19.56;-4.08;645.4;12.60;75701;2838.469;-1800.769;1;146;-130;-132.3;43.9;43.7;15;14.9;25.0;0.0;
04/03/2025 04:22:15;100;0;161.32;-4;-19.40;-4.09;648.2;12.60;75696;2838.467;-1800.768;1;146;-130;-132.3;43.9;43.9;15;14.9;25.0;0.0;
04/03/2025 04:22:35;100;0;161.15;-4;-19.50;-4.06;650.9;12.60;75686;2838.465;-1800.767;1;146;-130;-133.9;43.9;43.9;15;14.9;25.0;0.0;
04/03/2025 04:22:55;100;0;162.19;-4;-19.94;-4.16;653.8;12.60;75687;2838.463;-1800.767;1;146;-130;-133.9;43.9;43.7;17;17.1;25.0;0.0;
04/03/2025 04:23:15;100;0;162.08;-4;-19.62;-2.94;656.5;12.50;75669;2838.462;-1800.766;1;146;-130;-133.9;43.9;43.9;17;17.6;25.0;0.0;
04/03/2025 04:23:35;100;0;162.50;-4;-19.61;-2.84;659.5;12.50;75677;2838.460;-1800.765;1;146;-130;-135.5;43.9;43.7;17;17.6;25.0;0.0;
04/03/2025 04:23:55;100;0;162.25;-4;-19.53;-2.70;662.1;12.50;75673;2838.458;-1800.765;1;146;-130;-132.3;43.9;43.9;17;17.6;25.0;0.0;
04/03/2025 04:24:16;100;0;163.56;-4;-19.14;-2.78;664.8;12.50;75677;2838.456;-1800.764;1;146;-130;-132.3;43.9;43.7;17;17.6;25.0;0.0;
04/03/2025 04:24:36;100;0;163.60;-4;-19.45;-2.78;667.6;12.50;75654;2838.455;-1800.764;1;146;-130;-130.6;43.9;43.9;17;17.6;25.0;0.0;
04/03/2025 04:24:56;100;0;159.38;-4;-19.74;-2.80;670.3;12.40;75642;2838.453;-1800.763;1;146;-130;-132.3;43.9;43.9;15;14.9;25.0;0.0;
04/03/2025 04:25:16;100;0;160.17;-4;-19.24;-4.28;673.0;12.40;75640;2838.451;-1800.762;1;146;-130;-132.3;43.9;43.9;15;14.4;25.0;0.0;
04/03/2025 04:25:36;100;0;159.61;-4;-19.00;-4.25;675.8;12.40;75628;2838.449;-1800.761;1;146;-130;-132.3;44.2;44.2;15;14.4;25.0;0.0;
04/03/2025 04:25:56;100;0;157.36;-4;-19.86;-4.23;678.3;12.40;75626;2838.448;-1800.760;1;146;-130;-132.3;44.2;44.5;15;14.4;25.0;0.0;
04/03/2025 04:26:16;100;0;157.06;-4;-20.35;-4.15;680.9;12.30;75614;2838.447;-1800.760;1;146;-130;-135.5;44.2;44.5;15;14.9;25.0;0.0;
04/03/2025 04:26:36;100;0;157.43;-4;-20.11;-4.13;683.4;12.30;75609;2838.445;-1800.759;1;146;-130;-132.3;44.2;44.5;15;14.4;25.0;0.0;
04/03/2025 04:26:56;100;0;156.24;-4;-20.38;-4.30;685.8;12.30;75607;2838.444;-1800.758;1;146;-130;-132.3;44.2;44.5;15;14.4;25.0;0.0;
04/03/2025 04:27:16;100;0;154.19;-4;-20.29;-4.15;688.5;12.30;75600;2838.443;-1800.757;1;146;-130;-132.3;44.2;44.5;15;14.9;25.0;0.0;
04/03/2025 04:27:36;100;0;153.66;-4;-20.54;-4.18;691.1;12.20;75593;2838.441;-1800.756;1;146;-130;-132.3;44.2;44.5;15;14.9;25.0;0.0;
04/03/2025 04:27:56;100;0;151.98;-4;-20.36;-4.12;693.5;12.20;75590;2838.440;-1800.755;1;146;-130;-133.9;44.2;44.5;15;14.9;25.0;0.0;
04/03/2025 04:28:16;100;0;151.89;-4;-20.65;-4.03;696.0;12.20;75582;2838.439;-1800.754;1;146;-130;-132.3;44.2;44.5;15;14.4;25.0;0.0;
04/03/2025 04:28:36;100;0;151.27;-4;-20.38;-4.13;698.6;12.20;75580;2838.438;-1800.753;1;146;-130;-132.3;44.2;44.5;15;14.9;25.0;0.0;
04/03/2025 04:28:56;100;0;151.66;-4;-20.26;-4.25;701.0;12.20;75578;2838.437;-1800.752;1;146;-130;-132.3;44.2;44.5;15;14.9;25.0;0.0;
04/03/2025 04:29:16;100;0;150.28;-4;-19.94;-4.16;703.5;12.10;75580;2838.436;-1800.750;1;146;-130;-133.9;44.2;44.5;15;14.4;25.0;0.0;
04/03/2025 04:29:36;100;0;150.17;-4;-20.30;-4.20;706.0;12.10;75575;2838.435;-1800.749;1;146;-130;-132.3;44.2;44.5;15;14.4;25.0;0.0;
04/03/2025 04:29:56;100;0;150.94;-4;-20.97;-4.25;708.5;12.10;75568;2838.434;-1800.748;1;146;-130;-133.9;44.2;44.5;15;14.4;25.0;0.0;
04/03/2025 04:30:16;100;0;146.19;-4;-21.31;-4.18;711.0;12.10;75570;2838.433;-1800.747;1;146;-130;-133.9;44.2;44.5;13;13.1;25.0;0.0;
04/03/2025 04:30:36;100;0;145.29;-4;-20.53;-5.03;713.7;12.00;75565;2838.432;-1800.745;1;146;-130;-132.3;44.2;44.5;13;13.1;25.0;0.0;
04/03/2025 04:30:56;100;0;144.08;-4;-19.66;-4.95;716.4;12.00;75565;2838.431;-1800.743;1;146;-130;-133.9;44.2;44.5;13;13.1;25.0;0.0;
04/03/2025 04:31:16;100;0;142.94;-4;-21.23;-4.86;718.9;12.00;75556;2838.430;-1800.742;1;146;-130;-132.3;44.2;44.5;10;9.9;25.0;0.0;
04/03/2025 04:31:36;100;0;141.61;-4;-20.44;-6.70;721.4;12.00;75557;2838.429;-1800.740;1;146;-130;-133.9;44.2;44.5;10;9.5;25.0;0.0;
04/03/2025 04:31:56;100;0;144.41;-4;-20.72;-6.82;724.0;12.00;75557;2838.428;-1800.739;1;146;-130;-132.3;44.2;44.5;10;9.5;25.0;0.0;
04/03/2025 04:32:16;100;0;146.49;-4;-20.01;-6.79;726.7;11.90;75546;2838.427;-1800.737;1;146;-130;-133.9;44.2;44.5;13;13.1;25.0;0.0;
04/03/2025 04:32:36;100;0;145.56;-4;-20.53;-4.76;729.3;11.90;75543;2838.426;-1800.736;1;146;-130;-133.9;44.2;44.5;13;13.5;25.0;0.0;
04/03/2025 04:32:56;100;0;144.25;-4;-19.87;-4.71;732.0;11.90;75536;2838.424;-1800.734;1;146;-130;-130.6;44.2;44.5;13;13.5;25.0;0.0;
04/03/2025 04:33:16;100;0;143.95;-4;-20.17;-4.67;734.5;11.90;75538;2838.423;-1800.732;1;146;-130;-132.3;44.2;44.5;11;10.8;25.0;0.0;
04/03/2025 04:33:36;100;0;145.31;-4;-21.32;-6.03;737.3;11.80;75528;2838.422;-1800.731;1;146;-130;-132.3;44.2;44.5;11;10.8;25.0;0.0;
04/03/2025 04:33:56;100;0;148.67;-4;-19.52;-6.17;739.7;11.80;75536;2838.421;-1800.730;1;146;-130;-132.3;44.2;44.5;14;14.4;25.0;0.0;
04/03/2025 04:34:16;100;0;149.55;-4;-20.92;-4.14;741.8;11.80;75532;2838.421;-1800.729;1;146;-130;-133.9;44.2;44.5;14;14.4;25.0;0.0;
04/03/2025 04:34:36;100;0;146.21;-4;-20.73;-4.30;744.1;11.80;75527;2838.420;-1800.728;1;146;-130;-133.9;44.2;44.6;11;10.8;25.0;0.0;
04/03/2025 04:34:56;100;0;145.14;-4;-20.31;-6.13;746.5;11.80;75526;2838.419;-1800.726;1;146;-130;-133.9;44.2;44.5;11;10.8;25.0;0.0;
04/03/2025 04:35:16;100;0;146.32;-4;-20.55;-6.11;748.8;11.80;75529;2838.418;-1800.725;1;146;-130;-132.3;44.2;44.5;11;10.8;25.0;0.0;
04/03/2025 04:35:36;100;0;146.34;-4;-19.71;-6.09;751.1;11.80;75526;2838.418;-1800.724;1;146;-130;-133.9;44.2;44.5;11;10.8;25.0;0.0;
04/03/2025 04:35:56;100;0;149.69;-4;-19.87;-6.08;753.5;11.70;75520;2838.417;-1800.723;1;146;-130;-133.9;44.2;44.5;14;14.4;25.0;0.0;
04/03/2025 04:36:16;100;0;149.32;-4;-20.47;-4.19;755.8;11.70;75523;2838.416;-1800.722;1;146;-130;-132.3;44.2;44.5;14;14.4;25.0;0.0;
04/03/2025 04:36:36;100;0;149.45;-4;-20.16;-4.16;758.3;11.70;75523;2838.415;-1800.720;1;146;-130;-132.3;44.2;44.5;14;14.4;25.0;0.0;
04/03/2025 04:36:56;100;0;151.25;-4;-20.31;-4.23;760.7;11.70;75514;2838.414;-1800.719;1;146;-130;-133.9;44.2;44.5;14;14.4;25.0;0.0;
04/03/2025 04:37:16;100;0;150.66;-4;-20.65;-4.30;763.1;11.70;75510;2838.413;-1800.718;1;146;-130;-132.3;44.2;44.5;14;14.4;25.0;0.0;
04/03/2025 04:37:36;100;0;150.06;-4;-20.34;-4.22;765.6;11.60;75506;2838.412;-1800.717;1;146;-130;-133.9;44.2;44.5;14;14.4;25.0;0.0;
04/03/2025 04:37:56;100;0;150.00;-4;-20.37;-4.37;768.3;11.60;75507;2838.410;-1800.716;1;146;-130;-132.3;44.2;44.5;14;14.4;25.0;0.0;
04/03/2025 04:38:16;100;0;148.52;-4;-18.44;-4.34;771.0;11.60;75505;2838.409;-1800.714;1;146;-130;-132.3;44.7;44.9;14;14.4;25.0;0.0;
04/03/2025 04:38:36;100;0;147.77;-4;-21.57;-3.99;773.4;11.60;75513;2838.408;-1800.713;1;146;-130;-133.9;44.7;45.2;12;12.2;25.0;0.0;
04/03/2025 04:38:56;100;0;147.19;-4;-21.47;-5.64;776.0;11.60;75498;2838.407;-1800.711;1;146;-130;-132.3;44.7;45.2;12;11.7;25.0;0.0;
04/03/2025 04:39:16;100;0;145.78;-4;-20.67;-5.48;778.7;11.60;75504;2838.406;-1800.710;1;146;-130;-132.3;44.7;45.2;12;11.7;25.0;0.0;
04/03/2025 04:39:36;100;0;145.48;-4;-20.98;-5.71;781.2;11.50;75497;2838.405;-1800.709;1;146;-130;-137.1;44.7;45.2;12;11.7;25.0;0.0;
04/03/2025 04:39:56;100;0;146.88;-4;-22.01;-5.68;783.7;11.50;75500;2838.404;-1800.707;1;146;-130;-132.3;44.1;44.0;12;11.7;25.0;0.0;
04/03/2025 04:40:16;100;0;145.96;-4;-21.46;-5.42;786.5;11.50;75485;2838.403;-1800.706;1;146;-130;-133.9;44.1;43.9;12;11.7;25.0;0.0;
04/03/2025 04:40:36;100;0;146.15;-4;-16.93;-5.14;789.0;11.50;75494;2838.402;-1800.704;1;146;-130;-132.3;45.0;45.2;12;11.7;25.0;0.0;
04/03/2025 04:40:56;100;0;149.12;-4;-20.76;-5.66;791.2;11.50;75483;2838.401;-1800.703;1;146;-130;-133.9;45.0;45.4;12;11.7;25.0;0.0;
04/03/2025 04:41:16;100;0;150.46;-4;-21.46;-5.67;793.7;11.50;75489;2838.400;-1800.702;1;146;-130;-135.5;45.0;45.4;12;11.7;25.0;0.0;
04/03/2025 04:41:36;100;0;150.26;-4;-22.04;-5.43;796.3;11.50;75482;2838.399;-1800.701;1;146;-130;-130.6;44.4;44.5;12;11.7;25.0;0.0;
04/03/2025 04:41:56;100;0;147.15;-4;-21.52;-5.71;798.8;11.40;75475;2838.398;-1800.700;1;146;-130;-132.3;44.4;44.5;12;11.7;25.0;0.0;
04/03/2025 04:42:16;100;0;149.90;-4;-19.65;-5.48;801.1;11.40;75461;2838.397;-1800.699;1;146;-130;-132.3;44.4;44.3;12;11.7;25.0;0.0;
04/03/2025 04:42:36;100;0;151.26;-4;-20.36;-5.52;803.4;11.40;75468;2838.396;-1800.698;1;146;-130;-133.9;44.4;44.3;14;14.0;25.0;0.0;
04/03/2025 04:42:56;100;0;151.47;-4;-20.57;-4.36;805.9;11.40;75463;2838.395;-1800.696;1;146;-130;-132.3;44.4;44.2;14;14.4;25.0;0.0;
04/03/2025 04:43:16;100;0;151.66;-4;-20.18;-4.38;808.3;11.40;75462;2838.394;-1800.695;1;146;-130;-132.3;44.4;44.3;14;14.4;25.0;0.0;
04/03/2025 04:43:36;100;0;152.16;-4;-20.86;-4.36;810.7;11.30;75466;2838.393;-1800.694;1;146;-130;-132.3;44.4;44.3;14;14.0;25.0;0.0;
04/03/2025 04:43:56;100;0;151.64;-4;-21.21;-4.25;813.4;11.30;75461;2838.392;-1800.693;1;146;-130;-133.9;44.4;44.3;14;14.4;25.0;0.0;
04/03/2025 04:44:16;100;0;151.61;-4;-20.91;-4.21;816.1;11.30;75459;2838.390;-1800.692;1;146;-130;-132.3;44.4;44.3;14;14.4;25.0;0.0;
04/03/2025 04:44:36;100;0;150.76;-4;-19.94;-4.50;818.8;11.30;75446;2838.389;-1800.691;1;146;-130;-133.9;44.4;44.3;14;14.4;25.0;0.0;
04/03/2025 04:44:56;100;0;151.83;-4;-19.97;-4.32;821.4;11.30;75453;2838.388;-1800.690;1;146;-130;-132.3;44.4;44.3;14;14.4;25.0;0.0;
04/03/2025 04:45:16;100;0;151.92;-4;-20.20;-4.41;823.9;11.30;75445;2838.387;-1800.688;1;146;-130;-132.3;44.4;44.3;14;14.4;25.0;0.0;
04/03/2025 04:45:36;100;0;154.25;-4;-20.23;-4.36;826.3;11.30;75448;2838.385;-1800.688;1;146;-130;-133.9;44.4;44.3;14;14.4;25.0;0.0;
04/03/2025 04:45:56;100;0;154.82;-4;-21.10;-4.21;828.7;11.20;75449;2838.384;-1800.687;1;146;-130;-132.3;44.4;44.3;14;14.0;25.0;0.0;
04/03/2025 04:46:16;100;0;152.95;-4;-20.44;-4.44;831.1;11.20;75437;2838.383;-1800.686;1;146;-130;-133.9;44.4;44.3;14;14.4;25.0;0.0;
04/03/2025 04:46:36;100;0;150.38;-4;-20.44;-4.45;833.9;11.20;75442;2838.382;-1800.684;1;146;-130;-132.3;44.4;44.3;14;14.0;25.0;0.0;
04/03/2025 04:46:56;100;0;153.51;-4;-20.40;-4.15;836.4;11.20;75437;2838.381;-1800.683;1;146;-130;-132.3;44.4;44.3;14;14.4;25.0;0.0;
04/03/2025 04:47:16;100;0;154.19;-4;-20.88;-4.24;839.0;11.20;75441;2838.379;-1800.682;1;146;-130;-132.3;44.4;44.3;14;14.4;25.0;0.0;
04/03/2025 04:47:36;100;0;152.98;-4;-21.26;-4.30;841.7;11.20;75425;2838.378;-1800.681;1;146;-130;-133.9;44.4;44.3;14;14.0;25.0;0.0;
04/03/2025 04:47:56;100;0;147.48;-4;-18.15;-4.40;844.1;11.20;75422;2838.377;-1800.680;1;146;-130;-132.3;45.0;44.9;14;14.4;25.0;0.0;
04/03/2025 04:48:16;100;0;152.93;-4;-19.22;-4.27;846.0;11.10;75413;2838.376;-1800.679;1;146;-150;-153.2;45.0;45.1;14;14.4;25.0;0.0;
04/03/2025 04:48:36;100;0;148.25;-4;-21.30;-4.33;848.1;11.10;75448;2838.376;-1800.678;1;146;-150;-154.8;45.0;45.2;11;10.8;25.0;0.0;
04/03/2025 04:48:56;100;0;144.82;-4;-20.19;-6.18;850.2;11.10;75448;2838.375;-1800.677;1;146;-150;-153.2;45.0;45.1;9;9.0;25.0;0.0;
04/03/2025 04:49:16;100;0;151.60;-4;-20.49;-7.14;852.5;11.10;75446;2838.374;-1800.676;1;146;-150;-153.2;45.0;45.2;13;13.1;25.0;0.0;
04/03/2025 04:49:36;100;0;154.22;-4;-19.22;-4.69;854.9;11.10;75445;2838.373;-1800.675;1;146;-150;-153.2;45.0;45.2;13;13.5;25.0;0.0;
04/03/2025 04:49:56;100;0;155.95;-4;-22.24;-5.19;857.4;11.00;75443;2838.372;-1800.674;1;146;-150;-153.2;44.3;44.3;13;13.5;25.0;0.0;
04/03/2025 04:50:16;100;0;153.51;-4;-20.11;-5.14;860.4;11.00;75448;2838.370;-1800.673;1;146;-150;-154.8;44.3;44.0;13;13.5;25.0;0.0;
04/03/2025 04:50:36;100;0;152.21;-4;-20.56;-4.63;863.4;11.00;75436;2838.369;-1800.672;1;146;-150;-153.2;44.3;44.2;13;13.5;25.0;0.0;
04/03/2025 04:50:56;100;0;159.82;-4;-16.27;-5.00;866.5;11.00;75440;2838.366;-1800.670;1;146;-150;-153.2;45.4;45.4;15;15.8;25.0;0.0;
04/03/2025 04:51:16;100;0;159.97;-4;-21.07;-4.33;868.4;11.00;75423;2838.365;-1800.670;1;146;-170;-169.4;45.4;45.7;15;15.8;25.0;0.0;
04/03/2025 04:51:36;100;0;159.85;-4;-20.47;-3.19;870.8;11.00;75464;2838.364;-1800.669;1;146;-170;-172.6;45.4;45.7;15;15.8;25.0;0.0;
04/03/2025 04:51:56;100;0;162.93;-4;-23.62;-3.26;873.5;11.00;75450;2838.363;-1800.669;1;146;-170;-171.0;44.3;44.3;15;15.8;25.0;0.0;
04/03/2025 04:52:16;100;0;152.02;-4;-20.93;-4.16;876.0;10.90;75471;2838.362;-1800.668;1;146;-170;-172.6;44.3;44.2;13;13.1;25.0;0.0;
04/03/2025 04:52:36;100;0;152.20;-4;-16.85;-6.50;878.7;10.90;75453;2838.360;-1800.667;1;146;-170;-172.6;45.3;45.2;13;13.1;25.0;0.0;
04/03/2025 04:52:56;100;0;162.80;-4;-19.95;-4.33;881.4;10.90;75456;2838.358;-1800.666;1;146;-170;-172.6;45.3;45.4;16;15.8;25.0;0.0;
04/03/2025 04:53:16;100;0;160.35;-4;-22.45;-3.86;883.7;10.90;75452;2838.357;-1800.666;1;146;-170;-171.0;44.5;44.5;14;13.5;25.0;0.0;
04/03/2025 04:53:36;100;0;155.57;-4;-21.25;-3.70;886.3;10.90;75452;2838.356;-1800.665;1;146;-170;-171.0;44.5;44.3;14;13.5;25.0;0.0;
04/03/2025 04:53:56;100;0;151.22;-4;-21.78;-4.97;889.8;10.90;75458;2838.354;-1800.663;1;146;-170;-171.0;44.5;44.3;14;13.5;25.0;0.0;
04/03/2025 04:54:16;100;0;156.19;-4;-17.26;-4.66;892.7;10.80;75454;2838.352;-1800.662;1;146;-170;-172.6;45.4;45.4;14;13.5;25.0;0.0;
04/03/2025 04:54:36;100;0;159.01;-4;-21.46;-4.59;895.2;10.80;75454;2838.351;-1800.661;1;146;-170;-171.0;45.4;45.5;14;13.5;25.0;0.0;
04/03/2025 04:54:56;100;0;152.95;-4;-22.30;-5.05;898.2;10.80;75452;2838.349;-1800.660;1;146;-170;-172.6;44.7;44.6;14;13.5;25.0;0.0;
04/03/2025 04:55:16;100;0;151.84;-4;-21.04;-4.06;901.6;10.80;75452;2838.347;-1800.658;1;146;-170;-171.0;44.7;44.5;14;13.5;25.0;0.0;
04/03/2025 04:55:36;100;0;153.51;-4;-20.72;-4.72;905.3;10.80;75445;2838.345;-1800.657;1;146;-170;-171.0;44.7;44.5;14;14.0;25.0;0.0;
04/03/2025 04:55:56;100;0;148.57;-4;-20.42;-5.03;909.3;10.80;75440;2838.342;-1800.654;1;146;-170;-172.6;44.7;44.5;14;13.5;25.0;0.0;
04/03/2025 04:56:16;100;0;155.48;-4;-17.83;-4.83;912.8;10.80;75443;2838.339;-1800.652;1;146;-170;-171.0;45.3;45.4;14;13.5;25.0;0.0;
04/03/2025 04:56:36;100;0;151.01;-4;-21.46;-4.67;915.7;10.80;75450;2838.338;-1800.651;1;146;-170;-172.6;45.3;45.5;14;13.5;25.0;0.0;
04/03/2025 04:56:56;100;0;153.36;-4;-21.48;-4.30;918.9;10.80;75447;2838.336;-1800.650;1;146;-170;-172.6;45.3;45.7;14;14.0;25.0;0.0;
04/03/2025 04:57:16;100;0;152.09;-4;-21.88;-4.54;922.0;10.70;75448;2838.334;-1800.648;1;146;-170;-172.6;45.3;45.7;14;14.0;25.0;0.0;
04/03/2025 04:57:36;100;0;150.44;-4;-21.78;-4.60;925.0;10.70;75435;2838.333;-1800.647;1;146;-170;-172.6;45.3;45.7;14;13.5;25.0;0.0;
04/03/2025 04:57:56;100;0;150.22;-4;-21.82;-4.60;928.0;10.70;75449;2838.332;-1800.646;1;146;-170;-172.6;45.3;45.7;14;14.0;25.0;0.0;
04/03/2025 04:58:16;100;0;150.18;-4;-21.83;-4.56;931.0;10.70;75440;2838.330;-1800.644;1;146;-170;-171.0;45.3;45.7;14;14.0;25.0;0.0;
04/03/2025 04:58:36;100;0;149.90;-4;-22.10;-4.67;933.9;10.70;75437;2838.329;-1800.643;1;146;-170;-172.6;44.7;44.6;14;13.5;25.0;0.0;
04/03/2025 04:58:56;100;0;149.46;-4;-20.49;-4.60;936.9;10.70;75435;2838.327;-1800.641;1;146;-170;-174.2;44.7;44.5;14;13.5;25.0;0.0;
04/03/2025 04:59:17;100;0;147.25;-4;-20.09;-4.29;939.7;10.70;75435;2838.326;-1800.639;1;146;-170;-172.6;44.7;44.5;14;13.5;25.0;0.0;
04/03/2025 04:59:37;100;0;145.48;-4;-20.17;-4.48;942.5;10.60;75437;2838.324;-1800.638;1;146;-170;-172.6;44.7;44.5;11;10.8;25.0;0.0;
04/03/2025 04:59:57;100;0;145.43;-4;-19.92;-6.08;945.3;10.60;75431;2838.323;-1800.636;1;146;-170;-171.0;44.7;44.5;11;10.8;25.0;0.0;
04/03/2025 05:00:17;100;0;144.93;-4;-19.65;-6.06;948.5;10.60;75427;2838.321;-1800.634;1;146;-170;-171.0;44.7;44.3;11;10.8;25.0;0.0;
04/03/2025 05:00:37;100;0;142.48;-4;-19.50;-6.14;951.3;10.60;75436;2838.320;-1800.632;1;146;-170;-172.6;44.7;44.3;11;10.4;25.0;0.0;
04/03/2025 05:00:57;100;0;141.69;-4;-20.33;-5.88;954.1;10.60;75417;2838.319;-1800.630;1;146;-170;-172.6;44.7;44.5;8;8.1;25.0;0.0;
04/03/2025 05:01:17;100;0;138.31;-4;-20.81;-7.43;957.1;10.60;75415;2838.318;-1800.628;1;146;-170;-172.6;44.7;44.5;3;3.2;25.0;0.0;
04/03/2025 05:01:37;100;0;144.20;-4;-20.83;-9.58;960.1;10.60;75418;2838.316;-1800.626;1;146;-170;-171.0;44.7;44.5;11;10.8;25.0;0.0;
04/03/2025 05:01:57;100;0;142.45;-4;-21.20;-5.52;963.4;10.60;75424;2838.315;-1800.624;1;146;-170;-172.6;44.7;44.3;11;11.3;25.0;0.0;
04/03/2025 05:02:17;100;0;144.16;-4;-19.20;-6.03;966.8;10.50;75417;2838.313;-1800.621;1;146;-170;-172.6;44.7;44.3;11;11.3;25.0;0.0;
04/03/2025 05:02:37;100;0;147.49;-4;-19.33;-6.25;969.8;10.50;75414;2838.311;-1800.620;1;146;-170;-172.6;44.7;44.3;13;13.1;25.0;0.0;
04/03/2025 05:02:57;100;0;148.26;-4;-21.35;-6.00;972.6;10.50;75415;2838.310;-1800.618;1;146;-170;-171.0;44.7;44.5;13;13.1;25.0;0.0;
04/03/2025 05:03:17;100;0;147.05;-4;-19.98;-4.49;975.9;10.50;75421;2838.308;-1800.616;1;146;-170;-172.6;44.7;44.5;13;13.1;25.0;0.0;
04/03/2025 05:03:37;100;0;150.52;-4;-19.29;-4.76;978.8;10.50;75410;2838.306;-1800.615;1;146;-170;-172.6;44.7;44.5;13;13.1;25.0;0.0;
04/03/2025 05:03:57;100;0;158.99;-4;-18.51;-4.78;981.7;10.50;75412;2838.304;-1800.614;1;146;-170;-171.0;45.1;45.2;13;13.1;25.0;0.0;
04/03/2025 05:04:17;100;0;164.43;-4;-20.39;-4.67;984.5;10.50;75409;2838.303;-1800.613;1;146;-170;-172.6;45.1;45.5;17;17.1;25.0;0.0;
04/03/2025 05:04:37;100;0;166.77;-4;-20.28;-2.65;987.4;10.50;75399;2838.301;-1800.613;1;146;-170;-172.6;45.1;45.5;20;19.9;25.0;0.0;
04/03/2025 05:04:57;100;0;170.47;-4;-21.04;-1.17;990.2;10.40;75392;2838.299;-1800.613;1;146;-170;-172.6;45.1;45.5;24;23.9;25.0;0.0;
04/03/2025 05:05:17;100;0;170.67;-4;-22.12;0.68;993.0;10.40;75384;2838.297;-1800.613;1;146;-170;-172.6;44.5;44.5;24;23.9;25.0;0.0;
04/03/2025 05:05:37;100;0;167.83;-4;-19.72;0.59;995.8;10.40;75370;2838.295;-1800.612;1;146;-170;-171.0;44.5;44.3;20;19.9;25.0;0.0;
04/03/2025 05:05:57;100;0;163.71;-4;-18.80;-1.66;998.2;10.40;75361;2838.294;-1800.612;1;146;-170;-172.6;44.9;45.2;15;14.4;25.0;0.0;
04/03/2025 05:06:02;118;0;163.65;-4;-18.62;-4.31;998.8;10.40;75367;2838.294;-1800.612;1;146;450;-169.4;21.1;21.1;8;7.7;25.0;0.0;
04/03/2025 05:06:12;118;0;126.13;-4;-6.06;-8.35;999.6;10.40;75354;2838.293;-1800.611;1;146;450;-43.5;21.1;20.8;8;7.7;23.4;-1.0;
04/03/2025 05:06:22;118;0;102.45;-4;21.32;-8.39;999.4;10.40;75080;2838.294;-1800.611;1;146;450;80.6;21.1;21.2;8;7.7;23.3;-1.0;
04/03/2025 05:06:32;118;0;93.85;-4;32.30;-8.67;998.6;10.40;74828;2838.295;-1800.611;1;146;450;204.8;21.1;21.4;8;7.7;23.5;-1.0;
04/03/2025 05:06:42;118;0;96.64;-4;30.67;-8.60;997.2;10.40;74583;2838.296;-1800.610;1;146;450;327.4;21.1;21.4;8;7.7;23.4;-1.0;
04/03/2025 05:06:52;118;0;96.51;-4;28.83;-8.25;995.2;10.40;74339;2838.296;-1800.608;1;146;450;440.3;21.1;21.4;8;7.7;23.5;-1.0;
04/03/2025 05:07:02;118;0;98.16;-4;26.16;-7.66;993.3;10.40;74091;2838.297;-1800.606;1;146;450;450.0;21.1;21.2;8;7.7;23.4;-1.0;
04/03/2025 05:07:12;118;0;156.70;-4;23.26;-7.39;991.0;10.40;74099;2838.295;-1800.605;1;146;450;450.0;21.1;21.2;8;7.7;25.0;-1.0;
04/03/2025 05:07:32;117;0;148.39;-4;20.75;-7.17;987.1;10.50;74092;2838.293;-1800.603;1;146;450;450.0;21.1;21.4;8;7.7;24.9;-1.0;
04/03/2025 05:07:52;117;0;137.97;-4;21.18;-7.39;983.3;10.60;74094;2838.291;-1800.600;1;146;450;450.0;21.1;21.4;37;37.0;25.0;-1.0;
04/03/2025 05:08:12;117;0;140.41;-4;23.10;8.08;979.3;10.60;74087;2838.289;-1800.597;1;146;450;450.0;22.0;21.9;34;33.8;25.0;-1.0;
04/03/2025 05:08:32;117;0;139.84;-4;22.70;6.28;975.1;10.60;74101;2838.287;-1800.594;1;146;450;450.0;22.8;23.0;34;33.8;25.0;-1.0;
04/03/2025 05:08:52;117;0;142.86;-4;19.37;6.49;970.9;10.60;74099;2838.284;-1800.591;1;146;450;451.6;22.8;23.0;32;32.0;25.0;-1.0;
04/03/2025 05:09:12;117;0;142.04;-4;19.56;5.00;967.3;10.60;74091;2838.283;-1800.588;1;146;450;450.0;22.8;23.0;32;32.0;25.0;-1.0;
04/03/2025 05:09:32;117;0;142.05;-4;18.68;4.97;963.6;10.60;74096;2838.280;-1800.586;1;146;450;451.6;22.4;22.4;32;31.6;25.0;-1.0;
04/03/2025 05:09:52;117;0;144.10;-4;21.12;4.46;960.4;10.60;74086;2838.279;-1800.584;1;146;450;451.6;22.4;21.8;32;31.6;25.0;-1.0;
04/03/2025 05:10:12;117;0;145.26;-4;20.92;5.15;956.3;10.60;74079;2838.276;-1800.581;1;146;450;450.0;22.4;21.8;32;32.0;25.0;-1.0;
04/03/2025 05:10:32;117;0;145.98;-4;21.02;5.61;952.4;10.60;74084;2838.274;-1800.578;1;146;450;451.6;22.4;21.8;32;32.0;25.0;-1.0;
04/03/2025 05:10:52;117;0;146.88;-4;20.66;5.29;948.5;10.60;74075;2838.271;-1800.576;1;146;450;451.6;22.4;21.8;30;29.8;25.0;-1.0;
04/03/2025 05:11:12;117;0;148.60;-4;20.41;4.25;944.9;10.60;74080;2838.269;-1800.574;1;146;450;450.0;22.4;21.8;30;29.3;25.0;-1.0;
04/03/2025 05:11:32;117;0;148.13;-4;21.84;4.02;941.3;10.60;74077;2838.267;-1800.572;1;146;450;451.6;22.4;21.8;30;29.8;25.0;-1.0;
04/03/2025 05:11:52;117;0;149.77;-4;21.75;3.93;937.5;10.50;74073;2838.265;-1800.570;1;146;450;450.0;22.4;21.8;30;29.8;25.0;-1.0;
04/03/2025 05:12:12;117;0;150.19;-4;21.40;3.53;933.4;10.50;74073;2838.262;-1800.568;1;146;450;448.4;22.4;21.8;30;29.3;25.0;-1.0;
04/03/2025 05:12:32;117;0;152.10;-4;21.84;4.62;929.4;10.50;74071;2838.260;-1800.566;1;146;450;450.0;22.4;21.8;30;29.8;25.0;-1.0;
04/03/2025 05:12:52;117;0;151.46;-4;20.90;4.22;925.0;10.50;74067;2838.257;-1800.563;1;146;450;450.0;22.4;21.8;30;29.8;25.0;-1.0;
04/03/2025 05:13:12;117;0;154.47;-4;22.68;4.02;920.8;10.50;74062;2838.254;-1800.562;1;146;450;451.6;23.2;23.3;30;29.3;25.0;-1.0;
04/03/2025 05:13:32;117;0;154.14;-4;20.17;4.14;916.4;10.50;74059;2838.250;-1800.559;1;146;450;451.6;23.2;23.4;30;29.8;25.0;-1.0;
04/03/2025 05:13:52;117;0;154.86;-4;18.48;3.59;912.2;10.50;74061;2838.247;-1800.557;1;146;450;450.0;22.8;22.8;30;29.8;25.0;-1.0;
04/03/2025 05:14:12;117;0;157.91;-4;19.48;3.75;908.1;10.50;74053;2838.243;-1800.556;1;146;450;450.0;22.8;22.5;30;29.3;25.0;-1.0;
04/03/2025 05:14:32;117;0;159.84;-4;19.40;3.71;904.0;10.50;74056;2838.240;-1800.554;1;146;450;451.6;22.8;22.4;28;28.0;25.0;-1.0;
04/03/2025 05:14:52;117;0;159.54;-4;19.46;2.81;900.1;10.40;74055;2838.237;-1800.553;1;146;450;451.6;22.8;22.2;28;27.5;25.0;-1.0;
04/03/2025 05:15:12;117;0;159.64;-4;19.23;2.81;896.2;10.40;74042;2838.234;-1800.551;1;146;450;451.6;22.8;22.4;28;27.5;25.0;-1.0;
04/03/2025 05:15:32;117;0;159.12;-4;18.85;2.78;892.8;10.40;74053;2838.231;-1800.550;1;146;450;450.0;22.4;22.4;28;27.5;25.0;-1.0;
04/03/2025 05:15:52;117;0;156.31;-4;20.67;3.05;889.3;10.40;74036;2838.229;-1800.549;1;146;450;450.0;22.4;22.2;28;27.5;25.0;-1.0;
04/03/2025 05:16:12;117;0;153.55;-4;17.55;2.86;885.8;10.40;74042;2838.226;-1800.547;1;146;450;450.0;21.7;21.6;30;29.8;25.0;-1.0;
04/03/2025 05:16:32;117;0;160.93;-4;23.91;4.51;882.3;10.40;74036;2838.224;-1800.546;1;146;450;451.6;22.9;22.8;28;28.0;25.0;-1.0;
04/03/2025 05:16:52;117;0;158.28;-4;19.74;3.22;877.9;10.40;74034;2838.220;-1800.544;1;146;450;450.0;22.9;23.0;28;27.5;25.0;-1.0;
04/03/2025 05:17:12;117;0;164.33;-4;19.02;4.13;873.8;10.40;74045;2838.217;-1800.543;1;146;450;451.6;22.9;23.1;23;23.0;25.0;-1.0;
04/03/2025 05:17:32;117;0;155.82;-4;17.69;0.93;870.1;10.30;74030;2838.214;-1800.541;1;146;450;451.6;22.2;21.8;29;28.9;25.0;-1.0;
04/03/2025 05:17:52;117;0;151.78;-4;20.54;4.29;866.5;10.40;74035;2838.212;-1800.539;1;146;450;451.6;22.2;21.6;29;28.9;25.0;-1.0;
04/03/2025 05:18:12;117;0;155.78;-4;18.75;3.51;863.3;10.30;74028;2838.209;-1800.538;1;146;450;451.6;21.8;21.8;29;29.3;25.0;-1.0;
04/03/2025 05:18:32;117;0;150.44;-4;23.21;3.62;860.6;10.30;74033;2838.208;-1800.537;1;146;450;451.6;22.8;22.8;29;29.3;25.0;-1.0;
04/03/2025 05:18:52;117;0;154.03;-4;20.58;5.23;856.4;10.30;74023;2838.205;-1800.535;1;146;450;451.6;22.8;23.0;29;28.9;25.0;-1.0;
04/03/2025 05:19:12;117;0;155.26;-4;18.85;3.06;853.1;10.30;74029;2838.203;-1800.534;1;146;450;451.6;22.4;22.4;29;28.9;25.0;-1.0;
04/03/2025 05:19:32;117;0;157.06;-4;19.24;3.50;850.2;10.30;74019;2838.201;-1800.532;1;146;450;451.6;22.4;21.9;29;29.3;25.0;-1.0;
04/03/2025 05:19:52;117;0;158.77;-4;19.78;3.03;846.9;10.30;74016;2838.199;-1800.531;1;146;450;451.6;22.4;21.8;29;28.9;25.0;-1.0;
04/03/2025 05:20:12;117;0;161.48;-4;22.04;4.05;843.3;10.30;74025;2838.196;-1800.530;1;146;450;450.0;23.0;23.0;27;26.6;25.0;-1.0;
04/03/2025 05:20:32;117;0;161.48;-4;19.33;1.78;839.6;10.30;74028;2838.193;-1800.529;1;146;450;451.6;23.0;23.1;27;26.6;25.0;-1.0;
04/03/2025 05:20:52;117;0;162.91;-4;19.88;2.30;836.2;10.30;74026;2838.191;-1800.528;1;146;450;451.6;23.0;23.1;27;26.6;25.0;-1.0;
04/03/2025 05:21:12;117;0;160.84;-4;20.80;1.40;832.4;10.30;74023;2838.188;-1800.527;1;146;450;450.0;23.0;23.1;27;26.6;25.0;-1.0;
04/03/2025 05:21:32;117;0;158.18;-4;17.56;2.60;828.3;10.30;74026;2838.185;-1800.525;1;146;450;451.6;22.3;22.1;27;26.6;25.0;-1.0;
04/03/2025 05:21:52;117;0;165.47;-4;22.02;2.32;823.9;10.30;74023;2838.181;-1800.525;1;146;450;451.6;22.9;23.0;21;21.2;25.0;-1.0;
04/03/2025 05:22:12;117;0;160.72;-4;18.95;1.13;819.5;10.30;74031;2838.177;-1800.523;1;146;450;450.0;22.6;22.5;26;26.2;25.0;-1.0;
04/03/2025 05:22:32;117;0;154.19;-4;19.70;2.41;815.8;10.30;74020;2838.175;-1800.521;1;146;450;451.6;22.6;22.4;29;28.9;25.0;-1.0;
04/03/2025 05:22:52;117;0;156.70;-4;21.38;3.59;811.2;10.30;74021;2838.171;-1800.519;1;146;450;451.6;22.6;22.4;29;29.3;25.0;-1.0;
04/03/2025 05:23:12;117;0;152.11;-4;18.16;5.77;806.4;10.20;74014;2838.167;-1800.516;1;146;450;451.6;22.0;22.1;29;29.3;25.0;-1.0;
04/03/2025 05:23:32;117;0;158.09;-4;20.36;4.77;802.4;10.20;74017;2838.164;-1800.515;1;146;450;451.6;22.0;21.6;29;29.3;25.0;-1.0;
04/03/2025 05:23:52;117;0;161.76;-4;18.95;4.16;798.6;10.20;74022;2838.161;-1800.514;1;146;450;450.0;21.7;21.6;25;24.4;25.0;-1.0;
04/03/2025 05:24:12;117;0;162.85;-4;19.32;0.64;795.1;10.20;74019;2838.158;-1800.513;1;146;450;451.6;21.7;21.8;25;24.4;25.0;-1.0;
04/03/2025 05:24:32;117;0;163.11;-4;20.57;1.00;791.8;10.20;74017;2838.155;-1800.512;1;146;450;451.6;21.7;21.8;25;24.4;25.0;-1.0;
04/03/2025 05:24:52;117;0;162.96;-4;21.33;1.30;788.6;10.20;74009;2838.153;-1800.511;1;146;450;451.6;21.7;21.6;25;24.4;25.0;-1.0;
04/03/2025 05:25:12;117;0;162.59;-4;21.71;1.00;785.1;10.20;74015;2838.151;-1800.510;1;146;450;450.0;21.7;21.6;25;24.4;25.0;-1.0;
04/03/2025 05:25:32;117;0;163.18;-4;20.18;1.22;781.3;10.20;74012;2838.148;-1800.509;1;146;450;451.6;21.7;21.6;25;24.4;25.0;-1.0;
04/03/2025 05:25:52;117;0;153.24;-4;21.53;1.85;778.2;10.20;74012;2838.146;-1800.508;1;146;450;450.0;21.7;21.6;29;28.9;25.0;-1.0;
04/03/2025 05:26:12;117;0;154.61;-4;21.65;3.99;774.1;10.20;74012;2838.144;-1800.506;1;146;450;451.6;21.7;21.8;29;29.3;25.0;-1.0;
04/03/2025 05:26:32;117;0;156.43;-4;20.55;3.72;769.8;10.20;73999;2838.140;-1800.505;1;146;450;451.6;21.7;21.8;29;29.3;25.0;-1.0;
04/03/2025 05:26:52;117;0;156.03;-4;18.73;3.26;766.7;10.20;74004;2838.138;-1800.503;1;146;450;453.2;21.3;21.4;29;29.3;25.0;-1.0;
04/03/2025 05:27:12;117;0;155.69;-4;20.92;4.27;763.9;10.20;73996;2838.137;-1800.502;1;146;450;451.6;21.3;20.9;29;29.3;25.0;-1.0;
04/03/2025 05:27:32;117;0;158.81;-4;22.69;3.38;760.4;10.20;74002;2838.135;-1800.501;1;146;450;451.6;22.1;22.2;29;29.3;25.0;-1.0;
04/03/2025 05:27:52;117;0;160.94;-4;23.00;3.11;756.4;10.20;73999;2838.132;-1800.500;1;146;450;451.6;23.0;23.0;27;27.1;25.0;-1.0;
04/03/2025 05:28:12;117;0;160.05;-4;18.91;2.35;752.9;10.20;73996;2838.129;-1800.499;1;146;450;451.6;22.7;22.7;27;26.6;25.0;-1.0;
04/03/2025 05:28:32;117;0;164.84;-4;19.24;1.92;750.0;10.20;73991;2838.127;-1800.498;1;146;450;451.6;22.7;22.5;24;23.9;25.0;-1.0;
04/03/2025 05:28:52;117;0;164.27;-4;18.76;1.55;746.5;10.20;74003;2838.124;-1800.498;1;146;450;451.6;22.3;22.4;24;23.9;25.0;-1.0;
04/03/2025 05:29:12;117;0;158.68;-4;17.31;1.39;743.8;10.20;74006;2838.123;-1800.497;1;146;450;451.6;21.5;21.4;28;28.0;25.0;-1.0;
04/03/2025 05:29:32;117;0;162.84;-4;18.57;2.16;741.0;10.20;74013;2838.121;-1800.496;1;146;450;450.0;21.1;20.8;26;25.7;25.0;-1.0;
04/03/2025 05:29:52;117;0;162.16;-4;20.69;1.50;738.6;10.20;74013;2838.119;-1800.496;1;146;450;450.0;21.1;20.6;26;25.7;25.0;-1.0;
04/03/2025 05:30:12;117;0;163.49;-4;21.77;1.30;736.2;10.20;74013;2838.118;-1800.495;1;146;450;451.6;21.1;20.3;26;25.7;25.0;-1.0;
04/03/2025 05:30:32;117;0;162.62;-4;23.37;1.31;733.2;10.20;74019;2838.117;-1800.495;1;146;450;453.2;22.1;22.1;26;25.7;25.0;-1.0;
04/03/2025 05:30:52;117;0;162.86;-4;19.59;1.25;730.4;10.20;74013;2838.115;-1800.494;1;146;450;451.6;22.1;22.4;26;25.7;25.0;-1.0;
