Timestamp;NavState;SecurityLevel;Heading;Declination;Pitch;Roll;Depth;Temperature;Pa;Lat;Lon;DeadReckoning;DesiredH;BallastCmd;BallastPos;LinCmd;LinPos;AngCmd;AngPos;Voltage;Altitude;
17/02/2025 07:31:54;119;0;99.37;-4;-56.52;-16.51;0.1;19.60;76575;2838.740;-1759.590;0;124;500;511.3;100.0;100.7;0;-0.5;28.2;-1.0;
17/02/2025 07:32:04;116;0;117.77;-4;-51.08;-7.79;0.1;19.60;76574;2838.741;-1759.591;0;124;500;511.3;100.0;100.7;0;-0.5;28.2;-1.0;
17/02/2025 07:32:30;116;0;81.46;-4;-51.70;-18.50;0.1;19.70;76592;2838.742;-1759.592;0;124;500;509.7;100.0;100.7;0;-0.5;28.2;-1.0;
17/02/2025 07:32:38;116;0;82.16;-4;-48.72;-12.04;0.0;19.70;76586;2838.742;-1759.592;0;124;500;509.7;100.0;100.7;0;-0.5;28.2;-1.0;
17/02/2025 07:32:45;116;0;79.74;-4;-55.46;-7.20;0.2;19.70;76588;2838.743;-1759.592;0;124;500;509.7;100.0;100.6;0;-0.5;28.2;-1.0;
17/02/2025 07:32:53;116;0;86.62;-4;-53.05;-11.28;0.1;19.70;76585;2838.743;-1759.593;0;124;500;509.7;100.0;100.7;0;-0.5;28.2;-1.0;
17/02/2025 07:33:00;116;0;78.65;-4;-49.57;-12.54;0.1;19.70;76590;2838.743;-1759.593;0;124;500;511.3;100.0;100.7;0;-0.5;28.2;-1.0;
17/02/2025 07:33:07;116;0;96.39;-4;-54.50;-21.47;0.1;19.70;76595;2838.743;-1759.593;0;124;500;509.7;100.0;100.7;0;-0.5;28.2;-1.0;
17/02/2025 07:33:14;116;0;101.28;-4;-50.75;-13.04;0.2;19.70;76598;2838.743;-1759.593;0;124;500;509.7;100.0;100.7;0;-0.5;28.2;-1.0;
17/02/2025 07:33:21;116;0;102.21;-4;-55.57;-13.12;0.1;19.70;76586;2838.743;-1759.593;0;124;500;511.3;100.0;100.7;0;-0.5;28.2;-1.0;
17/02/2025 07:33:28;116;0;108.53;-4;-54.43;-10.58;0.0;19.80;76593;2838.743;-1759.594;0;124;500;509.7;100.0;100.7;0;-0.5;28.2;-1.0;
17/02/2025 07:33:48;116;0;117.52;-4;-52.15;-18.34;0.1;19.80;76600;2838.743;-1759.595;0;124;500;509.7;100.0;100.7;0;-0.5;28.2;-1.0;
17/02/2025 07:33:55;116;0;117.57;-4;-53.43;-20.27;0.1;19.80;76597;2838.743;-1759.596;0;124;500;509.7;100.0;100.7;0;-0.5;28.2;-1.0;
17/02/2025 07:34:03;116;0;108.54;-4;-59.03;-5.54;0.1;19.80;76602;2838.743;-1759.596;0;124;500;509.7;100.0;100.7;0;-0.5;28.2;-1.0;
17/02/2025 07:34:10;116;0;115.24;-4;-56.10;-14.90;0.1;19.90;76614;2838.743;-1759.596;0;124;500;509.7;100.0;100.7;0;-0.5;28.2;-1.0;
17/02/2025 07:34:17;116;0;107.33;-4;-54.28;-3.11;0.2;19.90;76604;2838.744;-1759.596;0;124;500;509.7;100.0;100.7;0;-0.5;28.2;-1.0;
17/02/2025 07:34:26;116;0;98.15;-4;-55.10;-14.77;0.1;19.90;76608;2838.743;-1759.597;0;124;500;511.3;100.0;100.7;0;-0.5;28.2;-1.0;
17/02/2025 07:34:35;116;0;85.50;-4;-48.39;-12.30;0.2;19.90;76601;2838.743;-1759.597;0;124;500;511.3;100.0;100.7;0;-0.5;28.2;-1.0;
17/02/2025 07:34:44;116;0;85.41;-4;-50.82;-11.59;0.1;19.90;76609;2838.744;-1759.597;0;123;500;509.7;100.0;100.7;0;-0.5;28.2;-1.0;
17/02/2025 07:34:53;116;0;73.86;-4;-53.95;-12.92;0.1;19.90;76605;2838.744;-1759.598;0;123;500;509.7;100.0;100.7;0;-0.5;28.2;-1.0;
17/02/2025 07:35:02;116;0;83.95;-4;-54.66;-17.83;0.1;20.00;76610;2838.744;-1759.598;0;124;500;511.3;100.0;100.7;0;-0.5;28.2;-1.0;
17/02/2025 07:35:11;116;0;83.83;-4;-48.55;-12.87;0.1;20.00;76609;2838.744;-1759.598;0;123;500;509.7;100.0;100.7;0;-0.5;28.2;-1.0;
17/02/2025 07:35:20;116;0;90.54;-4;-54.51;-12.63;0.2;20.00;76614;2838.744;-1759.599;0;124;500;509.7;100.0;100.7;0;-0.5;28.2;-1.0;
17/02/2025 07:35:28;116;0;94.03;-4;-57.26;-22.74;0.1;20.00;76613;2838.744;-1759.599;0;124;500;508.1;100.0;100.7;0;-0.5;28.2;-1.0;
17/02/2025 07:35:38;116;0;97.87;-4;-55.21;-16.63;0.1;20.00;76607;2838.744;-1759.599;0;123;500;509.7;100.0;100.7;0;-0.5;28.2;-1.0;
17/02/2025 07:35:47;116;0;101.76;-4;-56.48;-9.00;0.1;20.10;76622;2838.744;-1759.599;0;123;500;509.7;100.0;100.7;0;-0.5;28.2;-1.0;
17/02/2025 07:35:56;116;0;104.43;-4;-53.38;-16.08;-0.1;20.10;76619;2838.744;-1759.599;0;123;500;511.3;100.0;100.7;0;-0.5;28.2;-1.0;
17/02/2025 07:36:05;116;0;93.50;-4;-55.29;-7.84;0.1;20.10;76618;2838.744;-1759.599;0;123;500;509.7;100.0;100.7;0;-0.5;28.2;-1.0;
17/02/2025 07:36:14;116;0;105.66;-4;-55.64;-9.15;0.0;20.10;76628;2838.744;-1759.599;0;123;500;511.3;100.0;100.7;0;-0.5;28.2;-1.0;
17/02/2025 07:36:23;116;0;94.14;-4;-47.23;-18.42;0.1;20.10;76625;2838.744;-1759.600;0;123;500;508.1;100.0;100.7;0;-0.5;28.2;-1.0;
17/02/2025 07:36:32;116;0;90.07;-4;-55.98;-17.25;0.1;20.10;76622;2838.744;-1759.600;0;123;500;511.3;100.0;100.6;0;-0.5;28.2;-1.0;
17/02/2025 07:36:41;116;0;89.22;-4;-51.95;-16.29;0.0;20.10;76626;2838.744;-1759.600;0;123;500;509.7;100.0;100.7;0;-0.5;28.2;-1.0;
17/02/2025 07:36:49;116;0;95.76;-4;-53.28;-12.65;0.0;20.20;76630;2838.744;-1759.600;0;123;500;509.7;100.0;100.7;0;-0.5;28.2;-1.0;
17/02/2025 07:36:58;116;0;90.88;-4;-56.70;-18.58;0.1;20.20;76621;2838.744;-1759.601;0;123;500;511.3;100.0;100.7;0;-0.5;28.2;-1.0;
17/02/2025 07:37:07;116;0;95.90;-4;-51.18;-16.29;0.1;20.20;76626;2838.744;-1759.602;0;123;500;511.3;100.0;100.7;0;-0.5;28.2;-1.0;
17/02/2025 07:37:16;116;0;91.03;-4;-52.87;-13.08;0.0;20.20;76639;2838.744;-1759.602;0;123;500;509.7;100.0;100.7;0;-0.5;28.2;-1.0;
17/02/2025 07:37:25;116;0;97.99;-4;-49.50;-15.11;0.1;20.20;76622;2838.744;-1759.602;0;122;500;509.7;100.0;100.7;0;-0.5;28.2;-1.0;
17/02/2025 07:37:34;116;0;96.17;-4;-55.81;-15.79;0.1;20.20;76634;2838.744;-1759.603;0;122;500;511.3;100.0;100.7;0;-0.5;28.2;-1.0;
17/02/2025 07:37:43;116;0;96.81;-4;-51.12;-17.62;0.1;20.30;76634;2838.745;-1759.603;0;122;500;509.7;100.0;100.7;0;-0.5;28.2;-1.0;
17/02/2025 07:38:03;116;0;96.65;-4;-56.29;-19.17;-0.0;20.30;76637;2838.744;-1759.603;0;123;500;509.7;100.0;100.9;0;-0.5;28.2;-1.0;
17/02/2025 07:38:11;116;0;90.57;-4;-55.56;-15.29;0.1;20.30;76631;2838.744;-1759.604;0;122;500;509.7;100.0;100.7;0;-0.5;28.2;-1.0;
17/02/2025 07:38:20;116;0;77.36;-4;-50.88;-6.97;0.1;20.30;76634;2838.745;-1759.604;0;122;500;509.7;100.0;100.7;0;-0.5;28.2;-1.0;
17/02/2025 07:38:29;116;0;91.57;-4;-52.20;-15.54;0.1;20.30;76641;2838.744;-1759.604;0;122;500;511.3;100.0;100.7;0;-0.5;28.2;-1.0;
17/02/2025 07:38:38;116;0;90.35;-4;-52.06;-11.30;0.2;20.30;76638;2838.745;-1759.605;0;122;500;509.7;100.0;100.7;0;-0.5;28.2;-1.0;
17/02/2025 07:38:47;116;0;102.83;-4;-59.23;-24.15;0.0;20.40;76634;2838.745;-1759.605;0;122;500;509.7;100.0;100.7;0;-0.5;28.2;-1.0;
17/02/2025 07:38:56;116;0;111.85;-4;-57.03;-17.05;0.1;20.40;76648;2838.745;-1759.605;0;122;500;509.7;100.0;100.7;0;-0.5;28.2;-1.0;
17/02/2025 07:39:04;116;0;104.83;-4;-49.28;-16.93;0.1;20.40;76644;2838.745;-1759.606;0;122;500;509.7;100.0;100.7;0;-0.5;28.2;-1.0;
17/02/2025 07:39:14;116;0;99.50;-4;-54.00;-16.76;0.1;20.40;76638;2838.745;-1759.606;0;122;500;509.7;100.0;100.7;0;-0.5;28.2;-1.0;
17/02/2025 07:39:23;116;0;92.15;-4;-53.53;-8.12;0.1;20.40;76644;2838.745;-1759.606;0;122;500;508.1;100.0;100.7;0;-0.5;28.2;-1.0;
17/02/2025 07:39:43;116;0;71.08;-4;-62.51;-8.89;0.1;20.50;76652;2838.747;-1759.607;0;122;500;509.7;100.0;100.7;0;-0.5;28.2;-1.0;
17/02/2025 07:40:03;116;0;76.83;-4;-56.70;-12.78;0.1;20.50;76646;2838.747;-1759.608;0;122;500;509.7;100.0;100.7;0;-0.5;28.2;-1.0;
17/02/2025 07:40:12;116;0;87.69;-4;-58.72;-12.45;0.0;20.50;76645;2838.747;-1759.608;0;123;500;509.7;100.0;100.7;0;-0.5;28.2;-1.0;
17/02/2025 07:40:21;116;0;85.59;-4;-57.00;-15.96;0.1;20.50;76664;2838.747;-1759.608;0;123;500;509.7;100.0;100.7;0;-0.5;28.2;-1.0;
17/02/2025 07:40:30;116;0;86.03;-4;-59.61;-10.16;0.1;20.50;76652;2838.748;-1759.608;0;122;500;509.7;100.0;100.7;0;-0.5;28.2;-1.0;
17/02/2025 07:40:39;116;0;88.73;-4;-53.03;-18.11;0.1;20.50;76660;2838.748;-1759.607;0;123;500;511.3;100.0;100.7;0;-0.5;28.2;-1.0;
17/02/2025 07:40:59;116;0;78.67;-4;-51.90;-11.24;0.0;20.60;76653;2838.748;-1759.609;0;123;500;509.7;100.0;100.7;0;-0.5;28.2;-1.0;
17/02/2025 07:41:07;116;0;75.78;-4;-55.45;-11.35;0.0;20.60;76656;2838.748;-1759.609;0;122;500;509.7;100.0;100.7;0;-0.5;28.2;-1.0;
17/02/2025 07:41:16;116;0;90.17;-4;-61.10;-16.18;0.0;20.60;76660;2838.748;-1759.609;0;123;500;509.7;100.0;100.7;0;-0.5;28.2;-1.0;
17/02/2025 07:41:25;116;0;98.72;-4;-58.10;-21.04;0.1;20.60;76660;2838.748;-1759.609;0;123;500;511.3;100.0;100.7;0;-0.5;28.2;-1.0;
17/02/2025 07:41:34;116;0;94.38;-4;-53.26;-12.38;0.2;20.60;76662;2838.748;-1759.609;0;123;500;509.7;100.0;100.7;0;-0.5;28.2;-1.0;
17/02/2025 07:41:43;116;0;97.03;-4;-55.33;-11.38;0.1;20.60;76662;2838.748;-1759.610;0;123;500;511.3;100.0;100.7;0;-0.5;28.2;-1.0;
17/02/2025 07:41:52;116;0;108.73;-4;-53.32;-15.95;0.0;20.60;76653;2838.749;-1759.610;0;123;500;509.7;100.0;100.7;0;-0.5;28.2;-1.0;
17/02/2025 07:42:00;116;0;105.31;-4;-59.90;-23.06;0.2;20.60;76663;2838.749;-1759.609;0;123;500;509.7;100.0;100.7;0;-0.5;28.2;-1.0;
17/02/2025 07:42:09;116;0;102.70;-4;-51.98;-11.79;0.1;20.70;76664;2838.749;-1759.610;0;123;500;509.7;100.0;100.7;0;-0.5;28.2;-1.0;
17/02/2025 07:42:18;116;0;102.32;-4;-57.91;-11.60;0.1;20.70;76670;2838.749;-1759.610;0;123;500;509.7;100.0;100.7;0;-0.5;28.2;-1.0;
17/02/2025 07:42:27;116;0;106.91;-4;-55.86;-12.35;0.1;20.70;76672;2838.749;-1759.610;0;123;500;511.3;100.0;100.7;0;-0.5;28.2;-1.0;
17/02/2025 07:42:56;110;0;102.78;-4;-51.95;-15.84;0.1;20.70;76668;2838.749;-1759.610;0;123;-50;400.0;100.0;99.7;-11;-10.8;28.2;-1.0;
17/02/2025 07:43:06;110;0;115.66;-4;-49.54;-11.32;0.3;20.70;77007;2838.749;-1759.610;1;123;-50;248.4;100.0;99.7;-11;-11.3;28.2;-1.0;
17/02/2025 07:43:16;110;0;106.58;-4;-65.10;-9.39;0.7;20.70;77263;2838.749;-1759.610;1;123;-50;90.3;100.0;99.9;-11;-11.3;28.2;-1.0;
17/02/2025 07:43:26;110;0;96.33;-4;-66.85;-18.07;1.0;20.70;77599;2838.749;-1759.610;1;123;-50;-48.4;100.0;99.9;-11;-11.3;28.2;-1.0;
17/02/2025 07:43:36;110;0;84.50;-4;-70.55;-9.09;1.2;20.70;77877;2838.749;-1759.610;1;123;-50;-48.4;47.9;47.9;-11;-11.3;28.2;-1.0;
17/02/2025 07:43:56;100;0;103.50;-4;-34.14;-17.60;4.5;20.80;77861;2838.748;-1759.607;1;123;-50;-46.8;47.9;47.6;-11;-11.3;28.2;-1.0;
17/02/2025 07:44:16;100;0;111.27;-4;-28.29;-17.40;8.5;20.80;77864;2838.747;-1759.603;1;123;-50;-45.2;48.4;48.6;7;7.2;28.2;-1.0;
17/02/2025 07:44:36;100;0;114.60;-4;-30.93;-8.07;12.3;20.80;77864;2838.746;-1759.600;1;124;-50;-45.2;48.4;48.7;9;9.0;28.2;-1.0;
17/02/2025 07:44:56;100;0;111.47;-4;-31.36;-6.76;16.2;20.80;77873;2838.745;-1759.597;1;124;-50;-45.2;48.4;48.7;6;5.9;28.2;0.0;
17/02/2025 07:45:16;100;0;112.95;-4;-32.42;-9.11;20.0;20.80;77867;2838.744;-1759.593;1;124;-50;-45.2;47.7;47.7;6;5.9;28.2;0.0;
17/02/2025 07:45:36;100;0;113.90;-4;-28.70;-8.79;24.0;20.80;77868;2838.742;-1759.590;1;125;-50;-43.5;48.1;48.2;6;5.9;28.2;0.0;
17/02/2025 07:45:56;100;0;117.69;-4;-30.65;-8.63;28.4;20.80;77881;2838.740;-1759.586;1;125;-50;-45.2;48.1;48.3;10;9.9;28.2;0.0;
17/02/2025 07:46:16;100;0;118.52;-4;-30.37;-6.37;32.5;20.80;77874;2838.739;-1759.583;1;125;-50;-45.2;48.1;48.5;10;10.8;28.2;0.0;
17/02/2025 07:46:36;100;0;116.94;-4;-31.92;-6.26;36.8;20.80;77874;2838.737;-1759.579;1;126;-50;-45.2;48.1;48.5;10;10.4;28.2;0.0;
17/02/2025 07:46:56;100;0;116.88;-4;-30.28;-6.31;40.9;20.80;77882;2838.736;-1759.576;1;126;-50;-45.2;48.1;48.5;10;10.8;28.2;0.0;
17/02/2025 07:47:16;100;0;117.56;-4;-30.79;-6.36;44.9;20.80;77885;2838.734;-1759.572;1;126;-50;-45.2;48.1;48.5;10;10.8;28.2;0.0;
17/02/2025 07:47:36;100;0;117.13;-4;-30.32;-6.29;48.7;20.70;77880;2838.733;-1759.569;1;127;-50;-46.8;48.1;48.5;8;8.1;28.2;0.0;
17/02/2025 07:47:56;100;0;112.56;-4;-30.26;-7.96;52.5;20.70;77880;2838.732;-1759.565;1;127;-50;-45.2;48.1;48.5;3;3.2;28.2;0.0;
17/02/2025 07:48:16;100;0;111.27;-4;-30.10;-10.31;56.0;20.80;77888;2838.730;-1759.562;1;128;-50;-43.5;48.1;48.5;0;0.0;28.2;0.0;
17/02/2025 07:48:36;100;0;108.44;-4;-30.46;-11.80;59.8;20.70;77876;2838.730;-1759.559;1;129;-50;-45.2;48.1;48.5;-7;-7.2;28.2;0.0;
17/02/2025 07:48:56;100;0;109.72;-4;-30.22;-15.32;63.6;20.70;77868;2838.728;-1759.555;1;129;-50;-45.2;48.1;48.5;-4;-4.1;28.2;0.0;
17/02/2025 07:49:16;100;0;112.22;-4;-29.97;-13.41;67.3;20.70;77865;2838.727;-1759.552;1;130;-50;-43.5;48.1;48.5;-2;-1.8;28.2;0.0;
17/02/2025 07:49:36;100;0;115.35;-4;-30.39;-12.28;71.1;20.70;77873;2838.726;-1759.549;1;131;-50;-45.2;48.1;48.5;1;0.9;28.2;0.0;
17/02/2025 07:49:56;100;0;116.59;-4;-30.41;-10.93;74.8;20.70;77862;2838.725;-1759.545;1;132;-50;-45.2;48.1;48.5;1;1.4;28.2;0.0;
17/02/2025 07:50:16;100;0;118.55;-4;-30.25;-10.90;78.4;20.70;77868;2838.723;-1759.542;1;132;-50;-45.2;48.1;48.3;4;4.1;28.2;0.0;
17/02/2025 07:50:36;100;0;119.90;-4;-30.51;-9.34;82.2;20.70;77869;2838.722;-1759.539;1;133;-50;-45.2;48.1;48.5;4;4.5;28.2;0.0;
17/02/2025 07:50:56;100;0;120.78;-4;-30.60;-9.22;85.9;20.70;77875;2838.720;-1759.536;1;134;-50;-45.2;48.1;48.5;4;5.0;28.2;0.0;
17/02/2025 07:51:16;100;0;122.63;-4;-30.69;-9.19;89.6;20.70;77869;2838.718;-1759.533;1;134;-50;-45.2;48.1;48.5;6;5.9;28.2;0.0;
17/02/2025 07:51:36;100;0;121.73;-4;-30.73;-8.49;93.5;20.70;77875;2838.717;-1759.530;1;135;-50;-45.2;48.1;48.5;4;3.6;28.2;0.0;
17/02/2025 07:51:56;100;0;121.88;-4;-30.20;-10.07;97.2;20.60;77860;2838.715;-1759.527;1;136;-50;-45.2;48.1;48.5;4;3.2;28.2;0.0;
17/02/2025 07:52:16;100;0;122.99;-4;-30.15;-10.06;100.8;20.60;77863;2838.713;-1759.524;1;137;-50;-45.2;48.1;48.5;4;3.2;28.2;0.0;
17/02/2025 07:52:36;100;0;126.23;-4;-29.60;-10.00;104.4;20.60;77857;2838.712;-1759.522;1;138;-50;-45.2;48.1;48.5;7;7.2;28.2;0.0;
17/02/2025 07:52:56;100;0;136.55;-4;-30.39;-7.73;107.9;20.60;77838;2838.709;-1759.519;1;138;-50;-43.5;48.1;48.5;11;10.8;28.2;0.0;
17/02/2025 07:53:16;100;0;136.69;-4;-31.04;-6.12;111.5;20.60;77837;2838.707;-1759.517;1;138;-50;-45.2;48.1;48.5;11;10.8;28.2;0.0;
17/02/2025 07:53:36;100;0;138.15;-4;-30.41;-6.04;115.3;20.60;77835;2838.705;-1759.515;1;138;-50;-45.2;48.1;48.5;11;10.8;28.2;0.0;
17/02/2025 07:53:56;100;0;138.86;-4;-30.46;-6.17;118.8;20.60;77816;2838.703;-1759.512;1;138;-50;-45.2;48.1;48.5;11;10.8;28.2;0.0;
17/02/2025 07:54:16;100;0;137.86;-4;-30.18;-6.12;122.3;20.60;77803;2838.700;-1759.510;1;138;-50;-45.2;48.1;48.5;11;10.8;28.2;0.0;
17/02/2025 07:54:36;100;0;134.88;-4;-30.00;-6.18;125.8;20.50;77790;2838.698;-1759.508;1;138;-50;-46.8;48.1;48.5;11;10.8;28.2;0.0;
17/02/2025 07:54:56;100;0;134.83;-4;-30.00;-6.11;129.2;20.50;77777;2838.696;-1759.505;1;138;-50;-45.2;48.1;48.5;11;10.8;28.2;0.0;
17/02/2025 07:55:16;100;0;132.84;-4;-30.34;-6.23;132.7;20.50;77764;2838.694;-1759.503;1;139;-50;-43.5;48.1;48.5;11;10.8;28.2;0.0;
17/02/2025 07:55:36;100;0;132.62;-4;-30.56;-6.09;136.3;20.50;77749;2838.692;-1759.501;1;141;-50;-45.2;48.1;48.5;9;9.0;28.2;0.0;
17/02/2025 07:55:56;100;0;130.82;-4;-29.36;-7.28;139.9;20.50;77735;2838.690;-1759.498;1;144;-50;-45.2;48.1;48.5;5;5.0;28.2;0.0;
17/02/2025 07:56:16;100;0;131.42;-4;-29.50;-9.51;143.3;20.40;77705;2838.688;-1759.495;1;149;-50;-45.2;48.1;48.6;-1;-0.9;28.2;0.0;
17/02/2025 07:56:36;100;0;131.08;-4;-30.34;-12.24;146.8;20.40;77689;2838.686;-1759.493;1;160;-50;-45.2;48.1;48.5;-20;-19.9;28.2;0.0;
17/02/2025 07:56:56;100;0;133.61;-4;-29.04;-21.41;150.4;20.40;77674;2838.684;-1759.490;1;201;-50;-45.2;48.1;48.3;-68;-68.1;28.2;0.0;
17/02/2025 07:57:16;100;0;141.91;-4;-29.31;-43.90;153.7;20.30;77667;2838.682;-1759.488;1;276;-50;-43.5;48.1;48.3;-70;-69.9;28.2;0.0;
17/02/2025 07:57:36;100;0;153.10;-4;-29.66;-44.96;157.1;20.30;77651;2838.679;-1759.487;1;307;-50;-45.2;48.1;48.5;-70;-69.9;28.2;0.0;
17/02/2025 07:57:56;100;0;161.58;-4;-29.81;-44.97;160.4;20.30;77635;2838.676;-1759.486;1;321;-50;-43.5;48.1;48.5;-70;-69.9;28.2;0.0;
17/02/2025 07:58:16;100;0;175.69;-4;-29.29;-45.03;163.7;20.30;77624;2838.673;-1759.486;1;331;-50;-45.2;48.1;48.5;-70;-69.9;28.2;0.0;
17/02/2025 07:58:36;100;0;189.96;-4;-29.14;-45.15;167.0;20.20;77615;2838.671;-1759.486;1;340;-50;-45.2;48.1;48.3;-70;-69.9;28.2;0.0;
17/02/2025 07:58:56;100;0;202.08;-4;-29.27;-45.35;170.3;20.20;77603;2838.668;-1759.488;1;349;-50;-43.5;48.1;48.3;-70;-69.9;28.2;0.0;
17/02/2025 07:59:16;100;0;213.74;-4;-29.82;-45.20;173.6;20.20;77593;2838.665;-1759.490;1;356;-50;-45.2;48.1;48.3;-70;-69.9;28.2;0.0;
17/02/2025 07:59:36;100;0;222.48;-4;-30.68;-44.97;177.2;20.10;77584;2838.663;-1759.492;1;3;-50;-43.5;48.1;48.3;-70;-69.9;28.2;0.0;
17/02/2025 07:59:56;100;0;232.72;-4;-30.69;-44.85;180.8;20.10;77578;2838.661;-1759.495;1;10;-50;-43.5;48.1;48.3;-70;-69.9;28.2;0.0;
17/02/2025 08:00:16;100;0;240.53;-4;-30.56;-44.86;184.7;20.10;77555;2838.660;-1759.499;1;17;-50;-43.5;48.1;48.5;-70;-69.9;28.2;0.0;
17/02/2025 08:00:36;100;0;250.96;-4;-30.35;-45.11;188.4;20.00;77542;2838.659;-1759.502;1;23;-50;-45.2;48.1;48.3;-70;-69.9;28.2;0.0;
17/02/2025 08:00:56;100;0;260.52;-4;-30.32;-44.85;192.1;20.00;77532;2838.659;-1759.506;1;29;-50;-45.2;48.1;48.3;-70;-69.9;28.2;0.0;
17/02/2025 08:01:16;100;0;268.88;-4;-30.59;-45.05;196.0;20.00;77521;2838.659;-1759.510;1;35;-50;-43.5;48.1;48.5;-70;-69.9;28.2;0.0;
17/02/2025 08:01:32;118;0;278.16;-4;-30.02;-45.19;199.2;19.90;77505;2838.659;-1759.513;1;40;150;-40.3;22.5;22.2;12;12.2;28.2;0.0;
17/02/2025 08:01:42;118;0;290.14;-4;-15.92;-5.71;200.5;19.90;77472;2838.660;-1759.515;1;44;150;90.3;22.5;22.2;12;12.6;27.9;-1.0;
17/02/2025 08:01:52;118;0;311.52;-4;10.37;-5.90;201.0;19.90;77198;2838.660;-1759.516;1;45;150;154.8;22.5;21.9;12;12.6;27.8;-1.0;
17/02/2025 08:02:02;118;0;289.61;-4;23.28;-6.32;200.4;19.90;77079;2838.660;-1759.517;1;46;150;154.8;22.5;21.4;12;12.6;28.2;-1.0;
17/02/2025 08:02:22;117;0;284.03;-4;29.68;-6.28;198.5;19.80;77074;2838.661;-1759.519;1;49;150;154.8;22.5;21.2;12;12.6;28.2;-1.0;
17/02/2025 08:02:42;117;0;279.07;-4;30.00;-6.27;196.1;19.80;77071;2838.661;-1759.521;1;52;150;154.8;22.5;22.7;70;69.9;28.2;-1.0;
17/02/2025 08:03:02;117;0;282.12;-4;33.19;25.65;194.0;19.70;77057;2838.662;-1759.523;1;54;150;154.8;23.5;23.4;70;69.9;28.2;-1.0;
17/02/2025 08:03:22;117;0;288.00;-4;31.63;25.68;191.6;19.70;77064;2838.662;-1759.525;1;57;150;156.5;23.5;23.6;70;70.4;28.2;-1.0;
17/02/2025 08:03:42;117;0;295.10;-4;31.42;25.77;189.4;19.60;77048;2838.663;-1759.528;1;60;150;156.5;23.5;23.6;70;69.9;28.2;-1.0;
17/02/2025 08:04:02;117;0;298.61;-4;31.35;25.57;187.1;19.60;77047;2838.664;-1759.530;1;63;150;156.5;23.5;23.6;70;69.9;28.2;-1.0;
17/02/2025 08:04:22;117;0;301.29;-4;31.32;25.60;184.7;19.60;77063;2838.666;-1759.532;1;65;150;154.8;23.5;23.6;70;69.9;28.3;-1.0;
17/02/2025 08:04:42;117;0;303.08;-4;31.61;25.66;182.6;19.50;77037;2838.667;-1759.534;1;68;150;154.8;23.5;23.6;70;69.9;28.2;-1.0;
17/02/2025 08:05:02;117;0;307.67;-4;30.83;25.52;180.2;19.50;77044;2838.668;-1759.536;1;70;150;154.8;23.5;23.7;70;69.9;28.2;-1.0;
17/02/2025 08:05:22;117;0;311.89;-4;31.56;25.61;178.1;19.40;77040;2838.669;-1759.537;1;72;150;156.5;23.5;23.6;70;70.4;28.2;-1.0;
17/02/2025 08:05:42;117;0;313.27;-4;31.24;25.56;175.8;19.40;77034;2838.671;-1759.539;1;75;150;154.8;23.5;23.6;70;69.9;28.2;-1.0;
17/02/2025 08:06:02;117;0;315.24;-4;31.17;25.65;173.7;19.40;77032;2838.672;-1759.540;1;77;150;154.8;23.5;23.6;70;70.4;28.2;-1.0;
17/02/2025 08:06:22;117;0;316.93;-4;31.19;25.56;171.5;19.40;77038;2838.673;-1759.542;1;79;150;154.8;23.5;23.6;70;69.9;28.2;-1.0;
17/02/2025 08:06:42;117;0;317.23;-4;30.99;25.51;169.5;19.30;77036;2838.675;-1759.543;1;81;150;154.8;23.5;23.6;70;69.9;28.2;-1.0;
17/02/2025 08:07:02;117;0;319.27;-4;31.14;25.67;167.5;19.30;77037;2838.676;-1759.545;1;83;150;156.5;23.5;23.6;70;69.9;28.2;-1.0;
17/02/2025 08:07:22;117;0;324.62;-4;31.54;25.74;165.4;19.20;77036;2838.677;-1759.546;1;85;150;154.8;23.5;23.7;70;69.9;28.2;-1.0;
17/02/2025 08:07:42;117;0;334.00;-4;31.69;25.80;163.5;19.20;77036;2838.679;-1759.547;1;87;170;172.6;23.5;23.6;70;69.9;28.2;-1.0;
17/02/2025 08:08:02;117;0;338.35;-4;31.02;25.86;161.3;19.20;77005;2838.681;-1759.548;1;89;170;172.6;23.5;23.6;70;69.9;28.2;-1.0;
17/02/2025 08:08:22;117;0;346.68;-4;30.39;25.75;159.0;19.20;77002;2838.683;-1759.549;1;91;170;174.2;23.5;23.6;70;69.9;28.2;-1.0;
17/02/2025 08:08:42;117;0;357.12;-4;30.44;25.75;156.9;19.20;77007;2838.685;-1759.549;1;93;170;172.6;23.5;23.7;70;70.4;28.2;-1.0;
17/02/2025 08:09:02;117;0;0.49;-4;30.56;25.69;154.6;19.20;77010;2838.687;-1759.549;1;95;170;172.6;23.5;23.6;70;69.9;28.2;-1.0;
17/02/2025 08:09:22;117;0;2.51;-4;30.06;25.59;152.5;19.10;77017;2838.689;-1759.549;1;98;170;174.2;23.5;23.6;70;69.9;28.2;-1.0;
17/02/2025 08:09:42;117;0;5.05;-4;30.27;25.58;150.4;19.10;77022;2838.691;-1759.549;1;100;170;172.6;23.5;23.6;70;69.9;28.2;-1.0;
17/02/2025 08:10:02;117;0;8.04;-4;30.26;25.71;148.3;19.10;77019;2838.693;-1759.549;1;102;170;172.6;23.5;23.7;70;69.9;28.2;-1.0;
17/02/2025 08:10:22;117;0;13.23;-4;30.52;25.78;146.3;19.10;77025;2838.694;-1759.548;1;104;170;172.6;23.5;23.6;70;69.9;28.2;-1.0;
17/02/2025 08:10:42;117;0;20.33;-4;30.76;25.85;144.2;19.10;77023;2838.696;-1759.548;1;106;170;174.2;23.5;23.6;70;69.9;28.2;-1.0;
17/02/2025 08:11:02;117;0;25.57;-4;29.81;25.66;142.0;19.10;77032;2838.698;-1759.547;1;108;170;172.6;23.5;23.6;70;69.9;28.2;-1.0;
17/02/2025 08:11:22;117;0;25.52;-4;30.96;25.75;139.8;19.10;77041;2838.700;-1759.546;1;110;170;174.2;23.5;23.6;70;69.9;28.2;-1.0;
17/02/2025 08:11:42;117;0;34.04;-4;30.14;25.85;137.6;19.10;77039;2838.701;-1759.545;1;112;170;172.6;23.5;23.6;70;69.9;28.2;-1.0;
17/02/2025 08:12:03;117;0;38.77;-4;30.71;25.75;135.4;19.00;77037;2838.703;-1759.544;1;114;170;172.6;23.5;23.6;70;69.9;28.2;-1.0;
17/02/2025 08:12:23;117;0;37.86;-4;30.54;25.61;133.4;19.00;77040;2838.704;-1759.543;1;116;170;174.2;23.5;23.7;70;69.9;28.2;-1.0;
17/02/2025 08:12:43;117;0;37.08;-4;30.68;25.83;131.3;19.00;77057;2838.706;-1759.542;1;118;170;172.6;23.5;23.6;70;69.9;28.2;-1.0;
17/02/2025 08:13:03;117;0;42.86;-4;29.95;25.77;129.2;19.00;77063;2838.707;-1759.540;1;120;170;171.0;23.5;23.7;70;69.9;28.2;-1.0;
17/02/2025 08:13:23;117;0;46.92;-4;30.47;25.77;127.2;19.00;77077;2838.709;-1759.539;1;122;190;195.2;23.5;23.6;70;69.9;28.2;-1.0;
17/02/2025 08:13:43;117;0;51.52;-4;28.92;25.64;125.2;19.00;77026;2838.710;-1759.537;1;124;190;193.5;23.1;23.1;70;69.9;28.2;-1.0;
17/02/2025 08:14:03;117;0;56.77;-4;30.38;25.60;123.1;19.00;77043;2838.711;-1759.536;1;126;190;193.5;23.1;22.8;70;70.4;28.2;-1.0;
17/02/2025 08:14:23;117;0;59.94;-4;30.18;25.57;121.2;19.00;77055;2838.712;-1759.534;1;128;210;212.9;23.1;22.8;70;70.4;28.2;-1.0;
17/02/2025 08:14:43;117;0;62.74;-4;29.97;25.55;119.1;19.10;77024;2838.713;-1759.532;1;130;210;212.9;23.1;22.8;70;70.4;28.2;-1.0;
17/02/2025 08:15:03;117;0;63.53;-4;29.86;25.66;117.0;19.10;77035;2838.714;-1759.531;1;132;210;214.5;23.1;22.8;70;70.4;28.3;-1.0;
17/02/2025 08:15:23;117;0;62.49;-4;30.14;25.81;114.6;19.10;77039;2838.715;-1759.529;1;135;210;214.5;23.1;22.8;70;70.4;28.2;-1.0;
17/02/2025 08:15:43;117;0;71.72;-4;28.71;25.68;112.4;19.10;77052;2838.715;-1759.527;1;137;210;214.5;22.8;22.7;70;69.9;28.2;-1.0;
17/02/2025 08:16:03;117;0;80.79;-4;30.52;25.73;110.2;19.10;77080;2838.716;-1759.525;1;139;210;214.5;22.8;22.4;70;70.4;28.2;-1.0;
17/02/2025 08:16:23;117;0;85.60;-4;30.26;25.48;107.9;19.10;77082;2838.716;-1759.522;1;141;210;211.3;22.8;22.5;70;69.9;28.2;-1.0;
17/02/2025 08:16:43;117;0;87.64;-4;30.22;25.53;105.7;19.10;77090;2838.716;-1759.520;1;143;210;214.5;22.8;22.4;70;69.9;28.2;-1.0;
17/02/2025 08:17:03;117;0;89.97;-4;31.04;25.81;103.5;19.10;77107;2838.716;-1759.518;1;145;210;212.9;22.8;22.5;70;70.4;28.2;-1.0;
17/02/2025 08:17:23;117;0;94.42;-4;30.61;25.81;101.0;19.10;77120;2838.716;-1759.516;1;147;210;214.5;22.8;22.4;70;70.4;28.2;-1.0;
17/02/2025 08:17:43;117;0;100.76;-4;30.61;25.94;98.4;19.20;77130;2838.716;-1759.514;1;150;210;214.5;22.8;22.4;70;70.4;28.2;-1.0;
17/02/2025 08:18:03;117;0;106.32;-4;30.41;25.78;95.9;19.20;77143;2838.715;-1759.511;1;152;210;214.5;22.8;22.4;70;69.9;28.2;-1.0;
17/02/2025 08:18:23;117;0;111.92;-4;30.20;25.97;93.5;19.20;77149;2838.715;-1759.509;1;154;210;214.5;22.8;22.5;70;70.4;28.2;-1.0;
17/02/2025 08:18:43;117;0;116.99;-4;30.35;25.69;91.0;19.20;77156;2838.714;-1759.507;1;156;210;214.5;22.8;22.5;70;69.9;28.2;-1.0;
17/02/2025 08:19:03;117;0;122.06;-4;30.69;25.75;88.5;19.20;77156;2838.713;-1759.505;1;158;210;211.3;22.8;22.4;70;69.9;28.2;-1.0;
17/02/2025 08:19:23;117;0;126.88;-4;30.59;25.76;86.0;19.30;77166;2838.711;-1759.503;1;160;210;212.9;22.8;22.5;70;69.9;28.2;-1.0;
17/02/2025 08:19:43;117;0;132.06;-4;30.59;25.78;83.5;19.30;77162;2838.710;-1759.502;1;162;210;214.5;22.8;22.4;64;63.6;28.2;-1.0;
17/02/2025 08:20:03;117;0;135.20;-4;29.83;21.46;80.9;19.30;77165;2838.709;-1759.500;1;163;210;214.5;22.8;22.4;60;60.0;28.2;-1.0;
17/02/2025 08:20:23;117;0;138.61;-4;29.56;19.20;78.4;19.30;77181;2838.707;-1759.498;1;165;210;212.9;22.8;22.4;58;58.2;28.2;-1.0;
17/02/2025 08:20:43;117;0;142.07;-4;29.38;18.16;75.9;19.30;77181;2838.705;-1759.497;1;167;210;214.5;22.8;22.4;55;55.1;28.2;-1.0;
17/02/2025 08:21:03;117;0;146.33;-4;29.09;16.49;73.6;19.40;77186;2838.704;-1759.496;1;169;210;214.5;22.8;22.4;52;51.9;28.2;-1.0;
17/02/2025 08:21:23;117;0;150.58;-4;28.88;14.68;71.2;19.40;77197;2838.702;-1759.495;1;171;210;214.5;22.4;22.5;46;45.6;28.2;-1.0;
17/02/2025 08:21:43;117;0;153.03;-4;28.49;11.16;68.9;19.40;77202;2838.700;-1759.494;1;173;210;214.5;22.0;21.8;46;45.1;28.2;-1.0;
17/02/2025 08:22:03;117;0;157.37;-4;29.98;11.19;66.5;19.40;77206;2838.698;-1759.493;1;174;210;214.5;22.0;21.5;41;40.6;28.2;-1.0;
17/02/2025 08:22:23;117;0;159.13;-4;29.84;8.57;64.0;19.40;77206;2838.696;-1759.492;1;176;210;214.5;22.0;21.5;41;40.2;28.2;-1.0;
17/02/2025 08:22:43;117;0;163.82;-4;29.73;8.67;61.6;19.40;77200;2838.694;-1759.492;1;178;210;214.5;22.0;21.5;38;37.5;28.2;-1.0;
17/02/2025 08:23:03;117;0;164.30;-4;29.55;6.64;59.2;19.50;77211;2838.692;-1759.491;1;180;210;214.5;22.0;21.5;40;40.6;28.2;-1.0;
17/02/2025 08:23:23;117;0;167.45;-4;30.25;9.13;56.8;19.50;77218;2838.690;-1759.491;1;183;210;217.7;22.0;21.5;40;40.6;28.2;-1.0;
17/02/2025 08:23:43;117;0;167.07;-4;30.49;9.05;54.3;19.50;77221;2838.688;-1759.490;1;187;210;214.5;22.0;21.5;46;46.0;28.2;-1.0;
17/02/2025 08:24:03;117;0;168.27;-4;30.52;12.18;51.6;19.50;77219;2838.686;-1759.490;1;196;210;214.5;22.0;21.5;59;59.1;28.2;-1.0;
17/02/2025 08:24:23;117;0;171.55;-4;30.52;19.40;48.8;19.50;77215;2838.684;-1759.489;1;221;210;214.5;22.0;21.5;70;69.9;28.2;-1.0;
17/02/2025 08:24:43;117;0;175.06;-4;33.27;25.92;46.0;19.60;77243;2838.681;-1759.489;1;291;210;216.1;22.9;23.0;70;70.4;28.2;-1.0;
17/02/2025 08:25:03;117;0;178.40;-4;29.98;26.10;43.3;19.60;77239;2838.679;-1759.489;1;334;210;212.9;22.9;23.1;70;70.4;28.2;-1.0;
17/02/2025 08:25:23;117;0;181.99;-4;31.32;25.74;40.7;19.60;77241;2838.677;-1759.490;1;346;210;214.5;22.9;23.1;70;70.4;28.2;-1.0;
17/02/2025 08:25:43;117;0;187.63;-4;28.67;26.14;38.0;19.60;77253;2838.675;-1759.490;1;354;210;214.5;22.5;22.5;70;70.4;28.2;-1.0;
17/02/2025 08:26:03;117;0;193.14;-4;31.46;26.02;35.3;19.60;77250;2838.672;-1759.491;1;359;210;216.1;22.5;22.4;70;70.4;28.2;-1.0;
17/02/2025 08:26:23;117;0;197.46;-4;30.56;25.99;32.4;19.70;77260;2838.670;-1759.492;1;3;210;214.5;22.5;22.4;70;70.4;28.2;-1.0;
17/02/2025 08:26:43;117;0;200.14;-4;30.80;25.74;29.5;19.70;77257;2838.668;-1759.493;1;7;210;214.5;22.5;22.2;70;70.4;28.2;-1.0;
17/02/2025 08:27:03;117;0;204.83;-4;30.54;25.92;26.5;19.70;77256;2838.666;-1759.494;1;10;210;214.5;22.5;22.4;70;70.4;28.2;-1.0;
17/02/2025 08:27:23;117;0;209.86;-4;29.89;25.75;23.6;19.70;77260;2838.663;-1759.496;1;13;210;214.5;22.5;22.4;70;70.4;28.2;-1.0;
17/02/2025 08:27:43;117;0;214.38;-4;31.11;25.98;20.6;19.70;77255;2838.661;-1759.498;1;16;210;214.5;22.5;22.4;70;70.4;28.2;-1.0;
17/02/2025 08:28:03;117;0;222.26;-4;28.95;26.06;17.5;19.70;77255;2838.659;-1759.500;1;19;210;214.5;22.2;22.2;70;70.4;28.2;-1.0;
17/02/2025 08:28:23;117;0;224.49;-4;30.61;26.56;14.6;19.70;77261;2838.658;-1759.502;1;22;210;214.5;22.2;21.9;70;70.4;28.2;-1.0;
17/02/2025 08:28:43;117;0;229.22;-4;32.33;25.77;11.6;19.80;77270;2838.656;-1759.504;1;24;210;216.1;22.9;23.0;70;70.4;28.2;-1.0;
17/02/2025 08:29:03;117;0;235.50;-4;29.84;26.25;8.5;19.80;77260;2838.655;-1759.507;1;27;210;214.5;22.9;23.1;70;70.4;28.2;-1.0;
17/02/2025 08:29:23;117;0;244.06;-4;29.48;25.86;5.7;19.80;77261;2838.654;-1759.510;1;30;210;214.5;22.9;23.1;70;70.4;28.2;-1.0;
17/02/2025 08:29:41;115;0;254.11;-4;28.84;26.71;3.3;19.80;77259;2838.653;-1759.512;1;33;500;222.6;100.0;66.4;0;-0.5;28.2;-1.0;
17/02/2025 08:29:51;115;0;245.78;-4;11.39;-12.82;2.3;19.80;77234;2838.653;-1759.514;1;34;500;341.9;100.0;100.0;0;-0.5;28.0;-1.0;
17/02/2025 08:30:01;115;0;216.00;-4;-63.38;-9.25;2.8;19.80;76954;2838.652;-1759.514;1;34;500;456.5;100.0;100.6;0;0.0;28.0;-1.0;
17/02/2025 08:30:11;115;0;211.41;-4;-69.40;-11.69;2.4;19.80;76693;2838.652;-1759.514;1;34;500;506.5;100.0;100.6;0;-0.5;28.0;-1.0;
17/02/2025 08:30:21;115;0;224.88;-4;-36.55;-5.71;0.1;19.90;76608;2838.651;-1759.516;1;35;500;506.5;100.0;100.6;0;-0.5;28.2;-1.0;
17/02/2025 08:30:41;119;0;175.22;-4;-54.61;-4.30;0.1;19.90;76626;2838.651;-1759.516;1;35;500;506.5;100.0;100.6;0;0.0;28.2;-1.0;
17/02/2025 08:30:51;119;0;168.08;-4;-65.47;-17.49;0.1;19.90;76626;2838.681;-1759.600;0;35;500;509.7;100.0;100.6;0;0.0;28.2;-1.0;
