Timestamp;NavState;SecurityLevel;Heading;Declination;Pitch;Roll;Depth;Temperature;Pa;Lat;Lon;DeadReckoning;DesiredH;BallastCmd;BallastPos;LinCmd;LinPos;AngCmd;AngPos;Voltage;Altitude;
14/02/2025 06:28:25;119;0;283.32;-4;-55.75;-17.16;-0.1;19.30;76220;2837.511;-1801.390;0;54;500;508.1;100.0;100.7;0;-0.5;28.6;-1.0;
14/02/2025 06:28:35;116;0;300.79;-4;-51.05;-17.95;-0.1;19.30;76227;2837.513;-1801.393;0;54;500;508.1;100.0;100.7;0;-0.5;28.6;-1.0;
14/02/2025 06:29:00;116;0;345.33;-4;-49.41;-17.36;-0.1;19.40;76236;2837.514;-1801.395;0;58;500;509.7;100.0;100.7;0;-0.5;28.6;-1.0;
14/02/2025 06:29:18;116;0;350.42;-4;-52.13;-14.61;0.0;19.40;76238;2837.515;-1801.396;0;-9999;500;509.7;100.0;100.7;0;-0.5;28.6;-1.0;
14/02/2025 06:29:36;116;0;3.17;-4;-56.65;-18.92;-0.2;19.40;76247;2837.516;-1801.397;0;99;500;509.7;100.0;100.7;0;-0.5;28.6;-1.0;
14/02/2025 06:29:56;116;0;3.63;-4;-51.98;-12.08;0.0;19.50;76254;2837.518;-1801.399;0;99;500;509.7;100.0;100.7;0;-0.5;28.6;-1.0;
14/02/2025 06:30:16;116;0;352.93;-4;-53.49;-7.94;-0.0;19.50;76247;2837.519;-1801.401;0;99;500;509.7;100.0;100.7;0;-0.5;28.6;-1.0;
14/02/2025 06:30:56;116;0;331.03;-4;-53.07;-17.12;-0.1;19.50;76252;2837.521;-1801.405;0;99;500;509.7;100.0;100.7;0;0.0;28.6;-1.0;
14/02/2025 06:31:46;116;0;346.11;-4;-53.25;-11.75;-0.1;19.70;76262;2837.524;-1801.410;0;100;500;509.7;100.0;100.7;0;-0.5;28.6;-1.0;
14/02/2025 06:32:06;116;0;349.08;-4;-56.85;-12.41;0.1;19.70;76279;2837.526;-1801.412;0;100;500;509.7;100.0;100.7;0;-0.5;28.6;-1.0;
14/02/2025 06:32:26;116;0;11.81;-4;-56.95;-13.95;-0.1;19.80;76268;2837.526;-1801.414;0;100;500;508.1;100.0;100.9;0;-0.5;28.6;-1.0;
14/02/2025 06:32:46;116;0;22.71;-4;-55.80;-7.53;0.1;19.80;76268;2837.528;-1801.416;0;100;500;509.7;100.0;100.7;0;-0.5;28.6;-1.0;
14/02/2025 06:32:57;116;0;17.81;-4;-53.72;-5.86;-0.1;19.90;76286;2837.529;-1801.417;0;100;500;508.1;100.0;100.7;0;-0.5;28.6;-1.0;
14/02/2025 06:33:17;110;0;11.96;-4;-54.15;-19.83;-0.1;19.90;76281;2837.529;-1801.417;0;100;-100;395.2;100.0;99.7;-11;-11.3;28.6;-1.0;
14/02/2025 06:33:27;110;0;14.97;-4;-51.43;-16.04;0.3;20.00;76639;2837.529;-1801.417;1;100;-100;241.9;100.0;99.9;-11;-11.3;28.6;-1.0;
14/02/2025 06:33:37;110;0;16.90;-4;-63.90;-7.54;0.6;20.00;76886;2837.529;-1801.417;1;100;-100;83.9;100.0;99.7;-11;-11.3;28.6;-1.0;
14/02/2025 06:33:47;110;0;15.50;-4;-65.74;-26.13;0.7;20.00;77223;2837.530;-1801.417;1;100;-100;-74.2;100.0;99.9;-11;-11.7;28.6;-1.0;
14/02/2025 06:33:57;110;0;18.51;-4;-63.29;-17.48;1.1;20.10;77558;2837.530;-1801.417;1;100;-100;-100.0;50.0;49.9;-11;-11.3;28.6;-1.0;
14/02/2025 06:34:07;110;0;18.36;-4;-55.72;-20.21;2.7;20.10;77579;2837.531;-1801.417;1;100;-100;-100.0;50.0;49.8;-11;-11.3;28.6;-1.0;
14/02/2025 06:34:27;100;0;34.40;-4;-33.04;-17.62;7.3;20.10;77572;2837.534;-1801.415;1;100;-100;-101.6;50.0;49.6;-11;-11.3;28.6;-1.0;
14/02/2025 06:34:47;100;0;42.54;-4;-31.63;-17.33;12.3;20.20;77583;2837.537;-1801.412;1;100;-100;-98.4;46.5;46.2;-59;-59.1;28.6;-1.0;
14/02/2025 06:35:07;100;0;55.42;-4;-25.31;-40.06;16.8;20.20;77590;2837.540;-1801.407;1;100;-100;-96.8;44.9;44.8;-43;-42.9;28.6;0.0;
14/02/2025 06:35:27;100;0;66.19;-4;-22.42;-31.31;20.6;20.20;77581;2837.542;-1801.403;1;100;-100;-95.2;44.2;43.9;-29;-28.9;28.6;0.0;
14/02/2025 06:35:47;100;0;77.99;-4;-20.02;-24.77;24.0;20.30;77594;2837.543;-1801.398;1;100;-100;-93.5;44.2;43.9;-11;-10.4;28.6;0.0;
14/02/2025 06:36:07;100;0;85.57;-4;-20.97;-16.19;27.2;20.30;77602;2837.543;-1801.393;1;100;-100;-95.2;44.2;44.0;2;1.8;28.6;0.0;
14/02/2025 06:36:27;100;0;91.58;-4;-21.27;-10.29;30.5;20.30;77596;2837.543;-1801.389;1;100;-100;-93.5;44.2;44.0;8;8.1;28.6;0.0;
14/02/2025 06:36:47;100;0;95.09;-4;-21.22;-7.54;33.8;20.30;77599;2837.543;-1801.384;1;100;-100;-93.5;44.2;44.0;10;10.4;28.6;0.0;
14/02/2025 06:37:07;100;0;95.68;-4;-21.53;-6.31;37.1;20.30;77607;2837.543;-1801.380;1;100;-100;-95.2;44.2;44.0;10;10.4;28.6;0.0;
14/02/2025 06:37:27;100;0;95.26;-4;-21.84;-6.30;40.4;20.30;77599;2837.542;-1801.375;1;100;-100;-93.5;44.2;44.0;10;10.8;28.6;0.0;
14/02/2025 06:37:47;100;0;95.00;-4;-21.37;-6.31;43.7;20.30;77610;2837.542;-1801.371;1;100;-100;-93.5;44.2;44.0;10;10.4;28.6;0.0;
14/02/2025 06:38:07;100;0;94.76;-4;-21.42;-6.31;47.1;20.30;77608;2837.542;-1801.366;1;100;-100;-95.2;44.2;44.0;10;10.8;28.6;0.0;
14/02/2025 06:38:27;100;0;94.95;-4;-21.46;-6.27;50.4;20.30;77611;2837.541;-1801.361;1;100;-100;-95.2;44.2;44.0;10;10.4;28.6;0.0;
14/02/2025 06:38:47;100;0;95.04;-4;-21.55;-6.34;53.8;20.30;77608;2837.541;-1801.357;1;100;-100;-93.5;44.2;44.0;10;10.8;28.6;0.0;
14/02/2025 06:39:07;100;0;94.68;-4;-21.46;-6.27;57.3;20.30;77608;2837.541;-1801.352;1;100;-100;-93.5;44.2;43.9;10;10.4;28.6;0.0;
14/02/2025 06:39:27;100;0;95.09;-4;-21.59;-6.25;60.7;20.30;77617;2837.541;-1801.348;1;100;-100;-93.5;44.2;44.0;10;10.8;28.6;0.0;
14/02/2025 06:39:47;100;0;95.89;-4;-21.36;-6.31;64.1;20.30;77616;2837.540;-1801.343;1;100;-100;-93.5;44.2;44.0;10;10.8;28.6;0.0;
14/02/2025 06:40:07;100;0;97.10;-4;-21.52;-6.30;67.7;20.30;77623;2837.540;-1801.338;1;100;-100;-96.8;44.2;44.0;10;10.4;28.6;0.0;
14/02/2025 06:40:27;100;0;98.18;-4;-21.45;-6.27;71.2;20.30;77627;2837.539;-1801.333;1;100;-100;-95.2;44.2;43.9;10;10.8;28.6;0.0;
14/02/2025 06:40:47;100;0;98.76;-4;-21.48;-6.30;74.7;20.30;77624;2837.539;-1801.329;1;100;-100;-93.5;44.2;44.0;10;10.8;28.6;0.0;
14/02/2025 06:41:07;100;0;99.39;-4;-21.45;-6.26;78.2;20.30;77627;2837.538;-1801.324;1;100;-100;-95.2;44.2;44.0;10;10.8;28.6;0.0;
14/02/2025 06:41:27;100;0;99.98;-4;-21.47;-6.23;81.7;20.30;77630;2837.538;-1801.319;1;100;-100;-95.2;44.2;44.0;10;10.4;28.6;0.0;
14/02/2025 06:41:47;100;0;100.90;-4;-21.26;-6.20;85.3;20.30;77638;2837.537;-1801.314;1;100;-100;-93.5;44.2;43.9;10;10.8;28.6;0.0;
14/02/2025 06:42:07;100;0;101.63;-4;-21.32;-6.33;88.8;20.30;77640;2837.536;-1801.309;1;100;-100;-95.2;44.2;43.9;10;10.4;28.6;0.0;
14/02/2025 06:42:27;100;0;102.78;-4;-21.36;-6.31;92.4;20.30;77641;2837.535;-1801.304;1;100;-100;-93.5;44.2;44.0;10;10.4;28.6;0.0;
14/02/2025 06:42:47;100;0;103.91;-4;-21.36;-6.28;96.1;20.30;77644;2837.534;-1801.299;1;100;-100;-93.5;44.2;43.9;10;10.8;28.6;0.0;
14/02/2025 06:43:07;100;0;106.10;-4;-21.10;-6.30;99.6;20.30;77650;2837.533;-1801.295;1;100;-100;-95.2;44.2;44.0;10;10.8;28.6;0.0;
14/02/2025 06:43:27;100;0;107.38;-4;-21.20;-6.28;103.1;20.30;77650;2837.532;-1801.290;1;100;-100;-93.5;44.2;44.0;12;12.2;28.6;0.0;
14/02/2025 06:43:47;100;0;107.11;-4;-21.21;-5.17;106.7;20.30;77647;2837.531;-1801.285;1;100;-100;-95.2;44.2;44.0;12;12.6;28.6;0.0;
14/02/2025 06:44:07;100;0;107.58;-4;-21.30;-5.14;110.3;20.30;77645;2837.530;-1801.280;1;100;-100;-95.2;44.2;44.0;12;12.6;28.6;0.0;
14/02/2025 06:44:27;100;0;108.52;-4;-21.27;-5.25;113.9;20.20;77637;2837.528;-1801.276;1;100;-100;-95.2;44.2;44.0;12;12.6;28.6;0.0;
14/02/2025 06:44:47;100;0;111.28;-4;-21.15;-5.15;117.6;20.20;77651;2837.527;-1801.271;1;100;-100;-95.2;44.2;44.0;14;14.0;28.6;0.0;
14/02/2025 06:45:07;100;0;112.23;-4;-21.32;-4.42;121.2;20.20;77648;2837.525;-1801.266;1;100;-100;-95.2;44.2;44.0;14;14.4;28.6;0.0;
14/02/2025 06:45:27;100;0;111.74;-4;-21.19;-4.36;124.8;20.20;77651;2837.523;-1801.262;1;100;-100;-95.2;44.2;44.0;14;14.4;28.6;0.0;
14/02/2025 06:45:47;100;0;110.88;-4;-21.36;-4.41;128.5;20.30;77662;2837.522;-1801.257;1;100;-100;-93.5;44.2;44.0;14;14.4;28.6;0.0;
14/02/2025 06:46:07;100;0;110.43;-4;-21.64;-4.46;132.1;20.20;77649;2837.521;-1801.252;1;100;-100;-95.2;44.2;44.0;14;14.4;28.6;0.0;
14/02/2025 06:46:27;100;0;109.39;-4;-21.47;-4.39;135.8;20.20;77655;2837.519;-1801.247;1;100;-100;-93.5;44.2;43.9;14;14.4;28.6;0.0;
14/02/2025 06:46:47;100;0;108.25;-4;-21.28;-4.40;139.5;20.20;77652;2837.518;-1801.243;1;100;-100;-95.2;44.2;44.0;12;12.2;28.6;0.0;
14/02/2025 06:47:07;100;0;108.90;-4;-21.05;-5.71;143.0;20.20;77664;2837.517;-1801.238;1;100;-100;-95.2;44.2;44.0;12;11.7;28.6;0.0;
14/02/2025 06:47:27;100;0;110.52;-4;-21.27;-5.68;146.7;20.20;77655;2837.515;-1801.233;1;100;-100;-95.2;44.2;44.0;14;14.0;28.6;0.0;
14/02/2025 06:47:47;100;0;114.03;-4;-21.46;-4.55;150.3;20.20;77670;2837.513;-1801.229;1;100;-100;-95.2;44.2;44.0;18;18.5;28.6;0.0;
14/02/2025 06:48:07;100;0;119.14;-4;-21.15;-2.44;154.0;20.20;77647;2837.511;-1801.224;1;100;-100;-93.5;44.2;44.0;25;24.8;28.6;0.0;
14/02/2025 06:48:27;100;0;116.63;-4;-20.88;0.82;157.5;20.20;77626;2837.509;-1801.220;1;100;-100;-93.5;44.2;44.0;21;21.2;28.6;0.0;
14/02/2025 06:48:47;100;0;112.06;-4;-20.75;-1.17;160.9;20.20;77606;2837.508;-1801.215;1;100;-100;-93.5;44.2;43.9;15;14.4;28.6;0.0;
14/02/2025 06:49:07;100;0;117.01;-4;-20.71;-4.77;164.2;20.20;77590;2837.506;-1801.211;1;100;-100;-93.5;44.2;43.9;22;22.1;28.6;0.0;
14/02/2025 06:49:27;100;0;111.97;-4;-21.63;-0.49;167.8;20.10;77553;2837.505;-1801.207;1;100;-100;-93.5;44.2;44.0;15;14.9;28.6;0.0;
14/02/2025 06:49:48;100;0;111.91;-4;-20.75;-4.44;171.3;20.10;77538;2837.503;-1801.202;1;100;-100;-93.5;44.2;44.0;15;14.4;28.6;0.0;
14/02/2025 06:50:08;100;0;114.73;-4;-20.46;-4.51;174.5;20.10;77511;2837.501;-1801.198;1;100;-100;-95.2;44.2;43.9;19;19.0;28.6;0.0;
14/02/2025 06:50:28;100;0;113.73;-4;-20.48;-2.25;177.7;20.10;77496;2837.500;-1801.194;1;100;-100;-93.5;44.2;44.0;17;16.7;28.6;0.0;
14/02/2025 06:50:48;100;0;111.83;-4;-20.47;-3.57;180.8;20.00;77484;2837.499;-1801.190;1;100;-100;-93.5;44.2;44.0;15;14.4;28.6;0.0;
14/02/2025 06:51:08;100;0;109.46;-4;-20.31;-4.80;184.0;20.00;77462;2837.497;-1801.185;1;100;-100;-93.5;44.2;43.9;15;14.0;28.6;0.0;
14/02/2025 06:51:28;100;0;110.26;-4;-20.28;-4.77;187.1;20.00;77457;2837.496;-1801.181;1;100;-100;-93.5;44.2;43.9;15;14.4;28.6;0.0;
14/02/2025 06:51:48;100;0;113.85;-4;-20.32;-4.79;190.3;19.90;77437;2837.494;-1801.177;1;100;-100;-93.5;44.2;43.9;18;18.1;28.6;0.0;
14/02/2025 06:52:08;100;0;114.26;-4;-21.10;-2.47;193.5;19.90;77429;2837.493;-1801.173;1;100;-100;-95.2;44.2;44.0;18;19.0;28.6;0.0;
14/02/2025 06:52:28;100;0;109.62;-4;-20.90;-2.46;196.7;19.90;77414;2837.492;-1801.169;1;100;-100;-93.5;44.2;43.9;14;14.0;28.6;0.0;
14/02/2025 06:52:48;100;0;112.55;-4;-21.07;-4.84;200.0;19.80;77390;2837.490;-1801.165;1;100;-100;-93.5;44.2;44.0;16;15.8;28.6;0.0;
14/02/2025 06:53:08;100;0;112.86;-4;-21.25;-3.68;203.4;19.80;77369;2837.489;-1801.160;1;100;-100;-95.2;44.2;43.9;16;16.2;28.6;0.0;
14/02/2025 06:53:28;100;0;111.11;-4;-20.93;-3.66;206.8;19.70;77346;2837.487;-1801.156;1;100;-100;-95.2;44.2;43.9;16;16.2;28.6;0.0;
14/02/2025 06:53:48;100;0;109.43;-4;-21.30;-3.88;210.0;19.70;77331;2837.486;-1801.152;1;100;-100;-93.5;44.2;43.9;14;14.0;28.6;0.0;
14/02/2025 06:54:08;100;0;107.61;-4;-20.91;-4.95;213.1;19.70;77330;2837.485;-1801.148;1;100;-100;-93.5;44.2;44.0;14;13.5;28.6;0.0;
14/02/2025 06:54:28;100;0;107.22;-4;-20.81;-4.91;216.2;19.60;77329;2837.484;-1801.143;1;100;-100;-95.2;44.2;44.0;14;14.0;28.6;0.0;
14/02/2025 06:54:48;100;0;104.48;-4;-20.63;-4.86;219.2;19.60;77330;2837.483;-1801.139;1;100;-100;-95.2;44.2;44.0;12;11.7;28.6;0.0;
14/02/2025 06:55:08;100;0;100.64;-4;-20.50;-6.04;222.1;19.60;77315;2837.483;-1801.135;1;100;-100;-93.5;44.2;44.0;12;11.3;28.6;0.0;
14/02/2025 06:55:28;100;0;101.84;-4;-20.16;-6.13;224.9;19.50;77299;2837.482;-1801.132;1;100;-100;-95.2;44.2;43.9;12;11.3;28.6;0.0;
14/02/2025 06:55:48;100;0;103.92;-4;-19.83;-6.16;227.6;19.50;77293;2837.481;-1801.128;1;100;-100;-93.5;44.2;44.0;12;11.3;28.6;0.0;
14/02/2025 06:56:08;100;0;103.64;-4;-19.95;-6.07;230.1;19.40;77272;2837.481;-1801.124;1;100;-100;-93.5;44.2;44.0;12;11.3;28.6;0.0;
14/02/2025 06:56:28;100;0;105.44;-4;-20.01;-6.08;232.7;19.40;77250;2837.480;-1801.121;1;100;-100;-93.5;44.2;43.9;12;11.3;28.6;0.0;
14/02/2025 06:56:48;100;0;105.80;-4;-20.17;-6.08;235.3;19.40;77246;2837.479;-1801.117;1;100;-100;-93.5;44.2;44.0;12;11.3;28.6;0.0;
14/02/2025 06:57:08;100;0;102.32;-4;-20.32;-6.08;237.8;19.30;77231;2837.478;-1801.114;1;100;-100;-95.2;44.2;43.9;12;11.7;28.6;0.0;
14/02/2025 06:57:28;100;0;100.56;-4;-20.41;-6.09;240.4;19.30;77214;2837.478;-1801.110;1;100;-100;-95.2;44.2;43.9;12;11.3;28.6;0.0;
14/02/2025 06:57:48;100;0;99.92;-4;-20.49;-6.09;243.1;19.20;77207;2837.477;-1801.106;1;100;-100;-93.5;44.2;43.9;12;11.3;28.6;0.0;
14/02/2025 06:58:08;100;0;98.92;-4;-20.20;-6.06;245.5;19.20;77204;2837.477;-1801.103;1;100;-100;-93.5;44.2;44.0;12;11.3;28.6;0.0;
14/02/2025 06:58:28;100;0;101.39;-4;-20.42;-6.11;248.1;19.10;77203;2837.476;-1801.099;1;100;-100;-95.2;44.2;44.0;12;11.7;28.6;0.0;
14/02/2025 06:58:48;100;0;103.02;-4;-20.30;-6.11;250.7;19.10;77176;2837.476;-1801.095;1;100;-100;-93.5;44.2;43.9;12;11.3;28.6;0.0;
14/02/2025 06:59:08;100;0;103.57;-4;-20.45;-6.12;253.2;19.10;77172;2837.475;-1801.092;1;100;-100;-95.2;44.2;44.0;12;11.3;28.6;0.0;
14/02/2025 06:59:28;100;0;105.34;-4;-20.70;-6.11;255.9;19.00;77157;2837.474;-1801.088;1;100;-100;-93.5;44.2;44.0;12;11.3;28.6;0.0;
14/02/2025 06:59:48;100;0;106.53;-4;-20.54;-6.05;258.7;19.00;77148;2837.474;-1801.085;1;99;-100;-93.5;44.2;44.0;12;11.3;28.6;0.0;
14/02/2025 07:00:08;100;0;105.01;-4;-20.59;-6.05;261.4;18.90;77129;2837.473;-1801.081;1;99;-100;-95.2;44.2;44.0;12;11.3;28.6;0.0;
14/02/2025 07:00:28;100;0;106.96;-4;-20.34;-6.13;264.2;18.90;77118;2837.472;-1801.077;1;99;-100;-95.2;44.2;44.0;12;11.7;28.6;0.0;
14/02/2025 07:00:48;100;0;110.53;-4;-20.40;-6.08;266.9;18.90;77119;2837.471;-1801.073;1;99;-100;-95.2;44.2;43.9;16;16.2;28.6;0.0;
14/02/2025 07:01:08;100;0;111.10;-4;-20.24;-3.53;269.6;18.80;77100;2837.470;-1801.070;1;99;-100;-93.5;44.2;44.0;16;16.2;28.6;0.0;
14/02/2025 07:01:28;100;0;109.37;-4;-20.37;-3.55;272.3;18.80;77077;2837.469;-1801.066;1;99;-100;-93.5;44.2;44.0;14;13.5;28.6;0.0;
14/02/2025 07:01:48;100;0;109.63;-4;-20.31;-5.18;275.0;18.70;77067;2837.467;-1801.063;1;99;-100;-93.5;44.2;43.9;14;13.1;28.6;0.0;
14/02/2025 07:02:08;100;0;108.60;-4;-20.38;-5.15;277.8;18.70;77067;2837.466;-1801.059;1;99;-100;-93.5;44.2;44.0;14;13.1;28.6;0.0;
14/02/2025 07:02:28;100;0;109.86;-4;-20.40;-5.15;280.6;18.60;77049;2837.465;-1801.055;1;99;-100;-93.5;44.2;44.0;14;13.1;28.6;0.0;
14/02/2025 07:02:48;100;0;112.09;-4;-19.88;-5.17;283.4;18.60;77034;2837.464;-1801.051;1;99;-100;-95.2;44.2;44.0;18;18.1;28.6;0.0;
14/02/2025 07:03:08;100;0;108.17;-4;-20.49;-2.63;286.1;18.50;77022;2837.463;-1801.047;1;99;-100;-93.5;44.2;44.0;14;13.5;28.6;0.0;
14/02/2025 07:03:28;100;0;106.84;-4;-20.20;-5.05;288.9;18.50;77006;2837.462;-1801.044;1;99;-100;-95.2;44.2;43.9;14;13.5;28.6;0.0;
14/02/2025 07:03:48;100;0;105.96;-4;-20.28;-5.07;291.8;18.50;76994;2837.461;-1801.040;1;99;-100;-93.5;44.2;43.9;14;13.5;28.6;0.0;
14/02/2025 07:04:08;100;0;107.46;-4;-20.51;-5.05;294.7;18.40;76994;2837.460;-1801.036;1;99;-100;-95.2;44.2;44.0;14;13.5;28.6;0.0;
14/02/2025 07:04:28;100;0;106.48;-4;-20.48;-5.13;297.7;18.40;76973;2837.459;-1801.032;1;99;-100;-95.2;44.2;44.0;14;13.5;28.6;0.0;
14/02/2025 07:04:48;100;0;105.71;-4;-20.28;-5.00;300.6;18.30;76972;2837.458;-1801.028;1;99;-100;-93.5;44.2;44.0;14;13.5;28.6;0.0;
14/02/2025 07:05:08;100;0;104.92;-4;-20.42;-5.07;303.5;18.30;76968;2837.457;-1801.024;1;99;-100;-95.2;44.2;44.0;14;13.5;28.6;0.0;
14/02/2025 07:05:28;100;0;105.01;-4;-20.11;-5.04;306.4;18.20;76957;2837.457;-1801.020;1;99;-100;-95.2;44.2;44.0;14;13.5;28.6;0.0;
14/02/2025 07:05:48;100;0;105.83;-4;-19.95;-5.07;309.3;18.20;76948;2837.456;-1801.015;1;99;-100;-93.5;44.2;43.9;14;13.5;28.6;0.0;
14/02/2025 07:06:08;100;0;105.84;-4;-19.76;-5.07;312.1;18.20;76946;2837.455;-1801.012;1;99;-100;-93.5;44.2;43.9;14;13.5;28.6;0.0;
14/02/2025 07:06:28;100;0;105.58;-4;-20.16;-5.01;314.9;18.10;76935;2837.454;-1801.008;1;99;-100;-95.2;44.2;43.9;14;13.5;28.6;0.0;
14/02/2025 07:06:48;100;0;105.26;-4;-19.92;-5.07;317.7;18.00;76914;2837.453;-1801.004;1;99;-100;-95.2;44.2;43.9;14;13.5;28.6;0.0;
14/02/2025 07:07:08;100;0;107.83;-4;-19.93;-5.06;320.5;18.00;76904;2837.452;-1801.000;1;99;-100;-95.2;44.2;43.9;14;13.5;28.6;0.0;
14/02/2025 07:07:28;100;0;109.41;-4;-20.05;-5.01;323.3;18.00;76893;2837.451;-1800.996;1;99;-100;-93.5;44.2;44.0;14;13.5;28.6;0.0;
14/02/2025 07:07:48;100;0;110.16;-4;-19.96;-5.08;326.1;17.90;76881;2837.450;-1800.992;1;99;-100;-96.8;44.2;43.9;16;15.8;28.6;0.0;
14/02/2025 07:08:08;100;0;108.14;-4;-20.05;-3.87;328.9;17.90;76873;2837.449;-1800.989;1;99;-100;-95.2;44.2;44.0;16;15.8;28.6;0.0;
14/02/2025 07:08:28;100;0;107.69;-4;-20.15;-3.86;331.8;17.80;76858;2837.448;-1800.985;1;99;-100;-93.5;44.2;44.0;14;13.5;28.6;0.0;
14/02/2025 07:08:48;100;0;114.15;-4;-19.83;-5.07;334.8;17.80;76856;2837.446;-1800.981;1;99;-100;-93.5;44.2;44.0;21;21.2;28.6;0.0;
14/02/2025 07:09:08;100;0;113.46;-4;-20.03;-0.99;337.7;17.70;76842;2837.445;-1800.977;1;99;-100;-93.5;44.2;44.0;21;21.7;28.6;0.0;
14/02/2025 07:09:28;100;0;110.42;-4;-20.21;-1.01;340.5;17.70;76830;2837.444;-1800.973;1;99;-100;-93.5;44.2;44.0;16;15.8;28.6;0.0;
14/02/2025 07:09:48;100;0;109.83;-4;-19.88;-4.05;343.3;17.60;76819;2837.443;-1800.969;1;99;-100;-93.5;44.2;44.0;16;15.8;28.6;0.0;
14/02/2025 07:10:08;100;0;112.01;-4;-19.93;-4.09;346.2;17.60;76817;2837.441;-1800.965;1;99;-100;-95.2;44.2;43.9;18;18.1;28.6;0.0;
14/02/2025 07:10:28;100;0;110.94;-4;-19.72;-2.61;349.0;17.60;76792;2837.440;-1800.962;1;99;-100;-93.5;44.2;44.0;18;18.1;28.6;0.0;
14/02/2025 07:10:48;100;0;107.98;-4;-19.79;-2.66;351.6;17.50;76798;2837.439;-1800.958;1;99;-100;-93.5;44.2;43.9;14;13.5;28.6;0.0;
14/02/2025 07:11:08;100;0;105.99;-4;-19.83;-5.04;354.3;17.50;76782;2837.438;-1800.954;1;99;-100;-93.5;44.2;44.0;14;13.5;28.6;0.0;
14/02/2025 07:11:28;100;0;106.45;-4;-20.15;-4.95;357.1;17.40;76769;2837.438;-1800.951;1;99;-100;-93.5;44.2;44.0;14;13.5;28.6;0.0;
14/02/2025 07:11:48;100;0;105.59;-4;-20.45;-4.97;359.9;17.40;76768;2837.437;-1800.947;1;99;-100;-93.5;44.2;44.0;14;13.5;28.6;0.0;
14/02/2025 07:12:08;100;0;106.17;-4;-20.35;-5.03;362.8;17.40;76759;2837.436;-1800.943;1;99;-100;-93.5;44.2;44.0;14;13.5;28.6;0.0;
14/02/2025 07:12:28;100;0;105.48;-4;-20.08;-5.02;365.7;17.30;76746;2837.435;-1800.939;1;99;-100;-93.5;44.2;44.0;14;13.5;28.6;0.0;
14/02/2025 07:12:48;100;0;102.85;-4;-19.78;-4.98;368.7;17.30;76744;2837.434;-1800.934;1;99;-100;-95.2;44.2;44.0;14;13.5;28.6;0.0;
14/02/2025 07:13:08;100;0;101.53;-4;-20.28;-5.07;371.5;17.20;76736;2837.433;-1800.930;1;99;-100;-95.2;44.2;43.9;14;13.5;28.6;0.0;
14/02/2025 07:13:28;100;0;100.79;-4;-19.92;-5.26;374.6;17.20;76729;2837.433;-1800.926;1;99;-100;-95.2;44.2;43.9;14;13.5;28.6;0.0;
14/02/2025 07:13:48;100;0;98.92;-4;-20.47;-5.01;377.7;17.10;76720;2837.432;-1800.922;1;99;-100;-95.2;44.2;44.0;14;13.5;28.6;0.0;
14/02/2025 07:14:08;100;0;97.28;-4;-20.56;-5.01;380.8;17.10;76711;2837.432;-1800.917;1;99;-100;-95.2;44.2;44.0;14;13.5;28.6;0.0;
14/02/2025 07:14:28;100;0;93.34;-4;-20.59;-4.99;384.0;17.10;76710;2837.432;-1800.913;1;99;-100;-96.8;44.2;44.0;12;12.2;28.6;0.0;
14/02/2025 07:14:48;100;0;92.12;-4;-19.65;-5.40;387.3;17.00;76695;2837.432;-1800.908;1;99;-100;-95.2;44.2;43.9;12;13.1;28.6;0.0;
14/02/2025 07:15:08;100;0;90.19;-4;-19.72;-5.37;390.4;17.00;76680;2837.432;-1800.904;1;99;-100;-93.5;44.2;44.0;10;9.9;28.6;0.0;
14/02/2025 07:15:28;100;0;89.03;-4;-19.34;-7.02;393.4;16.90;76676;2837.432;-1800.899;1;99;-100;-93.5;44.2;44.0;10;9.5;28.6;0.0;
14/02/2025 07:15:48;100;0;90.29;-4;-19.25;-7.04;396.4;16.90;76670;2837.432;-1800.895;1;99;-100;-93.5;44.2;44.0;10;9.9;28.6;0.0;
14/02/2025 07:16:08;100;0;92.91;-4;-19.36;-7.03;399.5;16.90;76649;2837.432;-1800.890;1;99;-100;-93.5;44.2;43.9;12;12.6;28.6;0.0;
14/02/2025 07:16:28;100;0;92.67;-4;-19.58;-5.31;402.6;16.80;76650;2837.432;-1800.886;1;99;-100;-95.2;44.2;44.0;12;13.1;28.6;0.0;
14/02/2025 07:16:48;100;0;95.46;-4;-19.36;-5.32;405.7;16.80;76638;2837.432;-1800.881;1;99;-100;-95.2;44.2;43.9;12;13.1;28.6;0.0;
14/02/2025 07:17:08;100;0;98.26;-4;-19.52;-5.28;408.9;16.80;76637;2837.431;-1800.877;1;99;-100;-95.2;44.2;44.0;12;13.1;28.6;0.0;
14/02/2025 07:17:28;100;0;96.59;-4;-19.69;-5.28;412.0;16.70;76623;2837.431;-1800.872;1;99;-100;-95.2;44.2;44.0;12;13.1;28.6;0.0;
14/02/2025 07:17:48;100;0;96.24;-4;-19.67;-5.32;415.2;16.70;76611;2837.430;-1800.868;1;99;-100;-93.5;44.2;44.0;12;13.1;28.6;0.0;
14/02/2025 07:18:08;100;0;96.35;-4;-19.66;-5.29;418.2;16.60;76613;2837.430;-1800.863;1;99;-100;-91.9;44.2;43.9;12;13.1;28.6;0.0;
14/02/2025 07:18:28;100;0;97.86;-4;-19.68;-5.29;421.4;16.60;76598;2837.430;-1800.859;1;99;-100;-93.5;44.2;43.9;12;13.1;28.6;0.0;
14/02/2025 07:18:48;100;0;100.43;-4;-19.50;-5.26;424.5;16.60;76594;2837.429;-1800.854;1;99;-100;-93.5;44.2;44.0;12;13.1;28.6;0.0;
14/02/2025 07:19:08;100;0;102.02;-4;-19.35;-5.32;427.5;16.50;76593;2837.428;-1800.850;1;99;-100;-91.9;44.2;44.0;12;13.1;28.6;0.0;
14/02/2025 07:19:28;100;0;101.67;-4;-19.28;-5.33;430.4;16.50;76575;2837.428;-1800.845;1;99;-100;-93.5;44.2;44.0;12;13.1;28.6;0.0;
14/02/2025 07:19:48;100;0;101.42;-4;-19.24;-5.30;433.3;16.50;76568;2837.427;-1800.841;1;99;-100;-93.5;44.2;43.9;12;13.1;28.6;0.0;
14/02/2025 07:20:08;100;0;100.76;-4;-19.15;-5.33;436.1;16.40;76572;2837.426;-1800.837;1;99;-100;-93.5;44.2;44.0;12;13.1;28.6;0.0;
14/02/2025 07:20:28;100;0;102.41;-4;-19.37;-5.32;438.9;16.40;76569;2837.426;-1800.833;1;99;-100;-93.5;44.2;44.0;12;13.1;28.6;0.0;
14/02/2025 07:20:48;100;0;103.53;-4;-19.43;-5.28;441.7;16.30;76551;2837.425;-1800.829;1;99;-100;-93.5;44.2;43.9;12;13.1;28.6;0.0;
14/02/2025 07:21:08;100;0;102.50;-4;-19.20;-5.24;444.4;16.30;76539;2837.424;-1800.825;1;99;-100;-93.5;44.2;44.0;12;13.1;28.6;0.0;
14/02/2025 07:21:28;100;0;103.69;-4;-19.24;-5.36;447.3;16.30;76535;2837.423;-1800.821;1;99;-100;-93.5;44.2;44.0;12;13.1;28.6;0.0;
14/02/2025 07:21:48;100;0;106.26;-4;-19.16;-5.34;449.9;16.20;76528;2837.422;-1800.817;1;99;-100;-93.5;44.2;44.0;14;14.0;28.6;0.0;
14/02/2025 07:22:08;100;0;108.35;-4;-19.39;-4.65;452.6;16.20;76529;2837.421;-1800.813;1;99;-100;-96.8;44.2;44.0;14;14.4;28.6;0.0;
14/02/2025 07:22:28;100;0;110.01;-4;-19.46;-4.59;455.4;16.20;76523;2837.420;-1800.809;1;99;-100;-95.2;44.2;43.9;16;15.8;28.6;0.0;
14/02/2025 07:22:48;100;0;110.45;-4;-19.35;-3.83;458.2;16.10;76509;2837.419;-1800.805;1;99;-100;-95.2;44.2;43.9;16;16.2;28.6;0.0;
14/02/2025 07:23:08;100;0;111.18;-4;-19.31;-3.87;460.8;16.10;76500;2837.418;-1800.802;1;99;-100;-93.5;44.2;44.0;16;16.2;28.6;0.0;
14/02/2025 07:23:28;100;0;109.15;-4;-18.93;-3.74;463.5;16.10;76493;2837.417;-1800.798;1;99;-100;-95.2;44.5;44.5;16;16.2;28.6;0.0;
14/02/2025 07:23:49;100;0;109.87;-4;-19.72;-3.94;465.9;16.00;76473;2837.416;-1800.795;1;99;-100;-93.5;44.5;44.8;16;15.8;28.6;0.0;
14/02/2025 07:24:09;100;0;111.22;-4;-20.32;-3.86;468.6;16.00;76469;2837.415;-1800.791;1;99;-100;-93.5;44.5;44.8;16;16.2;28.6;0.0;
14/02/2025 07:24:29;100;0;110.61;-4;-20.25;-3.69;471.2;16.00;76459;2837.414;-1800.788;1;99;-100;-95.2;44.5;44.8;16;16.2;28.6;0.0;
14/02/2025 07:24:49;100;0;106.88;-4;-20.59;-3.76;474.0;15.90;76455;2837.413;-1800.784;1;99;-100;-93.5;44.5;44.8;14;14.0;28.6;0.0;
14/02/2025 07:25:09;100;0;103.62;-4;-20.46;-4.84;476.9;15.90;76443;2837.412;-1800.780;1;99;-100;-93.5;44.5;44.8;14;14.0;28.6;0.0;
14/02/2025 07:25:29;100;0;99.51;-4;-20.35;-4.73;479.6;15.90;76428;2837.412;-1800.776;1;99;-100;-93.5;44.5;44.8;14;14.0;28.6;0.0;
14/02/2025 07:25:49;100;0;96.14;-4;-20.51;-4.83;482.2;15.80;76421;2837.411;-1800.772;1;99;-100;-93.5;44.5;44.8;14;14.0;28.6;0.0;
14/02/2025 07:26:09;100;0;94.00;-4;-20.34;-4.77;485.0;15.80;76417;2837.411;-1800.768;1;99;-100;-95.2;44.5;44.8;14;14.0;28.6;0.0;
14/02/2025 07:26:29;100;0;92.96;-4;-21.14;-4.67;487.8;15.80;76415;2837.411;-1800.765;1;99;-100;-93.5;44.5;44.8;12;12.2;28.6;0.0;
14/02/2025 07:26:49;100;0;93.30;-4;-21.11;-5.87;490.7;15.70;76400;2837.411;-1800.761;1;99;-100;-93.5;44.5;44.8;12;12.2;28.6;0.0;
14/02/2025 07:27:09;100;0;94.19;-4;-20.55;-5.90;493.5;15.70;76391;2837.411;-1800.757;1;99;-100;-95.2;44.5;44.8;12;11.7;28.6;0.0;
14/02/2025 07:27:29;100;0;94.75;-4;-20.54;-5.76;496.4;15.60;76395;2837.411;-1800.753;1;99;-100;-93.5;44.5;44.8;12;11.7;28.6;0.0;
14/02/2025 07:27:49;100;0;94.00;-4;-20.72;-5.77;499.3;15.60;76381;2837.410;-1800.749;1;99;-100;-93.5;44.5;44.8;12;11.7;28.6;0.0;
14/02/2025 07:28:09;100;0;93.53;-4;-20.32;-5.80;502.2;15.60;76370;2837.410;-1800.745;1;99;-100;-95.2;44.5;44.8;12;12.2;28.6;0.0;
14/02/2025 07:28:29;100;0;91.61;-4;-20.63;-5.96;505.2;15.60;76383;2837.410;-1800.740;1;99;-100;-93.5;44.5;44.8;12;11.7;28.6;0.0;
14/02/2025 07:28:49;100;0;91.45;-4;-20.67;-5.89;508.3;15.50;76372;2837.410;-1800.736;1;99;-100;-93.5;44.5;44.8;12;11.7;28.6;0.0;
14/02/2025 07:29:09;100;0;89.50;-4;-20.11;-5.96;511.2;15.50;76367;2837.410;-1800.732;1;99;-100;-93.5;44.5;44.8;10;9.9;28.6;0.0;
14/02/2025 07:29:29;100;0;93.17;-4;-20.05;-7.00;514.2;15.40;76356;2837.410;-1800.728;1;99;-100;-93.5;44.5;44.8;12;12.2;28.6;0.0;
14/02/2025 07:29:49;100;0;95.90;-4;-20.44;-5.61;517.3;15.40;76347;2837.410;-1800.723;1;99;-100;-95.2;44.5;44.8;12;12.6;28.6;0.0;
14/02/2025 07:30:09;100;0;98.26;-4;-20.33;-5.64;520.4;15.40;76335;2837.410;-1800.719;1;99;-100;-93.5;44.5;44.9;12;12.6;28.6;0.0;
14/02/2025 07:30:29;100;0;100.79;-4;-20.24;-5.60;523.7;15.40;76336;2837.409;-1800.714;1;99;-100;-93.5;44.5;44.9;12;12.6;28.6;0.0;
14/02/2025 07:30:49;100;0;103.00;-4;-20.33;-5.64;526.9;15.30;76325;2837.408;-1800.710;1;99;-100;-93.5;44.5;44.8;12;12.6;28.6;0.0;
14/02/2025 07:31:09;100;0;105.31;-4;-20.49;-5.68;530.1;15.30;76304;2837.407;-1800.705;1;99;-100;-93.5;44.5;44.8;14;14.0;28.6;0.0;
14/02/2025 07:31:29;100;0;105.73;-4;-20.48;-4.58;533.3;15.30;76305;2837.406;-1800.701;1;99;-100;-93.5;44.5;44.9;14;14.4;28.6;0.0;
14/02/2025 07:31:49;100;0;105.57;-4;-20.60;-4.56;536.6;15.20;76304;2837.405;-1800.696;1;99;-100;-93.5;44.5;44.8;14;14.4;28.6;0.0;
14/02/2025 07:32:09;100;0;105.35;-4;-20.32;-4.55;539.9;15.20;76294;2837.404;-1800.692;1;99;-100;-95.2;44.5;44.9;14;14.4;28.6;0.0;
14/02/2025 07:32:29;100;0;109.18;-4;-20.33;-4.56;543.0;15.20;76292;2837.403;-1800.687;1;99;-100;-93.5;44.5;44.8;16;15.8;28.6;0.0;
14/02/2025 07:32:49;100;0;110.05;-4;-20.48;-3.68;546.1;15.10;76281;2837.402;-1800.683;1;99;-100;-93.5;44.5;44.9;16;16.2;28.6;0.0;
14/02/2025 07:33:09;100;0;110.73;-4;-20.70;-3.83;549.3;15.10;76293;2837.400;-1800.679;1;99;-100;-95.2;44.5;44.8;16;16.2;28.6;0.0;
14/02/2025 07:33:29;100;0;112.31;-4;-20.39;-3.71;552.5;15.10;76280;2837.399;-1800.675;1;99;-100;-95.2;44.5;44.8;19;19.0;28.6;0.0;
14/02/2025 07:33:49;100;0;112.39;-4;-20.85;-2.12;555.6;15.00;76269;2837.397;-1800.671;1;99;-100;-93.5;44.5;44.8;19;19.4;28.6;0.0;
14/02/2025 07:34:09;100;0;110.79;-4;-20.21;-2.03;558.8;15.00;76272;2837.396;-1800.666;1;99;-100;-95.2;44.5;44.8;17;17.1;28.6;0.0;
14/02/2025 07:34:29;100;0;110.80;-4;-20.49;-3.23;562.0;15.00;76261;2837.395;-1800.662;1;99;-100;-95.2;44.5;44.9;17;17.1;28.6;0.0;
14/02/2025 07:34:49;100;0;110.56;-4;-20.31;-3.12;565.2;15.00;76258;2837.393;-1800.658;1;99;-100;-93.5;44.5;44.9;17;17.6;28.6;0.0;
14/02/2025 07:35:09;100;0;111.15;-4;-20.34;-3.19;568.4;14.90;76255;2837.392;-1800.654;1;99;-100;-93.5;44.5;44.8;17;17.6;28.6;0.0;
14/02/2025 07:35:29;100;0;110.92;-4;-20.34;-3.15;571.7;14.90;76250;2837.391;-1800.649;1;99;-100;-93.5;44.5;44.8;17;17.6;28.6;0.0;
14/02/2025 07:35:49;100;0;110.54;-4;-20.46;-3.21;574.9;14.90;76242;2837.389;-1800.645;1;99;-100;-93.5;44.5;44.8;17;17.1;28.6;0.0;
14/02/2025 07:36:09;100;0;109.57;-4;-20.39;-3.19;578.2;14.80;76232;2837.388;-1800.640;1;99;-100;-93.5;44.5;44.8;17;17.1;28.6;0.0;
14/02/2025 07:36:29;100;0;109.15;-4;-20.29;-3.15;581.5;14.80;76226;2837.387;-1800.636;1;99;-100;-93.5;44.5;44.8;17;17.6;28.6;0.0;
14/02/2025 07:36:49;100;0;110.66;-4;-20.42;-3.17;584.7;14.80;76241;2837.385;-1800.632;1;99;-100;-93.5;44.5;44.8;17;17.6;28.6;0.0;
14/02/2025 07:37:09;100;0;110.42;-4;-20.19;-3.16;588.1;14.80;76231;2837.384;-1800.627;1;99;-100;-95.2;44.5;44.8;17;17.6;28.6;0.0;
14/02/2025 07:37:29;100;0;110.52;-4;-19.82;-3.32;591.2;14.70;76218;2837.383;-1800.623;1;99;-100;-93.5;44.5;44.8;17;17.1;28.6;0.0;
14/02/2025 07:37:49;100;0;107.72;-4;-20.31;-3.19;594.4;14.70;76208;2837.381;-1800.618;1;99;-100;-93.5;44.5;44.8;15;14.9;28.6;0.0;
14/02/2025 07:38:09;100;0;101.85;-4;-18.95;-4.41;597.6;14.70;76218;2837.381;-1800.614;1;99;-100;-93.5;44.8;44.8;15;14.4;28.6;0.0;
14/02/2025 07:38:29;100;0;96.93;-4;-20.36;-4.45;600.7;14.70;76201;2837.380;-1800.609;1;99;-100;-95.2;44.8;44.8;15;14.4;28.6;0.0;
14/02/2025 07:38:49;100;0;94.41;-4;-20.36;-4.51;603.9;14.60;76192;2837.380;-1800.605;1;99;-100;-93.5;44.8;44.8;13;13.1;28.6;0.0;
14/02/2025 07:39:09;100;0;93.50;-4;-20.33;-5.32;607.1;14.60;76185;2837.380;-1800.600;1;99;-100;-95.2;44.8;44.8;13;13.1;28.6;0.0;
14/02/2025 07:39:29;100;0;92.93;-4;-20.17;-5.35;610.3;14.60;76178;2837.380;-1800.595;1;99;-100;-93.5;44.8;44.9;13;13.1;28.6;0.0;
14/02/2025 07:39:49;100;0;94.04;-4;-19.88;-5.36;613.4;14.60;76168;2837.380;-1800.591;1;99;-100;-93.5;44.8;44.8;13;13.1;28.6;0.0;
14/02/2025 07:40:09;100;0;90.86;-4;-19.78;-5.48;616.4;14.50;76161;2837.380;-1800.587;1;99;-100;-93.5;44.8;44.9;11;10.8;28.6;0.0;
14/02/2025 07:40:29;100;0;90.38;-4;-20.37;-6.21;619.4;14.50;76165;2837.380;-1800.582;1;99;-100;-95.2;44.8;44.8;11;10.8;28.6;0.0;
14/02/2025 07:40:49;100;0;88.00;-4;-19.42;-6.29;622.4;14.50;76155;2837.380;-1800.578;1;99;-100;-93.5;44.8;44.8;9;9.0;28.6;0.0;
14/02/2025 07:41:09;100;0;86.89;-4;-19.67;-7.57;625.4;14.40;76160;2837.380;-1800.574;1;99;-100;-91.9;44.8;44.8;7;7.2;28.6;0.0;
14/02/2025 07:41:29;100;0;86.15;-4;-19.46;-8.61;628.3;14.40;76142;2837.381;-1800.569;1;99;-100;-93.5;44.8;44.8;7;7.2;28.6;0.0;
14/02/2025 07:41:49;100;0;88.50;-4;-19.58;-8.29;631.2;14.40;76145;2837.381;-1800.565;1;99;-100;-93.5;44.8;44.9;9;9.0;28.6;0.0;
14/02/2025 07:42:09;100;0;88.43;-4;-19.78;-7.02;634.2;14.40;76139;2837.381;-1800.561;1;99;-100;-95.2;44.8;44.8;9;9.9;28.6;0.0;
14/02/2025 07:42:29;100;0;90.28;-4;-19.65;-6.98;637.1;14.40;76139;2837.381;-1800.557;1;99;-100;-93.5;44.8;44.9;9;9.9;28.6;0.0;
14/02/2025 07:42:49;100;0;91.87;-4;-19.44;-7.00;640.1;14.30;76133;2837.381;-1800.552;1;99;-100;-95.2;44.8;44.8;12;12.2;28.6;0.0;
14/02/2025 07:43:09;100;0;90.56;-4;-19.53;-5.66;643.0;14.30;76121;2837.381;-1800.548;1;99;-100;-93.5;44.8;44.8;12;12.6;28.6;0.0;
14/02/2025 07:43:29;100;0;91.71;-4;-19.85;-5.67;645.8;14.30;76115;2837.381;-1800.544;1;99;-100;-93.5;44.8;44.8;12;12.6;28.6;0.0;
14/02/2025 07:43:49;100;0;93.16;-4;-19.82;-5.64;648.9;14.20;76089;2837.381;-1800.540;1;99;-100;-93.5;44.8;44.8;12;12.6;28.6;0.0;
14/02/2025 07:44:09;100;0;94.36;-4;-19.83;-5.58;652.0;14.20;76097;2837.381;-1800.535;1;99;-100;-95.2;44.8;44.8;12;12.6;28.6;0.0;
14/02/2025 07:44:29;100;0;97.71;-4;-19.93;-5.54;655.2;14.20;76083;2837.380;-1800.530;1;99;-100;-93.5;44.8;44.9;12;12.6;28.6;0.0;
14/02/2025 07:44:49;100;0;99.50;-4;-19.92;-5.55;658.4;14.20;76076;2837.380;-1800.526;1;99;-100;-93.5;44.8;44.8;12;12.6;28.6;0.0;
14/02/2025 07:45:09;100;0;100.40;-4;-19.81;-5.60;661.6;14.10;76067;2837.379;-1800.521;1;99;-100;-93.5;44.8;44.9;12;12.6;28.6;0.0;
14/02/2025 07:45:29;100;0;101.82;-4;-19.90;-5.59;664.8;14.10;76070;2837.378;-1800.517;1;99;-100;-93.5;44.8;44.8;12;12.2;28.6;0.0;
14/02/2025 07:45:49;100;0;106.45;-4;-19.84;-5.65;668.2;14.10;76063;2837.377;-1800.512;1;99;-100;-93.5;44.8;44.8;14;14.0;28.6;0.0;
14/02/2025 07:46:09;100;0;109.32;-4;-20.27;-4.74;671.4;14.10;76055;2837.376;-1800.508;1;99;-100;-93.5;44.8;44.8;16;15.8;28.6;0.0;
14/02/2025 07:46:29;100;0;117.36;-4;-20.18;-3.61;674.7;14.00;76044;2837.374;-1800.504;1;99;-100;-93.5;44.8;44.8;26;26.2;28.6;0.0;
14/02/2025 07:46:49;100;0;116.99;-4;-20.45;1.62;678.2;14.00;76034;2837.372;-1800.499;1;99;-100;-93.5;44.8;44.9;26;26.6;28.6;0.0;
14/02/2025 07:47:09;100;0;115.78;-4;-20.49;1.45;681.6;14.00;76019;2837.371;-1800.495;1;99;-100;-93.5;44.8;44.9;23;23.0;28.6;0.0;
14/02/2025 07:47:29;100;0;113.12;-4;-19.97;-0.33;684.9;13.90;76015;2837.369;-1800.490;1;99;-100;-93.5;44.8;44.8;20;19.4;28.6;0.0;
14/02/2025 07:47:49;100;0;110.14;-4;-20.39;-2.03;688.2;13.90;76013;2837.368;-1800.486;1;99;-100;-93.5;44.8;44.8;17;17.1;28.6;0.0;
14/02/2025 07:48:09;100;0;110.25;-4;-19.89;-3.05;691.6;13.90;75998;2837.366;-1800.481;1;99;-100;-93.5;44.8;44.8;17;17.6;28.6;0.0;
14/02/2025 07:48:29;100;0;107.00;-4;-19.53;-3.18;694.8;13.80;75993;2837.365;-1800.477;1;99;-100;-93.5;44.8;44.8;15;14.9;28.6;0.0;
14/02/2025 07:48:49;100;0;105.68;-4;-19.42;-4.46;697.9;13.80;75977;2837.364;-1800.472;1;99;-100;-93.5;44.8;44.8;15;14.9;28.6;0.0;
14/02/2025 07:49:09;100;0;106.85;-4;-19.84;-4.55;701.0;13.80;75981;2837.363;-1800.468;1;99;-100;-93.5;44.8;44.8;15;14.9;28.6;0.0;
14/02/2025 07:49:29;100;0;107.16;-4;-19.61;-4.51;704.2;13.80;75972;2837.362;-1800.464;1;99;-100;-93.5;44.8;44.8;15;14.9;28.6;0.0;
14/02/2025 07:49:49;100;0;106.66;-4;-19.48;-4.47;707.4;13.70;75957;2837.361;-1800.459;1;99;-100;-93.5;44.8;44.9;15;14.9;28.6;0.0;
14/02/2025 07:50:09;100;0;105.49;-4;-19.55;-4.55;710.5;13.70;75964;2837.360;-1800.455;1;99;-100;-93.5;44.8;44.8;15;14.9;28.6;0.0;
14/02/2025 07:50:29;100;0;103.63;-4;-19.74;-4.55;713.6;13.70;75951;2837.359;-1800.450;1;99;-100;-93.5;44.8;44.8;15;14.9;28.6;0.0;
14/02/2025 07:50:49;100;0;102.51;-4;-19.56;-4.55;716.7;13.60;75953;2837.358;-1800.446;1;99;-100;-93.5;44.8;44.8;15;14.9;28.6;0.0;
14/02/2025 07:51:09;100;0;100.27;-4;-19.56;-4.55;719.8;13.60;75947;2837.358;-1800.442;1;99;-100;-93.5;44.8;44.8;15;14.9;28.6;0.0;
14/02/2025 07:51:29;100;0;99.74;-4;-19.45;-4.53;722.9;13.60;75937;2837.357;-1800.437;1;99;-100;-93.5;44.8;44.8;15;14.9;28.6;0.0;
14/02/2025 07:51:49;100;0;98.16;-4;-19.24;-4.57;725.9;13.60;75925;2837.357;-1800.433;1;99;-100;-93.5;44.8;44.9;15;14.9;28.6;0.0;
14/02/2025 07:52:09;100;0;95.55;-4;-19.22;-4.61;728.8;13.50;75916;2837.356;-1800.428;1;99;-100;-93.5;44.8;44.8;13;12.6;28.6;0.0;
14/02/2025 07:52:29;100;0;98.97;-4;-19.18;-5.65;731.7;13.50;75917;2837.356;-1800.424;1;99;-100;-93.5;44.8;44.8;13;12.6;28.6;0.0;
14/02/2025 07:52:49;100;0;101.24;-4;-19.07;-5.58;734.5;13.50;75899;2837.355;-1800.420;1;99;-100;-93.5;44.8;44.8;13;12.6;28.6;0.0;
14/02/2025 07:53:09;100;0;101.93;-4;-19.04;-5.58;737.4;13.50;75889;2837.355;-1800.416;1;99;-100;-91.9;44.8;44.9;13;12.6;28.6;0.0;
14/02/2025 07:53:29;100;0;102.46;-4;-19.22;-5.61;740.2;13.40;75893;2837.354;-1800.412;1;99;-100;-91.9;44.8;44.9;13;12.6;28.6;0.0;
14/02/2025 07:53:49;100;0;103.23;-4;-19.14;-5.63;743.0;13.40;75876;2837.353;-1800.408;1;99;-100;-93.5;44.8;44.8;13;12.6;28.6;0.0;
14/02/2025 07:54:09;100;0;104.79;-4;-19.26;-5.62;745.7;13.40;75880;2837.352;-1800.404;1;99;-100;-93.5;44.8;44.9;13;12.6;28.6;0.0;
14/02/2025 07:54:29;100;0;106.66;-4;-19.18;-5.63;748.4;13.30;75868;2837.351;-1800.400;1;99;-100;-93.5;44.8;44.8;15;14.9;28.6;0.0;
14/02/2025 07:54:49;100;0;107.34;-4;-19.75;-4.26;751.3;13.30;75860;2837.350;-1800.396;1;99;-100;-93.5;44.8;44.9;15;15.3;28.6;0.0;
14/02/2025 07:55:09;100;0;108.54;-4;-19.57;-4.25;754.1;13.30;75864;2837.349;-1800.392;1;99;-100;-93.5;44.8;44.8;15;15.3;28.6;0.0;
14/02/2025 07:55:29;100;0;110.32;-4;-19.49;-4.28;756.8;13.30;75846;2837.348;-1800.388;1;99;-100;-91.9;44.8;44.9;17;17.1;28.6;0.0;
14/02/2025 07:55:49;100;0;111.15;-4;-19.57;-3.06;759.4;13.20;75837;2837.347;-1800.385;1;99;-100;-93.5;44.8;44.8;17;17.6;28.6;0.0;
14/02/2025 07:56:09;100;0;110.53;-4;-19.57;-3.09;762.2;13.20;75831;2837.346;-1800.381;1;99;-100;-93.5;44.8;44.9;17;17.6;28.6;0.0;
14/02/2025 07:56:29;100;0;109.85;-4;-19.38;-3.07;764.8;13.20;75826;2837.345;-1800.377;1;99;-100;-93.5;44.8;44.8;17;17.6;28.6;0.0;
14/02/2025 07:56:49;100;0;108.57;-4;-19.56;-3.12;767.5;13.20;75830;2837.344;-1800.374;1;99;-100;-93.5;44.8;44.8;15;14.9;28.6;0.0;
14/02/2025 07:57:09;100;0;108.48;-4;-19.53;-4.60;770.2;13.10;75820;2837.343;-1800.370;1;99;-100;-93.5;44.8;44.8;15;14.9;28.6;0.0;
14/02/2025 07:57:29;100;0;107.60;-4;-19.53;-4.53;772.9;13.10;75805;2837.342;-1800.366;1;99;-100;-93.5;44.8;44.9;15;14.9;28.6;0.0;
14/02/2025 07:57:49;100;0;105.75;-4;-20.05;-4.55;775.6;13.10;75808;2837.341;-1800.363;1;99;-100;-93.5;44.8;44.9;15;14.9;28.6;0.0;
14/02/2025 07:58:09;100;0;106.28;-4;-19.56;-4.50;778.5;13.00;75799;2837.340;-1800.359;1;99;-100;-93.5;44.8;44.9;15;14.9;28.6;0.0;
14/02/2025 07:58:29;100;0;105.22;-4;-19.28;-4.55;781.3;13.00;75791;2837.339;-1800.355;1;99;-100;-93.5;44.8;44.8;15;14.9;28.6;0.0;
14/02/2025 07:58:49;100;0;103.77;-4;-19.59;-4.56;784.1;13.00;75783;2837.338;-1800.351;1;99;-100;-91.9;44.8;44.8;15;14.9;28.6;0.0;
14/02/2025 07:59:09;100;0;105.04;-4;-19.44;-4.54;787.1;13.00;75776;2837.337;-1800.346;1;99;-100;-93.5;44.8;44.8;15;14.9;28.6;0.0;
14/02/2025 07:59:29;100;0;105.94;-4;-19.31;-4.59;790.1;12.90;75759;2837.337;-1800.342;1;99;-100;-93.5;44.8;44.9;15;14.9;28.6;0.0;
14/02/2025 07:59:50;100;0;106.75;-4;-18.99;-4.52;793.1;12.90;75757;2837.335;-1800.338;1;99;-100;-95.2;45.1;45.1;15;14.9;28.6;0.0;
14/02/2025 08:00:10;100;0;106.41;-4;-20.32;-4.55;796.1;12.90;75751;2837.334;-1800.334;1;99;-100;-91.9;45.1;45.4;15;14.9;28.6;0.0;
14/02/2025 08:00:30;100;0;108.70;-4;-20.11;-4.57;799.2;12.80;75743;2837.333;-1800.329;1;99;-100;-93.5;45.1;45.5;15;14.9;28.6;0.0;
14/02/2025 08:00:50;100;0;112.86;-4;-20.48;-4.75;802.2;12.80;75738;2837.332;-1800.325;1;99;-100;-91.9;45.1;45.5;20;20.3;28.6;0.0;
14/02/2025 08:01:10;100;0;113.09;-4;-20.90;-1.55;805.2;12.80;75724;2837.331;-1800.322;1;98;-100;-95.2;45.1;45.4;22;22.1;28.6;0.0;
14/02/2025 08:01:30;100;0;112.63;-4;-20.68;-0.55;808.2;12.80;75714;2837.329;-1800.318;1;98;-100;-93.5;45.1;45.5;22;23.0;28.6;0.0;
14/02/2025 08:01:50;100;0;111.41;-4;-21.03;-0.57;811.4;12.70;75705;2837.328;-1800.314;1;98;-100;-93.5;45.1;45.4;20;19.9;28.6;0.0;
14/02/2025 08:02:10;100;0;110.93;-4;-20.64;-1.71;814.5;12.70;75711;2837.327;-1800.310;1;98;-100;-91.9;45.1;45.5;20;20.8;28.6;0.0;
14/02/2025 08:02:30;100;0;109.06;-4;-20.32;-1.70;817.7;12.70;75686;2837.325;-1800.305;1;98;-100;-91.9;45.1;45.4;18;14.4;28.6;0.0;
14/02/2025 08:02:50;100;0;107.51;-4;-20.26;-2.46;820.8;12.60;75681;2837.324;-1800.301;1;98;-100;-93.5;45.1;45.5;18;19.4;28.6;0.0;
14/02/2025 08:03:10;100;0;105.88;-4;-20.68;-2.29;823.9;12.60;75675;2837.323;-1800.297;1;98;-100;-93.5;45.1;45.5;16;15.8;28.6;0.0;
14/02/2025 08:03:30;100;0;104.92;-4;-20.27;-4.03;827.1;12.60;75665;2837.322;-1800.292;1;98;-100;-95.2;45.1;45.4;16;15.8;28.6;0.0;
14/02/2025 08:03:50;100;0;104.64;-4;-20.42;-4.08;830.3;12.60;75658;2837.321;-1800.288;1;98;-100;-93.5;45.1;45.5;16;15.8;28.6;0.0;
14/02/2025 08:04:10;100;0;103.81;-4;-20.54;-4.05;833.5;12.50;75650;2837.321;-1800.284;1;98;-100;-93.5;45.1;45.4;16;15.8;28.6;0.0;
14/02/2025 08:04:30;100;0;100.19;-4;-20.36;-4.04;836.6;12.50;75647;2837.320;-1800.279;1;98;-100;-93.5;45.1;45.4;16;15.8;28.6;0.0;
14/02/2025 08:04:50;100;0;99.99;-4;-20.26;-4.01;839.8;12.50;75641;2837.319;-1800.275;1;98;-100;-91.9;45.1;45.4;16;15.8;28.6;0.0;
14/02/2025 08:05:10;100;0;100.03;-4;-20.23;-4.12;842.9;12.40;75626;2837.319;-1800.270;1;98;-100;-93.5;45.1;45.4;16;15.8;28.6;0.0;
14/02/2025 08:05:30;100;0;99.16;-4;-20.39;-3.97;846.0;12.40;75624;2837.318;-1800.266;1;98;-100;-93.5;45.1;45.4;16;15.8;28.6;0.0;
14/02/2025 08:05:50;100;0;97.92;-4;-20.38;-4.09;849.1;12.30;75610;2837.318;-1800.261;1;98;-100;-96.8;45.1;45.5;16;15.8;28.6;0.0;
14/02/2025 08:06:10;100;0;96.94;-4;-20.25;-4.04;852.3;12.30;75613;2837.317;-1800.257;1;98;-100;-91.9;45.1;45.5;16;15.8;28.7;0.0;
14/02/2025 08:06:30;100;0;96.30;-4;-20.48;-3.94;855.4;12.30;75617;2837.317;-1800.252;1;98;-100;-91.9;45.1;45.4;16;15.8;28.6;0.0;
14/02/2025 08:06:50;100;0;93.57;-4;-20.22;-4.03;858.5;12.30;75602;2837.317;-1800.248;1;98;-100;-91.9;45.1;45.4;14;14.0;28.6;0.0;
14/02/2025 08:07:10;100;0;93.20;-4;-19.97;-4.88;861.5;12.30;75603;2837.317;-1800.244;1;98;-100;-93.5;45.1;45.4;14;14.4;28.6;0.0;
14/02/2025 08:07:30;100;0;92.85;-4;-20.03;-4.79;864.5;12.20;75597;2837.317;-1800.239;1;98;-100;-93.5;45.1;45.5;14;14.4;28.6;0.0;
14/02/2025 08:07:50;100;0;93.55;-4;-20.04;-4.71;867.4;12.20;75590;2837.317;-1800.235;1;98;-100;-93.5;45.1;45.4;14;14.4;28.6;0.0;
14/02/2025 08:08:10;100;0;93.30;-4;-20.06;-4.86;870.3;12.20;75586;2837.316;-1800.231;1;98;-100;-91.9;45.1;45.4;14;14.4;28.6;0.0;
14/02/2025 08:08:30;100;0;93.53;-4;-20.26;-4.71;873.1;12.20;75587;2837.316;-1800.227;1;98;-100;-91.9;45.1;45.5;14;14.4;28.6;0.0;
14/02/2025 08:08:50;100;0;92.51;-4;-20.49;-4.83;876.0;12.10;75588;2837.316;-1800.223;1;98;-100;-93.5;45.1;45.5;14;14.4;28.6;0.0;
14/02/2025 08:09:10;100;0;91.97;-4;-20.19;-4.82;878.7;12.10;75586;2837.316;-1800.219;1;98;-100;-93.5;45.1;45.4;14;14.4;28.6;0.0;
14/02/2025 08:09:30;100;0;92.91;-4;-20.15;-4.80;881.5;12.10;75587;2837.316;-1800.215;1;98;-100;-91.9;45.1;45.4;14;14.4;28.6;0.0;
14/02/2025 08:09:50;100;0;93.80;-4;-20.20;-4.81;884.2;12.10;75594;2837.316;-1800.211;1;98;-100;-93.5;45.1;45.4;14;14.4;28.6;0.0;
14/02/2025 08:10:10;100;0;92.98;-4;-20.29;-4.76;887.0;12.00;75574;2837.316;-1800.207;1;99;-100;-93.5;45.1;45.5;14;14.0;28.6;0.0;
14/02/2025 08:10:30;100;0;89.25;-4;-20.14;-4.91;889.5;12.00;75566;2837.316;-1800.203;1;99;-100;-93.5;45.1;45.5;10;9.9;28.6;0.0;
14/02/2025 08:10:50;100;0;87.20;-4;-19.90;-6.95;892.0;12.00;75560;2837.316;-1800.200;1;99;-100;-91.9;45.1;45.5;7;7.2;28.6;0.0;
14/02/2025 08:11:10;100;0;90.11;-4;-20.02;-8.54;894.6;12.00;75562;2837.316;-1800.196;1;99;-100;-91.9;45.1;45.4;10;9.9;28.6;0.0;
14/02/2025 08:11:30;100;0;92.30;-4;-19.40;-6.80;897.1;11.90;75545;2837.316;-1800.192;1;99;-100;-91.9;45.1;45.5;12;12.2;28.6;0.0;
14/02/2025 08:11:50;100;0;93.77;-4;-19.80;-5.59;899.4;11.90;75538;2837.316;-1800.189;1;99;-100;-93.5;45.1;45.5;12;12.6;28.6;0.0;
14/02/2025 08:12:10;100;0;94.64;-4;-20.19;-5.46;901.8;11.90;75531;2837.316;-1800.186;1;99;-100;-93.5;45.1;45.4;12;12.6;28.6;0.0;
14/02/2025 08:12:30;100;0;96.02;-4;-20.34;-5.43;904.1;11.90;75521;2837.316;-1800.182;1;99;-100;-93.5;45.1;45.4;14;14.0;28.6;0.0;
14/02/2025 08:12:50;100;0;96.37;-4;-20.65;-4.70;906.7;11.80;75511;2837.316;-1800.179;1;99;-100;-91.9;45.1;45.5;14;14.4;28.6;0.0;
14/02/2025 08:13:10;100;0;97.04;-4;-19.41;-5.22;909.2;11.80;75512;2837.315;-1800.175;1;99;-100;-91.9;45.1;45.4;14;14.4;28.6;0.0;
14/02/2025 08:13:30;100;0;98.96;-4;-19.70;-4.77;911.6;11.80;75508;2837.315;-1800.172;1;99;-100;-91.9;45.1;45.4;14;14.4;28.6;0.0;
14/02/2025 08:13:50;100;0;99.98;-4;-20.74;-4.76;914.2;11.80;75505;2837.315;-1800.168;1;99;-100;-93.5;45.1;45.5;14;14.4;28.6;0.0;
14/02/2025 08:14:10;100;0;100.73;-4;-21.08;-4.70;916.6;11.70;75505;2837.314;-1800.165;1;99;-100;-91.9;45.1;45.5;14;14.4;28.6;0.0;
14/02/2025 08:14:30;100;0;100.29;-4;-19.67;-4.79;919.4;11.70;75491;2837.314;-1800.161;1;99;-100;-91.9;45.1;45.5;14;14.4;28.6;0.0;
14/02/2025 08:14:50;100;0;101.67;-4;-19.33;-4.80;922.1;11.70;75481;2837.313;-1800.157;1;99;-100;-91.9;45.1;45.4;14;14.4;28.6;0.0;
14/02/2025 08:15:10;100;0;102.82;-4;-20.26;-4.69;924.7;11.70;75493;2837.312;-1800.153;1;99;-100;-91.9;45.1;45.5;14;14.4;28.6;0.0;
14/02/2025 08:15:30;100;0;101.84;-4;-19.92;-4.77;927.2;11.60;75497;2837.312;-1800.150;1;99;-100;-93.5;45.1;45.5;14;14.0;28.6;0.0;
14/02/2025 08:15:50;100;0;101.13;-4;-19.93;-4.62;929.7;11.60;75479;2837.311;-1800.146;1;99;-100;-95.2;45.1;45.4;14;14.4;28.6;0.0;
14/02/2025 08:16:10;100;0;102.83;-4;-20.21;-4.70;932.3;11.60;75470;2837.311;-1800.143;1;99;-100;-91.9;45.1;45.5;14;14.4;28.6;0.0;
14/02/2025 08:16:30;100;0;104.86;-4;-19.97;-4.84;934.8;11.60;75462;2837.310;-1800.139;1;99;-100;-93.5;45.1;45.5;14;14.4;28.6;0.0;
14/02/2025 08:16:50;100;0;105.31;-4;-19.84;-4.81;937.4;11.50;75453;2837.309;-1800.136;1;99;-100;-93.5;45.1;45.5;14;14.4;28.6;0.0;
14/02/2025 08:17:10;100;0;108.52;-4;-20.93;-4.76;939.9;11.50;75459;2837.308;-1800.132;1;99;-100;-91.9;45.1;45.4;16;16.2;28.6;0.0;
14/02/2025 08:17:30;100;0;105.69;-4;-19.82;-3.60;942.6;11.50;75445;2837.307;-1800.129;1;99;-100;-91.9;45.1;45.5;16;16.7;28.6;0.0;
14/02/2025 08:17:50;100;0;107.64;-4;-20.14;-3.46;945.2;11.50;75453;2837.307;-1800.125;1;99;-100;-93.5;45.1;45.5;16;16.7;28.6;0.0;
14/02/2025 08:18:10;100;0;104.13;-4;-20.81;-3.51;947.9;11.50;75459;2837.306;-1800.121;1;99;-100;-91.9;45.1;45.5;14;14.0;28.6;0.0;
14/02/2025 08:18:30;100;0;102.91;-4;-20.34;-5.03;950.7;11.40;75442;2837.305;-1800.117;1;99;-100;-91.9;45.1;45.4;14;14.0;28.6;0.0;
14/02/2025 08:18:50;100;0;103.09;-4;-19.66;-4.88;953.7;11.40;75429;2837.304;-1800.113;1;99;-100;-91.9;45.1;45.5;14;14.0;28.6;0.0;
14/02/2025 08:19:10;100;0;103.28;-4;-20.23;-4.89;956.4;11.40;75427;2837.304;-1800.109;1;99;-100;-91.9;45.1;45.4;14;14.0;28.6;0.0;
14/02/2025 08:19:30;100;0;103.16;-4;-19.26;-4.77;959.3;11.40;75418;2837.303;-1800.105;1;99;-100;-91.9;45.1;45.5;14;14.0;28.6;0.0;
14/02/2025 08:19:50;100;0;106.45;-4;-19.39;-4.98;961.8;11.30;75416;2837.302;-1800.102;1;99;-100;-91.9;45.1;45.5;14;14.0;28.6;0.0;
14/02/2025 08:20:10;100;0;106.03;-4;-20.02;-5.01;964.5;11.30;75419;2837.301;-1800.098;1;98;-100;-91.9;45.1;45.5;14;14.0;28.6;0.0;
14/02/2025 08:20:30;100;0;106.68;-4;-19.78;-4.87;967.3;11.30;75407;2837.300;-1800.094;1;98;-100;-91.9;45.1;45.5;16;15.8;28.6;0.0;
14/02/2025 08:20:50;100;0;107.23;-4;-19.53;-3.71;970.1;11.30;75403;2837.299;-1800.090;1;98;-100;-91.9;45.1;45.5;16;16.2;28.6;0.0;
14/02/2025 08:21:10;100;0;106.36;-4;-20.23;-3.62;972.6;11.20;75403;2837.298;-1800.087;1;98;-100;-90.3;45.1;45.4;16;16.2;28.6;0.0;
14/02/2025 08:21:30;100;0;103.28;-4;-20.00;-3.75;975.3;11.20;75404;2837.298;-1800.083;1;98;-100;-91.9;45.1;45.5;16;16.2;28.6;0.0;
14/02/2025 08:21:50;100;0;102.70;-4;-20.18;-3.75;977.8;11.20;75390;2837.297;-1800.080;1;98;-100;-91.9;45.1;45.5;16;16.7;28.6;0.0;
14/02/2025 08:22:10;100;0;101.36;-4;-19.29;-3.84;980.3;11.20;75397;2837.297;-1800.076;1;98;-100;-91.9;45.1;45.4;14;13.1;28.6;0.0;
14/02/2025 08:22:30;100;0;102.02;-4;-19.88;-5.17;982.7;11.20;75384;2837.296;-1800.072;1;98;-100;-91.9;45.1;45.5;14;13.5;28.6;0.0;
14/02/2025 08:22:50;100;0;102.84;-4;-19.88;-5.18;985.2;11.10;75375;2837.295;-1800.069;1;98;-100;-91.9;45.1;45.5;14;13.5;28.6;0.0;
14/02/2025 08:23:10;100;0;104.80;-4;-19.52;-5.21;987.8;11.10;75368;2837.295;-1800.065;1;98;-100;-91.9;45.1;45.5;14;13.5;28.6;0.0;
14/02/2025 08:23:30;100;0;105.29;-4;-19.70;-5.14;990.4;11.10;75368;2837.294;-1800.062;1;98;-100;-93.5;45.1;45.5;14;13.5;28.6;0.0;
14/02/2025 08:23:50;100;0;103.09;-4;-19.83;-5.27;993.0;11.10;75358;2837.293;-1800.058;1;98;-100;-91.9;45.1;45.4;14;13.5;28.6;0.0;
14/02/2025 08:24:10;100;0;101.91;-4;-19.90;-5.27;995.6;11.00;75356;2837.293;-1800.054;1;98;-100;-95.2;45.1;45.5;14;13.5;28.6;0.0;
14/02/2025 08:24:30;100;0;103.24;-4;-19.57;-5.22;998.2;11.00;75358;2837.292;-1800.051;1;98;-100;-91.9;45.1;45.5;14;13.5;28.6;0.0;
14/02/2025 08:24:36;118;0;104.05;-4;-19.62;-5.05;998.9;11.00;75358;2837.292;-1800.050;1;98;100;-87.1;34.0;34.0;9;8.6;28.6;0.0;
14/02/2025 08:24:46;118;0;101.64;-4;-10.83;-8.19;999.8;11.00;75352;2837.292;-1800.048;1;98;100;37.1;34.0;33.7;9;8.6;27.3;-1.0;
14/02/2025 08:24:56;118;0;96.39;-4;0.23;-7.86;1000.4;11.00;75069;2837.292;-1800.048;1;98;100;103.2;34.0;33.7;9;8.6;27.4;-1.0;
14/02/2025 08:25:06;118;0;107.01;-4;3.21;-8.60;1000.2;11.00;74956;2837.292;-1800.048;1;98;100;103.2;34.0;33.6;9;8.6;28.6;-1.0;
14/02/2025 08:25:26;117;0;104.98;-4;4.65;-8.34;999.7;11.00;74964;2837.292;-1800.047;1;98;100;103.2;34.0;33.6;9;8.6;28.6;-1.0;
14/02/2025 08:25:46;117;0;104.17;-4;4.73;-8.40;998.9;11.00;74958;2837.291;-1800.046;1;98;100;103.2;29.4;29.2;32;32.0;28.6;-1.0;
14/02/2025 08:26:06;117;0;102.42;-4;17.94;4.01;997.9;11.00;74959;2837.291;-1800.045;1;98;100;104.8;28.8;28.9;32;32.5;28.6;-1.0;
14/02/2025 08:26:26;117;0;99.63;-4;20.22;4.11;996.6;11.00;74943;2837.291;-1800.043;1;98;100;104.8;28.8;28.3;32;32.5;28.6;-1.0;
14/02/2025 08:26:46;117;0;100.03;-4;20.24;4.05;995.2;11.00;74946;2837.291;-1800.041;1;98;100;104.8;28.8;28.3;32;32.5;28.6;-1.0;
14/02/2025 08:27:06;117;0;99.97;-4;19.93;4.17;993.9;10.90;74945;2837.291;-1800.039;1;98;100;104.8;28.8;28.1;32;32.5;28.6;-1.0;
14/02/2025 08:27:26;117;0;100.03;-4;20.04;4.15;992.5;10.90;74930;2837.290;-1800.037;1;98;100;104.8;28.8;28.1;32;32.5;28.6;-1.0;
14/02/2025 08:27:46;117;0;100.33;-4;19.68;4.08;991.0;10.90;74939;2837.290;-1800.035;1;98;100;104.8;28.8;28.3;32;32.5;28.6;-1.0;
14/02/2025 08:28:06;117;0;98.76;-4;20.06;4.13;989.6;10.90;74936;2837.290;-1800.033;1;98;100;106.5;28.8;28.1;32;32.5;28.6;-1.0;
14/02/2025 08:28:26;117;0;99.93;-4;20.19;4.14;988.2;10.90;74938;2837.290;-1800.031;1;98;100;104.8;28.8;28.3;32;32.5;28.6;-1.0;
14/02/2025 08:28:46;117;0;100.33;-4;20.28;4.24;986.6;10.80;74921;2837.290;-1800.029;1;98;100;104.8;28.8;28.3;32;32.5;28.6;-1.0;
14/02/2025 08:29:06;117;0;100.34;-4;19.34;4.17;985.2;10.80;74928;2837.289;-1800.027;1;98;100;104.8;28.8;28.1;32;32.5;28.6;-1.0;
14/02/2025 08:29:26;117;0;97.02;-4;20.07;4.09;983.8;10.80;74926;2837.289;-1800.025;1;98;100;104.8;28.8;28.1;32;32.5;28.6;-1.0;
14/02/2025 08:29:46;117;0;97.99;-4;21.66;4.24;982.3;10.80;74912;2837.289;-1800.023;1;98;100;104.8;28.8;28.3;32;32.5;28.6;-1.0;
14/02/2025 08:30:06;117;0;101.40;-4;19.66;4.08;980.6;10.80;74910;2837.289;-1800.021;1;98;100;106.5;28.8;28.3;32;32.5;28.6;-1.0;
14/02/2025 08:30:26;117;0;103.99;-4;19.84;4.13;978.9;10.70;74906;2837.288;-1800.018;1;98;120;121.0;28.8;28.3;32;32.5;28.6;-1.0;
14/02/2025 08:30:46;117;0;96.19;-4;18.99;4.00;977.1;10.70;74868;2837.288;-1800.016;1;98;140;145.2;28.5;28.4;32;32.5;28.6;-1.0;
14/02/2025 08:31:06;117;0;96.88;-4;18.53;4.03;975.3;10.70;74813;2837.288;-1800.013;1;98;160;159.7;28.1;28.1;32;32.5;28.6;-1.0;
14/02/2025 08:31:26;117;0;93.22;-4;20.17;4.20;973.5;10.70;74782;2837.288;-1800.011;1;98;180;182.3;28.1;27.4;32;32.5;28.6;-1.0;
14/02/2025 08:31:46;117;0;99.84;-4;19.70;4.28;971.8;10.70;74736;2837.288;-1800.008;1;98;200;203.2;28.1;27.5;32;32.5;28.6;-1.0;
14/02/2025 08:32:06;117;0;95.30;-4;19.80;4.31;970.0;10.70;74703;2837.288;-1800.006;1;98;220;221.0;28.1;27.4;32;32.5;28.6;-1.0;
14/02/2025 08:32:26;117;0;100.77;-4;18.23;4.25;968.3;10.70;74648;2837.287;-1800.003;1;98;240;245.2;27.5;27.5;32;32.5;28.6;-1.0;
14/02/2025 08:32:46;117;0;95.98;-4;19.05;4.39;966.7;10.70;74612;2837.287;-1800.001;1;98;260;262.9;27.5;27.5;32;32.5;28.6;-1.0;
14/02/2025 08:33:06;117;0;96.58;-4;18.17;4.26;964.9;10.60;74560;2837.287;-1759.998;1;98;280;283.9;27.0;27.0;32;32.5;28.6;-1.0;
14/02/2025 08:33:26;117;0;103.28;-4;19.18;4.38;962.9;10.70;74524;2837.286;-1759.995;1;98;300;301.6;27.0;26.5;32;32.5;28.6;-1.0;
14/02/2025 08:33:47;117;0;97.65;-4;19.15;4.43;961.1;10.60;74480;2837.286;-1759.992;1;98;320;322.6;27.0;26.4;32;32.5;28.6;-1.0;
14/02/2025 08:34:07;117;0;106.45;-4;18.19;4.29;959.0;10.60;74432;2837.285;-1759.989;1;98;320;322.6;26.4;26.4;32;32.5;28.6;-1.0;
14/02/2025 08:34:27;117;0;108.68;-4;18.98;4.39;957.3;10.60;74434;2837.285;-1759.987;1;98;340;343.5;26.1;25.5;30;29.8;28.6;-1.0;
14/02/2025 08:34:47;117;0;100.81;-4;20.97;2.92;955.1;10.60;74395;2837.284;-1759.984;1;98;340;343.5;26.1;26.1;32;32.5;28.6;-1.0;
14/02/2025 08:35:07;117;0;101.68;-4;20.00;4.58;952.5;10.60;74395;2837.284;-1759.980;1;98;340;341.9;26.1;26.2;32;32.5;28.6;-1.0;
14/02/2025 08:35:27;117;0;101.67;-4;19.73;4.60;949.8;10.60;74401;2837.283;-1759.977;1;98;340;343.5;26.1;26.4;32;32.5;28.6;-1.0;
14/02/2025 08:35:47;117;0;102.10;-4;19.74;4.63;947.0;10.60;74388;2837.283;-1759.973;1;98;340;341.9;26.1;26.2;32;32.5;28.6;-1.0;
14/02/2025 08:36:07;117;0;102.02;-4;19.34;4.60;944.0;10.60;74375;2837.282;-1759.968;1;98;340;340.3;26.1;26.4;32;32.5;28.6;-1.0;
14/02/2025 08:36:27;117;0;103.73;-4;19.41;4.67;941.1;10.60;74378;2837.281;-1759.964;1;98;340;341.9;26.1;26.4;32;32.5;28.6;-1.0;
14/02/2025 08:36:47;117;0;104.41;-4;19.39;4.51;938.0;10.60;74387;2837.280;-1759.959;1;98;340;343.5;26.1;26.2;32;32.5;28.6;-1.0;
14/02/2025 08:37:07;117;0;105.92;-4;19.31;4.28;934.8;10.60;74380;2837.279;-1759.955;1;98;340;341.9;26.1;26.4;32;32.5;28.6;-1.0;
14/02/2025 08:37:27;117;0;109.68;-4;20.03;4.58;931.8;10.50;74378;2837.278;-1759.951;1;98;340;341.9;26.1;26.2;29;28.4;28.6;-1.0;
14/02/2025 08:37:47;117;0;109.38;-4;20.66;2.44;928.5;10.50;74372;2837.277;-1759.947;1;98;340;343.5;26.1;26.4;29;28.4;28.6;-1.0;
14/02/2025 08:38:07;117;0;100.41;-4;17.20;1.73;925.0;10.50;74363;2837.276;-1759.941;1;98;340;343.5;25.3;25.3;32;32.0;28.6;-1.0;
14/02/2025 08:38:27;117;0;91.82;-4;17.16;4.82;923.2;10.50;74363;2837.276;-1759.938;1;98;360;361.3;24.4;24.3;34;33.8;28.6;-1.0;
14/02/2025 08:38:47;117;0;97.09;-4;24.61;5.46;921.0;10.50;74332;2837.276;-1759.935;1;98;360;364.5;25.8;25.9;32;31.6;28.6;-1.0;
14/02/2025 08:39:07;117;0;95.08;-4;21.30;3.97;917.9;10.50;74328;2837.275;-1759.931;1;98;360;362.9;25.8;25.9;32;31.6;28.6;-1.0;
14/02/2025 08:39:27;117;0;100.67;-4;22.48;4.10;914.6;10.50;74315;2837.275;-1759.927;1;98;360;361.3;26.6;26.7;32;31.6;28.6;-1.0;
14/02/2025 08:39:47;117;0;99.17;-4;19.53;3.87;911.0;10.50;74323;2837.274;-1759.922;1;98;360;362.9;26.6;26.8;32;31.6;28.6;-1.0;
14/02/2025 08:40:07;117;0;98.53;-4;18.71;3.97;907.3;10.40;74312;2837.274;-1759.916;1;98;360;361.3;26.2;26.2;32;31.6;28.6;-1.0;
14/02/2025 08:40:27;117;0;97.69;-4;19.15;3.56;903.3;10.40;74310;2837.273;-1759.910;1;98;360;362.9;26.2;25.6;32;31.6;28.6;-1.0;
14/02/2025 08:40:47;117;0;99.30;-4;18.23;3.83;900.0;10.40;74303;2837.272;-1759.905;1;98;360;361.3;25.6;25.6;32;31.6;28.6;-1.0;
14/02/2025 08:41:07;117;0;98.85;-4;19.71;4.01;897.1;10.40;74295;2837.272;-1759.901;1;98;360;362.9;25.6;25.6;32;31.6;28.6;-1.0;
14/02/2025 08:41:27;117;0;97.15;-4;16.28;4.90;894.0;10.40;74292;2837.271;-1759.896;1;98;360;361.3;24.5;24.4;32;31.6;28.6;-1.0;
14/02/2025 08:41:47;117;0;95.04;-4;21.32;4.06;891.8;10.40;74284;2837.271;-1759.893;1;98;360;361.3;24.5;23.9;32;31.6;28.6;-1.0;
14/02/2025 08:42:07;117;0;96.04;-4;20.10;3.28;888.4;10.40;74287;2837.271;-1759.888;1;98;360;362.9;24.5;23.9;32;31.6;28.6;-1.0;
14/02/2025 08:42:27;117;0;100.67;-4;22.43;3.95;886.1;10.40;74293;2837.270;-1759.885;1;98;360;362.9;25.3;25.2;32;31.6;28.6;-1.0;
14/02/2025 08:42:47;117;0;102.96;-4;21.31;4.15;883.9;10.30;74301;2837.270;-1759.882;1;98;360;362.9;25.3;25.3;32;31.6;28.6;-1.0;
14/02/2025 08:43:07;117;0;103.95;-4;21.05;4.22;881.8;10.30;74308;2837.269;-1759.879;1;98;360;362.9;25.3;25.3;32;31.6;28.6;-1.0;
14/02/2025 08:43:27;117;0;104.25;-4;21.07;4.24;879.6;10.30;74306;2837.269;-1759.877;1;98;360;362.9;25.3;25.3;32;31.6;28.6;-1.0;
14/02/2025 08:43:47;117;0;104.30;-4;20.98;4.17;877.4;10.30;74313;2837.268;-1759.874;1;98;360;362.9;25.3;25.3;32;31.6;28.6;-1.0;
14/02/2025 08:44:07;117;0;104.01;-4;21.10;4.18;875.1;10.30;74314;2837.268;-1759.871;1;98;360;362.9;25.3;25.3;32;31.6;28.6;-1.0;
14/02/2025 08:44:27;117;0;103.79;-4;20.79;4.33;872.7;10.30;74309;2837.267;-1759.867;1;98;360;361.3;25.3;25.3;32;32.0;28.6;-1.0;
14/02/2025 08:44:47;117;0;103.92;-4;20.47;4.26;870.3;10.30;74320;2837.266;-1759.864;1;98;360;361.3;25.3;25.3;32;31.6;28.6;-1.0;
14/02/2025 08:45:07;117;0;104.65;-4;20.43;4.21;868.0;10.30;74318;2837.266;-1759.861;1;98;360;362.9;25.3;25.3;32;31.6;28.6;-1.0;
14/02/2025 08:45:27;117;0;105.49;-4;21.02;3.98;865.7;10.30;74313;2837.265;-1759.858;1;98;360;359.7;25.3;25.2;32;31.6;28.6;-1.0;
14/02/2025 08:45:47;117;0;105.68;-4;20.65;4.25;863.2;10.30;74332;2837.264;-1759.854;1;98;360;361.3;25.3;25.3;32;31.6;28.6;-1.0;
14/02/2025 08:46:07;117;0;108.35;-4;20.31;4.20;860.8;10.30;74337;2837.264;-1759.851;1;98;360;362.9;25.3;25.3;30;29.8;28.6;-1.0;
14/02/2025 08:46:27;117;0;108.43;-4;20.13;2.94;858.4;10.30;74318;2837.263;-1759.848;1;98;360;362.9;25.3;25.3;30;29.3;28.6;-1.0;
14/02/2025 08:46:47;117;0;109.11;-4;20.24;2.98;856.2;10.30;74329;2837.262;-1759.845;1;98;360;362.9;25.3;25.3;30;29.3;28.6;-1.0;
14/02/2025 08:47:07;117;0;107.95;-4;20.26;3.06;854.1;10.30;74321;2837.261;-1759.842;1;98;360;362.9;25.3;25.3;30;29.3;28.6;-1.0;
14/02/2025 08:47:27;117;0;106.72;-4;20.06;3.20;851.9;10.30;74327;2837.260;-1759.839;1;98;360;362.9;25.3;25.3;30;29.3;28.6;-1.0;
14/02/2025 08:47:47;117;0;105.60;-4;20.50;3.14;849.8;10.30;74315;2837.260;-1759.836;1;98;360;362.9;25.3;25.3;30;29.3;28.6;-1.0;
14/02/2025 08:48:07;117;0;105.72;-4;20.79;3.00;847.6;10.30;74327;2837.259;-1759.833;1;98;360;362.9;25.3;25.3;30;29.3;28.6;-1.0;
14/02/2025 08:48:27;117;0;104.29;-4;20.07;3.14;845.5;10.30;74319;2837.259;-1759.830;1;98;360;361.3;25.3;25.3;32;32.0;28.6;-1.0;
14/02/2025 08:48:47;117;0;103.43;-4;20.20;4.82;843.3;10.30;74321;2837.258;-1759.827;1;98;360;362.9;25.3;25.3;32;32.9;28.6;-1.0;
14/02/2025 08:49:07;117;0;104.74;-4;20.78;4.88;841.2;10.30;74321;2837.257;-1759.824;1;98;360;361.3;25.3;25.3;32;32.9;28.6;-1.0;
14/02/2025 08:49:27;117;0;104.44;-4;20.39;4.97;838.8;10.30;74322;2837.257;-1759.821;1;98;360;361.3;25.3;25.3;32;32.9;28.6;-1.0;
14/02/2025 08:49:47;117;0;103.54;-4;20.50;4.92;836.4;10.30;74325;2837.256;-1759.818;1;98;360;362.9;25.3;25.3;32;32.9;28.6;-1.0;
14/02/2025 08:50:07;117;0;103.02;-4;20.22;4.73;833.9;10.30;74325;2837.256;-1759.814;1;98;360;362.9;25.3;25.3;32;32.9;28.6;-1.0;
14/02/2025 08:50:27;117;0;103.19;-4;20.08;4.96;831.3;10.30;74332;2837.255;-1759.811;1;98;360;362.9;25.3;25.3;32;32.9;28.6;-1.0;
14/02/2025 08:50:47;117;0;104.54;-4;20.13;4.72;828.9;10.30;74331;2837.254;-1759.807;1;98;360;362.9;25.3;25.3;32;32.9;28.6;-1.0;
14/02/2025 08:51:07;117;0;107.83;-4;20.91;5.22;826.4;10.30;74330;2837.253;-1759.804;1;98;360;361.3;25.3;25.2;30;29.8;28.6;-1.0;
14/02/2025 08:51:27;117;0;107.25;-4;20.35;3.24;823.8;10.30;74339;2837.252;-1759.800;1;98;360;364.5;25.3;25.3;30;29.3;28.6;-1.0;
14/02/2025 08:51:47;117;0;109.83;-4;20.35;3.03;821.3;10.30;74349;2837.251;-1759.797;1;98;360;361.3;25.3;25.3;30;29.3;28.6;-1.0;
14/02/2025 08:52:07;117;0;109.18;-4;20.96;2.66;818.8;10.30;74349;2837.251;-1759.794;1;98;360;361.3;25.3;25.3;30;29.3;28.6;-1.0;
14/02/2025 08:52:27;117;0;107.86;-4;20.83;2.98;816.1;10.30;74354;2837.250;-1759.790;1;98;360;362.9;25.3;25.3;30;29.3;28.6;-1.0;
14/02/2025 08:52:47;117;0;107.34;-4;19.93;2.99;813.3;10.30;74355;2837.249;-1759.786;1;98;360;362.9;25.3;25.3;30;29.3;28.6;-1.0;
14/02/2025 08:53:07;117;0;106.65;-4;20.38;3.17;810.7;10.30;74360;2837.248;-1759.783;1;98;360;362.9;25.3;25.3;30;29.3;28.6;-1.0;
14/02/2025 08:53:27;117;0;104.30;-4;20.64;3.12;807.9;10.30;74362;2837.247;-1759.779;1;98;360;361.3;25.3;25.3;30;29.3;28.6;-1.0;
14/02/2025 08:53:47;117;0;102.71;-4;20.56;3.17;804.9;10.30;74367;2837.246;-1759.775;1;98;360;362.9;25.3;25.3;30;29.3;28.6;-1.0;
14/02/2025 08:54:07;117;0;101.92;-4;20.21;3.06;802.0;10.30;74362;2837.246;-1759.771;1;98;360;362.9;25.3;25.3;30;29.3;28.6;-1.0;
14/02/2025 08:54:27;117;0;102.83;-4;20.58;3.12;799.4;10.30;74367;2837.245;-1759.767;1;98;360;359.7;25.3;25.2;30;29.3;28.6;-1.0;
14/02/2025 08:54:47;117;0;102.33;-4;18.55;3.23;796.7;10.30;74364;2837.244;-1759.763;1;98;360;362.9;24.8;24.7;30;29.3;28.6;-1.0;
14/02/2025 08:55:07;117;0;103.69;-4;21.90;3.00;794.3;10.30;74358;2837.244;-1759.760;1;98;360;362.9;24.8;24.0;30;29.3;28.6;-1.0;
14/02/2025 08:55:27;117;0;100.47;-4;21.79;2.80;791.4;10.30;74358;2837.243;-1759.757;1;98;360;362.9;24.8;24.2;30;29.3;28.6;-1.0;
14/02/2025 08:55:47;117;0;99.99;-4;22.11;2.99;788.5;10.30;74369;2837.243;-1759.753;1;98;360;362.9;25.4;25.5;30;29.3;28.6;-1.0;
14/02/2025 08:56:07;117;0;101.71;-4;20.12;2.88;785.9;10.40;74371;2837.242;-1759.749;1;98;360;362.9;25.4;25.6;30;29.3;28.6;-1.0;
14/02/2025 08:56:27;117;0;100.70;-4;19.52;3.09;783.3;10.40;74369;2837.242;-1759.745;1;98;360;359.7;25.4;25.6;30;29.3;28.6;-1.0;
14/02/2025 08:56:47;117;0;100.78;-4;19.58;3.01;780.7;10.40;74373;2837.241;-1759.742;1;98;360;362.9;25.4;25.6;30;29.3;28.6;-1.0;
14/02/2025 08:57:07;117;0;103.62;-4;19.74;2.92;778.2;10.40;74376;2837.241;-1759.738;1;98;360;362.9;25.4;25.6;30;29.3;28.6;-1.0;
14/02/2025 08:57:27;117;0;98.93;-4;18.68;3.04;775.7;10.40;74370;2837.240;-1759.734;1;98;360;362.9;25.1;24.9;30;29.3;28.6;-1.0;
14/02/2025 08:57:47;117;0;98.82;-4;21.22;2.77;773.1;10.40;74378;2837.240;-1759.731;1;98;360;362.9;25.1;24.3;30;29.3;28.6;-1.0;
14/02/2025 08:58:07;117;0;99.66;-4;22.46;2.83;769.9;10.40;74372;2837.239;-1759.727;1;98;360;362.9;25.8;25.8;30;29.3;28.6;-1.0;
14/02/2025 08:58:27;117;0;95.93;-4;18.47;3.15;766.9;10.40;74378;2837.239;-1759.722;1;98;360;362.9;25.3;25.2;30;29.3;28.6;-1.0;
14/02/2025 08:58:47;117;0;92.80;-4;20.16;2.95;764.4;10.40;74372;2837.239;-1759.718;1;98;360;362.9;25.3;25.5;33;33.4;28.6;-1.0;
14/02/2025 08:59:07;117;0;92.76;-4;20.15;5.22;761.7;10.40;74381;2837.239;-1759.715;1;98;360;362.9;25.3;25.5;33;33.8;28.6;-1.0;
14/02/2025 08:59:27;117;0;93.98;-4;19.92;5.31;759.2;10.40;74375;2837.239;-1759.711;1;98;360;361.3;25.3;25.5;33;33.8;28.6;-1.0;
14/02/2025 08:59:47;117;0;95.69;-4;19.54;5.21;756.4;10.40;74376;2837.238;-1759.707;1;98;360;361.3;25.3;25.5;33;33.8;28.6;-1.0;
14/02/2025 09:00:07;117;0;97.17;-4;20.22;5.40;753.8;10.40;74384;2837.238;-1759.703;1;98;360;361.3;25.3;25.5;33;33.8;28.6;-1.0;
14/02/2025 09:00:27;117;0;96.31;-4;19.40;5.30;751.0;10.40;74389;2837.238;-1759.699;1;98;360;362.9;25.3;25.5;33;33.8;28.6;-1.0;
14/02/2025 09:00:47;117;0;99.96;-4;20.15;5.54;748.3;10.40;74389;2837.237;-1759.695;1;98;360;362.9;25.3;25.5;33;33.8;28.6;-1.0;
14/02/2025 09:01:07;117;0;103.12;-4;20.09;4.58;745.5;10.40;74395;2837.237;-1759.691;1;98;360;359.7;25.3;25.5;31;30.2;28.6;-1.0;
