Timestamp;NavState;SecurityLevel;Heading;Declination;Pitch;Roll;Depth;Temperature;Pa;Lat;Lon;DeadReckoning;DesiredH;BallastCmd;BallastPos;LinCmd;LinPos;AngCmd;AngPos;Voltage;Altitude;
26/02/2025 21:20:55;119;0;95.31;-4;-55.48;-17.70;-0.2;16.80;75599;2835.693;-1759.128;0;133;500;504.8;100.0;100.6;0;-0.5;25.9;-1.0;
26/02/2025 21:21:05;116;0;91.73;-4;-54.46;-14.52;0.0;16.80;75614;2835.693;-1759.135;0;133;500;506.5;100.0;100.6;0;-0.5;25.9;-1.0;
26/02/2025 21:21:29;116;0;91.92;-4;-60.18;-18.24;0.0;16.90;75618;2835.693;-1759.137;0;133;500;506.5;100.0;100.6;0;-0.9;25.9;-1.0;
26/02/2025 21:21:59;116;0;63.82;-4;-51.21;-16.13;0.2;17.00;75646;2835.694;-1759.138;0;133;500;506.5;100.0;100.6;0;-0.5;25.9;-1.0;
26/02/2025 21:22:19;116;0;69.95;-4;-55.38;-9.20;0.0;17.10;75640;2835.696;-1759.140;0;139;500;506.5;100.0;100.6;0;-0.5;25.9;-1.0;
26/02/2025 21:22:30;116;0;76.80;-4;-53.52;-16.46;-0.0;17.10;75652;2835.698;-1759.140;0;139;500;506.5;100.0;100.6;0;-0.5;25.9;-1.0;
26/02/2025 21:23:32;116;0;103.59;-4;-51.23;-18.65;0.1;17.40;75688;2835.709;-1759.145;0;139;500;506.5;100.0;100.6;0;-0.9;25.9;-1.0;
26/02/2025 21:25:41;116;0;187.15;-4;-50.28;-8.37;0.0;18.00;75740;2835.729;-1759.157;0;139;500;506.5;100.0;100.6;0;-0.5;25.9;-1.0;
26/02/2025 21:26:53;116;0;248.27;-4;-53.08;-11.07;0.0;18.30;75768;2835.740;-1759.163;0;139;500;508.1;100.0;100.6;0;-0.5;25.9;-1.0;
26/02/2025 21:27:13;110;0;229.05;-4;-56.45;-15.36;-0.1;18.40;75777;2835.740;-1759.163;0;139;-90;383.9;100.0;100.6;-7;-7.2;25.9;-1.0;
26/02/2025 21:27:23;110;0;226.95;-4;-54.62;-14.55;0.2;18.50;76138;2835.740;-1759.164;1;139;-90;232.3;100.0;100.6;-7;-7.7;25.9;-1.0;
26/02/2025 21:27:33;110;0;234.16;-4;-63.82;-17.93;0.6;18.50;76386;2835.741;-1759.164;1;139;-90;75.8;100.0;100.6;-7;-7.7;25.9;-1.0;
26/02/2025 21:27:43;110;0;236.25;-4;-65.38;-9.72;0.7;18.60;76718;2835.741;-1759.165;1;139;-90;-80.6;100.0;100.6;-7;-7.7;25.9;-1.0;
26/02/2025 21:27:53;110;0;249.36;-4;-65.73;-21.02;1.0;18.60;77041;2835.741;-1759.165;1;139;-90;-88.7;41.5;41.4;-7;-7.2;25.9;-1.0;
26/02/2025 21:28:13;100;0;276.42;-4;-34.61;-16.42;4.2;18.70;77004;2835.743;-1759.168;1;139;-90;-85.5;41.5;41.2;-7;-7.2;25.9;-1.0;
26/02/2025 21:28:33;100;0;286.66;-4;-18.48;-15.66;7.3;18.80;76997;2835.745;-1759.173;1;139;-90;-82.3;41.9;42.3;70;69.9;25.9;-1.0;
26/02/2025 21:28:53;100;0;283.64;-4;-21.68;23.64;9.8;18.80;77004;2835.747;-1759.177;1;139;-90;-80.6;41.9;42.4;70;70.4;25.9;-1.0;
26/02/2025 21:29:13;100;0;270.54;-4;-21.97;23.95;12.3;18.80;77014;2835.748;-1759.181;1;139;-90;-80.6;41.9;42.4;70;70.4;25.9;-1.0;
26/02/2025 21:29:33;100;0;260.80;-4;-21.51;23.98;14.9;18.80;77005;2835.748;-1759.185;1;139;-90;-82.3;41.9;42.4;70;70.4;25.9;0.0;
26/02/2025 21:29:53;100;0;250.00;-4;-22.16;23.53;17.5;18.80;77014;2835.748;-1759.189;1;139;-90;-82.3;41.3;41.2;70;69.9;25.9;0.0;
26/02/2025 21:30:13;100;0;237.57;-4;-20.46;23.80;20.0;18.80;77014;2835.747;-1759.193;1;139;-90;-80.6;41.3;41.1;70;70.4;25.9;0.0;
26/02/2025 21:30:33;100;0;225.73;-4;-20.09;23.62;22.4;18.80;77019;2835.746;-1759.196;1;139;-90;-82.3;41.3;41.1;70;69.9;25.9;0.0;
26/02/2025 21:30:53;100;0;215.50;-4;-19.96;23.85;25.0;18.80;77019;2835.745;-1759.199;1;139;-90;-80.6;41.3;41.1;70;69.9;25.9;0.0;
26/02/2025 21:31:13;100;0;205.48;-4;-19.96;23.53;27.4;18.80;77022;2835.743;-1759.201;1;139;-90;-82.3;41.3;41.2;70;70.4;26.0;0.0;
26/02/2025 21:31:33;100;0;195.23;-4;-20.27;23.74;29.8;18.80;77021;2835.741;-1759.202;1;139;-90;-80.6;41.3;41.4;70;70.4;25.9;0.0;
26/02/2025 21:31:53;100;0;183.93;-4;-20.32;23.80;32.3;18.90;77028;2835.739;-1759.203;1;139;-90;-80.6;41.3;41.1;63;63.2;26.0;0.0;
26/02/2025 21:32:13;100;0;172.10;-4;-19.54;19.70;34.7;18.90;77037;2835.737;-1759.203;1;139;-90;-80.6;41.3;41.2;44;44.2;25.9;0.0;
26/02/2025 21:32:33;100;0;164.02;-4;-18.99;10.03;37.0;18.90;77042;2835.734;-1759.203;1;139;-90;-82.3;41.6;41.7;32;32.0;25.9;0.0;
26/02/2025 21:32:53;100;0;157.36;-4;-18.34;3.91;39.3;18.90;77039;2835.733;-1759.202;1;139;-90;-80.6;42.1;42.6;22;22.1;25.9;0.0;
26/02/2025 21:33:13;100;0;153.39;-4;-19.73;-0.73;41.7;18.90;77040;2835.731;-1759.201;1;139;-90;-80.6;42.1;42.6;18;18.1;25.9;0.0;
26/02/2025 21:33:33;100;0;151.23;-4;-19.40;-2.81;44.1;18.90;77040;2835.729;-1759.200;1;139;-90;-80.6;42.1;42.4;18;17.6;26.0;0.0;
26/02/2025 21:33:53;100;0;148.75;-4;-19.54;-2.98;46.4;19.00;77050;2835.728;-1759.198;1;139;-90;-80.6;42.1;42.4;16;15.8;25.9;0.0;
26/02/2025 21:34:13;100;0;148.19;-4;-19.87;-3.81;49.0;19.00;77056;2835.726;-1759.197;1;139;-90;-80.6;42.1;42.6;16;15.8;25.9;0.0;
26/02/2025 21:34:33;100;0;148.57;-4;-19.45;-4.00;51.3;19.00;77052;2835.724;-1759.196;1;139;-90;-80.6;42.1;42.6;16;15.3;25.9;0.0;
26/02/2025 21:34:53;100;0;149.33;-4;-18.83;-4.17;53.7;19.00;77055;2835.722;-1759.194;1;139;-90;-80.6;42.4;42.4;16;15.8;26.0;0.0;
26/02/2025 21:35:13;100;0;150.79;-4;-19.71;-4.02;56.0;19.00;77052;2835.721;-1759.193;1;139;-90;-80.6;42.4;42.6;16;15.8;25.9;0.0;
26/02/2025 21:35:33;100;0;149.15;-4;-19.54;-4.07;58.5;19.00;77062;2835.719;-1759.192;1;139;-90;-80.6;42.4;42.6;16;15.8;25.9;0.0;
26/02/2025 21:35:53;100;0;149.69;-4;-19.47;-4.17;60.8;19.00;77060;2835.717;-1759.191;1;139;-90;-82.3;42.4;42.6;16;15.3;25.9;0.0;
26/02/2025 21:36:13;100;0;150.48;-4;-19.27;-3.97;63.1;19.00;77062;2835.716;-1759.189;1;139;-90;-80.6;42.4;42.6;16;15.3;25.9;0.0;
26/02/2025 21:36:33;100;0;149.47;-4;-18.31;-4.18;65.6;19.00;77070;2835.714;-1759.188;1;139;-90;-82.3;42.9;42.9;16;15.8;25.9;0.0;
26/02/2025 21:36:53;100;0;148.43;-4;-20.54;-4.01;67.8;19.00;77068;2835.712;-1759.187;1;139;-90;-79.0;42.9;43.2;16;15.8;25.9;0.0;
26/02/2025 21:37:13;100;0;147.12;-4;-20.48;-4.04;70.3;19.00;77070;2835.711;-1759.186;1;139;-90;-80.6;42.9;43.0;16;15.8;25.9;0.0;
26/02/2025 21:37:33;100;0;147.97;-4;-20.64;-3.99;72.7;19.00;77086;2835.709;-1759.184;1;139;-90;-80.6;42.9;43.0;16;15.8;25.9;0.0;
26/02/2025 21:37:53;100;0;148.02;-4;-20.59;-4.00;75.3;19.00;77083;2835.707;-1759.183;1;139;-90;-80.6;42.9;43.0;16;15.3;25.9;0.0;
26/02/2025 21:38:13;100;0;148.12;-4;-20.62;-3.98;77.7;19.00;77094;2835.706;-1759.182;1;139;-90;-80.6;42.9;43.2;16;15.3;25.9;0.0;
26/02/2025 21:38:33;100;0;147.89;-4;-20.63;-4.04;80.2;19.00;77097;2835.704;-1759.180;1;139;-90;-80.6;42.9;43.0;16;15.8;25.9;0.0;
26/02/2025 21:38:53;100;0;147.39;-4;-20.67;-4.01;82.7;19.00;77097;2835.703;-1759.179;1;139;-90;-80.6;42.9;43.0;16;15.8;25.9;0.0;
26/02/2025 21:39:13;100;0;143.22;-4;-20.10;-4.02;85.0;19.00;77080;2835.701;-1759.178;1;139;-90;-82.3;42.9;43.0;16;15.3;25.9;0.0;
26/02/2025 21:39:33;100;0;143.48;-4;-20.75;-3.98;87.4;19.00;77069;2835.700;-1759.176;1;139;-90;-82.3;42.9;43.0;16;15.8;25.9;0.0;
26/02/2025 21:39:54;100;0;143.24;-4;-20.89;-3.95;89.8;19.00;77061;2835.698;-1759.175;1;139;-90;-80.6;42.9;43.0;16;15.8;25.9;0.0;
26/02/2025 21:40:14;100;0;139.93;-4;-20.21;-4.00;92.3;19.00;77038;2835.697;-1759.173;1;139;-90;-80.6;42.9;43.0;16;15.8;25.9;0.0;
26/02/2025 21:40:34;100;0;137.18;-4;-20.49;-4.11;94.5;19.00;77022;2835.696;-1759.171;1;139;-90;-82.3;42.9;43.2;14;14.0;25.9;0.0;
26/02/2025 21:40:54;100;0;137.73;-4;-20.48;-4.97;96.7;19.00;77001;2835.695;-1759.170;1;139;-90;-80.6;42.9;43.0;14;13.5;25.9;0.0;
26/02/2025 21:41:14;100;0;139.05;-4;-20.51;-5.11;99.4;19.00;76999;2835.693;-1759.168;1;139;-90;-82.3;42.9;43.2;14;13.5;26.0;0.0;
26/02/2025 21:41:34;100;0;141.46;-4;-20.74;-4.89;101.9;19.00;76997;2835.692;-1759.166;1;139;-90;-80.6;42.9;43.2;14;13.5;25.9;0.0;
26/02/2025 21:41:54;100;0;144.74;-4;-20.57;-4.83;104.2;18.90;76981;2835.690;-1759.165;1;139;-90;-80.6;42.9;43.2;16;15.8;25.9;0.0;
26/02/2025 21:42:14;100;0;146.93;-4;-20.53;-3.68;106.7;18.90;76956;2835.689;-1759.163;1;139;-90;-82.3;42.9;43.2;16;15.8;25.9;0.0;
26/02/2025 21:42:34;100;0;146.63;-4;-20.12;-3.74;108.7;18.90;76949;2835.688;-1759.162;1;139;-110;-109.7;42.9;43.2;16;16.2;25.9;0.0;
26/02/2025 21:42:54;100;0;147.15;-4;-19.67;-3.73;111.1;18.90;77007;2835.686;-1759.161;1;139;-110;-111.3;42.9;43.0;16;15.8;25.9;0.0;
26/02/2025 21:43:14;100;0;151.04;-4;-19.75;-3.59;113.7;18.90;76999;2835.684;-1759.160;1;139;-110;-109.7;42.9;43.2;16;15.8;26.0;0.0;
26/02/2025 21:43:34;100;0;155.51;-4;-19.98;-3.63;116.0;18.80;76989;2835.683;-1759.159;1;139;-110;-109.7;42.9;43.0;19;19.0;25.9;0.0;
26/02/2025 21:43:54;100;0;158.31;-4;-20.19;-1.78;118.5;18.80;76976;2835.681;-1759.158;1;139;-110;-111.3;42.9;43.2;24;23.9;25.9;0.0;
26/02/2025 21:44:14;100;0;157.26;-4;-20.09;0.55;121.1;18.80;76967;2835.678;-1759.157;1;139;-110;-111.3;42.9;43.2;22;21.7;25.9;0.0;
26/02/2025 21:44:34;100;0;153.16;-4;-19.97;-0.95;123.5;18.70;76945;2835.677;-1759.156;1;139;-110;-112.9;42.9;43.0;18;18.1;25.9;0.0;
26/02/2025 21:44:54;100;0;151.13;-4;-20.00;-2.77;125.9;18.70;76943;2835.675;-1759.155;1;139;-110;-109.7;42.9;43.2;18;17.6;25.9;0.0;
26/02/2025 21:45:14;100;0;151.53;-4;-19.84;-2.71;128.5;18.70;76933;2835.673;-1759.154;1;139;-110;-109.7;42.9;43.0;18;17.6;25.9;0.0;
26/02/2025 21:45:34;100;0;148.28;-4;-19.78;-2.83;130.8;18.70;76932;2835.672;-1759.152;1;139;-110;-109.7;42.9;43.2;16;15.8;25.9;0.0;
26/02/2025 21:45:54;100;0;146.72;-4;-19.69;-3.85;133.2;18.60;76919;2835.670;-1759.151;1;139;-110;-111.3;42.9;43.0;16;15.8;25.9;0.0;
26/02/2025 21:46:14;100;0;145.78;-4;-19.65;-3.82;135.5;18.60;76912;2835.669;-1759.150;1;139;-110;-111.3;42.9;43.2;16;15.8;25.9;0.0;
26/02/2025 21:46:34;100;0;146.20;-4;-20.48;-3.98;137.7;18.60;76902;2835.667;-1759.148;1;139;-110;-111.3;42.9;43.2;16;15.8;25.9;0.0;
26/02/2025 21:46:54;100;0;147.06;-4;-19.96;-3.82;140.1;18.50;76895;2835.665;-1759.147;1;139;-110;-109.7;42.9;43.0;16;15.3;25.9;0.0;
26/02/2025 21:47:14;100;0;144.64;-4;-19.65;-3.87;142.6;18.50;76897;2835.664;-1759.146;1;139;-110;-111.3;42.9;43.2;16;15.8;25.9;0.0;
26/02/2025 21:47:34;100;0;139.72;-4;-19.72;-3.85;145.2;18.50;76889;2835.662;-1759.144;1;139;-110;-111.3;42.9;43.0;16;15.8;25.9;0.0;
26/02/2025 21:47:54;100;0;139.22;-4;-19.51;-3.88;147.5;18.50;76880;2835.661;-1759.142;1;139;-110;-111.3;42.9;43.2;16;15.3;25.9;0.0;
26/02/2025 21:48:14;100;0;138.01;-4;-19.40;-3.90;149.8;18.40;76870;2835.660;-1759.140;1;139;-110;-111.3;42.9;43.2;16;15.3;25.9;0.0;
26/02/2025 21:48:34;100;0;134.34;-4;-19.56;-3.87;152.2;18.40;76866;2835.659;-1759.138;1;139;-110;-111.3;42.9;43.0;13;13.1;25.9;0.0;
26/02/2025 21:48:54;100;0;131.53;-4;-19.11;-5.45;154.6;18.40;76859;2835.658;-1759.136;1;139;-110;-111.3;42.9;43.0;10;9.9;25.9;0.0;
26/02/2025 21:49:14;100;0;131.24;-4;-18.99;-6.97;156.8;18.30;76844;2835.657;-1759.134;1;139;-110;-112.9;43.2;43.4;10;9.5;25.9;0.0;
26/02/2025 21:49:34;100;0;131.28;-4;-20.06;-6.97;159.3;18.30;76839;2835.655;-1759.132;1;139;-110;-111.3;43.2;43.7;10;9.5;25.9;0.0;
26/02/2025 21:49:54;100;0;130.09;-4;-20.15;-6.98;161.5;18.30;76838;2835.655;-1759.130;1;139;-110;-109.7;43.2;43.6;7;7.2;25.9;0.0;
26/02/2025 21:50:14;100;0;130.22;-4;-20.09;-8.16;163.9;18.30;76817;2835.654;-1759.128;1;139;-110;-109.7;43.2;43.6;7;6.8;26.0;0.0;
26/02/2025 21:50:34;100;0;129.57;-4;-20.08;-8.19;166.4;18.20;76810;2835.653;-1759.126;1;139;-110;-111.3;43.2;43.7;7;6.8;25.9;0.0;
26/02/2025 21:50:54;100;0;131.44;-4;-20.32;-8.15;168.5;18.20;76789;2835.652;-1759.124;1;139;-110;-111.3;43.2;43.6;9;9.5;25.9;0.0;
26/02/2025 21:51:14;100;0;130.07;-4;-20.62;-6.70;170.9;18.10;76793;2835.651;-1759.122;1;139;-110;-109.7;43.2;43.7;9;9.5;25.9;0.0;
26/02/2025 21:51:34;100;0;135.16;-4;-20.47;-6.67;173.2;18.10;76781;2835.650;-1759.120;1;139;-110;-109.7;43.2;43.6;12;12.2;25.9;0.0;
26/02/2025 21:51:54;100;0;139.06;-4;-20.27;-5.14;175.5;18.10;76779;2835.649;-1759.118;1;139;-110;-111.3;43.2;43.6;15;14.9;25.9;0.0;
26/02/2025 21:52:14;100;0;141.57;-4;-20.61;-3.90;177.8;18.00;76772;2835.647;-1759.117;1;139;-110;-109.7;43.2;43.7;15;14.9;25.9;0.0;
26/02/2025 21:52:34;100;0;143.39;-4;-21.05;-4.04;180.2;18.00;76771;2835.646;-1759.115;1;139;-110;-112.9;43.2;43.7;15;14.9;25.9;0.0;
26/02/2025 21:52:54;100;0;146.02;-4;-21.01;-3.92;182.5;18.00;76753;2835.645;-1759.114;1;139;-110;-111.3;43.2;43.7;15;15.3;25.9;0.0;
26/02/2025 21:53:14;100;0;146.23;-4;-21.18;-3.94;184.8;17.90;76748;2835.643;-1759.113;1;139;-110;-111.3;43.2;43.7;15;14.9;25.9;0.0;
26/02/2025 21:53:34;100;0;147.52;-4;-20.99;-4.00;187.1;17.90;76742;2835.642;-1759.112;1;139;-110;-111.3;43.2;43.7;15;15.3;25.9;0.0;
26/02/2025 21:53:54;100;0;148.65;-4;-20.80;-3.88;189.5;17.90;76729;2835.640;-1759.111;1;139;-110;-111.3;43.2;43.6;15;15.3;25.9;0.0;
26/02/2025 21:54:14;100;0;147.56;-4;-20.87;-3.97;191.9;17.80;76723;2835.639;-1759.109;1;139;-110;-111.3;43.2;43.7;15;15.3;25.9;0.0;
26/02/2025 21:54:34;100;0;145.85;-4;-20.56;-4.07;194.1;17.80;76718;2835.637;-1759.108;1;139;-110;-111.3;43.2;43.7;15;15.3;26.0;0.0;
26/02/2025 21:54:54;100;0;147.02;-4;-20.13;-3.50;196.1;17.80;76706;2835.636;-1759.107;1;139;-110;-111.3;43.2;43.6;15;15.3;25.9;0.0;
26/02/2025 21:55:14;100;0;147.71;-4;-20.23;-4.08;198.3;17.70;76701;2835.635;-1759.106;1;139;-110;-111.3;43.2;43.7;15;14.9;26.0;0.0;
26/02/2025 21:55:34;100;0;147.32;-4;-20.83;-4.02;200.5;17.70;76701;2835.634;-1759.105;1;139;-110;-111.3;43.2;43.7;15;14.9;25.9;0.0;
26/02/2025 21:55:54;100;0;147.63;-4;-20.72;-3.99;202.9;17.60;76681;2835.632;-1759.104;1;139;-110;-111.3;43.2;43.7;15;15.3;25.9;0.0;
26/02/2025 21:56:14;100;0;146.48;-4;-20.92;-3.89;205.2;17.60;76688;2835.631;-1759.102;1;139;-110;-111.3;43.2;43.6;15;15.3;25.9;0.0;
26/02/2025 21:56:34;100;0;146.78;-4;-20.04;-4.21;207.5;17.60;76683;2835.629;-1759.101;1;139;-110;-112.9;43.2;43.6;15;15.3;25.9;0.0;
26/02/2025 21:56:54;100;0;152.36;-4;-20.89;-4.17;209.9;17.60;76673;2835.628;-1759.100;1;139;-110;-111.3;43.2;43.7;17;17.1;25.9;0.0;
26/02/2025 21:57:14;100;0;153.51;-4;-21.07;-2.96;212.4;17.50;76667;2835.626;-1759.099;1;139;-110;-111.3;43.2;43.6;17;17.1;25.9;0.0;
26/02/2025 21:57:34;100;0;151.65;-4;-21.12;-2.75;215.0;17.50;76662;2835.624;-1759.098;1;139;-110;-111.3;43.2;43.7;17;17.6;25.9;0.0;
26/02/2025 21:57:54;100;0;152.46;-4;-21.13;-2.78;217.7;17.50;76652;2835.622;-1759.097;1;139;-110;-109.7;43.2;43.7;17;17.6;25.9;0.0;
26/02/2025 21:58:14;100;0;150.09;-4;-20.88;-2.83;220.4;17.40;76640;2835.620;-1759.095;1;139;-110;-109.7;43.2;43.6;17;17.6;25.9;0.0;
26/02/2025 21:58:34;100;0;148.56;-4;-20.93;-2.81;223.3;17.40;76631;2835.618;-1759.094;1;139;-110;-111.3;43.2;43.6;17;17.6;25.9;0.0;
26/02/2025 21:58:54;100;0;147.41;-4;-20.97;-2.81;225.9;17.40;76632;2835.616;-1759.092;1;139;-110;-109.7;43.2;43.6;17;17.6;25.9;0.0;
26/02/2025 21:59:14;100;0;145.35;-4;-20.88;-2.81;228.9;17.30;76626;2835.614;-1759.090;1;139;-110;-111.3;43.2;43.6;17;17.6;25.9;0.0;
26/02/2025 21:59:34;100;0;144.75;-4;-20.77;-2.81;231.6;17.30;76617;2835.613;-1759.089;1;139;-110;-111.3;43.2;43.7;17;17.6;25.9;0.0;
26/02/2025 21:59:54;100;0;142.42;-4;-20.59;-2.85;234.4;17.30;76617;2835.611;-1759.087;1;139;-110;-111.3;43.2;43.7;17;17.6;25.9;0.0;
26/02/2025 22:00:14;100;0;139.48;-4;-20.65;-2.82;237.0;17.20;76624;2835.609;-1759.085;1;139;-110;-109.7;43.2;43.7;15;14.4;25.9;0.0;
26/02/2025 22:00:34;100;0;139.04;-4;-20.53;-4.43;239.6;17.20;76604;2835.608;-1759.083;1;139;-110;-111.3;43.2;43.7;15;14.4;25.9;0.0;
26/02/2025 22:00:54;100;0;139.86;-4;-20.52;-4.42;242.4;17.20;76592;2835.606;-1759.081;1;139;-110;-111.3;43.2;43.7;15;14.4;25.9;0.0;
26/02/2025 22:01:14;100;0;140.55;-4;-20.67;-4.42;245.1;17.10;76583;2835.605;-1759.079;1;139;-110;-111.3;43.2;43.7;15;14.4;25.9;0.0;
26/02/2025 22:01:34;100;0;142.28;-4;-20.74;-4.39;248.0;17.10;76575;2835.603;-1759.077;1;139;-110;-111.3;43.2;43.7;15;14.4;25.9;0.0;
26/02/2025 22:01:54;100;0;142.49;-4;-20.50;-4.42;250.5;17.10;76574;2835.601;-1759.076;1;139;-110;-109.7;43.2;43.7;15;14.4;25.9;0.0;
26/02/2025 22:02:14;100;0;142.10;-4;-20.61;-4.39;253.3;17.00;76582;2835.599;-1759.074;1;139;-110;-109.7;43.2;43.6;15;14.4;25.9;0.0;
26/02/2025 22:02:34;100;0;142.27;-4;-20.62;-4.44;256.0;17.00;76572;2835.598;-1759.072;1;139;-110;-111.3;43.2;43.6;15;14.4;25.9;0.0;
26/02/2025 22:02:54;100;0;142.84;-4;-20.83;-4.40;258.7;17.00;76564;2835.596;-1759.070;1;139;-110;-111.3;43.2;43.7;15;14.4;25.9;0.0;
26/02/2025 22:03:14;100;0;142.40;-4;-20.70;-4.44;261.5;16.90;76563;2835.594;-1759.068;1;139;-110;-109.7;43.2;43.6;15;14.4;25.9;0.0;
26/02/2025 22:03:34;100;0;142.66;-4;-20.62;-4.39;264.2;16.90;76556;2835.593;-1759.067;1;139;-110;-111.3;43.2;43.7;15;14.4;25.9;0.0;
26/02/2025 22:03:54;100;0;142.68;-4;-20.64;-4.42;266.9;16.90;76558;2835.591;-1759.065;1;139;-110;-111.3;43.2;43.7;15;14.4;25.9;0.0;
26/02/2025 22:04:14;100;0;143.48;-4;-20.55;-4.42;269.7;16.80;76545;2835.589;-1759.063;1;139;-110;-111.3;43.2;43.7;15;14.4;25.9;0.0;
26/02/2025 22:04:34;100;0;143.55;-4;-20.41;-4.42;272.4;16.80;76539;2835.587;-1759.061;1;139;-110;-111.3;43.2;43.7;15;14.4;25.9;0.0;
26/02/2025 22:04:54;100;0;145.92;-4;-20.20;-4.41;275.1;16.80;76523;2835.586;-1759.060;1;139;-110;-109.7;43.2;43.7;15;14.4;25.9;0.0;
26/02/2025 22:05:14;100;0;148.76;-4;-20.31;-4.36;277.8;16.80;76524;2835.584;-1759.058;1;139;-110;-109.7;43.2;43.6;15;14.4;25.9;0.0;
26/02/2025 22:05:34;100;0;151.38;-4;-20.24;-4.41;280.4;16.70;76504;2835.582;-1759.057;1;139;-110;-111.3;43.2;43.6;17;17.1;25.9;0.0;
26/02/2025 22:05:54;100;0;151.27;-4;-20.39;-2.74;283.1;16.70;76507;2835.580;-1759.056;1;139;-110;-109.7;43.2;43.7;17;17.6;25.9;0.0;
26/02/2025 22:06:14;100;0;151.27;-4;-20.36;-2.61;285.8;16.70;76506;2835.578;-1759.054;1;139;-110;-111.3;43.2;43.7;17;17.6;25.9;0.0;
26/02/2025 22:06:34;100;0;148.48;-4;-20.39;-2.74;288.5;16.60;76485;2835.576;-1759.053;1;139;-110;-111.3;43.2;43.7;17;17.6;25.9;0.0;
26/02/2025 22:06:54;100;0;145.06;-4;-20.44;-2.67;291.1;16.60;76480;2835.574;-1759.051;1;139;-110;-111.3;43.2;43.7;17;17.6;25.9;0.0;
26/02/2025 22:07:14;100;0;140.78;-4;-20.60;-2.73;293.9;16.50;76454;2835.572;-1759.049;1;139;-110;-111.3;43.2;43.7;17;17.6;25.9;0.0;
26/02/2025 22:07:34;100;0;138.63;-4;-20.63;-2.68;296.7;16.50;76453;2835.571;-1759.047;1;139;-110;-109.7;43.2;43.7;15;14.9;25.9;0.0;
26/02/2025 22:07:54;100;0;137.27;-4;-20.41;-4.41;299.4;16.50;76452;2835.569;-1759.045;1;139;-110;-111.3;43.2;43.7;15;14.4;25.9;0.0;
26/02/2025 22:08:14;100;0;136.57;-4;-20.39;-4.40;302.1;16.40;76434;2835.567;-1759.043;1;139;-110;-111.3;43.2;43.7;15;14.4;25.9;0.0;
26/02/2025 22:08:34;100;0;135.33;-4;-20.37;-4.37;305.0;16.40;76435;2835.566;-1759.040;1;139;-110;-111.3;43.2;43.7;15;14.4;25.9;0.0;
26/02/2025 22:08:54;100;0;133.81;-4;-20.40;-4.45;307.7;16.40;76426;2835.564;-1759.038;1;139;-110;-109.7;43.2;43.7;12;12.2;25.9;0.0;
26/02/2025 22:09:14;100;0;133.48;-4;-20.08;-5.68;310.5;16.40;76422;2835.563;-1759.036;1;139;-110;-111.3;43.2;43.6;12;11.7;25.9;0.0;
26/02/2025 22:09:34;100;0;133.87;-4;-20.21;-5.65;313.2;16.30;76417;2835.562;-1759.033;1;139;-110;-111.3;43.2;43.7;12;11.7;25.9;0.0;
26/02/2025 22:09:54;100;0;133.60;-4;-20.36;-5.60;316.2;16.30;76424;2835.560;-1759.031;1;139;-110;-109.7;43.2;43.6;12;11.7;25.9;0.0;
26/02/2025 22:10:14;100;0;135.48;-4;-20.49;-5.58;318.9;16.30;76417;2835.558;-1759.028;1;139;-110;-109.7;43.2;43.6;12;11.7;25.9;0.0;
26/02/2025 22:10:34;100;0;135.30;-4;-20.36;-5.65;321.8;16.20;76407;2835.557;-1759.026;1;139;-110;-109.7;43.2;43.7;14;14.4;25.9;0.0;
26/02/2025 22:10:54;100;0;134.42;-4;-20.45;-4.18;324.7;16.20;76403;2835.555;-1759.024;1;139;-110;-109.7;43.2;43.7;14;14.9;25.9;0.0;
26/02/2025 22:11:14;100;0;135.07;-4;-20.42;-4.16;327.3;16.20;76390;2835.554;-1759.021;1;139;-110;-111.3;43.2;43.7;14;14.9;25.9;0.0;
26/02/2025 22:11:34;100;0;133.65;-4;-20.46;-4.19;330.2;16.10;76374;2835.552;-1759.019;1;139;-110;-112.9;43.2;43.7;14;14.9;26.0;0.0;
26/02/2025 22:11:54;100;0;134.68;-4;-20.34;-4.20;333.0;16.10;76383;2835.551;-1759.017;1;139;-110;-111.3;43.2;43.7;14;14.9;26.0;0.0;
26/02/2025 22:12:14;100;0;134.78;-4;-20.24;-4.19;335.8;16.10;76360;2835.549;-1759.014;1;139;-110;-111.3;43.2;43.7;14;14.9;25.9;0.0;
26/02/2025 22:12:34;100;0;134.14;-4;-20.06;-4.21;338.5;16.00;76365;2835.548;-1759.012;1;139;-110;-111.3;43.2;43.7;12;12.2;25.9;0.0;
26/02/2025 22:12:54;100;0;135.06;-4;-19.95;-5.77;341.1;16.00;76360;2835.546;-1759.010;1;139;-110;-111.3;43.2;43.7;12;11.7;25.9;0.0;
26/02/2025 22:13:14;100;0;135.08;-4;-19.91;-5.76;343.9;16.00;76337;2835.545;-1759.008;1;139;-110;-111.3;43.2;43.7;12;11.7;25.9;0.0;
26/02/2025 22:13:34;100;0;134.73;-4;-19.77;-5.76;346.4;16.00;76340;2835.543;-1759.005;1;139;-110;-111.3;43.2;43.7;12;11.7;25.9;0.0;
26/02/2025 22:13:54;100;0;135.99;-4;-19.79;-5.81;349.1;15.90;76329;2835.542;-1759.003;1;139;-110;-109.7;43.2;43.6;12;11.7;25.9;0.0;
26/02/2025 22:14:14;100;0;138.53;-4;-19.73;-5.73;351.6;15.90;76321;2835.541;-1759.001;1;139;-110;-111.3;43.2;43.6;14;14.0;25.9;0.0;
26/02/2025 22:14:35;100;0;141.58;-4;-19.70;-4.37;354.1;15.90;76324;2835.539;-1759.000;1;139;-110;-111.3;43.2;43.6;14;14.4;25.9;0.0;
26/02/2025 22:14:55;100;0;143.19;-4;-19.89;-4.37;356.6;15.80;76313;2835.537;-1758.998;1;139;-110;-109.7;43.2;43.7;14;14.4;25.9;0.0;
26/02/2025 22:15:15;100;0;146.25;-4;-19.88;-4.32;359.4;15.80;76310;2835.535;-1758.996;1;139;-110;-111.3;43.2;43.7;14;14.4;25.9;0.0;
26/02/2025 22:15:35;100;0;149.42;-4;-19.96;-4.35;361.9;15.80;76303;2835.534;-1758.995;1;139;-110;-112.9;43.2;43.7;16;15.8;25.9;0.0;
26/02/2025 22:15:55;100;0;152.01;-4;-20.22;-3.39;364.5;15.70;76295;2835.532;-1758.994;1;139;-110;-109.7;43.2;43.6;16;16.2;25.9;0.0;
26/02/2025 22:16:15;100;0;154.77;-4;-19.95;-3.38;367.1;15.70;76283;2835.530;-1758.993;1;139;-110;-111.3;43.2;43.7;19;19.0;25.9;0.0;
26/02/2025 22:16:35;100;0;155.34;-4;-20.23;-2.03;369.7;15.60;76265;2835.528;-1758.992;1;139;-110;-111.3;43.2;43.7;19;19.0;25.9;0.0;
26/02/2025 22:16:55;100;0;152.81;-4;-20.12;-2.02;372.2;15.60;76272;2835.526;-1758.991;1;139;-110;-111.3;43.2;43.7;17;16.7;25.9;0.0;
26/02/2025 22:17:15;100;0;150.68;-4;-20.20;-3.38;374.6;15.60;76272;2835.524;-1758.989;1;139;-110;-111.3;43.2;43.7;17;16.2;26.0;0.0;
26/02/2025 22:17:35;100;0;148.40;-4;-20.13;-3.39;377.3;15.60;76262;2835.522;-1758.988;1;139;-110;-111.3;43.2;43.7;17;16.2;25.9;0.0;
26/02/2025 22:17:55;100;0;147.03;-4;-20.07;-3.39;379.7;15.50;76255;2835.521;-1758.987;1;139;-110;-111.3;43.2;43.7;15;14.9;25.9;0.0;
26/02/2025 22:18:15;100;0;148.17;-4;-19.91;-4.39;382.5;15.50;76244;2835.518;-1758.985;1;139;-110;-109.7;43.2;43.7;15;14.4;25.9;0.0;
26/02/2025 22:18:35;100;0;150.00;-4;-20.03;-4.43;384.9;15.50;76240;2835.517;-1758.984;1;139;-110;-109.7;43.2;43.7;15;14.4;25.9;0.0;
26/02/2025 22:18:55;100;0;152.23;-4;-19.77;-4.37;387.4;15.40;76233;2835.515;-1758.983;1;139;-110;-111.3;43.2;43.6;17;17.1;25.9;0.0;
26/02/2025 22:19:15;100;0;152.74;-4;-19.72;-2.88;390.2;15.40;76226;2835.513;-1758.981;1;139;-110;-109.7;43.2;43.7;17;17.6;25.9;0.0;
26/02/2025 22:19:35;100;0;152.34;-4;-19.61;-2.91;392.6;15.40;76208;2835.511;-1758.980;1;139;-110;-109.7;43.2;43.7;17;17.6;25.9;0.0;
26/02/2025 22:19:55;100;0;155.42;-4;-20.22;-2.85;395.2;15.30;76212;2835.509;-1758.979;1;139;-110;-109.7;43.2;43.7;20;19.9;25.9;0.0;
26/02/2025 22:20:15;100;0;160.23;-4;-19.83;-1.51;397.7;15.30;76211;2835.507;-1758.978;1;139;-110;-111.3;43.2;43.6;26;26.2;25.9;0.0;
26/02/2025 22:20:35;100;0;160.33;-4;-20.67;1.76;400.4;15.30;76185;2835.505;-1758.978;1;139;-110;-109.7;43.2;43.7;26;26.6;25.9;0.0;
26/02/2025 22:20:55;100;0;157.84;-4;-20.96;1.76;403.1;15.20;76189;2835.503;-1758.977;1;139;-110;-109.7;43.2;43.7;24;23.9;25.9;0.0;
26/02/2025 22:21:15;100;0;156.61;-4;-20.28;0.06;406.0;15.20;76179;2835.500;-1758.976;1;139;-110;-111.3;43.2;43.7;24;23.5;25.9;0.0;
26/02/2025 22:21:35;100;0;153.82;-4;-20.54;0.17;408.8;15.20;76180;2835.498;-1758.975;1;139;-110;-109.7;43.2;43.7;19;18.5;25.9;0.0;
26/02/2025 22:21:55;100;0;154.05;-4;-20.34;-2.47;411.6;15.20;76173;2835.496;-1758.973;1;139;-110;-111.3;43.2;43.7;19;18.1;25.9;0.0;
26/02/2025 22:22:15;100;0;146.80;-4;-18.94;-2.47;414.3;15.10;76153;2835.494;-1758.972;1;139;-110;-109.7;43.5;43.7;16;15.8;25.9;0.0;
26/02/2025 22:22:35;100;0;146.26;-4;-20.99;-3.73;417.0;15.10;76157;2835.492;-1758.970;1;139;-110;-109.7;43.5;43.6;16;15.8;25.9;0.0;
26/02/2025 22:22:55;100;0;145.14;-4;-19.67;-3.86;419.8;15.10;76153;2835.490;-1758.968;1;139;-110;-111.3;43.5;43.7;16;15.8;25.9;0.0;
26/02/2025 22:23:15;100;0;141.11;-4;-19.73;-3.81;422.5;15.00;76153;2835.488;-1758.966;1;139;-110;-111.3;43.5;43.7;16;15.8;25.9;0.0;
26/02/2025 22:23:35;100;0;139.48;-4;-19.95;-3.79;425.0;15.00;76145;2835.487;-1758.964;1;139;-110;-109.7;43.5;43.6;16;15.8;25.9;0.0;
26/02/2025 22:23:55;100;0;136.75;-4;-19.76;-3.79;427.9;15.00;76143;2835.485;-1758.962;1;139;-110;-111.3;43.5;43.6;16;15.8;25.9;0.0;
26/02/2025 22:24:15;100;0;134.05;-4;-19.82;-3.76;430.6;15.00;76142;2835.484;-1758.960;1;139;-110;-111.3;43.5;43.7;13;13.1;25.9;0.0;
26/02/2025 22:24:35;100;0;133.03;-4;-19.99;-5.18;433.4;14.90;76133;2835.482;-1758.957;1;139;-110;-109.7;43.5;43.7;13;12.6;25.9;0.0;
26/02/2025 22:24:55;100;0;132.03;-4;-19.77;-5.22;436.1;14.90;76126;2835.481;-1758.955;1;139;-110;-109.7;43.5;43.7;10;9.9;25.9;0.0;
26/02/2025 22:25:15;100;0;131.76;-4;-19.69;-6.71;438.8;14.90;76124;2835.480;-1758.953;1;139;-110;-111.3;43.5;43.7;10;9.9;26.0;0.0;
26/02/2025 22:25:35;100;0;130.94;-4;-19.72;-6.71;441.5;14.80;76120;2835.478;-1758.950;1;139;-110;-111.3;43.5;43.6;10;9.9;25.9;0.0;
26/02/2025 22:25:55;100;0;130.46;-4;-19.83;-6.68;444.2;14.80;76111;2835.477;-1758.948;1;139;-110;-111.3;43.5;43.7;10;9.5;25.9;0.0;
26/02/2025 22:26:15;100;0;129.28;-4;-19.57;-6.74;447.0;14.80;76098;2835.476;-1758.945;1;139;-110;-111.3;43.5;43.6;7;7.2;25.9;0.0;
26/02/2025 22:26:35;100;0;131.15;-4;-19.26;-8.19;449.6;14.80;76107;2835.475;-1758.943;1;139;-110;-112.9;43.5;43.6;9;9.0;25.9;0.0;
26/02/2025 22:26:55;100;0;133.64;-4;-19.27;-6.78;452.2;14.70;76096;2835.473;-1758.940;1;139;-110;-109.7;43.5;43.7;12;12.2;25.9;0.0;
26/02/2025 22:27:15;100;0;135.79;-4;-19.64;-5.35;454.9;14.70;76090;2835.472;-1758.938;1;139;-110;-111.3;43.5;43.7;12;12.2;25.9;0.0;
26/02/2025 22:27:35;100;0;138.02;-4;-19.61;-5.41;457.7;14.70;76086;2835.470;-1758.936;1;139;-110;-109.7;43.5;43.7;14;14.0;25.9;0.0;
26/02/2025 22:27:55;100;0;140.05;-4;-19.96;-4.43;460.6;14.60;76079;2835.468;-1758.934;1;139;-110;-111.3;43.5;43.7;14;14.4;25.9;0.0;
26/02/2025 22:28:15;100;0;140.48;-4;-19.80;-4.42;463.5;14.60;76066;2835.466;-1758.932;1;139;-110;-111.3;43.5;43.7;14;14.0;25.9;0.0;
26/02/2025 22:28:35;100;0;139.01;-4;-19.93;-4.43;466.3;14.60;76060;2835.465;-1758.930;1;139;-110;-109.7;43.5;43.7;14;14.4;25.9;0.0;
26/02/2025 22:28:55;100;0;136.64;-4;-19.66;-4.52;469.2;14.60;76066;2835.463;-1758.927;1;139;-110;-111.3;43.5;43.7;14;14.0;25.9;0.0;
26/02/2025 22:29:15;100;0;134.18;-4;-19.65;-4.45;472.2;14.50;76054;2835.461;-1758.925;1;139;-110;-111.3;43.5;43.7;14;14.0;25.9;0.0;
26/02/2025 22:29:35;100;0;132.50;-4;-19.69;-4.58;475.0;14.50;76053;2835.460;-1758.922;1;139;-110;-109.7;43.5;43.7;12;11.7;25.9;0.0;
26/02/2025 22:29:55;100;0;131.13;-4;-19.44;-5.85;477.8;14.50;76034;2835.458;-1758.920;1;139;-110;-111.3;43.5;43.7;10;9.9;25.9;0.0;
26/02/2025 22:30:15;100;0;130.56;-4;-19.57;-6.76;480.6;14.40;76036;2835.457;-1758.917;1;139;-110;-111.3;43.5;43.7;8;8.1;25.9;0.0;
26/02/2025 22:30:35;100;0;133.78;-4;-19.10;-7.65;483.5;14.40;76029;2835.455;-1758.914;1;139;-110;-111.3;43.5;43.6;12;12.2;25.9;0.0;
26/02/2025 22:30:55;100;0;135.42;-4;-19.30;-5.40;486.3;14.40;76025;2835.454;-1758.912;1;139;-110;-112.9;43.5;43.7;12;12.2;25.9;0.0;
26/02/2025 22:31:15;100;0;138.79;-4;-19.52;-5.40;489.1;14.40;76015;2835.452;-1758.910;1;139;-110;-111.3;43.5;43.7;14;14.4;25.9;0.0;
26/02/2025 22:31:35;100;0;140.68;-4;-19.50;-4.26;492.0;14.30;76019;2835.450;-1758.908;1;139;-110;-111.3;43.5;43.7;14;14.4;25.9;0.0;
26/02/2025 22:31:55;100;0;144.08;-4;-19.51;-4.23;494.8;14.30;76009;2835.448;-1758.906;1;139;-110;-109.7;43.5;43.7;14;14.4;25.9;0.0;
26/02/2025 22:32:15;100;0;146.37;-4;-19.23;-4.33;497.5;14.30;75995;2835.446;-1758.904;1;139;-110;-111.3;43.5;43.7;14;14.4;25.9;0.0;
26/02/2025 22:32:35;100;0;147.29;-4;-19.49;-4.23;500.3;14.20;75986;2835.444;-1758.902;1;139;-110;-109.7;43.5;43.7;14;14.4;25.9;0.0;
26/02/2025 22:32:55;100;0;151.77;-4;-18.93;-4.18;502.9;14.20;75987;2835.442;-1758.901;1;139;-110;-111.3;43.9;44.0;16;15.8;25.9;0.0;
26/02/2025 22:33:15;100;0;154.52;-4;-20.43;-3.64;505.5;14.20;75977;2835.440;-1758.900;1;139;-110;-111.3;43.9;44.3;19;19.0;25.9;0.0;
26/02/2025 22:33:35;100;0;156.25;-4;-20.77;-1.80;508.4;14.20;75975;2835.438;-1758.899;1;139;-110;-114.5;43.9;44.2;19;19.9;25.9;0.0;
26/02/2025 22:33:55;100;0;155.55;-4;-20.98;-1.80;511.1;14.10;75975;2835.436;-1758.898;1;139;-110;-111.3;43.9;44.2;19;19.4;25.9;0.0;
26/02/2025 22:34:15;100;0;156.00;-4;-20.72;-1.79;513.9;14.10;75975;2835.433;-1758.897;1;139;-110;-111.3;43.9;44.3;19;19.9;25.9;0.0;
26/02/2025 22:34:35;100;0;156.63;-4;-20.52;-1.79;516.7;14.10;75958;2835.431;-1758.896;1;139;-110;-109.7;43.9;44.2;21;21.7;25.9;0.0;
26/02/2025 22:34:55;100;0;155.19;-4;-20.41;-0.66;519.4;14.10;75958;2835.429;-1758.895;1;139;-110;-111.3;43.9;44.3;19;19.0;25.9;0.0;
26/02/2025 22:35:15;100;0;153.26;-4;-20.60;-2.51;521.8;14.00;75947;2835.427;-1758.894;1;139;-110;-109.7;43.9;44.3;19;18.1;25.9;0.0;
26/02/2025 22:35:35;100;0;150.48;-4;-20.76;-2.47;524.4;14.00;75942;2835.426;-1758.892;1;139;-110;-111.3;43.9;44.3;16;15.8;25.9;0.0;
26/02/2025 22:35:55;100;0;148.18;-4;-20.76;-3.73;526.7;14.00;75946;2835.424;-1758.891;1;139;-110;-111.3;43.9;44.2;16;15.8;25.9;0.0;
26/02/2025 22:36:15;100;0;146.64;-4;-20.56;-3.79;529.3;14.00;75942;2835.422;-1758.890;1;139;-110;-111.3;43.9;44.3;16;15.8;25.9;0.0;
26/02/2025 22:36:35;100;0;143.36;-4;-20.33;-3.78;531.9;13.90;75929;2835.421;-1758.888;1;139;-110;-109.7;43.9;44.3;16;15.8;25.9;0.0;
26/02/2025 22:36:55;100;0;141.60;-4;-20.63;-3.88;534.2;13.90;75930;2835.420;-1758.887;1;139;-110;-111.3;43.9;44.2;16;15.8;26.0;0.0;
26/02/2025 22:37:15;100;0;137.35;-4;-20.42;-3.81;536.7;13.90;75918;2835.418;-1758.885;1;139;-110;-111.3;43.9;44.2;14;14.0;25.9;0.0;
26/02/2025 22:37:35;100;0;137.31;-4;-20.85;-4.77;539.2;13.90;75912;2835.417;-1758.883;1;139;-110;-111.3;43.9;44.2;14;14.0;25.9;0.0;
26/02/2025 22:37:55;100;0;132.02;-4;-19.94;-4.82;541.7;13.80;75914;2835.416;-1758.881;1;139;-110;-111.3;43.9;44.3;10;9.9;25.9;0.0;
26/02/2025 22:38:15;100;0;130.20;-4;-20.45;-6.78;543.9;13.80;75918;2835.415;-1758.879;1;139;-110;-111.3;43.9;44.2;7;7.2;25.9;0.0;
26/02/2025 22:38:35;100;0;132.00;-4;-20.98;-8.47;546.3;13.80;75924;2835.414;-1758.877;1;139;-110;-111.3;43.9;44.3;9;9.0;25.9;0.0;
26/02/2025 22:38:55;100;0;128.12;-4;-20.15;-6.94;548.6;13.80;75901;2835.413;-1758.875;1;139;-110;-111.3;43.9;44.3;5;5.0;25.9;0.0;
26/02/2025 22:39:15;100;0;126.25;-4;-20.04;-9.24;550.9;13.70;75897;2835.412;-1758.873;1;139;-110;-111.3;43.9;44.2;2;1.4;25.9;0.0;
26/02/2025 22:39:35;100;0;127.82;-4;-19.66;-11.00;553.1;13.70;75896;2835.412;-1758.871;1;139;-110;-111.3;43.9;44.2;2;1.4;25.9;0.0;
26/02/2025 22:39:55;100;0;131.31;-4;-19.68;-10.95;555.3;13.70;75884;2835.411;-1758.869;1;139;-110;-111.3;43.9;44.3;8;8.1;25.9;0.0;
26/02/2025 22:40:15;100;0;132.23;-4;-20.14;-7.47;557.5;13.70;75889;2835.410;-1758.867;1;139;-110;-109.7;43.9;44.3;8;8.1;25.9;0.0;
26/02/2025 22:40:35;100;0;134.32;-4;-20.13;-7.47;559.7;13.70;75885;2835.409;-1758.865;1;139;-110;-109.7;43.9;44.3;11;10.8;25.9;0.0;
26/02/2025 22:40:55;100;0;136.71;-4;-20.12;-6.10;562.0;13.60;75875;2835.408;-1758.863;1;139;-110;-111.3;43.9;44.3;13;13.1;25.9;0.0;
26/02/2025 22:41:15;100;0;137.98;-4;-20.38;-4.91;564.1;13.60;75874;2835.407;-1758.862;1;139;-110;-109.7;43.9;44.3;13;13.5;25.9;0.0;
26/02/2025 22:41:35;100;0;138.18;-4;-20.39;-4.83;566.1;13.60;75862;2835.406;-1758.861;1;139;-110;-111.3;43.9;44.2;13;13.5;25.9;0.0;
26/02/2025 22:41:55;100;0;136.91;-4;-20.22;-4.86;568.3;13.60;75870;2835.405;-1758.859;1;139;-110;-111.3;43.9;44.3;13;13.5;25.9;0.0;
26/02/2025 22:42:15;100;0;134.78;-4;-20.37;-4.87;570.4;13.50;75860;2835.404;-1758.857;1;139;-110;-111.3;43.9;44.3;11;10.8;25.9;0.0;
26/02/2025 22:42:35;100;0;138.44;-4;-20.22;-6.37;572.6;13.50;75857;2835.403;-1758.856;1;139;-110;-111.3;43.9;44.3;14;14.0;25.9;0.0;
26/02/2025 22:42:55;100;0;141.60;-4;-20.38;-4.49;574.7;13.50;75843;2835.401;-1758.854;1;139;-110;-109.7;43.9;44.3;14;14.0;25.9;0.0;
26/02/2025 22:43:15;100;0;143.26;-4;-20.39;-4.46;576.7;13.50;75833;2835.400;-1758.853;1;139;-110;-111.3;43.9;44.3;14;14.4;25.9;0.0;
26/02/2025 22:43:35;100;0;144.47;-4;-20.28;-4.53;578.8;13.40;75828;2835.399;-1758.852;1;139;-110;-111.3;43.9;44.3;14;14.4;25.9;0.0;
26/02/2025 22:43:55;100;0;144.64;-4;-20.19;-4.55;580.8;13.40;75827;2835.398;-1758.851;1;139;-110;-111.3;43.9;44.3;14;14.4;25.9;0.0;
26/02/2025 22:44:15;100;0;145.97;-4;-20.25;-4.51;582.7;13.40;75829;2835.397;-1758.850;1;139;-130;-130.6;43.9;44.3;14;14.4;25.9;0.0;
26/02/2025 22:44:35;100;0;148.17;-4;-19.83;-4.43;584.8;13.40;75863;2835.396;-1758.849;1;139;-130;-132.3;43.9;44.3;14;14.0;25.9;0.0;
26/02/2025 22:44:55;100;0;150.28;-4;-20.18;-4.48;587.0;13.30;75862;2835.394;-1758.848;1;139;-130;-135.5;43.9;44.2;14;14.0;25.9;0.0;
26/02/2025 22:45:15;100;0;152.35;-4;-20.49;-4.36;589.2;13.30;75860;2835.393;-1758.847;1;139;-130;-132.3;43.9;44.2;16;16.2;25.9;0.0;
26/02/2025 22:45:35;100;0;152.64;-4;-20.29;-3.27;591.5;13.30;75853;2835.391;-1758.846;1;139;-130;-132.3;43.9;44.3;16;16.2;25.9;0.0;
26/02/2025 22:45:55;100;0;153.87;-4;-20.42;-3.27;593.8;13.30;75851;2835.390;-1758.845;1;139;-130;-130.6;43.9;44.3;18;18.1;26.0;0.0;
26/02/2025 22:46:15;100;0;154.83;-4;-20.36;-2.17;596.0;13.30;75846;2835.388;-1758.844;1;139;-130;-132.3;43.9;44.3;18;18.5;25.9;0.0;
26/02/2025 22:46:35;100;0;154.29;-4;-20.03;-2.21;598.2;13.20;75826;2835.386;-1758.843;1;139;-130;-135.5;43.9;44.3;18;18.5;25.9;0.0;
26/02/2025 22:46:55;100;0;152.37;-4;-20.09;-2.24;600.3;13.20;75830;2835.385;-1758.842;1;139;-130;-132.3;43.9;44.3;16;15.8;25.9;0.0;
26/02/2025 22:47:15;100;0;154.92;-4;-20.02;-3.73;602.4;13.20;75815;2835.384;-1758.841;1;139;-130;-132.3;43.9;44.3;18;18.1;25.9;0.0;
26/02/2025 22:47:35;100;0;153.30;-4;-20.08;-2.38;604.5;13.10;75802;2835.382;-1758.841;1;139;-130;-132.3;43.9;44.3;18;18.1;25.9;0.0;
26/02/2025 22:47:55;100;0;150.28;-4;-20.31;-2.31;606.5;13.10;75806;2835.381;-1758.840;1;139;-130;-130.6;43.9;44.3;15;14.9;25.9;0.0;
26/02/2025 22:48:15;100;0;147.68;-4;-20.09;-4.12;608.7;13.10;75793;2835.380;-1758.839;1;139;-130;-132.3;43.9;44.3;15;14.9;25.9;0.0;
26/02/2025 22:48:36;100;0;145.49;-4;-20.24;-4.14;610.8;13.10;75789;2835.378;-1758.837;1;139;-130;-132.3;43.9;44.3;15;14.9;25.9;0.0;
26/02/2025 22:48:56;100;0;143.74;-4;-20.18;-4.14;612.7;13.00;75790;2835.377;-1758.836;1;139;-150;-151.6;43.9;44.3;15;14.9;25.9;0.0;
26/02/2025 22:49:16;100;0;143.02;-4;-20.12;-4.03;615.0;13.00;75817;2835.376;-1758.835;1;139;-150;-151.6;43.9;44.2;15;14.9;25.9;0.0;
26/02/2025 22:49:36;100;0;142.15;-4;-20.01;-4.04;617.2;13.00;75809;2835.375;-1758.833;1;139;-150;-150.0;43.9;44.2;15;14.9;25.9;0.0;
26/02/2025 22:49:56;100;0;140.72;-4;-20.11;-4.06;619.5;13.00;75805;2835.373;-1758.832;1;139;-150;-151.6;43.9;44.3;15;14.9;25.9;0.0;
26/02/2025 22:50:16;100;0;139.36;-4;-20.07;-4.06;621.8;13.00;75806;2835.372;-1758.830;1;139;-150;-151.6;43.9;44.3;15;14.9;25.9;0.0;
26/02/2025 22:50:36;100;0;136.91;-4;-19.79;-3.92;624.0;12.90;75796;2835.371;-1758.829;1;139;-150;-154.8;43.9;44.3;13;13.1;25.9;0.0;
26/02/2025 22:50:56;100;0;133.74;-4;-19.31;-5.05;626.2;12.90;75773;2835.370;-1758.827;1;139;-150;-154.8;43.9;44.2;11;10.8;25.9;0.0;
26/02/2025 22:51:16;100;0;135.32;-4;-19.65;-6.15;628.4;12.90;75795;2835.369;-1758.825;1;139;-150;-151.6;43.9;44.3;11;10.8;25.9;0.0;
26/02/2025 22:51:36;100;0;137.21;-4;-19.46;-6.10;630.7;12.80;75776;2835.368;-1758.823;1;139;-150;-151.6;43.9;44.2;14;14.4;25.9;0.0;
26/02/2025 22:51:56;100;0;137.96;-4;-19.71;-4.04;633.2;12.80;75763;2835.366;-1758.821;1;139;-150;-151.6;43.9;44.3;14;14.9;25.9;0.0;
26/02/2025 22:52:16;100;0;138.97;-4;-19.70;-4.10;635.6;12.80;75752;2835.365;-1758.820;1;139;-150;-151.6;43.9;44.3;14;14.9;25.9;0.0;
26/02/2025 22:52:36;100;0;140.57;-4;-19.64;-3.93;637.9;12.80;75749;2835.364;-1758.818;1;139;-150;-151.6;43.9;44.3;14;14.9;25.9;0.0;
26/02/2025 22:52:56;100;0;140.78;-4;-19.75;-4.02;640.4;12.70;75747;2835.362;-1758.816;1;139;-150;-151.6;43.9;44.2;14;14.9;25.9;0.0;
26/02/2025 22:53:16;100;0;141.33;-4;-19.60;-4.02;643.0;12.70;75750;2835.361;-1758.814;1;139;-150;-151.6;43.9;44.3;14;14.9;25.9;0.0;
26/02/2025 22:53:36;100;0;142.75;-4;-19.73;-4.06;645.4;12.70;75728;2835.359;-1758.813;1;139;-150;-151.6;43.9;44.3;14;14.9;25.9;0.0;
26/02/2025 22:53:56;100;0;143.98;-4;-19.51;-4.02;648.0;12.70;75730;2835.357;-1758.811;1;139;-150;-151.6;43.9;44.3;14;14.9;25.9;0.0;
26/02/2025 22:54:16;100;0;146.80;-4;-19.78;-4.00;650.5;12.70;75728;2835.356;-1758.810;1;139;-150;-151.6;43.9;44.3;14;14.9;25.9;0.0;
26/02/2025 22:54:36;100;0;147.20;-4;-20.17;-4.02;653.0;12.60;75727;2835.354;-1758.808;1;139;-150;-151.6;43.9;44.3;14;14.9;25.9;0.0;
26/02/2025 22:54:56;100;0;143.11;-4;-19.69;-4.00;655.6;12.60;75701;2835.352;-1758.807;1;139;-150;-151.6;43.9;44.3;14;14.4;25.9;0.0;
26/02/2025 22:55:16;100;0;139.95;-4;-19.68;-3.98;658.3;12.60;75699;2835.351;-1758.805;1;139;-150;-151.6;43.9;44.5;14;14.9;25.9;0.0;
26/02/2025 22:55:36;100;0;138.85;-4;-19.46;-4.07;660.6;12.60;75691;2835.349;-1758.803;1;139;-150;-151.6;43.9;44.2;14;14.9;25.9;0.0;
26/02/2025 22:55:56;100;0;137.72;-4;-19.54;-4.17;663.1;12.50;75679;2835.348;-1758.801;1;139;-150;-151.6;43.9;44.3;14;14.9;25.9;0.0;
26/02/2025 22:56:16;100;0;135.71;-4;-19.67;-3.98;665.7;12.50;75680;2835.347;-1758.799;1;139;-150;-151.6;43.9;44.3;14;14.9;25.9;0.0;
26/02/2025 22:56:36;100;0;132.34;-4;-19.33;-4.15;668.2;12.50;75671;2835.345;-1758.797;1;139;-150;-151.6;43.9;44.2;10;9.5;25.9;0.0;
26/02/2025 22:56:56;100;0;132.47;-4;-19.09;-6.81;670.7;12.40;75661;2835.344;-1758.794;1;139;-150;-151.6;43.9;44.3;10;9.5;25.9;0.0;
26/02/2025 22:57:16;100;0;133.66;-4;-19.03;-6.81;673.1;12.40;75662;2835.343;-1758.792;1;139;-150;-151.6;43.9;44.3;10;9.5;25.9;0.0;
26/02/2025 22:57:36;100;0;134.38;-4;-19.16;-6.80;675.7;12.40;75652;2835.342;-1758.790;1;139;-150;-151.6;43.9;44.2;12;12.2;25.9;0.0;
26/02/2025 22:57:56;100;0;134.40;-4;-19.15;-5.20;678.2;12.30;75649;2835.340;-1758.788;1;139;-150;-151.6;43.9;44.3;12;12.6;25.9;0.0;
26/02/2025 22:58:16;100;0;133.55;-4;-19.38;-5.23;680.9;12.30;75636;2835.339;-1758.785;1;139;-150;-151.6;43.9;44.3;12;12.6;25.9;0.0;
26/02/2025 22:58:36;100;0;131.91;-4;-19.33;-5.21;683.3;12.30;75643;2835.338;-1758.783;1;139;-150;-150.0;43.9;44.3;9;9.0;25.9;0.0;
26/02/2025 22:58:56;100;0;133.65;-4;-19.03;-7.13;685.8;12.30;75636;2835.336;-1758.781;1;139;-150;-151.6;43.9;44.2;11;10.8;25.9;0.0;
26/02/2025 22:59:16;100;0;130.75;-4;-19.16;-5.83;688.5;12.30;75631;2835.335;-1758.778;1;139;-150;-151.6;43.9;44.2;8;8.1;25.9;0.0;
26/02/2025 22:59:36;100;0;131.36;-4;-19.19;-7.37;690.9;12.20;75633;2835.334;-1758.776;1;139;-150;-154.8;43.9;44.3;8;8.1;25.9;0.0;
26/02/2025 22:59:56;100;0;131.77;-4;-18.95;-7.53;693.4;12.20;75621;2835.333;-1758.774;1;139;-150;-151.6;44.2;44.2;8;7.7;25.9;0.0;
26/02/2025 23:00:16;100;0;133.73;-4;-19.12;-7.41;696.0;12.20;75614;2835.331;-1758.772;1;139;-150;-151.6;44.2;44.2;11;10.8;25.9;0.0;
26/02/2025 23:00:36;100;0;135.78;-4;-19.40;-5.79;698.6;12.20;75606;2835.330;-1758.770;1;139;-150;-151.6;44.2;44.3;11;11.3;25.9;0.0;
26/02/2025 23:00:56;100;0;136.44;-4;-19.52;-5.81;701.2;12.10;75597;2835.328;-1758.767;1;139;-150;-153.2;44.2;44.3;13;13.1;25.9;0.0;
26/02/2025 23:01:16;100;0;136.37;-4;-19.48;-4.68;703.7;12.10;75604;2835.327;-1758.765;1;139;-150;-151.6;44.2;44.3;13;13.5;25.9;0.0;
26/02/2025 23:01:36;100;0;138.66;-4;-19.44;-4.62;706.3;12.10;75588;2835.325;-1758.763;1;139;-150;-151.6;44.2;44.3;13;13.5;25.9;0.0;
26/02/2025 23:01:56;100;0;141.34;-4;-19.18;-4.67;708.7;12.10;75588;2835.324;-1758.762;1;139;-150;-151.6;44.2;44.3;13;13.5;25.9;0.0;
26/02/2025 23:02:16;100;0;143.68;-4;-19.15;-4.63;711.2;12.10;75570;2835.322;-1758.760;1;139;-150;-151.6;44.2;44.3;13;13.5;25.9;0.0;
26/02/2025 23:02:36;100;0;146.06;-4;-19.03;-4.68;713.6;12.00;75574;2835.320;-1758.758;1;139;-150;-151.6;44.2;44.3;13;13.5;25.9;0.0;
26/02/2025 23:02:56;100;0;147.80;-4;-19.24;-4.71;716.0;12.00;75560;2835.319;-1758.757;1;139;-150;-151.6;44.2;44.3;13;13.5;25.9;0.0;
26/02/2025 23:03:16;100;0;150.32;-4;-19.27;-4.67;718.5;12.00;75569;2835.317;-1758.756;1;139;-150;-151.6;44.2;44.3;15;14.9;25.9;0.0;
26/02/2025 23:03:36;100;0;151.06;-4;-19.21;-3.90;720.8;11.90;75567;2835.315;-1758.755;1;139;-150;-151.6;44.2;44.3;15;15.3;25.9;0.0;
26/02/2025 23:03:56;100;0;151.45;-4;-19.28;-3.91;723.4;11.90;75557;2835.313;-1758.753;1;139;-150;-151.6;44.2;44.3;15;15.3;25.9;0.0;
26/02/2025 23:04:16;100;0;152.68;-4;-18.95;-3.85;725.8;11.90;75542;2835.311;-1758.752;1;139;-150;-151.6;44.5;44.6;15;15.3;25.9;0.0;
26/02/2025 23:04:36;100;0;152.81;-4;-20.10;-3.84;728.3;11.90;75543;2835.309;-1758.751;1;139;-150;-151.6;44.5;44.8;15;15.3;25.9;0.0;
26/02/2025 23:04:56;100;0;154.75;-4;-20.13;-3.79;730.7;11.80;75542;2835.308;-1758.750;1;139;-150;-151.6;44.5;44.8;18;18.1;25.9;0.0;
26/02/2025 23:05:16;100;0;155.60;-4;-20.20;-2.29;733.2;11.80;75534;2835.306;-1758.749;1;139;-150;-153.2;44.5;44.8;18;18.5;25.9;0.0;
26/02/2025 23:05:36;100;0;158.85;-4;-19.57;-2.06;735.9;11.80;75533;2835.303;-1758.748;1;139;-150;-151.6;44.5;44.8;23;23.0;25.9;0.0;
26/02/2025 23:05:56;100;0;155.30;-4;-20.74;0.21;738.4;11.80;75525;2835.302;-1758.747;1;139;-150;-151.6;44.5;44.8;19;19.0;25.9;0.0;
26/02/2025 23:06:16;100;0;159.53;-4;-19.98;-1.99;741.0;11.80;75523;2835.299;-1758.747;1;139;-150;-153.2;44.5;44.9;24;23.9;25.9;0.0;
26/02/2025 23:06:36;100;0;157.10;-4;-20.43;0.77;743.7;11.70;75522;2835.297;-1758.746;1;139;-150;-151.6;44.5;44.8;21;21.2;25.9;0.0;
26/02/2025 23:06:56;100;0;154.72;-4;-20.85;-1.06;746.2;11.70;75509;2835.295;-1758.745;1;139;-150;-151.6;44.5;44.8;18;18.1;25.9;0.0;
26/02/2025 23:07:16;100;0;153.42;-4;-20.25;-2.51;748.8;11.70;75503;2835.293;-1758.744;1;139;-150;-153.2;44.5;44.8;18;18.1;25.9;0.0;
26/02/2025 23:07:36;100;0;149.92;-4;-20.97;-2.44;751.4;11.70;75502;2835.292;-1758.742;1;139;-150;-151.6;44.5;44.8;15;14.9;25.9;0.0;
26/02/2025 23:07:56;100;0;149.14;-4;-20.89;-4.08;754.1;11.60;75500;2835.290;-1758.741;1;139;-150;-151.6;44.5;44.9;15;14.4;25.9;0.0;
26/02/2025 23:08:16;100;0;148.22;-4;-20.89;-4.41;756.7;11.60;75496;2835.288;-1758.739;1;139;-150;-151.6;44.5;44.9;15;14.4;25.9;0.0;
26/02/2025 23:08:36;100;0;147.65;-4;-20.86;-4.11;759.6;11.60;75494;2835.286;-1758.738;1;139;-150;-153.2;44.5;44.8;15;14.4;25.9;0.0;
26/02/2025 23:08:56;100;0;146.84;-4;-20.58;-4.17;762.3;11.60;75492;2835.284;-1758.736;1;139;-150;-151.6;44.5;44.8;15;14.4;26.0;0.0;
26/02/2025 23:09:16;100;0;147.78;-4;-20.23;-4.18;765.2;11.60;75488;2835.282;-1758.735;1;139;-150;-151.6;44.5;44.8;15;14.4;25.9;0.0;
26/02/2025 23:09:36;100;0;147.60;-4;-20.12;-4.16;767.7;11.50;75495;2835.280;-1758.733;1;139;-150;-153.2;44.5;44.8;15;14.9;25.9;0.0;
26/02/2025 23:09:56;100;0;148.04;-4;-20.23;-4.16;770.3;11.50;75495;2835.278;-1758.732;1;139;-150;-151.6;44.5;44.9;15;14.4;25.9;0.0;
26/02/2025 23:10:16;100;0;147.21;-4;-20.32;-4.23;773.0;11.50;75480;2835.277;-1758.730;1;139;-150;-151.6;44.5;44.8;15;14.4;25.9;0.0;
26/02/2025 23:10:36;100;0;147.99;-4;-20.29;-4.21;775.6;11.50;75480;2835.275;-1758.729;1;139;-150;-151.6;44.5;44.8;15;14.4;25.9;0.0;
26/02/2025 23:10:56;100;0;144.78;-4;-20.45;-4.22;778.4;11.50;75473;2835.273;-1758.727;1;139;-150;-151.6;44.5;44.8;15;14.4;25.9;0.0;
26/02/2025 23:11:16;100;0;143.26;-4;-20.57;-4.14;781.1;11.40;75475;2835.271;-1758.725;1;139;-150;-154.8;44.5;44.8;15;14.4;25.9;0.0;
26/02/2025 23:11:36;100;0;141.95;-4;-20.39;-4.19;784.0;11.40;75466;2835.269;-1758.723;1;139;-150;-151.6;44.5;44.8;15;14.9;25.9;0.0;
26/02/2025 23:11:56;100;0;140.75;-4;-20.39;-4.10;786.7;11.40;75453;2835.267;-1758.721;1;139;-150;-151.6;44.5;44.8;15;14.4;25.9;0.0;
26/02/2025 23:12:16;100;0;139.84;-4;-20.37;-4.20;789.7;11.40;75459;2835.265;-1758.719;1;139;-150;-153.2;44.5;44.8;15;14.4;25.9;0.0;
26/02/2025 23:12:36;100;0;138.10;-4;-20.32;-4.22;792.4;11.40;75457;2835.264;-1758.717;1;139;-150;-153.2;44.5;44.8;15;14.4;25.9;0.0;
26/02/2025 23:12:56;100;0;137.39;-4;-20.23;-4.20;795.4;11.30;75447;2835.262;-1758.714;1;139;-150;-151.6;44.5;44.8;15;14.4;25.9;0.0;
26/02/2025 23:13:16;100;0;136.82;-4;-20.36;-4.17;798.1;11.30;75451;2835.260;-1758.712;1;139;-150;-151.6;44.5;44.8;13;13.1;25.9;0.0;
26/02/2025 23:13:36;100;0;136.33;-4;-20.11;-4.92;801.1;11.30;75446;2835.259;-1758.710;1;139;-150;-151.6;44.5;44.8;13;13.1;25.9;0.0;
26/02/2025 23:13:56;100;0;136.50;-4;-20.25;-4.92;804.1;11.30;75448;2835.257;-1758.707;1;139;-150;-151.6;44.5;44.8;13;13.1;25.9;0.0;
26/02/2025 23:14:16;100;0;136.02;-4;-20.17;-4.77;806.9;11.20;75443;2835.255;-1758.705;1;139;-150;-153.2;44.5;44.8;13;13.1;25.9;0.0;
26/02/2025 23:14:36;100;0;135.58;-4;-19.86;-4.94;809.8;11.20;75435;2835.254;-1758.703;1;139;-150;-151.6;44.5;44.8;13;13.5;25.9;0.0;
26/02/2025 23:14:56;100;0;135.98;-4;-20.31;-4.84;812.7;11.20;75439;2835.252;-1758.700;1;139;-150;-151.6;44.5;44.8;13;13.5;25.9;0.0;
26/02/2025 23:15:16;100;0;133.40;-4;-20.40;-4.95;815.6;11.20;75432;2835.250;-1758.698;1;139;-150;-153.2;44.5;44.8;11;10.8;25.9;0.0;
26/02/2025 23:15:36;100;0;133.66;-4;-20.30;-5.95;818.5;11.20;75422;2835.249;-1758.695;1;139;-150;-151.6;44.5;44.8;11;10.8;25.9;0.0;
26/02/2025 23:15:56;100;0;134.80;-4;-20.08;-5.96;821.6;11.20;75425;2835.247;-1758.692;1;139;-150;-151.6;44.5;44.8;13;13.1;25.9;0.0;
26/02/2025 23:16:16;100;0;133.88;-4;-20.01;-4.72;824.5;11.10;75413;2835.245;-1758.690;1;139;-150;-151.6;44.5;44.8;13;13.5;25.9;0.0;
26/02/2025 23:16:36;100;0;130.12;-4;-20.16;-4.71;827.4;11.10;75408;2835.244;-1758.687;1;139;-150;-151.6;44.5;44.8;8;8.1;25.9;0.0;
26/02/2025 23:16:56;100;0;131.43;-4;-19.82;-7.53;830.4;11.10;75407;2835.242;-1758.685;1;139;-150;-151.6;44.5;44.9;10;9.9;25.9;0.0;
26/02/2025 23:17:16;100;0;133.11;-4;-19.82;-6.26;833.4;11.10;75407;2835.241;-1758.682;1;139;-150;-151.6;44.5;44.8;10;10.4;25.9;0.0;
26/02/2025 23:17:36;100;0;134.95;-4;-19.82;-6.28;836.3;11.00;75403;2835.239;-1758.679;1;139;-150;-150.0;44.5;44.8;12;12.2;25.9;0.0;
26/02/2025 23:17:56;100;0;136.90;-4;-19.97;-5.21;839.3;11.00;75400;2835.237;-1758.677;1;139;-150;-151.6;44.5;44.8;12;12.6;25.9;0.0;
26/02/2025 23:18:16;100;0;139.48;-4;-19.90;-5.23;842.4;11.00;75392;2835.235;-1758.675;1;139;-150;-153.2;44.5;44.8;14;14.0;25.9;0.0;
26/02/2025 23:18:36;100;0;140.14;-4;-20.11;-4.33;845.3;11.00;75397;2835.233;-1758.672;1;139;-150;-153.2;44.5;44.8;14;14.4;25.9;0.0;
26/02/2025 23:18:56;100;0;142.57;-4;-20.13;-4.28;848.3;11.00;75387;2835.231;-1758.670;1;139;-150;-153.2;44.5;44.9;14;14.4;25.9;0.0;
26/02/2025 23:19:16;100;0;146.30;-4;-20.08;-4.30;851.5;11.00;75375;2835.229;-1758.668;1;139;-150;-153.2;44.5;44.8;14;14.4;25.9;0.0;
26/02/2025 23:19:36;100;0;146.64;-4;-20.10;-4.27;854.5;10.90;75370;2835.227;-1758.666;1;139;-150;-151.6;44.5;44.8;14;14.4;25.9;0.0;
26/02/2025 23:19:56;100;0;146.51;-4;-20.23;-4.35;857.5;10.90;75358;2835.224;-1758.665;1;139;-150;-151.6;44.5;44.8;14;14.0;25.9;0.0;
26/02/2025 23:20:16;100;0;147.31;-4;-20.17;-4.27;860.6;10.90;75365;2835.222;-1758.663;1;139;-150;-151.6;44.5;44.9;14;14.4;25.9;0.0;
26/02/2025 23:20:36;100;0;148.25;-4;-20.12;-4.28;863.7;10.90;75355;2835.220;-1758.661;1;139;-150;-151.6;44.5;44.8;14;14.4;25.9;0.0;
26/02/2025 23:20:56;100;0;151.32;-4;-20.18;-4.34;866.7;10.90;75361;2835.217;-1758.659;1;139;-150;-153.2;44.5;44.8;16;15.8;25.9;0.0;
26/02/2025 23:21:16;100;0;150.91;-4;-20.24;-3.46;869.9;10.90;75356;2835.215;-1758.658;1;139;-150;-153.2;44.5;44.9;16;16.2;25.9;0.0;
26/02/2025 23:21:36;100;0;149.41;-4;-20.27;-3.51;873.0;10.80;75340;2835.212;-1758.656;1;139;-150;-153.2;44.5;44.8;16;16.2;25.9;0.0;
26/02/2025 23:21:56;100;0;147.93;-4;-20.32;-3.44;876.0;10.80;75349;2835.210;-1758.654;1;139;-150;-151.6;44.5;44.9;16;15.8;25.9;0.0;
26/02/2025 23:22:16;100;0;146.14;-4;-20.09;-3.48;879.1;10.80;75342;2835.208;-1758.652;1;139;-150;-151.6;44.5;44.8;14;14.0;25.9;0.0;
26/02/2025 23:22:36;100;0;144.45;-4;-19.94;-4.70;882.1;10.80;75341;2835.206;-1758.650;1;139;-150;-153.2;44.5;44.8;14;13.5;25.9;0.0;
26/02/2025 23:22:56;100;0;144.90;-4;-19.86;-4.68;885.1;10.70;75328;2835.203;-1758.648;1;139;-150;-153.2;44.5;44.8;14;13.5;25.9;0.0;
26/02/2025 23:23:16;100;0;146.54;-4;-19.82;-4.69;888.0;10.70;75334;2835.201;-1758.646;1;139;-150;-151.6;44.5;44.8;14;13.5;25.9;0.0;
26/02/2025 23:23:37;100;0;149.26;-4;-19.72;-4.65;891.1;10.70;75329;2835.199;-1758.645;1;139;-150;-153.2;44.5;44.8;14;13.5;25.9;0.0;
26/02/2025 23:23:57;100;0;151.00;-4;-19.82;-4.81;894.0;10.70;75327;2835.197;-1758.643;1;139;-150;-153.2;44.5;44.9;16;15.8;25.9;0.0;
26/02/2025 23:24:17;100;0;152.03;-4;-19.86;-3.40;897.0;10.70;75334;2835.194;-1758.642;1;139;-150;-151.6;44.5;44.8;16;16.2;25.9;0.0;
26/02/2025 23:24:37;100;0;152.63;-4;-19.89;-3.41;900.1;10.70;75324;2835.192;-1758.640;1;139;-150;-151.6;44.5;44.8;16;16.2;25.9;0.0;
26/02/2025 23:24:57;100;0;152.74;-4;-19.66;-3.40;903.0;10.70;75322;2835.189;-1758.639;1;139;-150;-151.6;44.5;44.8;16;16.2;25.9;0.0;
26/02/2025 23:25:17;100;0;153.76;-4;-19.82;-3.34;906.1;10.60;75318;2835.187;-1758.637;1;139;-150;-151.6;44.5;44.8;18;18.1;25.9;0.0;
26/02/2025 23:25:37;100;0;155.26;-4;-19.72;-2.39;909.1;10.60;75321;2835.184;-1758.636;1;139;-150;-153.2;44.5;44.9;20;19.9;25.9;0.0;
26/02/2025 23:25:57;100;0;154.44;-4;-20.18;-1.31;912.0;10.60;75308;2835.182;-1758.635;1;139;-150;-151.6;44.5;44.8;20;20.3;25.9;0.0;
26/02/2025 23:26:17;100;0;152.38;-4;-19.90;-1.34;914.9;10.60;75315;2835.180;-1758.633;1;139;-150;-151.6;44.5;44.8;17;17.1;25.9;0.0;
26/02/2025 23:26:37;100;0;151.63;-4;-20.12;-2.97;917.8;10.60;75310;2835.177;-1758.632;1;139;-150;-151.6;44.5;44.8;17;17.1;25.9;0.0;
26/02/2025 23:26:57;100;0;149.10;-4;-19.79;-3.00;920.7;10.50;75299;2835.175;-1758.630;1;139;-150;-151.6;44.5;44.8;15;14.9;25.9;0.0;
26/02/2025 23:27:17;100;0;147.28;-4;-19.65;-4.16;923.6;10.50;75309;2835.173;-1758.628;1;139;-150;-151.6;44.5;44.8;15;14.9;25.9;0.0;
26/02/2025 23:27:37;100;0;148.25;-4;-19.66;-4.22;926.5;10.50;75301;2835.171;-1758.627;1;139;-150;-151.6;44.5;44.9;15;14.4;25.9;0.0;
26/02/2025 23:27:57;100;0;149.60;-4;-19.61;-4.20;929.4;10.50;75286;2835.169;-1758.625;1;139;-150;-151.6;44.5;44.8;15;14.9;25.9;0.0;
26/02/2025 23:28:17;100;0;149.74;-4;-19.51;-4.24;932.1;10.50;75289;2835.167;-1758.624;1;139;-150;-151.6;44.5;44.8;15;14.4;25.9;0.0;
26/02/2025 23:28:37;100;0;150.14;-4;-19.73;-4.40;935.0;10.50;75293;2835.164;-1758.622;1;139;-150;-153.2;44.5;44.9;15;14.4;25.9;0.0;
26/02/2025 23:28:57;100;0;148.90;-4;-19.45;-4.25;937.8;10.40;75291;2835.162;-1758.620;1;139;-150;-151.6;44.5;44.8;15;14.9;25.9;0.0;
26/02/2025 23:29:17;100;0;150.67;-4;-19.28;-4.26;940.6;10.40;75286;2835.160;-1758.619;1;139;-150;-153.2;44.5;44.8;15;14.4;25.9;0.0;
26/02/2025 23:29:37;100;0;149.45;-4;-20.24;-4.36;943.5;10.40;75286;2835.158;-1758.617;1;139;-150;-150.0;44.5;44.8;15;14.4;25.9;0.0;
26/02/2025 23:29:57;100;0;150.93;-4;-18.92;-4.20;946.5;10.40;75275;2835.155;-1758.616;1;139;-150;-151.6;44.8;44.8;17;17.1;25.9;0.0;
26/02/2025 23:30:17;100;0;152.27;-4;-19.49;-2.75;949.2;10.40;75281;2835.153;-1758.614;1;139;-150;-151.6;44.8;44.8;17;17.6;25.9;0.0;
26/02/2025 23:30:37;100;0;150.83;-4;-19.84;-2.76;952.0;10.40;75270;2835.151;-1758.613;1;139;-150;-151.6;44.8;44.8;17;17.6;25.9;0.0;
26/02/2025 23:30:57;100;0;149.98;-4;-19.27;-2.78;954.6;10.40;75271;2835.149;-1758.611;1;139;-150;-153.2;44.8;44.8;17;17.6;25.9;0.0;
26/02/2025 23:31:17;100;0;148.75;-4;-19.49;-2.65;957.2;10.30;75267;2835.147;-1758.610;1;139;-150;-153.2;44.8;44.8;15;14.9;25.9;0.0;
26/02/2025 23:31:37;100;0;149.04;-4;-19.64;-4.18;959.7;10.30;75272;2835.145;-1758.609;1;139;-150;-154.8;44.8;44.8;15;14.9;25.9;0.0;
26/02/2025 23:31:57;100;0;148.35;-4;-19.50;-4.16;962.5;10.30;75258;2835.143;-1758.607;1;139;-150;-154.8;44.8;44.8;15;14.9;25.9;0.0;
26/02/2025 23:32:17;100;0;149.29;-4;-19.72;-4.22;965.1;10.30;75261;2835.141;-1758.606;1;139;-150;-151.6;44.8;44.6;15;14.9;25.9;0.0;
26/02/2025 23:32:37;100;0;149.66;-4;-19.56;-4.13;967.8;10.30;75261;2835.139;-1758.604;1;139;-150;-151.6;44.8;44.8;15;14.9;25.9;0.0;
26/02/2025 23:32:57;100;0;150.73;-4;-19.83;-4.11;970.4;10.20;75256;2835.137;-1758.603;1;139;-150;-151.6;44.8;44.8;15;14.9;25.9;0.0;
26/02/2025 23:33:17;100;0;147.72;-4;-19.80;-4.43;973.2;10.20;75253;2835.135;-1758.601;1;139;-150;-153.2;44.8;44.8;15;14.9;25.9;0.0;
26/02/2025 23:33:37;100;0;147.34;-4;-19.47;-4.22;976.1;10.20;75251;2835.133;-1758.599;1;139;-150;-151.6;44.8;44.8;15;14.4;25.9;0.0;
26/02/2025 23:33:57;100;0;145.23;-4;-19.99;-4.17;979.0;10.20;75257;2835.131;-1758.598;1;139;-150;-151.6;44.8;44.8;15;14.9;25.9;0.0;
26/02/2025 23:34:17;100;0;143.50;-4;-19.40;-4.05;981.9;10.20;75252;2835.129;-1758.595;1;139;-150;-151.6;44.8;44.8;15;14.9;25.9;0.0;
26/02/2025 23:34:37;100;0;142.60;-4;-19.16;-4.19;984.8;10.20;75247;2835.127;-1758.593;1;139;-150;-151.6;44.8;44.8;15;14.9;25.9;0.0;
26/02/2025 23:34:57;100;0;141.34;-4;-19.67;-4.18;987.5;10.10;75240;2835.125;-1758.591;1;139;-150;-151.6;44.8;44.8;15;14.9;25.9;0.0;
26/02/2025 23:35:17;100;0;142.91;-4;-19.40;-4.17;990.3;10.20;75240;2835.123;-1758.589;1;139;-150;-153.2;44.8;44.8;15;14.9;25.9;0.0;
26/02/2025 23:35:37;100;0;147.61;-4;-19.21;-4.17;993.3;10.10;75240;2835.121;-1758.588;1;139;-150;-151.6;44.8;44.8;15;14.9;25.9;0.0;
26/02/2025 23:35:57;100;0;149.59;-4;-19.51;-4.24;996.1;10.10;75227;2835.119;-1758.586;1;139;-150;-153.2;44.8;44.8;15;14.9;25.9;0.0;
26/02/2025 23:36:17;100;0;149.88;-4;-19.25;-4.18;998.9;10.10;75219;2835.116;-1758.585;1;139;-150;-151.6;44.8;44.8;15;14.9;25.9;0.0;
26/02/2025 23:36:20;118;0;150.02;-4;-19.30;-4.20;999.3;10.10;75214;2835.116;-1758.584;1;139;450;-148.4;21.6;21.6;7;6.8;25.9;0.0;
26/02/2025 23:36:30;118;0;116.83;-4;-5.23;-8.95;1000.4;10.10;75208;2835.116;-1758.583;1;139;450;-21.0;21.6;21.4;7;6.8;24.6;-1.0;
26/02/2025 23:36:40;118;0;99.01;-4;21.83;-8.89;1000.6;10.10;74937;2835.116;-1758.583;1;139;450;103.2;21.6;21.6;7;6.8;24.4;-1.0;
26/02/2025 23:36:50;118;0;95.36;-4;31.13;-9.41;999.8;10.10;74683;2835.117;-1758.583;1;139;450;227.4;21.6;21.6;7;6.8;24.4;-1.0;
26/02/2025 23:37:00;118;0;95.02;-4;29.82;-9.07;998.9;10.10;74428;2835.117;-1758.582;1;139;450;350.0;21.6;21.8;7;7.2;24.4;-1.0;
26/02/2025 23:37:10;118;0;95.48;-4;27.66;-8.58;997.5;10.10;74192;2835.117;-1758.581;1;139;450;451.6;21.6;21.6;7;7.2;24.5;-1.0;
26/02/2025 23:37:20;118;0;147.96;-4;24.91;-7.23;995.8;10.10;73984;2835.116;-1758.580;1;139;450;451.6;21.6;21.6;7;7.2;25.9;-1.0;
26/02/2025 23:37:30;118;0;144.74;-4;22.98;-7.94;994.1;10.10;73978;2835.115;-1758.579;1;139;450;453.2;21.6;21.6;7;7.2;25.9;-1.0;
26/02/2025 23:37:50;117;0;135.66;-4;20.60;-7.60;990.9;10.20;73996;2835.113;-1758.576;1;139;450;450.0;21.6;21.6;7;6.8;25.9;-1.0;
26/02/2025 23:38:10;117;0;126.17;-4;20.09;-7.73;987.7;10.20;73980;2835.112;-1758.573;1;139;450;453.2;21.6;21.6;41;41.1;25.9;-1.0;
26/02/2025 23:38:30;117;0;129.37;-4;21.79;10.07;984.5;10.30;73989;2835.111;-1758.570;1;139;450;453.2;21.6;21.6;36;35.6;25.9;-1.0;
26/02/2025 23:38:50;117;0;131.80;-4;22.48;7.14;981.3;10.30;73991;2835.109;-1758.568;1;139;450;453.2;22.3;22.4;34;33.8;25.9;-1.0;
26/02/2025 23:39:10;117;0;134.59;-4;22.02;6.02;977.9;10.30;73974;2835.107;-1758.565;1;139;450;451.6;23.0;23.0;31;31.1;25.9;-1.0;
26/02/2025 23:39:30;117;0;135.49;-4;20.94;4.47;974.8;10.30;73980;2835.106;-1758.562;1;139;450;451.6;23.0;22.8;31;30.7;25.9;-1.0;
26/02/2025 23:39:50;117;0;137.27;-4;20.57;4.43;971.8;10.30;73980;2835.104;-1758.560;1;139;450;451.6;23.0;23.0;31;30.7;25.9;-1.0;
26/02/2025 23:40:10;117;0;140.15;-4;20.08;4.32;968.6;10.30;73978;2835.102;-1758.558;1;139;450;453.2;23.0;22.8;31;31.1;25.9;-1.0;
26/02/2025 23:40:30;117;0;142.63;-4;20.13;4.47;965.8;10.20;73977;2835.100;-1758.556;1;139;450;451.6;23.0;23.0;31;30.7;25.9;-1.0;
26/02/2025 23:40:50;117;0;144.07;-4;20.15;4.42;962.7;10.20;73963;2835.098;-1758.553;1;139;450;451.6;23.0;23.0;31;30.7;25.9;-1.0;
26/02/2025 23:41:10;117;0;144.71;-4;20.19;4.48;959.8;10.20;73975;2835.096;-1758.552;1;139;450;451.6;23.0;23.0;31;30.7;25.9;-1.0;
26/02/2025 23:41:30;117;0;145.17;-4;20.23;4.53;956.9;10.20;73964;2835.093;-1758.550;1;139;450;451.6;23.0;23.0;31;30.7;25.9;-1.0;
26/02/2025 23:41:50;117;0;145.43;-4;20.04;4.28;954.0;10.20;73971;2835.091;-1758.548;1;139;450;451.6;23.0;23.0;29;28.9;25.9;-1.0;
26/02/2025 23:42:10;117;0;145.11;-4;19.83;3.33;951.1;10.20;73963;2835.089;-1758.546;1;139;450;451.6;23.0;23.0;29;28.4;25.9;-1.0;
26/02/2025 23:42:30;117;0;145.20;-4;19.55;3.23;948.3;10.20;73963;2835.087;-1758.544;1;139;450;453.2;23.0;22.8;29;28.4;25.9;-1.0;
26/02/2025 23:42:50;117;0;146.09;-4;19.69;3.24;945.4;10.20;73966;2835.085;-1758.542;1;139;450;450.0;23.0;23.0;29;28.4;25.9;-1.0;
26/02/2025 23:43:10;117;0;146.67;-4;19.79;3.31;942.8;10.10;73952;2835.083;-1758.541;1;139;450;453.2;23.0;23.0;29;28.9;25.9;-1.0;
26/02/2025 23:43:30;117;0;147.48;-4;19.64;3.30;940.0;10.10;73959;2835.081;-1758.539;1;139;450;451.6;23.0;23.0;29;28.4;25.9;-1.0;
26/02/2025 23:43:50;117;0;147.64;-4;19.76;3.29;937.5;10.10;73948;2835.080;-1758.538;1;139;450;451.6;23.0;23.0;29;28.9;25.9;-1.0;
26/02/2025 23:44:10;117;0;148.79;-4;19.72;3.26;934.7;10.10;73954;2835.078;-1758.536;1;139;450;453.2;23.0;23.0;29;28.4;25.9;-1.0;
26/02/2025 23:44:30;117;0;149.54;-4;19.77;3.35;932.1;10.10;73940;2835.076;-1758.535;1;139;450;453.2;23.0;23.0;29;28.4;25.9;-1.0;
26/02/2025 23:44:50;117;0;149.46;-4;19.70;3.21;929.6;10.10;73946;2835.074;-1758.534;1;139;450;451.6;23.0;23.0;29;28.9;25.9;-1.0;
26/02/2025 23:45:10;117;0;148.99;-4;19.73;3.19;927.1;10.10;73947;2835.072;-1758.532;1;139;450;451.6;23.0;22.8;29;28.4;25.9;-1.0;
26/02/2025 23:45:30;117;0;147.99;-4;19.97;3.30;924.5;10.10;73947;2835.070;-1758.531;1;139;450;453.2;23.0;23.0;29;28.9;25.9;-1.0;
26/02/2025 23:45:50;117;0;146.95;-4;19.74;3.31;921.9;10.10;73945;2835.069;-1758.529;1;139;450;451.6;23.0;23.0;29;28.4;25.9;-1.0;
26/02/2025 23:46:10;117;0;147.25;-4;19.84;3.34;919.2;10.00;73940;2835.067;-1758.528;1;139;450;453.2;23.0;23.0;29;28.9;25.9;-1.0;
26/02/2025 23:46:30;117;0;146.79;-4;19.51;3.31;916.6;10.00;73943;2835.065;-1758.526;1;139;450;451.6;23.0;23.0;29;28.9;25.9;-1.0;
26/02/2025 23:46:50;117;0;146.82;-4;19.67;3.33;914.0;10.00;73933;2835.063;-1758.525;1;139;450;451.6;23.0;23.0;29;28.4;25.9;-1.0;
26/02/2025 23:47:10;117;0;147.22;-4;19.65;3.29;911.2;10.00;73941;2835.061;-1758.523;1;139;450;453.2;23.0;23.0;29;28.4;25.9;-1.0;
26/02/2025 23:47:30;117;0;147.78;-4;19.62;3.32;908.7;10.00;73937;2835.059;-1758.522;1;139;450;451.6;23.0;23.0;29;28.4;25.9;-1.0;
26/02/2025 23:47:50;117;0;148.16;-4;19.88;3.21;906.0;10.00;73923;2835.057;-1758.520;1;139;450;453.2;23.0;23.0;29;28.9;25.9;-1.0;
26/02/2025 23:48:10;117;0;148.03;-4;20.01;3.35;903.4;10.00;73921;2835.055;-1758.519;1;139;450;453.2;23.0;23.0;29;28.4;25.9;-1.0;
26/02/2025 23:48:30;117;0;148.14;-4;19.49;3.37;900.7;10.00;73924;2835.053;-1758.517;1;139;450;453.2;23.0;23.0;29;28.9;25.9;-1.0;
26/02/2025 23:48:50;117;0;149.42;-4;19.75;3.16;897.9;10.00;73933;2835.051;-1758.515;1;139;450;453.2;23.0;23.0;29;28.4;25.9;-1.0;
26/02/2025 23:49:10;117;0;148.97;-4;19.84;3.35;895.0;10.00;73919;2835.049;-1758.514;1;139;450;453.2;23.0;23.0;29;28.9;25.9;-1.0;
26/02/2025 23:49:30;117;0;148.00;-4;19.67;3.34;892.3;9.90;73926;2835.047;-1758.512;1;139;450;453.2;23.0;23.0;29;28.9;25.9;-1.0;
26/02/2025 23:49:50;117;0;147.39;-4;19.64;3.36;889.5;9.90;73917;2835.045;-1758.511;1;139;450;451.6;23.0;22.8;29;28.4;25.9;-1.0;
26/02/2025 23:50:10;117;0;147.65;-4;19.77;3.36;886.7;9.90;73926;2835.043;-1758.509;1;139;450;453.2;23.0;23.0;29;28.4;25.9;-1.0;
26/02/2025 23:50:30;117;0;146.96;-4;19.73;3.31;883.8;9.90;73919;2835.041;-1758.507;1;139;450;453.2;23.0;23.0;29;28.4;25.9;-1.0;
26/02/2025 23:50:50;117;0;146.51;-4;19.79;3.23;881.0;9.90;73916;2835.039;-1758.505;1;139;450;454.8;23.0;23.0;29;28.9;25.9;-1.0;
26/02/2025 23:51:10;117;0;146.22;-4;19.73;3.36;878.0;9.90;73917;2835.037;-1758.504;1;139;450;453.2;23.0;23.0;29;28.4;25.9;-1.0;
26/02/2025 23:51:30;117;0;145.66;-4;19.89;3.30;875.1;9.90;73911;2835.035;-1758.502;1;139;450;453.2;23.0;23.0;29;28.4;25.9;-1.0;
26/02/2025 23:51:50;117;0;144.60;-4;19.73;3.33;872.2;9.90;73922;2835.033;-1758.500;1;139;450;453.2;23.0;23.0;29;28.9;25.9;-1.0;
26/02/2025 23:52:10;117;0;144.81;-4;19.83;3.23;869.1;9.90;73899;2835.030;-1758.498;1;139;450;453.2;23.0;23.0;29;28.4;25.9;-1.0;
26/02/2025 23:52:30;117;0;144.81;-4;19.80;3.35;866.1;9.90;73910;2835.028;-1758.496;1;139;450;453.2;23.0;23.0;29;28.9;25.9;-1.0;
26/02/2025 23:52:50;117;0;144.28;-4;19.90;3.30;862.9;9.90;73908;2835.026;-1758.494;1;139;450;453.2;23.0;23.0;29;28.4;25.9;-1.0;
26/02/2025 23:53:10;117;0;144.31;-4;19.70;3.32;859.8;9.90;73902;2835.024;-1758.492;1;139;450;450.0;23.0;23.0;29;28.9;25.9;-1.0;
26/02/2025 23:53:30;117;0;144.43;-4;19.97;3.38;856.7;9.90;73900;2835.021;-1758.489;1;139;450;453.2;23.0;23.0;29;28.4;25.9;-1.0;
26/02/2025 23:53:50;117;0;142.95;-4;19.24;3.59;853.6;9.90;73908;2835.019;-1758.487;1;139;450;451.6;23.0;23.0;29;28.4;25.9;-1.0;
