Timestamp;NavState;SecurityLevel;Heading;Declination;Pitch;Roll;Depth;Temperature;Pa;Lat;Lon;DeadReckoning;DesiredH;BallastCmd;BallastPos;LinCmd;LinPos;AngCmd;AngPos;Voltage;Altitude;
19/02/2025 04:23:56;119;0;329.51;-4;-64.82;-10.73;0.0;19.30;76254;2837.320;-1758.408;0;172;500;509.7;100.0;100.7;0;-0.5;27.8;-1.0;
19/02/2025 04:24:06;116;0;0.36;-4;-44.49;-18.36;0.0;19.40;76256;2837.319;-1758.405;0;172;500;509.7;100.0;100.7;0;-0.5;27.8;-1.0;
19/02/2025 04:24:31;116;0;49.04;-4;-49.81;-18.75;0.2;19.40;76287;2837.319;-1758.406;0;172;500;509.7;100.0;100.9;0;0.0;27.8;-1.0;
19/02/2025 04:24:49;116;0;22.33;-4;-50.93;-7.68;0.2;19.40;76264;2837.320;-1758.405;0;172;500;509.7;100.0;100.7;0;-0.5;27.8;-1.0;
19/02/2025 04:25:06;116;0;25.63;-4;-58.01;-6.15;0.0;19.50;76266;2837.321;-1758.406;0;172;500;506.5;100.0;100.7;0;-0.5;27.8;-1.0;
19/02/2025 04:25:26;116;0;51.75;-4;-57.81;-21.23;0.0;19.50;76276;2837.321;-1758.405;0;172;500;509.7;100.0;100.7;0;-0.5;27.8;-1.0;
19/02/2025 04:26:07;116;0;40.77;-4;-48.43;-11.38;-0.0;19.50;76289;2837.324;-1758.406;0;172;500;509.7;100.0;100.6;0;-0.5;27.8;-1.0;
19/02/2025 04:26:57;116;0;42.19;-4;-50.79;-23.02;0.0;19.70;76303;2837.324;-1758.405;0;172;500;509.7;100.0;100.7;0;-0.5;27.8;-1.0;
19/02/2025 04:27:08;116;0;41.05;-4;-59.00;-14.02;0.1;19.70;76308;2837.325;-1758.406;0;172;500;509.7;100.0;100.7;0;-0.5;27.8;-1.0;
19/02/2025 04:27:28;110;0;36.86;-4;-49.34;-13.63;-0.1;19.70;76299;2837.325;-1758.406;0;172;-50;393.5;100.0;99.9;-11;-10.8;27.8;-1.0;
19/02/2025 04:27:38;110;0;36.05;-4;-50.23;-20.90;0.3;19.70;76651;2837.325;-1758.406;1;172;-50;240.3;100.0;99.9;-11;-10.8;27.7;-1.0;
19/02/2025 04:27:48;110;0;38.67;-4;-66.46;-24.17;0.5;19.80;76910;2837.326;-1758.406;1;172;-50;80.6;100.0;99.9;-11;-10.8;27.8;-1.0;
19/02/2025 04:27:58;110;0;27.36;-4;-62.84;-1.83;0.8;19.80;77235;2837.327;-1758.407;1;172;-50;-51.6;100.0;99.9;-11;-10.8;27.7;-1.0;
19/02/2025 04:28:08;110;0;26.48;-4;-60.66;-13.05;1.2;19.80;77493;2837.327;-1758.407;1;172;-50;-51.6;47.4;47.3;-11;-10.8;27.8;-1.0;
19/02/2025 04:28:28;100;0;35.32;-4;-34.61;-17.26;4.6;19.90;77486;2837.331;-1758.406;1;172;-50;-48.4;47.4;47.1;-11;-10.8;27.8;-1.0;
19/02/2025 04:28:48;100;0;41.74;-4;-27.70;-17.50;9.0;19.90;77484;2837.335;-1758.404;1;173;-50;-45.2;48.1;48.3;-70;-69.9;27.8;-1.0;
19/02/2025 04:29:08;100;0;46.23;-4;-31.58;-44.21;12.3;20.00;77491;2837.338;-1758.403;1;173;-50;-43.5;48.1;48.3;-70;-69.9;27.8;-1.0;
19/02/2025 04:29:28;100;0;58.99;-4;-32.74;-44.37;16.1;20.00;77487;2837.341;-1758.400;1;174;-50;-43.5;47.3;47.3;-70;-69.9;27.8;0.0;
19/02/2025 04:29:48;100;0;67.61;-4;-30.15;-44.32;20.1;20.10;77510;2837.343;-1758.398;1;174;-50;-43.5;47.3;47.0;-70;-69.9;27.8;0.0;
19/02/2025 04:30:08;100;0;79.06;-4;-28.20;-44.77;24.2;20.10;77499;2837.345;-1758.394;1;175;-50;-43.5;47.8;48.0;-70;-69.9;27.8;0.0;
19/02/2025 04:30:28;100;0;91.51;-4;-29.44;-44.72;28.2;20.10;77504;2837.346;-1758.391;1;176;-50;-43.5;47.8;48.3;-70;-69.9;27.8;0.0;
19/02/2025 04:30:48;100;0;101.23;-4;-30.24;-45.18;32.2;20.10;77510;2837.346;-1758.388;1;176;-50;-45.2;47.8;48.3;-66;-65.9;27.8;0.0;
19/02/2025 04:31:08;100;0;113.68;-4;-29.36;-42.42;36.2;20.10;77510;2837.346;-1758.385;1;177;-50;-43.5;47.8;48.3;-53;-52.8;27.8;0.0;
19/02/2025 04:31:28;100;0;124.24;-4;-28.93;-36.04;40.1;20.10;77517;2837.345;-1758.382;1;177;-50;-41.9;48.1;48.3;-38;-37.9;27.8;0.0;
19/02/2025 04:31:48;100;0;129.24;-4;-30.39;-29.00;43.9;20.10;77520;2837.344;-1758.380;1;178;-50;-43.5;48.1;48.3;-32;-32.0;27.8;0.0;
19/02/2025 04:32:08;100;0;141.47;-4;-29.18;-26.11;47.8;20.10;77533;2837.342;-1758.378;1;178;-50;-43.5;48.1;48.3;-15;-14.9;27.8;0.0;
19/02/2025 04:32:28;100;0;149.05;-4;-29.56;-17.88;51.8;20.20;77541;2837.340;-1758.377;1;178;-50;-43.5;48.1;48.3;-2;-1.8;27.8;0.0;
19/02/2025 04:32:48;100;0;154.04;-4;-29.79;-11.67;55.9;20.10;77530;2837.338;-1758.376;1;178;-50;-45.2;48.1;48.5;5;5.0;27.8;0.0;
19/02/2025 04:33:08;100;0;156.76;-4;-29.68;-8.51;60.1;20.10;77527;2837.336;-1758.375;1;178;-50;-45.2;48.1;48.5;8;8.1;27.8;0.0;
19/02/2025 04:33:28;100;0;156.43;-4;-30.32;-7.05;64.0;20.20;77535;2837.334;-1758.374;1;179;-50;-45.2;48.1;48.5;8;8.6;27.8;0.0;
19/02/2025 04:33:48;100;0;156.53;-4;-30.85;-7.23;68.2;20.20;77529;2837.332;-1758.374;1;179;-50;-45.2;48.1;48.5;8;8.6;27.8;0.0;
19/02/2025 04:34:08;100;0;157.00;-4;-30.54;-6.92;72.3;20.10;77523;2837.330;-1758.373;1;179;-50;-43.5;48.1;48.5;8;8.6;27.8;0.0;
19/02/2025 04:34:28;100;0;161.95;-4;-30.43;-7.07;76.6;20.10;77517;2837.327;-1758.372;1;179;-50;-43.5;48.1;48.3;10;9.9;27.8;0.0;
19/02/2025 04:34:48;100;0;163.60;-4;-30.73;-6.22;80.9;20.10;77517;2837.325;-1758.372;1;179;-50;-43.5;48.1;48.5;10;10.4;27.8;0.0;
19/02/2025 04:35:08;100;0;165.00;-4;-31.75;-6.17;85.3;20.10;77527;2837.322;-1758.372;1;179;-50;-43.5;48.1;48.5;10;9.9;27.8;0.0;
19/02/2025 04:35:28;100;0;157.89;-4;-31.05;-6.13;89.8;20.10;77505;2837.320;-1758.371;1;179;-50;-43.5;48.1;48.5;8;7.7;27.8;0.0;
19/02/2025 04:35:48;100;0;153.76;-4;-30.53;-7.73;94.1;20.10;77485;2837.318;-1758.370;1;179;-50;-45.2;48.1;48.5;3;2.7;27.8;0.0;
19/02/2025 04:36:08;100;0;158.98;-4;-30.13;-10.20;98.2;20.10;77469;2837.315;-1758.369;1;180;-50;-43.5;48.1;48.5;8;8.1;27.8;0.0;
19/02/2025 04:36:28;100;0;158.75;-4;-30.83;-7.20;102.3;20.10;77461;2837.313;-1758.369;1;180;-50;-43.5;48.1;48.5;8;8.6;27.8;0.0;
19/02/2025 04:36:48;100;0;160.66;-4;-30.23;-7.24;106.5;20.10;77430;2837.311;-1758.368;1;180;-50;-43.5;48.1;48.5;8;8.6;27.8;0.0;
19/02/2025 04:37:08;100;0;162.06;-4;-30.46;-7.15;110.5;20.00;77414;2837.309;-1758.368;1;180;-50;-43.5;48.1;48.5;10;9.9;27.8;0.0;
19/02/2025 04:37:28;100;0;161.67;-4;-29.93;-6.18;114.5;20.00;77412;2837.306;-1758.367;1;180;-50;-43.5;48.1;48.6;10;10.4;27.8;0.0;
19/02/2025 04:37:48;100;0;159.23;-4;-29.38;-6.33;118.3;20.00;77398;2837.304;-1758.366;1;180;-50;-43.5;48.1;48.5;10;10.4;27.8;0.0;
19/02/2025 04:38:08;100;0;161.81;-4;-29.55;-6.17;121.8;20.00;77390;2837.302;-1758.366;1;180;-50;-45.2;48.1;48.5;10;10.4;27.8;0.0;
19/02/2025 04:38:28;100;0;168.52;-4;-29.63;-6.20;125.4;20.00;77378;2837.300;-1758.366;1;180;-50;-43.5;48.1;48.5;10;10.4;27.8;0.0;
19/02/2025 04:38:48;100;0;173.41;-4;-29.99;-6.26;128.8;19.90;77356;2837.299;-1758.367;1;180;-50;-43.5;48.1;48.5;12;12.2;27.8;0.0;
19/02/2025 04:39:08;100;0;169.57;-4;-30.46;-5.19;132.6;19.90;77343;2837.296;-1758.367;1;180;-50;-43.5;48.1;48.5;12;12.6;27.8;0.0;
19/02/2025 04:39:28;100;0;164.40;-4;-30.48;-5.12;136.4;19.90;77319;2837.294;-1758.367;1;180;-50;-43.5;48.1;48.5;12;12.6;27.8;0.0;
19/02/2025 04:39:48;100;0;159.37;-4;-29.87;-5.14;140.1;19.90;77315;2837.292;-1758.366;1;180;-50;-43.5;48.1;48.5;9;9.0;27.8;0.0;
19/02/2025 04:40:08;100;0;150.06;-4;-27.10;-7.53;143.5;19.80;77306;2837.290;-1758.365;1;180;-50;-45.2;49.0;49.3;-3;-3.6;27.8;0.0;
19/02/2025 04:40:28;100;0;157.60;-4;-29.48;-13.37;146.6;19.80;77267;2837.289;-1758.365;1;181;-50;-46.8;49.0;49.3;9;9.0;27.8;0.0;
19/02/2025 04:40:48;100;0;161.51;-4;-30.54;-6.57;149.9;19.80;77259;2837.287;-1758.364;1;181;-50;-43.5;49.0;49.3;9;9.5;27.8;0.0;
19/02/2025 04:41:08;100;0;168.89;-4;-30.64;-6.71;153.4;19.70;77238;2837.286;-1758.365;1;181;-50;-43.5;49.0;49.3;11;10.8;27.8;0.0;
19/02/2025 04:41:28;100;0;170.52;-4;-31.46;-5.89;157.2;19.70;77228;2837.284;-1758.365;1;181;-50;-43.5;49.0;49.3;11;11.3;27.8;0.0;
19/02/2025 04:41:48;100;0;165.89;-4;-31.64;-5.80;161.2;19.60;77218;2837.281;-1758.365;1;181;-50;-45.2;49.0;49.3;11;11.3;27.8;0.0;
19/02/2025 04:42:08;100;0;167.58;-4;-31.02;-5.84;165.2;19.60;77188;2837.279;-1758.365;1;181;-50;-45.2;49.0;49.3;11;11.3;27.8;0.0;
19/02/2025 04:42:28;100;0;163.03;-4;-30.79;-6.08;169.3;19.60;77190;2837.277;-1758.364;1;181;-50;-45.2;49.0;49.3;11;11.3;27.8;0.0;
19/02/2025 04:42:48;100;0;153.96;-4;-30.83;-6.00;173.3;19.50;77175;2837.275;-1758.364;1;181;-50;-43.5;49.0;49.3;3;2.7;27.7;0.0;
19/02/2025 04:43:08;100;0;148.39;-4;-30.61;-10.10;177.2;19.50;77168;2837.273;-1758.362;1;181;-50;-43.5;49.0;49.3;-6;-5.9;27.8;0.0;
19/02/2025 04:43:28;100;0;152.49;-4;-31.11;-14.43;181.4;19.50;77153;2837.271;-1758.361;1;181;-50;-45.2;49.0;49.5;-1;-0.9;27.8;0.0;
19/02/2025 04:43:48;100;0;161.72;-4;-30.71;-11.76;185.7;19.40;77132;2837.269;-1758.361;1;182;-50;-43.5;49.0;49.3;9;9.0;27.8;0.0;
19/02/2025 04:44:09;100;0;167.61;-4;-31.33;-6.78;190.0;19.40;77131;2837.266;-1758.361;1;182;-50;-43.5;49.0;49.3;9;9.5;27.8;0.0;
19/02/2025 04:44:29;100;0;164.93;-4;-31.67;-6.78;194.4;19.30;77106;2837.264;-1758.360;1;182;-50;-43.5;49.0;49.3;9;9.5;27.8;0.0;
19/02/2025 04:44:49;100;0;171.22;-4;-30.40;-6.59;198.8;19.30;77077;2837.261;-1758.361;1;182;-50;-43.5;49.0;49.3;9;9.5;27.8;0.0;
19/02/2025 04:44:51;118;0;172.65;-4;-29.93;-6.35;199.4;19.30;77072;2837.261;-1758.361;1;182;150;-38.7;22.1;21.9;11;11.3;27.8;0.0;
19/02/2025 04:45:01;118;0;149.45;-4;-16.94;-6.40;200.9;19.30;77049;2837.260;-1758.360;1;182;150;90.3;22.1;21.6;11;11.7;27.3;-1.0;
19/02/2025 04:45:11;118;0;145.51;-4;10.40;-6.38;201.5;19.20;76767;2837.259;-1758.360;1;182;150;153.2;22.1;22.1;11;11.7;27.4;-1.0;
19/02/2025 04:45:21;118;0;173.31;-4;22.75;-6.79;201.0;19.20;76652;2837.259;-1758.360;1;182;150;153.2;22.1;22.2;11;11.3;27.8;-1.0;
19/02/2025 04:45:41;117;0;170.98;-4;28.21;-6.70;199.4;19.20;76651;2837.259;-1758.360;1;182;150;156.5;22.1;22.2;11;11.3;27.8;-1.0;
19/02/2025 04:46:01;117;0;163.60;-4;29.42;-6.58;197.7;19.10;76650;2837.259;-1758.361;1;182;150;154.8;22.1;22.2;24;24.4;27.8;-1.0;
19/02/2025 04:46:21;117;0;155.97;-4;30.32;0.57;196.4;19.10;76632;2837.259;-1758.361;1;182;150;154.8;22.1;22.2;26;26.2;27.8;-1.0;
19/02/2025 04:46:41;117;0;152.02;-4;29.67;1.46;195.0;19.00;76630;2837.259;-1758.361;1;182;150;154.8;22.1;22.2;31;31.1;27.8;-1.0;
19/02/2025 04:47:01;117;0;154.85;-4;29.83;3.92;193.7;19.00;76624;2837.259;-1758.362;1;181;150;154.8;22.1;22.2;24;23.9;27.8;-1.0;
19/02/2025 04:47:21;117;0;150.34;-4;29.76;-0.21;192.4;18.90;76622;2837.259;-1758.362;1;181;150;154.8;22.1;22.2;28;28.0;27.8;-1.0;
19/02/2025 04:47:41;117;0;148.14;-4;29.96;2.43;191.1;18.90;76624;2837.259;-1758.362;1;181;150;154.8;22.1;22.2;31;31.1;27.8;-1.0;
19/02/2025 04:48:01;117;0;147.85;-4;30.37;3.98;189.9;18.90;76625;2837.259;-1758.362;1;181;150;154.8;22.1;22.2;29;28.9;27.8;-1.0;
19/02/2025 04:48:21;117;0;142.92;-4;30.09;2.58;188.7;18.80;76624;2837.259;-1758.362;1;181;150;154.8;22.1;22.2;32;32.0;27.8;-1.0;
19/02/2025 04:48:41;117;0;139.64;-4;30.33;4.58;187.5;18.80;76628;2837.260;-1758.362;1;181;150;154.8;22.1;22.2;32;32.0;27.8;-1.0;
19/02/2025 04:49:02;117;0;135.69;-4;30.20;4.55;186.2;18.80;76616;2837.260;-1758.362;1;181;150;154.8;22.1;22.2;32;32.5;27.8;-1.0;
19/02/2025 04:49:22;117;0;131.39;-4;30.43;4.61;185.0;18.70;76609;2837.260;-1758.362;1;181;150;154.8;22.1;22.2;34;33.8;27.8;-1.0;
19/02/2025 04:49:42;117;0;131.68;-4;30.42;5.59;183.7;18.70;76610;2837.261;-1758.362;1;181;150;154.8;22.1;22.2;34;34.3;27.8;-1.0;
19/02/2025 04:50:02;117;0;133.84;-4;30.41;5.56;182.5;18.70;76628;2837.261;-1758.362;1;181;150;154.8;22.1;22.4;34;34.3;27.8;-1.0;
19/02/2025 04:50:22;117;0;137.08;-4;30.74;5.57;181.3;18.60;76622;2837.262;-1758.362;1;181;150;154.8;22.1;22.2;32;32.0;27.8;-1.0;
19/02/2025 04:50:42;117;0;143.11;-4;31.27;4.19;180.0;18.60;76620;2837.262;-1758.362;1;181;150;154.8;22.1;22.2;32;31.6;27.8;-1.0;
19/02/2025 04:51:02;117;0;149.68;-4;30.18;4.13;178.6;18.60;76633;2837.262;-1758.362;1;181;170;174.2;22.1;22.2;32;32.0;27.8;-1.0;
19/02/2025 04:51:22;117;0;152.34;-4;30.28;4.49;177.1;18.60;76597;2837.262;-1758.362;1;181;190;195.2;22.1;22.2;32;31.6;27.8;-1.0;
19/02/2025 04:51:42;117;0;153.79;-4;29.03;4.26;175.3;18.50;76538;2837.261;-1758.362;1;181;210;212.9;22.1;22.2;32;32.0;27.8;-1.0;
19/02/2025 04:52:02;117;0;156.98;-4;29.19;4.20;173.5;18.50;76503;2837.261;-1758.362;1;181;230;233.9;22.1;22.2;32;31.6;27.8;-1.0;
19/02/2025 04:52:22;117;0;152.58;-4;28.51;4.33;171.5;18.50;76468;2837.260;-1758.362;1;181;230;233.9;21.6;21.6;32;31.6;27.8;-1.0;
19/02/2025 04:52:42;117;0;152.42;-4;29.43;4.30;169.3;18.50;76461;2837.260;-1758.362;1;181;230;233.9;21.6;21.5;32;31.6;27.8;-1.0;
19/02/2025 04:53:02;117;0;152.78;-4;29.65;4.31;167.1;18.50;76464;2837.259;-1758.362;1;181;230;233.9;21.6;21.5;32;31.6;27.8;-1.0;
19/02/2025 04:53:22;117;0;154.04;-4;30.05;4.39;164.8;18.40;76468;2837.258;-1758.361;1;182;230;233.9;21.6;21.5;32;31.6;27.8;-1.0;
19/02/2025 04:53:42;117;0;156.35;-4;30.01;4.29;162.4;18.40;76458;2837.258;-1758.361;1;182;230;233.9;21.6;21.5;32;31.6;27.8;-1.0;
19/02/2025 04:54:02;117;0;154.26;-4;29.47;4.42;160.0;18.40;76469;2837.257;-1758.361;1;182;230;232.3;21.6;21.5;34;33.8;27.8;-1.0;
19/02/2025 04:54:22;117;0;150.31;-4;29.97;5.81;157.6;18.40;76470;2837.256;-1758.361;1;182;230;233.9;21.6;21.5;36;36.1;27.8;-1.0;
19/02/2025 04:54:42;117;0;145.45;-4;30.28;6.98;155.1;18.40;76477;2837.255;-1758.360;1;182;230;233.9;21.6;21.4;44;44.2;27.8;-1.0;
19/02/2025 04:55:02;117;0;142.07;-4;30.98;11.38;152.6;18.40;76475;2837.255;-1758.359;1;182;230;233.9;21.6;21.5;49;49.2;27.8;-1.0;
19/02/2025 04:55:22;117;0;140.20;-4;31.43;14.10;149.9;18.40;76475;2837.254;-1758.359;1;182;230;233.9;21.6;21.5;53;52.8;27.8;-1.0;
19/02/2025 04:55:42;117;0;137.82;-4;31.78;16.12;147.2;18.40;76490;2837.254;-1758.358;1;183;230;233.9;21.6;21.5;53;53.2;27.8;-1.0;
19/02/2025 04:56:02;117;0;136.62;-4;32.47;16.28;144.4;18.30;76490;2837.253;-1758.357;1;183;230;233.9;22.4;22.5;65;65.0;27.8;-1.0;
19/02/2025 04:56:22;117;0;141.46;-4;30.89;23.45;141.4;18.30;76506;2837.252;-1758.356;1;183;230;235.5;22.4;22.4;56;55.5;27.8;-1.0;
19/02/2025 04:56:42;117;0;145.52;-4;29.84;17.06;138.9;18.30;76515;2837.251;-1758.355;1;183;230;233.9;22.4;22.5;44;44.2;27.8;-1.0;
19/02/2025 04:57:02;117;0;149.67;-4;28.77;10.61;136.5;18.30;76518;2837.251;-1758.355;1;184;230;233.9;22.0;21.6;38;37.9;27.8;-1.0;
19/02/2025 04:57:22;117;0;151.30;-4;29.27;7.21;134.3;18.30;76522;2837.250;-1758.354;1;184;230;232.3;22.0;21.6;36;36.1;27.8;-1.0;
19/02/2025 04:57:42;117;0;153.42;-4;29.24;6.40;132.2;18.30;76536;2837.249;-1758.354;1;184;230;233.9;22.0;21.6;34;33.8;27.8;-1.0;
19/02/2025 04:58:02;117;0;155.86;-4;29.17;4.97;130.1;18.30;76533;2837.249;-1758.354;1;184;230;233.9;22.0;21.6;34;33.4;27.8;-1.0;
19/02/2025 04:58:22;117;0;156.32;-4;29.21;5.05;127.9;18.30;76539;2837.248;-1758.354;1;184;230;233.9;22.0;21.6;34;33.4;27.8;-1.0;
19/02/2025 04:58:42;117;0;154.20;-4;29.36;5.08;125.7;18.30;76544;2837.247;-1758.354;1;184;230;235.5;22.0;21.8;34;33.4;27.8;-1.0;
19/02/2025 04:59:02;117;0;146.07;-4;29.47;5.32;123.6;18.30;76548;2837.247;-1758.353;1;184;230;230.6;22.0;21.6;40;40.2;27.8;-1.0;
19/02/2025 04:59:22;117;0;141.82;-4;29.67;9.15;121.3;18.30;76575;2837.246;-1758.353;1;184;230;235.5;22.0;21.6;48;47.8;27.8;-1.0;
19/02/2025 04:59:42;117;0;141.11;-4;31.06;13.29;118.9;18.30;76587;2837.246;-1758.352;1;184;230;233.9;22.0;21.6;50;50.1;27.8;-1.0;
19/02/2025 05:00:02;117;0;142.72;-4;30.80;14.51;116.3;18.30;76590;2837.245;-1758.351;1;185;230;233.9;22.0;21.6;50;50.5;27.8;-1.0;
19/02/2025 05:00:22;117;0;144.57;-4;30.83;14.47;113.8;18.30;76603;2837.244;-1758.351;1;185;230;235.5;22.0;21.6;47;46.9;27.8;-1.0;
19/02/2025 05:00:42;117;0;142.38;-4;29.47;12.13;111.2;18.30;76595;2837.244;-1758.350;1;185;230;233.9;22.0;21.6;54;54.2;27.8;-1.0;
19/02/2025 05:01:02;117;0;146.41;-4;30.59;16.56;108.7;18.40;76625;2837.243;-1758.349;1;185;230;233.9;22.0;21.6;43;42.9;27.8;-1.0;
19/02/2025 05:01:22;117;0;148.71;-4;29.33;9.93;106.3;18.40;76628;2837.242;-1758.349;1;185;230;233.9;22.0;21.6;41;41.1;27.8;-1.0;
19/02/2025 05:01:42;117;0;150.33;-4;29.41;9.09;104.1;18.40;76638;2837.242;-1758.349;1;185;230;232.3;22.0;21.6;37;36.6;27.8;-1.0;
19/02/2025 05:02:02;117;0;152.40;-4;29.60;6.57;101.8;18.40;76654;2837.241;-1758.348;1;186;230;230.6;22.0;21.6;37;36.1;27.8;-1.0;
19/02/2025 05:02:22;117;0;149.46;-4;29.90;6.62;99.4;18.40;76671;2837.240;-1758.348;1;186;230;233.9;22.0;21.8;39;38.8;27.8;-1.0;
19/02/2025 05:02:42;117;0;149.16;-4;28.86;8.23;97.0;18.40;76682;2837.239;-1758.348;1;186;230;233.9;21.7;21.6;42;42.0;27.8;-1.0;
19/02/2025 05:03:02;117;0;153.36;-4;29.27;9.91;94.5;18.40;76709;2837.239;-1758.347;1;186;230;233.9;21.7;21.8;38;37.5;27.8;-1.0;
19/02/2025 05:03:22;117;0;157.61;-4;29.56;7.25;92.1;18.50;76713;2837.238;-1758.347;1;186;230;235.5;21.7;21.8;34;33.4;27.8;-1.0;
19/02/2025 05:03:42;117;0;161.20;-4;29.14;4.76;89.5;18.50;76722;2837.237;-1758.347;1;186;230;233.9;21.7;21.6;34;32.9;27.8;-1.0;
19/02/2025 05:04:02;117;0;164.99;-4;28.88;4.79;86.9;18.50;76724;2837.235;-1758.347;1;186;230;233.9;21.3;21.4;34;32.9;27.8;-1.0;
19/02/2025 05:04:22;117;0;165.70;-4;29.61;4.74;84.3;18.50;76748;2837.234;-1758.347;1;186;230;235.5;21.3;21.1;34;32.9;27.8;-1.0;
19/02/2025 05:04:42;117;0;163.83;-4;29.81;4.87;81.5;18.50;76762;2837.233;-1758.347;1;186;230;233.9;21.3;21.1;34;32.9;27.8;-1.0;
19/02/2025 05:05:02;117;0;158.08;-4;30.41;5.01;78.8;18.50;76769;2837.232;-1758.347;1;186;230;230.6;21.3;21.1;34;32.9;27.8;-1.0;
19/02/2025 05:05:22;117;0;153.96;-4;29.99;4.82;75.9;18.60;76785;2837.231;-1758.347;1;186;230;233.9;21.3;21.2;40;40.2;27.8;-1.0;
19/02/2025 05:05:42;117;0;150.68;-4;30.00;8.96;73.0;18.60;76790;2837.230;-1758.346;1;187;230;235.5;21.3;21.1;46;46.0;27.8;-1.0;
19/02/2025 05:06:02;117;0;152.00;-4;31.47;12.40;69.9;18.60;76797;2837.228;-1758.346;1;187;230;235.5;21.3;21.1;44;43.8;27.8;-1.0;
19/02/2025 05:06:22;117;0;154.60;-4;31.08;10.53;66.8;18.70;76807;2837.227;-1758.345;1;187;230;233.9;21.3;21.1;42;42.0;27.8;-1.0;
19/02/2025 05:06:42;117;0;155.79;-4;30.91;9.46;63.6;18.70;76806;2837.226;-1758.345;1;187;230;233.9;21.3;21.1;39;38.8;27.8;-1.0;
19/02/2025 05:07:02;117;0;156.20;-4;30.71;7.93;60.5;18.70;76817;2837.224;-1758.344;1;188;230;233.9;21.3;21.1;39;38.4;27.8;-1.0;
19/02/2025 05:07:22;117;0;156.81;-4;30.88;7.86;57.4;18.70;76832;2837.223;-1758.344;1;188;230;235.5;21.3;21.1;39;38.4;27.8;-1.0;
19/02/2025 05:07:42;117;0;157.13;-4;29.60;7.71;54.3;18.80;76834;2837.222;-1758.343;1;188;230;233.9;21.3;21.1;39;38.4;27.8;-1.0;
19/02/2025 05:08:02;117;0;156.91;-4;30.86;7.71;51.3;18.80;76849;2837.220;-1758.343;1;188;230;233.9;21.3;21.1;39;38.4;27.8;-1.0;
19/02/2025 05:08:22;117;0;155.87;-4;30.64;7.74;48.2;18.80;76848;2837.219;-1758.343;1;188;230;233.9;21.3;21.1;39;38.4;27.8;-1.0;
19/02/2025 05:08:42;117;0;156.60;-4;30.02;7.61;45.1;18.80;76847;2837.218;-1758.342;1;189;230;235.5;21.3;21.2;42;42.0;27.8;-1.0;
19/02/2025 05:09:02;117;0;155.56;-4;30.29;10.05;41.9;18.90;76857;2837.216;-1758.342;1;189;230;233.9;21.3;21.1;42;42.4;27.8;-1.0;
19/02/2025 05:09:22;117;0;158.01;-4;29.26;9.97;38.7;18.90;76864;2837.215;-1758.341;1;189;230;235.5;21.3;21.1;40;40.2;27.8;-1.0;
19/02/2025 05:09:42;117;0;156.50;-4;32.24;8.19;36.0;18.90;76861;2837.214;-1758.341;1;189;230;233.9;22.0;22.1;37;36.1;27.8;-1.0;
19/02/2025 05:10:02;117;0;155.82;-4;28.60;6.62;33.0;18.90;76870;2837.212;-1758.341;1;189;230;235.5;21.6;21.4;42;42.0;27.8;-1.0;
19/02/2025 05:10:22;117;0;155.18;-4;29.47;10.54;30.4;19.00;76878;2837.211;-1758.340;1;190;230;235.5;21.6;21.4;39;38.4;27.8;-1.0;
19/02/2025 05:10:42;117;0;151.86;-4;30.00;7.43;27.9;19.00;76879;2837.210;-1758.340;1;190;230;233.9;21.6;21.4;42;42.0;27.8;-1.0;
19/02/2025 05:11:02;117;0;152.28;-4;30.07;9.63;25.3;19.00;76876;2837.209;-1758.340;1;190;230;232.3;21.6;21.4;44;44.2;27.8;-1.0;
19/02/2025 05:11:22;117;0;154.03;-4;31.78;11.63;22.2;19.00;76888;2837.208;-1758.339;1;190;230;235.5;21.6;21.4;44;44.7;27.8;-1.0;
19/02/2025 05:11:42;117;0;153.75;-4;31.63;11.69;19.1;19.00;76884;2837.207;-1758.339;1;191;230;233.9;21.6;21.4;44;44.7;27.8;-1.0;
19/02/2025 05:12:02;117;0;155.54;-4;30.44;11.66;16.1;19.10;76896;2837.206;-1758.338;1;191;230;235.5;21.6;21.4;44;44.2;27.8;-1.0;
19/02/2025 05:12:22;117;0;158.44;-4;29.77;11.80;13.0;19.10;76893;2837.204;-1758.338;1;191;230;233.9;21.6;21.4;41;40.6;27.8;-1.0;
19/02/2025 05:12:42;117;0;159.83;-4;29.01;8.62;10.0;19.10;76892;2837.203;-1758.338;1;191;230;233.9;21.6;21.4;39;38.8;27.8;-1.0;
19/02/2025 05:13:02;117;0;160.89;-4;29.84;7.72;7.0;19.10;76896;2837.202;-1758.338;1;191;230;233.9;21.6;21.4;39;37.9;27.8;-1.0;
19/02/2025 05:13:22;117;0;160.94;-4;32.05;7.73;4.1;19.20;76903;2837.200;-1758.337;1;192;230;233.9;22.2;22.2;36;36.1;27.8;-1.0;
19/02/2025 05:13:29;115;0;159.02;-4;24.99;7.50;3.2;19.20;76893;2837.200;-1758.337;1;192;500;241.9;100.0;65.5;0;-0.9;27.8;-1.0;
19/02/2025 05:13:39;115;0;144.99;-4;7.20;-12.82;2.3;19.20;76861;2837.199;-1758.337;1;192;500;361.3;100.0;100.0;0;-0.9;27.5;-1.0;
19/02/2025 05:13:49;115;0;141.97;-4;-69.09;-13.45;3.0;19.20;76605;2837.199;-1758.337;1;192;500;474.2;100.0;100.6;0;-0.9;27.6;-1.0;
19/02/2025 05:13:59;115;0;128.46;-4;-69.15;-13.33;2.4;19.20;76347;2837.200;-1758.337;1;192;500;506.5;100.0;100.6;0;-0.9;27.5;-1.0;
19/02/2025 05:14:09;115;0;130.25;-4;-22.74;-4.13;-0.2;19.20;76300;2837.198;-1758.335;1;193;500;506.5;100.0;100.4;0;-0.9;27.8;-1.0;
19/02/2025 05:14:29;119;0;78.15;-4;-58.58;-10.81;0.3;19.30;76309;2837.198;-1758.335;1;193;500;509.7;100.0;100.6;0;-0.5;27.8;-1.0;
19/02/2025 05:14:39;119;0;38.86;-4;-55.83;-5.35;-0.0;19.30;76311;2837.138;-1758.313;0;193;500;509.7;100.0;100.6;0;-0.9;27.8;-1.0;
