Timestamp;NavState;SecurityLevel;Heading;Declination;Pitch;Roll;Depth;Temperature;Pa;Lat;Lon;DeadReckoning;DesiredH;BallastCmd;BallastPos;LinCmd;LinPos;AngCmd;AngPos;Voltage;Altitude;
25/02/2025 09:39:52;119;0;298.68;-4;-49.12;-20.67;-0.0;16.80;75588;2837.156;-1800.735;0;315;500;506.5;100.0;100.4;0;-0.5;26.3;-1.0;
25/02/2025 09:40:01;116;0;300.56;-4;-55.16;-11.64;0.2;16.90;75599;2837.165;-1800.743;0;315;500;506.5;100.0;100.4;0;-0.9;26.3;-1.0;
25/02/2025 09:40:26;116;0;356.76;-4;-54.72;-7.07;0.0;17.00;75590;2837.164;-1800.753;0;315;500;506.5;100.0;100.4;0;-0.5;26.3;-1.0;
25/02/2025 09:40:53;116;0;35.16;-4;-52.19;-0.19;0.1;17.10;75608;2837.167;-1800.755;0;315;500;506.5;100.0;100.4;0;-0.5;26.3;-1.0;
25/02/2025 09:41:05;116;0;54.17;-4;-49.34;-18.85;0.0;17.10;75626;2837.171;-1800.756;0;314;500;504.8;100.0;100.6;0;-0.5;26.3;-1.0;
25/02/2025 09:41:19;116;0;67.72;-4;-57.98;-6.81;0.0;17.10;75624;2837.174;-1800.758;0;314;500;506.5;100.0;100.4;0;-0.5;26.3;-1.0;
25/02/2025 09:42:22;116;0;63.25;-4;-55.04;-7.08;0.0;17.30;75650;2837.191;-1800.764;0;314;500;506.5;100.0;100.6;0;-0.5;26.3;-1.0;
25/02/2025 09:43:50;116;0;53.05;-4;-59.06;-19.00;0.0;17.70;75688;2837.214;-1800.775;0;314;500;506.5;100.0;100.6;0;-0.5;26.3;-1.0;
25/02/2025 09:44:52;116;0;36.99;-4;-59.21;-4.92;0.0;18.00;75711;2837.232;-1800.782;0;314;500;506.5;100.0;100.6;0;-0.5;26.3;-1.0;
25/02/2025 09:47:10;116;0;42.57;-4;-49.29;-12.78;0.2;18.60;75762;2837.270;-1800.798;0;314;500;506.5;100.0;100.4;0;-0.5;26.3;-1.0;
25/02/2025 09:47:24;116;0;46.03;-4;-49.25;-15.38;0.1;18.70;75762;2837.274;-1800.800;0;314;500;506.5;100.0;100.6;0;-0.5;26.3;-1.0;
25/02/2025 09:47:37;116;0;49.95;-4;-51.60;-4.63;0.1;18.70;75770;2837.278;-1800.802;0;314;500;506.5;100.0;100.6;0;-0.5;26.3;-1.0;
25/02/2025 09:47:57;110;0;41.43;-4;-57.41;-20.37;-0.1;18.80;75782;2837.278;-1800.802;0;314;-90;383.9;100.0;100.4;-6;-5.9;26.3;-1.0;
25/02/2025 09:48:07;110;0;48.06;-4;-54.93;-17.80;0.2;18.90;76143;2837.278;-1800.802;1;314;-90;232.3;100.0;100.6;-6;-5.9;26.3;-1.0;
25/02/2025 09:48:17;110;0;41.90;-4;-62.18;-1.63;0.5;18.90;76391;2837.279;-1800.802;1;314;-90;74.2;100.0;100.4;-6;-5.9;26.3;-1.0;
25/02/2025 09:48:27;110;0;32.07;-4;-67.69;-3.98;0.8;18.90;76713;2837.279;-1800.802;1;314;-90;-87.1;100.0;100.4;-6;-6.3;26.3;-1.0;
25/02/2025 09:48:37;110;0;34.98;-4;-69.88;-22.87;1.1;19.00;77047;2837.280;-1800.802;1;314;-90;-87.1;42.0;42.0;-6;-5.9;26.3;-1.0;
25/02/2025 09:48:57;100;0;29.77;-4;-30.71;-15.46;4.3;19.00;77010;2837.283;-1800.801;1;314;-90;-85.5;42.0;41.7;-6;-6.3;26.3;-1.0;
25/02/2025 09:49:17;100;0;40.96;-4;-19.56;-14.67;7.4;19.10;77017;2837.287;-1800.798;1;314;-90;-82.3;42.0;41.5;70;69.9;26.3;-1.0;
25/02/2025 09:49:37;100;0;37.39;-4;-20.73;23.50;10.0;19.10;77031;2837.290;-1800.797;1;314;-90;-80.6;42.0;41.5;70;69.9;26.3;-1.0;
25/02/2025 09:49:57;100;0;31.67;-4;-21.59;24.09;12.5;19.10;77030;2837.294;-1800.795;1;314;-90;-85.5;42.0;41.5;70;69.9;26.3;-1.0;
25/02/2025 09:50:17;100;0;23.22;-4;-21.09;23.76;15.0;19.10;77027;2837.297;-1800.794;1;314;-90;-82.3;42.0;41.4;70;69.9;26.3;0.0;
25/02/2025 09:50:37;100;0;18.72;-4;-21.55;24.02;17.4;19.10;77025;2837.301;-1800.793;1;314;-90;-82.3;42.0;41.5;70;69.9;26.3;0.0;
25/02/2025 09:50:57;100;0;9.26;-4;-21.91;23.85;19.8;19.10;77031;2837.305;-1800.793;1;314;-90;-80.6;42.0;41.5;70;69.9;26.3;0.0;
25/02/2025 09:51:17;100;0;0.68;-4;-21.25;24.15;22.5;19.10;77044;2837.309;-1800.794;1;314;-90;-82.3;42.0;41.5;70;69.9;26.3;0.0;
25/02/2025 09:51:38;100;0;351.12;-4;-20.77;23.83;25.0;19.10;77039;2837.313;-1800.795;1;314;-90;-80.6;42.0;41.5;68;68.1;26.3;0.0;
25/02/2025 09:51:58;100;0;342.92;-4;-21.13;22.44;27.4;19.10;77039;2837.317;-1800.796;1;314;-90;-80.6;42.0;41.5;58;58.2;26.3;0.0;
25/02/2025 09:52:18;100;0;332.09;-4;-20.01;16.98;30.0;19.10;77043;2837.320;-1800.798;1;314;-90;-82.3;42.0;41.5;41;41.1;26.3;0.0;
25/02/2025 09:52:38;100;0;323.17;-4;-19.73;8.45;32.4;19.20;77051;2837.324;-1800.800;1;314;-90;-80.6;42.0;41.5;26;26.2;26.3;0.0;
25/02/2025 09:52:58;100;0;319.86;-4;-18.81;1.05;34.7;19.20;77048;2837.327;-1800.803;1;314;-90;-80.6;42.3;42.4;22;21.7;26.3;0.0;
25/02/2025 09:53:18;100;0;318.95;-4;-20.07;-0.78;36.9;19.20;77054;2837.330;-1800.806;1;314;-90;-82.3;42.3;42.7;22;21.7;26.3;0.0;
25/02/2025 09:53:38;100;0;318.74;-4;-20.21;-0.77;39.5;19.20;77051;2837.333;-1800.808;1;314;-90;-80.6;42.3;42.7;20;19.9;26.3;0.0;
25/02/2025 09:53:58;100;0;317.54;-4;-19.97;-1.88;41.9;19.20;77058;2837.336;-1800.811;1;314;-90;-82.3;42.3;42.9;20;19.4;26.3;0.0;
25/02/2025 09:54:18;100;0;316.87;-4;-20.29;-2.00;44.5;19.20;77069;2837.340;-1800.814;1;314;-90;-80.6;42.3;42.9;20;19.9;26.3;0.0;
25/02/2025 09:54:38;100;0;315.54;-4;-20.44;-1.87;46.7;19.20;77071;2837.342;-1800.817;1;314;-90;-79.0;42.3;42.7;18;18.1;26.3;0.0;
25/02/2025 09:54:58;100;0;314.94;-4;-19.36;-3.00;49.4;19.20;77069;2837.346;-1800.820;1;314;-90;-82.3;42.3;42.7;18;17.6;26.3;0.0;
25/02/2025 09:55:18;100;0;314.69;-4;-20.04;-3.04;51.7;19.20;77074;2837.349;-1800.823;1;314;-90;-80.6;42.3;42.7;18;17.6;26.3;0.0;
25/02/2025 09:55:38;100;0;315.45;-4;-20.21;-2.92;54.2;19.20;77080;2837.352;-1800.826;1;314;-90;-80.6;42.3;42.7;18;17.1;26.3;0.0;
25/02/2025 09:55:58;100;0;315.18;-4;-19.84;-3.01;56.6;19.20;77071;2837.355;-1800.829;1;314;-90;-80.6;42.3;42.7;18;17.6;26.3;0.0;
25/02/2025 09:56:18;100;0;319.27;-4;-20.27;-2.79;59.1;19.20;77077;2837.358;-1800.831;1;314;-90;-82.3;42.3;42.7;21;21.2;26.3;0.0;
25/02/2025 09:56:38;100;0;319.35;-4;-20.32;-0.81;61.5;19.20;77082;2837.361;-1800.834;1;314;-90;-80.6;42.3;42.7;21;21.2;26.3;0.0;
25/02/2025 09:56:58;100;0;319.85;-4;-20.04;-0.80;64.1;19.20;77077;2837.365;-1800.837;1;314;-90;-82.3;42.3;42.7;21;21.7;26.3;0.0;
25/02/2025 09:57:18;100;0;320.71;-4;-20.42;-0.77;66.5;19.20;77062;2837.368;-1800.839;1;314;-90;-82.3;42.3;42.7;23;23.0;26.3;0.0;
25/02/2025 09:57:38;100;0;320.70;-4;-19.84;0.15;68.7;19.20;77049;2837.371;-1800.842;1;314;-90;-82.3;42.3;42.7;23;23.5;26.3;0.0;
25/02/2025 09:57:58;100;0;319.51;-4;-20.94;0.12;71.3;19.20;77049;2837.374;-1800.845;1;314;-90;-82.3;42.3;42.7;23;23.5;26.3;0.0;
25/02/2025 09:58:18;100;0;314.73;-4;-20.12;0.10;73.5;19.20;77027;2837.377;-1800.847;1;314;-90;-82.3;42.3;42.7;18;18.1;26.3;0.0;
25/02/2025 09:58:38;100;0;311.64;-4;-19.94;-2.74;76.0;19.20;77018;2837.380;-1800.850;1;314;-90;-80.6;42.3;42.7;16;15.8;26.3;0.0;
25/02/2025 09:58:58;100;0;309.77;-4;-20.58;-4.05;78.4;19.20;77001;2837.383;-1800.853;1;314;-90;-82.3;42.3;42.9;16;15.3;26.3;0.0;
25/02/2025 09:59:18;100;0;307.29;-4;-19.75;-4.06;80.8;19.10;76985;2837.386;-1800.857;1;314;-90;-80.6;42.3;42.7;16;15.3;26.3;0.0;
25/02/2025 09:59:38;100;0;303.16;-4;-20.03;-4.09;83.4;19.10;76978;2837.388;-1800.860;1;314;-90;-80.6;42.3;42.7;16;15.3;26.3;0.0;
25/02/2025 09:59:58;100;0;297.35;-4;-19.52;-4.15;85.7;19.10;76967;2837.391;-1800.863;1;314;-90;-80.6;42.3;42.7;14;14.0;26.3;0.0;
25/02/2025 10:00:18;100;0;294.86;-4;-19.35;-4.93;88.0;19.10;76948;2837.393;-1800.867;1;314;-90;-80.6;42.3;42.7;11;10.8;26.3;0.0;
25/02/2025 10:00:38;100;0;292.41;-4;-19.20;-6.48;90.2;19.00;76944;2837.395;-1800.870;1;314;-90;-82.3;42.3;42.7;9;9.0;26.3;0.0;
25/02/2025 10:00:58;100;0;291.64;-4;-18.98;-7.44;92.4;19.00;76942;2837.397;-1800.874;1;314;-90;-80.6;42.7;42.7;9;9.0;26.3;0.0;
25/02/2025 10:01:18;100;0;289.18;-4;-19.01;-7.25;94.6;19.00;76932;2837.398;-1800.877;1;314;-90;-82.3;42.7;42.7;4;4.1;26.3;0.0;
25/02/2025 10:01:38;100;0;290.70;-4;-18.90;-10.04;96.7;19.00;76932;2837.400;-1800.881;1;314;-90;-82.3;43.0;43.3;7;7.2;26.3;0.0;
25/02/2025 10:01:58;100;0;294.65;-4;-19.81;-7.84;99.0;19.00;76913;2837.402;-1800.884;1;314;-90;-82.3;43.0;43.3;11;10.8;26.3;0.0;
25/02/2025 10:02:18;100;0;297.03;-4;-20.74;-6.08;101.1;19.00;76909;2837.404;-1800.887;1;314;-90;-80.6;43.0;43.3;14;14.0;26.3;0.0;
25/02/2025 10:02:38;100;0;294.07;-4;-20.78;-4.32;103.7;18.90;76902;2837.407;-1800.891;1;314;-90;-82.3;43.0;43.3;10;9.5;26.3;0.0;
25/02/2025 10:02:58;100;0;292.63;-4;-20.32;-7.09;105.9;18.90;76889;2837.409;-1800.894;1;314;-90;-82.3;43.0;43.4;10;9.0;26.3;0.0;
25/02/2025 10:03:18;100;0;293.11;-4;-19.89;-7.08;108.5;18.90;76878;2837.411;-1800.898;1;314;-90;-82.3;43.0;43.3;8;7.7;26.3;0.0;
25/02/2025 10:03:38;100;0;297.25;-4;-19.91;-7.88;110.4;18.80;76869;2837.413;-1800.901;1;314;-110;-109.7;43.0;43.4;14;14.0;26.3;0.0;
25/02/2025 10:03:58;100;0;299.78;-4;-20.04;-4.47;112.7;18.80;76942;2837.415;-1800.904;1;314;-110;-111.3;43.0;43.4;14;14.0;26.3;0.0;
25/02/2025 10:04:18;100;0;300.95;-4;-20.38;-4.37;115.4;18.80;76927;2837.418;-1800.908;1;314;-110;-111.3;43.0;43.3;14;14.4;26.3;0.0;
25/02/2025 10:04:38;100;0;297.48;-4;-19.78;-4.47;117.9;18.80;76917;2837.420;-1800.912;1;314;-110;-111.3;43.0;43.3;14;14.0;26.3;0.0;
25/02/2025 10:04:58;100;0;292.86;-4;-19.50;-4.45;120.6;18.70;76909;2837.422;-1800.916;1;314;-110;-112.9;43.0;43.3;8;8.1;26.3;0.0;
25/02/2025 10:05:18;100;0;294.78;-4;-19.46;-7.65;123.1;18.70;76904;2837.424;-1800.919;1;314;-110;-111.3;43.0;43.3;10;9.9;26.3;0.0;
25/02/2025 10:05:38;100;0;300.15;-4;-19.88;-6.29;125.6;18.70;76878;2837.427;-1800.923;1;314;-110;-112.9;43.0;43.3;14;14.0;26.3;0.0;
25/02/2025 10:05:58;100;0;302.38;-4;-20.29;-4.26;128.5;18.60;76876;2837.430;-1800.927;1;314;-110;-111.3;43.0;43.3;14;14.4;26.3;0.0;
25/02/2025 10:06:18;100;0;304.18;-4;-20.28;-4.30;131.2;18.60;76868;2837.432;-1800.931;1;314;-110;-112.9;43.0;43.3;14;14.4;26.3;0.0;
25/02/2025 10:06:38;100;0;307.68;-4;-19.96;-4.29;134.1;18.60;76872;2837.436;-1800.934;1;314;-110;-111.3;43.0;43.4;14;14.4;26.3;0.0;
25/02/2025 10:06:58;100;0;311.42;-4;-20.11;-4.27;136.8;18.50;76858;2837.439;-1800.938;1;314;-110;-111.3;43.0;43.3;16;15.8;26.3;0.0;
25/02/2025 10:07:18;100;0;315.28;-4;-20.70;-3.22;139.6;18.50;76839;2837.442;-1800.941;1;314;-110;-111.3;43.0;43.3;16;16.2;26.3;0.0;
25/02/2025 10:07:38;100;0;312.50;-4;-19.61;-3.26;142.7;18.50;76826;2837.446;-1800.944;1;314;-110;-112.9;43.0;43.3;16;16.2;26.3;0.0;
25/02/2025 10:07:58;100;0;310.04;-4;-19.66;-3.28;145.5;18.40;76820;2837.449;-1800.948;1;314;-110;-111.3;43.0;43.4;16;16.2;26.3;0.0;
25/02/2025 10:08:18;100;0;307.31;-4;-19.79;-3.62;148.0;18.40;76810;2837.452;-1800.951;1;314;-110;-111.3;43.0;43.3;16;16.2;26.3;0.0;
25/02/2025 10:08:38;100;0;306.55;-4;-19.40;-3.38;150.8;18.30;76806;2837.455;-1800.955;1;314;-110;-112.9;43.0;43.3;16;16.2;26.3;0.0;
25/02/2025 10:08:58;100;0;305.74;-4;-19.98;-3.38;153.6;18.30;76791;2837.458;-1800.959;1;314;-110;-111.3;43.0;43.3;16;16.2;26.3;0.0;
25/02/2025 10:09:18;100;0;303.64;-4;-20.02;-3.32;156.2;18.30;76781;2837.460;-1800.962;1;314;-110;-112.9;43.0;43.3;16;16.2;26.3;0.0;
25/02/2025 10:09:38;100;0;302.48;-4;-19.78;-3.37;159.2;18.20;76783;2837.463;-1800.966;1;314;-110;-111.3;43.0;43.3;16;16.2;26.3;0.0;
25/02/2025 10:09:58;100;0;300.58;-4;-19.84;-3.40;162.3;18.20;76763;2837.466;-1800.970;1;314;-110;-111.3;43.0;43.3;14;14.0;26.3;0.0;
25/02/2025 10:10:18;100;0;301.23;-4;-19.99;-4.78;164.9;18.20;76749;2837.469;-1800.974;1;314;-110;-112.9;43.0;43.3;14;13.5;26.3;0.0;
25/02/2025 10:10:38;100;0;299.87;-4;-19.83;-4.74;168.0;18.10;76744;2837.472;-1800.978;1;314;-110;-111.3;43.0;43.4;14;13.5;26.3;0.0;
25/02/2025 10:10:58;100;0;297.05;-4;-19.40;-4.85;171.1;18.10;76744;2837.474;-1800.983;1;314;-110;-111.3;43.0;43.4;10;9.9;26.3;0.0;
25/02/2025 10:11:18;100;0;298.10;-4;-19.08;-6.96;173.9;18.00;76730;2837.477;-1800.987;1;314;-110;-111.3;43.0;43.3;12;12.2;26.3;0.0;
25/02/2025 10:11:38;100;0;298.06;-4;-19.37;-5.38;176.7;18.00;76723;2837.479;-1800.991;1;314;-110;-111.3;43.0;43.3;12;12.2;26.3;0.0;
25/02/2025 10:11:58;100;0;298.46;-4;-19.64;-5.36;179.6;18.00;76707;2837.482;-1800.995;1;314;-110;-111.3;43.0;43.3;12;12.2;26.3;0.0;
25/02/2025 10:12:18;100;0;296.48;-4;-19.72;-5.33;182.3;17.90;76709;2837.484;-1800.999;1;314;-110;-111.3;43.0;43.3;12;12.2;26.3;0.0;
25/02/2025 10:12:38;100;0;297.18;-4;-19.69;-5.20;185.4;17.90;76683;2837.487;-1801.004;1;314;-110;-112.9;43.0;43.3;12;12.6;26.3;0.0;
25/02/2025 10:12:58;100;0;299.12;-4;-19.97;-5.29;188.6;17.80;76685;2837.490;-1801.008;1;314;-110;-111.3;43.0;43.3;12;12.2;26.3;0.0;
25/02/2025 10:13:18;100;0;302.57;-4;-19.71;-5.30;191.3;17.80;76675;2837.493;-1801.012;1;314;-110;-116.1;43.0;43.3;14;14.4;26.3;0.0;
25/02/2025 10:13:38;100;0;306.43;-4;-19.98;-4.03;194.5;17.80;76668;2837.496;-1801.016;1;314;-110;-111.3;43.0;43.3;14;14.9;26.3;0.0;
25/02/2025 10:13:58;100;0;305.90;-4;-19.94;-4.06;197.5;17.70;76656;2837.499;-1801.020;1;314;-110;-111.3;43.0;43.3;14;14.9;26.3;0.0;
25/02/2025 10:14:18;100;0;307.82;-4;-20.12;-4.04;200.5;17.70;76644;2837.502;-1801.024;1;314;-110;-111.3;43.0;43.3;14;14.9;26.3;0.0;
25/02/2025 10:14:38;100;0;306.95;-4;-20.04;-4.08;203.6;17.60;76635;2837.506;-1801.028;1;314;-110;-111.3;43.0;43.3;14;14.9;26.3;0.0;
25/02/2025 10:14:58;100;0;307.39;-4;-19.50;-4.03;206.6;17.60;76631;2837.509;-1801.032;1;314;-110;-111.3;43.0;43.3;14;14.9;26.3;0.0;
25/02/2025 10:15:18;100;0;307.44;-4;-19.25;-4.11;209.7;17.60;76617;2837.512;-1801.036;1;314;-110;-111.3;43.0;43.3;14;14.9;26.3;0.0;
25/02/2025 10:15:38;100;0;308.32;-4;-18.99;-4.10;212.5;17.50;76605;2837.515;-1801.039;1;314;-110;-111.3;43.3;43.3;14;14.9;26.3;0.0;
25/02/2025 10:15:58;100;0;309.88;-4;-19.63;-4.14;215.2;17.50;76598;2837.518;-1801.043;1;314;-110;-111.3;43.3;43.3;14;14.9;26.3;0.0;
25/02/2025 10:16:18;100;0;310.76;-4;-19.59;-4.09;218.0;17.40;76584;2837.522;-1801.046;1;314;-110;-111.3;43.3;43.3;14;14.9;26.3;0.0;
25/02/2025 10:16:38;100;0;311.22;-4;-19.47;-4.09;220.7;17.40;76577;2837.525;-1801.050;1;314;-110;-112.9;43.3;43.4;14;14.9;26.3;0.0;
25/02/2025 10:16:58;100;0;310.81;-4;-19.26;-4.08;223.6;17.40;76568;2837.528;-1801.053;1;314;-110;-111.3;43.3;43.4;14;14.9;26.3;0.0;
25/02/2025 10:17:18;100;0;310.80;-4;-19.37;-4.09;226.3;17.30;76567;2837.531;-1801.057;1;314;-110;-111.3;43.3;43.3;14;14.9;26.3;0.0;
25/02/2025 10:17:38;100;0;310.69;-4;-19.39;-4.17;228.9;17.30;76563;2837.535;-1801.060;1;314;-110;-111.3;43.3;43.3;14;14.4;26.3;0.0;
25/02/2025 10:17:58;100;0;311.24;-4;-19.30;-4.11;231.8;17.20;76562;2837.538;-1801.064;1;314;-110;-111.3;43.3;43.3;14;14.9;26.3;0.0;
25/02/2025 10:18:18;100;0;311.81;-4;-19.36;-4.11;234.5;17.20;76548;2837.541;-1801.067;1;314;-110;-112.9;43.3;43.3;14;14.9;26.3;0.0;
25/02/2025 10:18:38;100;0;311.92;-4;-19.56;-4.11;237.1;17.20;76547;2837.544;-1801.070;1;314;-110;-112.9;43.3;43.3;16;15.8;26.3;0.0;
25/02/2025 10:18:58;100;0;310.73;-4;-19.16;-3.48;239.8;17.10;76534;2837.547;-1801.074;1;314;-110;-112.9;43.3;43.4;16;16.2;26.3;0.0;
25/02/2025 10:19:18;100;0;310.63;-4;-19.74;-3.40;242.3;17.10;76537;2837.550;-1801.077;1;314;-110;-111.3;43.3;43.3;16;16.2;26.3;0.0;
25/02/2025 10:19:38;100;0;307.42;-4;-19.56;-3.45;245.0;17.10;76526;2837.553;-1801.081;1;314;-110;-111.3;43.3;43.4;16;16.2;26.3;0.0;
25/02/2025 10:19:58;100;0;307.59;-4;-19.52;-3.42;247.6;17.00;76520;2837.556;-1801.084;1;314;-110;-111.3;43.3;43.3;16;16.2;26.3;0.0;
25/02/2025 10:20:18;100;0;305.61;-4;-18.98;-3.39;250.2;17.00;76519;2837.559;-1801.087;1;314;-110;-111.3;43.6;43.6;16;16.2;26.3;0.0;
25/02/2025 10:20:38;100;0;306.10;-4;-20.15;-3.38;252.7;16.90;76502;2837.562;-1801.091;1;314;-110;-112.9;43.6;43.9;16;16.2;26.3;0.0;
25/02/2025 10:20:58;100;0;305.84;-4;-20.25;-3.36;255.2;16.90;76508;2837.565;-1801.094;1;314;-110;-111.3;43.6;43.9;16;16.2;26.3;0.0;
25/02/2025 10:21:18;100;0;303.12;-4;-20.77;-3.37;257.8;16.90;76503;2837.567;-1801.098;1;314;-110;-111.3;43.6;43.9;16;16.2;26.3;0.0;
25/02/2025 10:21:38;100;0;301.49;-4;-20.51;-3.39;260.3;16.80;76491;2837.570;-1801.101;1;314;-110;-111.3;43.6;43.9;16;16.2;26.3;0.0;
25/02/2025 10:21:58;100;0;301.42;-4;-20.59;-3.40;262.7;16.80;76479;2837.572;-1801.104;1;314;-110;-111.3;43.6;43.9;16;16.2;26.3;0.0;
25/02/2025 10:22:18;100;0;302.57;-4;-21.05;-3.24;265.3;16.80;76469;2837.575;-1801.108;1;314;-110;-114.5;43.6;43.9;16;16.2;26.3;0.0;
25/02/2025 10:22:38;100;0;302.63;-4;-20.78;-3.35;267.9;16.70;76471;2837.577;-1801.111;1;314;-110;-111.3;43.6;43.9;16;16.2;26.3;0.0;
25/02/2025 10:22:58;100;0;301.22;-4;-20.44;-3.39;270.3;16.70;76462;2837.580;-1801.115;1;314;-110;-111.3;43.6;43.9;14;14.0;26.3;0.0;
25/02/2025 10:23:18;100;0;300.41;-4;-19.79;-4.61;272.7;16.60;76452;2837.582;-1801.118;1;314;-110;-111.3;43.6;43.9;14;13.5;26.3;0.0;
25/02/2025 10:23:38;100;0;301.45;-4;-20.51;-4.79;274.9;16.60;76457;2837.584;-1801.121;1;314;-110;-111.3;43.6;43.9;14;13.5;26.3;0.0;
25/02/2025 10:23:58;100;0;302.46;-4;-20.25;-4.81;277.4;16.60;76450;2837.587;-1801.124;1;314;-110;-111.3;43.6;43.9;14;13.5;26.3;0.0;
25/02/2025 10:24:18;100;0;300.46;-4;-20.84;-4.84;279.8;16.50;76437;2837.589;-1801.128;1;314;-110;-111.3;43.6;43.9;14;13.5;26.3;0.0;
25/02/2025 10:24:38;100;0;300.51;-4;-20.61;-4.74;282.2;16.50;76431;2837.592;-1801.131;1;314;-110;-111.3;43.6;43.9;14;13.5;26.3;0.0;
25/02/2025 10:24:58;100;0;300.13;-4;-20.64;-4.75;284.8;16.50;76432;2837.594;-1801.135;1;314;-110;-111.3;43.6;43.9;14;13.5;26.3;0.0;
25/02/2025 10:25:18;100;0;299.18;-4;-20.51;-4.75;287.4;16.50;76425;2837.597;-1801.138;1;314;-110;-111.3;43.6;43.9;14;13.5;26.3;0.0;
25/02/2025 10:25:38;100;0;296.01;-4;-20.25;-4.80;289.8;16.40;76418;2837.599;-1801.142;1;314;-110;-111.3;43.6;43.9;12;12.2;26.3;0.0;
25/02/2025 10:25:58;100;0;293.23;-4;-20.29;-5.53;292.4;16.40;76400;2837.601;-1801.145;1;314;-110;-112.9;43.6;43.9;6;5.9;26.3;0.0;
25/02/2025 10:26:18;100;0;292.49;-4;-20.13;-8.82;294.7;16.40;76399;2837.603;-1801.149;1;314;-110;-111.3;43.6;43.9;6;5.4;26.3;0.0;
25/02/2025 10:26:38;100;0;292.44;-4;-20.20;-8.86;297.3;16.30;76384;2837.605;-1801.153;1;314;-110;-111.3;43.6;43.9;6;5.4;26.3;0.0;
25/02/2025 10:26:59;100;0;290.38;-4;-19.77;-8.72;299.9;16.30;76391;2837.607;-1801.157;1;314;-110;-111.3;43.6;43.9;3;3.2;26.3;0.0;
25/02/2025 10:27:19;100;0;290.83;-4;-19.74;-10.17;302.4;16.20;76371;2837.609;-1801.161;1;314;-110;-111.3;43.6;43.9;3;2.7;26.3;0.0;
25/02/2025 10:27:39;100;0;295.55;-4;-19.53;-10.12;304.8;16.20;76364;2837.611;-1801.164;1;314;-110;-111.3;43.6;43.9;10;9.9;26.3;0.0;
25/02/2025 10:27:59;100;0;299.30;-4;-19.78;-6.15;307.1;16.20;76349;2837.614;-1801.167;1;314;-110;-111.3;43.6;43.9;14;14.0;26.3;0.0;
25/02/2025 10:28:19;100;0;300.30;-4;-20.52;-4.22;309.5;16.10;76351;2837.616;-1801.171;1;314;-110;-111.3;43.6;43.9;14;14.4;26.3;0.0;
25/02/2025 10:28:39;100;0;298.38;-4;-20.42;-4.23;311.9;16.10;76333;2837.618;-1801.174;1;314;-110;-111.3;43.6;43.9;12;12.2;26.3;0.0;
25/02/2025 10:28:59;100;0;299.93;-4;-20.14;-5.65;314.4;16.10;76329;2837.621;-1801.178;1;314;-110;-112.9;43.6;43.9;12;11.7;26.3;0.0;
25/02/2025 10:29:19;100;0;301.12;-4;-20.09;-5.64;316.9;16.00;76318;2837.623;-1801.181;1;314;-110;-111.3;43.6;43.9;14;14.0;26.3;0.0;
25/02/2025 10:29:39;100;0;303.23;-4;-20.23;-4.34;319.4;16.00;76313;2837.626;-1801.185;1;314;-110;-112.9;43.6;43.9;14;14.4;26.3;0.0;
25/02/2025 10:29:59;100;0;306.27;-4;-20.05;-4.33;321.8;16.00;76317;2837.628;-1801.188;1;314;-110;-111.3;43.6;43.9;14;14.4;26.3;0.0;
25/02/2025 10:30:19;100;0;307.45;-4;-20.07;-4.36;324.1;15.90;76302;2837.631;-1801.191;1;314;-110;-112.9;43.6;43.9;14;14.4;26.3;0.0;
25/02/2025 10:30:39;100;0;308.69;-4;-20.13;-4.35;326.7;15.90;76298;2837.634;-1801.194;1;314;-110;-114.5;43.6;43.9;14;14.4;26.3;0.0;
25/02/2025 10:30:59;100;0;311.39;-4;-20.21;-4.33;329.0;15.80;76284;2837.637;-1801.197;1;314;-110;-111.3;43.6;43.9;14;14.4;26.3;0.0;
25/02/2025 10:31:19;100;0;315.12;-4;-20.15;-4.32;331.3;15.80;76296;2837.640;-1801.200;1;314;-110;-111.3;43.6;43.9;17;17.1;26.3;0.0;
25/02/2025 10:31:39;100;0;314.02;-4;-20.49;-2.74;334.0;15.80;76286;2837.643;-1801.203;1;314;-110;-111.3;43.6;43.9;15;14.9;26.3;0.0;
25/02/2025 10:31:59;100;0;312.31;-4;-20.32;-4.16;336.4;15.80;76291;2837.646;-1801.206;1;314;-110;-111.3;43.6;43.9;15;14.9;26.3;0.0;
25/02/2025 10:32:19;100;0;313.65;-4;-20.23;-4.17;339.0;15.70;76273;2837.649;-1801.209;1;314;-110;-111.3;43.6;43.9;15;14.9;26.3;0.0;
25/02/2025 10:32:39;100;0;313.67;-4;-20.46;-4.19;341.6;15.70;76269;2837.652;-1801.212;1;314;-110;-111.3;43.6;43.9;15;14.4;26.3;0.0;
25/02/2025 10:32:59;100;0;311.82;-4;-20.40;-4.14;344.3;15.60;76260;2837.655;-1801.216;1;314;-110;-111.3;43.6;43.9;15;14.4;26.3;0.0;
25/02/2025 10:33:19;100;0;309.34;-4;-20.29;-4.18;347.1;15.60;76260;2837.659;-1801.219;1;314;-110;-111.3;43.6;43.9;15;14.9;26.3;0.0;
25/02/2025 10:33:39;100;0;306.75;-4;-20.50;-4.16;349.8;15.60;76249;2837.661;-1801.223;1;314;-110;-109.7;43.6;43.9;15;14.4;26.3;0.0;
25/02/2025 10:33:59;100;0;304.50;-4;-20.23;-4.16;352.6;15.60;76240;2837.664;-1801.226;1;314;-110;-112.9;43.6;43.9;15;14.9;26.3;0.0;
25/02/2025 10:34:19;100;0;302.34;-4;-20.26;-4.17;355.4;15.50;76244;2837.667;-1801.230;1;314;-110;-111.3;43.6;43.9;15;14.9;26.3;0.0;
25/02/2025 10:34:39;100;0;300.43;-4;-20.22;-4.16;358.2;15.50;76241;2837.670;-1801.234;1;314;-110;-111.3;43.6;43.9;13;13.1;26.3;0.0;
25/02/2025 10:34:59;100;0;300.79;-4;-20.14;-5.16;361.0;15.50;76220;2837.672;-1801.238;1;314;-110;-112.9;43.6;43.9;13;12.6;26.3;0.0;
25/02/2025 10:35:19;100;0;301.49;-4;-20.02;-5.15;363.8;15.40;76227;2837.675;-1801.242;1;314;-110;-111.3;43.6;43.9;13;12.6;26.3;0.0;
25/02/2025 10:35:39;100;0;303.79;-4;-19.97;-5.15;366.7;15.40;76230;2837.678;-1801.246;1;314;-110;-111.3;43.6;43.9;13;12.6;26.3;0.0;
25/02/2025 10:35:59;100;0;305.71;-4;-19.84;-5.22;369.5;15.40;76219;2837.681;-1801.249;1;314;-110;-109.7;43.6;43.9;13;12.6;26.3;0.0;
25/02/2025 10:36:19;100;0;306.86;-4;-19.94;-5.15;372.3;15.30;76212;2837.684;-1801.253;1;314;-110;-112.9;43.6;43.9;13;12.6;26.3;0.0;
25/02/2025 10:36:39;100;0;306.27;-4;-19.95;-5.20;375.1;15.30;76210;2837.687;-1801.257;1;314;-110;-111.3;43.6;43.9;13;12.6;26.3;0.0;
25/02/2025 10:36:59;100;0;303.99;-4;-19.80;-5.20;377.8;15.30;76206;2837.690;-1801.260;1;314;-110;-111.3;43.6;43.9;13;12.6;26.3;0.0;
25/02/2025 10:37:19;100;0;305.76;-4;-19.85;-5.21;380.7;15.30;76196;2837.693;-1801.264;1;314;-110;-111.3;43.6;43.9;13;12.6;26.3;0.0;
25/02/2025 10:37:39;100;0;309.66;-4;-19.78;-5.15;383.4;15.20;76197;2837.696;-1801.267;1;314;-110;-111.3;43.6;43.9;13;12.6;26.3;0.0;
25/02/2025 10:37:59;100;0;313.07;-4;-19.96;-5.15;386.2;15.20;76190;2837.699;-1801.271;1;314;-110;-112.9;43.6;43.9;15;15.3;26.3;0.0;
25/02/2025 10:38:19;100;0;314.68;-4;-20.27;-3.65;388.9;15.20;76183;2837.703;-1801.274;1;314;-110;-112.9;43.6;43.9;15;15.8;26.3;0.0;
25/02/2025 10:38:39;100;0;313.29;-4;-20.20;-3.63;391.7;15.10;76166;2837.706;-1801.277;1;314;-110;-111.3;43.6;43.9;15;15.8;26.3;0.0;
25/02/2025 10:38:59;100;0;312.51;-4;-19.89;-3.62;394.4;15.10;76161;2837.709;-1801.281;1;314;-110;-111.3;43.6;43.9;15;15.8;26.3;0.0;
25/02/2025 10:39:19;100;0;313.77;-4;-19.95;-3.66;397.0;15.10;76159;2837.712;-1801.284;1;314;-110;-111.3;43.6;43.9;15;15.3;26.3;0.0;
25/02/2025 10:39:39;100;0;316.57;-4;-19.93;-3.66;399.8;15.10;76150;2837.716;-1801.287;1;314;-110;-112.9;43.6;43.9;17;17.1;26.3;0.0;
25/02/2025 10:39:59;100;0;317.96;-4;-19.98;-2.78;402.3;15.10;76150;2837.719;-1801.290;1;314;-110;-111.3;43.6;43.9;19;19.0;26.3;0.0;
25/02/2025 10:40:19;100;0;317.35;-4;-20.06;-1.87;404.9;15.00;76141;2837.722;-1801.293;1;314;-110;-111.3;43.6;43.9;17;17.1;26.3;0.0;
25/02/2025 10:40:39;100;0;318.44;-4;-19.88;-3.28;407.6;15.00;76140;2837.726;-1801.296;1;314;-110;-111.3;43.6;43.9;17;16.7;26.3;0.0;
25/02/2025 10:40:59;100;0;318.98;-4;-19.83;-3.26;410.2;15.00;76126;2837.729;-1801.299;1;314;-110;-111.3;43.6;43.9;20;19.9;26.3;0.0;
25/02/2025 10:41:19;100;0;315.03;-4;-20.06;-1.46;412.9;14.90;76124;2837.732;-1801.302;1;314;-110;-111.3;43.6;43.9;16;15.3;26.3;0.0;
25/02/2025 10:41:39;100;0;311.31;-4;-19.96;-3.94;415.6;14.90;76111;2837.735;-1801.305;1;314;-110;-112.9;43.6;43.9;16;15.3;26.3;0.0;
25/02/2025 10:41:59;100;0;310.54;-4;-19.88;-3.94;418.3;14.90;76113;2837.739;-1801.308;1;314;-110;-111.3;43.6;43.9;16;15.3;26.3;0.0;
25/02/2025 10:42:19;100;0;310.89;-4;-19.83;-3.91;421.0;14.80;76098;2837.742;-1801.312;1;314;-110;-111.3;43.6;43.9;16;15.3;26.3;0.0;
25/02/2025 10:42:39;100;0;310.51;-4;-19.79;-3.96;423.6;14.80;76088;2837.745;-1801.315;1;314;-110;-111.3;43.6;43.9;16;15.3;26.3;0.0;
25/02/2025 10:42:59;100;0;308.97;-4;-19.79;-3.96;426.4;14.80;76092;2837.748;-1801.319;1;314;-110;-111.3;43.6;43.9;16;15.3;26.3;0.0;
25/02/2025 10:43:19;100;0;307.32;-4;-19.79;-3.96;429.2;14.70;76091;2837.751;-1801.322;1;314;-110;-111.3;43.6;43.9;16;15.3;26.3;0.0;
25/02/2025 10:43:39;100;0;306.52;-4;-19.66;-3.83;432.0;14.70;76086;2837.754;-1801.326;1;314;-110;-114.5;43.6;43.9;16;14.9;26.3;0.0;
25/02/2025 10:43:59;100;0;307.74;-4;-19.85;-3.98;434.8;14.70;76080;2837.757;-1801.330;1;314;-110;-111.3;43.6;43.9;16;15.3;26.3;0.0;
25/02/2025 10:44:19;100;0;308.68;-4;-19.87;-3.88;437.7;14.70;76077;2837.760;-1801.333;1;314;-110;-111.3;43.6;43.9;16;15.3;26.3;0.0;
25/02/2025 10:44:39;100;0;310.20;-4;-19.83;-3.95;440.7;14.60;76067;2837.763;-1801.337;1;314;-110;-112.9;43.6;43.9;16;15.3;26.3;0.0;
25/02/2025 10:44:59;100;0;312.17;-4;-20.00;-3.84;443.8;14.60;76067;2837.767;-1801.341;1;314;-110;-111.3;43.6;43.9;16;15.3;26.3;0.0;
25/02/2025 10:45:19;100;0;314.59;-4;-20.00;-3.91;446.8;14.60;76060;2837.771;-1801.344;1;314;-110;-111.3;43.6;43.9;16;15.3;26.3;0.0;
25/02/2025 10:45:39;100;0;314.14;-4;-20.02;-3.90;449.8;14.60;76057;2837.774;-1801.348;1;314;-110;-111.3;43.6;43.9;16;15.3;26.3;0.0;
25/02/2025 10:45:59;100;0;313.28;-4;-19.92;-3.95;452.9;14.50;76054;2837.778;-1801.351;1;314;-110;-111.3;43.6;44.0;16;15.3;26.3;0.0;
25/02/2025 10:46:19;100;0;312.75;-4;-19.79;-3.96;455.9;14.50;76044;2837.781;-1801.355;1;314;-110;-112.9;43.6;43.9;16;15.3;26.3;0.0;
25/02/2025 10:46:39;100;0;312.60;-4;-20.02;-3.82;458.9;14.50;76050;2837.785;-1801.359;1;314;-110;-112.9;43.6;43.9;16;15.3;26.3;0.0;
25/02/2025 10:46:59;100;0;314.11;-4;-20.49;-3.83;461.8;14.50;76032;2837.788;-1801.362;1;314;-110;-112.9;43.6;43.9;16;15.3;26.3;0.0;
25/02/2025 10:47:19;100;0;311.01;-4;-19.88;-3.91;464.8;14.40;76030;2837.791;-1801.366;1;314;-110;-111.3;43.6;43.9;16;15.3;26.3;0.0;
25/02/2025 10:47:39;100;0;308.85;-4;-19.77;-3.94;467.7;14.40;76026;2837.795;-1801.369;1;314;-110;-111.3;43.6;43.9;16;15.3;26.3;0.0;
25/02/2025 10:47:59;100;0;306.83;-4;-19.72;-3.93;470.5;14.40;76023;2837.798;-1801.373;1;314;-110;-111.3;43.6;44.0;16;15.3;26.3;0.0;
25/02/2025 10:48:19;100;0;305.55;-4;-19.50;-3.94;473.1;14.40;76021;2837.800;-1801.376;1;314;-110;-111.3;43.6;43.9;16;15.3;26.3;0.0;
25/02/2025 10:48:39;100;0;305.42;-4;-19.79;-3.94;475.9;14.30;76000;2837.803;-1801.380;1;314;-110;-111.3;43.6;43.9;16;15.3;26.3;0.0;
25/02/2025 10:48:59;100;0;307.05;-4;-19.61;-3.93;478.5;14.30;76017;2837.806;-1801.384;1;314;-110;-111.3;43.6;43.9;16;15.3;26.3;0.0;
25/02/2025 10:49:19;100;0;308.77;-4;-19.79;-3.95;481.1;14.30;75995;2837.809;-1801.387;1;314;-110;-111.3;43.6;43.9;16;15.3;26.3;0.0;
25/02/2025 10:49:39;100;0;310.97;-4;-19.96;-3.87;483.8;14.20;75986;2837.812;-1801.390;1;314;-110;-112.9;43.6;43.9;16;15.3;26.3;0.0;
25/02/2025 10:49:59;100;0;310.27;-4;-19.99;-3.92;486.6;14.20;75985;2837.815;-1801.394;1;314;-110;-111.3;43.6;43.9;16;15.3;26.3;0.0;
25/02/2025 10:50:19;100;0;310.97;-4;-20.11;-3.89;489.3;14.20;75977;2837.819;-1801.397;1;314;-110;-111.3;43.6;43.9;16;15.3;26.3;0.0;
25/02/2025 10:50:39;100;0;311.86;-4;-19.98;-3.87;491.9;14.20;75973;2837.822;-1801.400;1;314;-110;-114.5;43.6;43.9;16;15.3;26.3;0.0;
25/02/2025 10:50:59;100;0;311.90;-4;-20.00;-3.92;494.8;14.10;75969;2837.825;-1801.404;1;314;-110;-111.3;43.6;43.9;16;15.3;26.3;0.0;
25/02/2025 10:51:19;100;0;314.00;-4;-19.76;-3.89;497.4;14.10;75975;2837.828;-1801.407;1;314;-110;-112.9;43.6;43.9;16;15.3;26.3;0.0;
25/02/2025 10:51:39;100;0;312.62;-4;-19.70;-3.93;499.9;14.10;75971;2837.831;-1801.410;1;314;-110;-111.3;43.6;43.9;16;15.3;26.3;0.0;
25/02/2025 10:51:59;100;0;312.57;-4;-19.85;-3.91;502.5;14.10;75964;2837.834;-1801.413;1;314;-110;-111.3;43.6;43.9;16;15.3;26.3;0.0;
25/02/2025 10:52:19;100;0;313.87;-4;-19.71;-3.91;505.1;14.10;75967;2837.837;-1801.416;1;314;-110;-111.3;43.6;43.9;16;15.3;26.3;0.0;
25/02/2025 10:52:39;100;0;315.48;-4;-19.55;-3.90;507.8;14.00;75958;2837.841;-1801.419;1;314;-110;-111.3;43.6;43.9;16;15.3;26.3;0.0;
25/02/2025 10:52:59;100;0;317.36;-4;-19.50;-4.01;510.2;14.00;75937;2837.844;-1801.422;1;314;-110;-111.3;43.6;43.9;19;19.0;26.3;0.0;
25/02/2025 10:53:19;100;0;318.16;-4;-19.90;-1.84;512.8;14.00;75937;2837.847;-1801.425;1;314;-110;-111.3;43.6;43.9;19;19.4;26.3;0.0;
25/02/2025 10:53:39;100;0;318.87;-4;-19.77;-1.76;515.4;13.90;75937;2837.851;-1801.428;1;314;-110;-112.9;43.6;43.9;19;19.4;26.3;0.0;
25/02/2025 10:53:59;100;0;318.07;-4;-19.69;-1.83;518.1;13.90;75932;2837.854;-1801.431;1;314;-110;-111.3;43.6;43.9;19;19.4;26.3;0.0;
25/02/2025 10:54:19;100;0;318.41;-4;-19.58;-1.81;520.6;13.90;75926;2837.857;-1801.434;1;314;-110;-111.3;43.6;43.9;19;19.4;26.3;0.0;
25/02/2025 10:54:39;100;0;317.82;-4;-19.54;-1.84;523.2;13.90;75921;2837.861;-1801.437;1;314;-110;-111.3;43.6;43.9;19;19.4;26.3;0.0;
25/02/2025 10:54:59;100;0;317.84;-4;-19.52;-1.81;525.7;13.90;75915;2837.864;-1801.439;1;314;-110;-111.3;43.6;43.9;19;19.4;26.3;0.0;
25/02/2025 10:55:19;100;0;317.24;-4;-19.61;-1.77;528.3;13.80;75907;2837.867;-1801.442;1;314;-110;-111.3;43.6;44.0;19;19.9;26.3;0.0;
25/02/2025 10:55:39;100;0;314.66;-4;-19.49;-1.80;530.7;13.80;75919;2837.870;-1801.445;1;314;-110;-111.3;43.6;43.9;17;17.1;26.3;0.0;
25/02/2025 10:55:59;100;0;313.27;-4;-19.49;-3.12;533.2;13.80;75905;2837.873;-1801.448;1;314;-110;-111.3;43.6;43.9;17;16.7;26.3;0.0;
25/02/2025 10:56:19;100;0;312.10;-4;-19.49;-3.20;535.8;13.70;75902;2837.877;-1801.452;1;314;-110;-111.3;43.6;43.9;17;16.7;26.3;0.0;
25/02/2025 10:56:39;100;0;310.35;-4;-19.35;-3.22;538.2;13.70;75894;2837.879;-1801.455;1;314;-110;-112.9;43.6;43.9;17;16.7;26.3;0.0;
25/02/2025 10:56:59;100;0;309.96;-4;-19.42;-3.23;540.6;13.70;75896;2837.882;-1801.458;1;314;-110;-112.9;43.6;43.9;17;16.7;26.3;0.0;
25/02/2025 10:57:19;100;0;309.58;-4;-19.33;-3.21;543.2;13.70;75901;2837.885;-1801.461;1;314;-110;-112.9;43.6;43.9;17;16.7;26.3;0.0;
25/02/2025 10:57:39;100;0;309.07;-4;-19.26;-3.16;545.6;13.70;75894;2837.888;-1801.465;1;314;-110;-111.3;43.6;43.9;17;17.1;26.3;0.0;
25/02/2025 10:57:59;100;0;309.15;-4;-19.37;-3.23;548.2;13.60;75888;2837.891;-1801.468;1;314;-110;-111.3;43.6;43.9;17;16.7;26.3;0.0;
25/02/2025 10:58:19;100;0;311.19;-4;-19.44;-3.22;550.6;13.60;75879;2837.894;-1801.471;1;314;-110;-114.5;43.6;43.9;17;16.7;26.3;0.0;
25/02/2025 10:58:39;100;0;313.15;-4;-19.57;-3.18;553.1;13.60;75882;2837.897;-1801.474;1;314;-110;-112.9;43.6;43.9;17;16.7;26.3;0.0;
25/02/2025 10:58:59;100;0;311.91;-4;-19.11;-3.20;555.5;13.60;75879;2837.900;-1801.477;1;314;-110;-111.3;43.6;43.9;17;16.7;26.3;0.0;
25/02/2025 10:59:19;100;0;310.82;-4;-19.09;-3.19;557.9;13.50;75871;2837.903;-1801.480;1;314;-110;-111.3;43.6;43.9;17;16.7;26.3;0.0;
25/02/2025 10:59:39;100;0;309.67;-4;-19.26;-3.14;560.4;13.50;75869;2837.906;-1801.484;1;314;-110;-111.3;43.6;43.9;17;17.1;26.3;0.0;
25/02/2025 10:59:59;100;0;309.91;-4;-18.92;-2.99;562.7;13.50;75869;2837.909;-1801.487;1;314;-110;-111.3;43.9;43.9;17;16.7;26.3;0.0;
25/02/2025 11:00:19;100;0;307.66;-4;-19.08;-3.17;565.3;13.50;75859;2837.912;-1801.490;1;314;-110;-111.3;43.9;43.9;17;16.7;26.3;0.0;
25/02/2025 11:00:39;100;0;306.14;-4;-18.94;-3.28;567.5;13.50;75863;2837.915;-1801.493;1;314;-110;-111.3;44.2;44.2;17;16.7;26.3;0.0;
25/02/2025 11:00:59;100;0;308.09;-4;-20.39;-3.18;569.9;13.50;75856;2837.917;-1801.496;1;314;-110;-112.9;44.2;44.5;17;16.7;26.3;0.0;
25/02/2025 11:01:19;100;0;310.14;-4;-20.48;-3.22;572.4;13.40;75851;2837.920;-1801.500;1;314;-110;-111.3;44.2;44.5;17;16.7;26.3;0.0;
25/02/2025 11:01:39;100;0;311.01;-4;-20.27;-3.14;574.9;13.40;75841;2837.923;-1801.503;1;314;-110;-112.9;44.2;44.5;17;16.7;26.3;0.0;
25/02/2025 11:01:59;100;0;310.73;-4;-20.23;-3.20;577.4;13.40;75842;2837.926;-1801.506;1;314;-110;-111.3;44.2;44.5;17;16.7;26.3;0.0;
25/02/2025 11:02:20;100;0;309.75;-4;-20.04;-3.22;579.9;13.40;75843;2837.929;-1801.509;1;314;-110;-111.3;44.2;44.5;17;16.7;26.3;0.0;
25/02/2025 11:02:40;100;0;308.80;-4;-20.03;-3.16;582.4;13.30;75834;2837.932;-1801.512;1;314;-110;-111.3;44.2;44.5;17;16.7;26.3;0.0;
25/02/2025 11:03:00;100;0;307.04;-4;-20.44;-3.18;584.9;13.30;75834;2837.935;-1801.516;1;314;-110;-111.3;44.2;44.5;17;16.7;26.3;0.0;
25/02/2025 11:03:20;100;0;305.98;-4;-20.81;-3.10;587.5;13.30;75821;2837.937;-1801.519;1;314;-110;-112.9;44.2;44.5;17;16.7;26.3;0.0;
25/02/2025 11:03:40;100;0;306.92;-4;-20.62;-3.10;590.1;13.30;75819;2837.940;-1801.522;1;314;-110;-109.7;44.2;44.5;17;16.7;26.3;0.0;
25/02/2025 11:04:00;100;0;306.68;-4;-20.63;-3.14;592.7;13.30;75806;2837.943;-1801.526;1;314;-110;-112.9;44.2;44.5;17;16.7;26.3;0.0;
25/02/2025 11:04:20;100;0;304.33;-4;-20.65;-3.11;595.3;13.20;75805;2837.946;-1801.529;1;314;-110;-111.3;44.2;44.5;17;16.7;26.3;0.0;
25/02/2025 11:04:40;100;0;301.78;-4;-20.73;-3.12;597.9;13.20;75808;2837.948;-1801.532;1;314;-110;-112.9;44.2;44.5;15;14.9;26.3;0.0;
25/02/2025 11:05:00;100;0;302.22;-4;-20.55;-4.11;600.6;13.20;75798;2837.951;-1801.536;1;314;-110;-111.3;44.2;44.5;15;14.9;26.3;0.0;
25/02/2025 11:05:20;100;0;302.87;-4;-20.53;-4.13;603.2;13.20;75797;2837.953;-1801.539;1;314;-110;-111.3;44.2;44.5;15;14.9;26.3;0.0;
25/02/2025 11:05:40;100;0;304.86;-4;-20.55;-4.09;606.0;13.20;75795;2837.956;-1801.543;1;314;-110;-112.9;44.2;44.5;15;14.9;26.3;0.0;
25/02/2025 11:06:00;100;0;305.90;-4;-20.53;-4.08;608.6;13.10;75782;2837.959;-1801.546;1;314;-110;-111.3;44.2;44.5;15;14.9;26.3;0.0;
25/02/2025 11:06:20;100;0;309.64;-4;-20.52;-4.09;611.3;13.10;75783;2837.962;-1801.550;1;314;-110;-112.9;44.2;44.5;15;14.9;26.3;0.0;
25/02/2025 11:06:40;100;0;312.24;-4;-20.44;-4.15;614.0;13.10;75783;2837.965;-1801.553;1;314;-110;-111.3;44.2;44.5;15;14.9;26.3;0.0;
25/02/2025 11:07:00;100;0;315.85;-4;-20.41;-4.11;616.6;13.10;75771;2837.968;-1801.556;1;314;-110;-111.3;44.2;44.5;18;18.5;26.3;0.0;
25/02/2025 11:07:20;100;0;316.85;-4;-20.57;-2.23;619.3;13.10;75767;2837.972;-1801.559;1;314;-110;-112.9;44.2;44.5;18;18.5;26.3;0.0;
25/02/2025 11:07:40;100;0;316.95;-4;-20.55;-2.27;622.0;13.00;75754;2837.975;-1801.562;1;314;-110;-111.3;44.2;44.5;18;18.5;26.3;0.0;
25/02/2025 11:08:00;100;0;313.13;-4;-20.31;-2.29;624.6;13.00;75757;2837.978;-1801.565;1;314;-110;-111.3;44.2;44.5;18;18.5;26.3;0.0;
25/02/2025 11:08:20;100;0;310.74;-4;-20.39;-2.34;627.4;13.00;75748;2837.981;-1801.569;1;314;-110;-112.9;44.2;44.5;16;15.8;26.3;0.0;
25/02/2025 11:08:40;100;0;309.28;-4;-20.30;-3.85;630.0;13.00;75739;2837.984;-1801.572;1;314;-110;-111.3;44.2;44.5;16;15.3;26.3;0.0;
25/02/2025 11:09:00;100;0;308.72;-4;-20.36;-3.83;632.7;13.00;75729;2837.987;-1801.575;1;314;-110;-111.3;44.2;44.5;16;15.8;26.3;0.0;
25/02/2025 11:09:20;100;0;308.83;-4;-20.28;-3.74;635.5;12.90;75735;2837.990;-1801.579;1;314;-110;-111.3;44.2;44.5;16;15.8;26.3;0.0;
25/02/2025 11:09:40;100;0;307.50;-4;-20.11;-3.85;638.1;12.90;75723;2837.993;-1801.582;1;314;-110;-112.9;44.2;44.5;16;15.8;26.3;0.0;
25/02/2025 11:10:00;100;0;306.46;-4;-20.14;-3.85;640.9;12.90;75727;2837.996;-1801.586;1;314;-110;-111.3;44.2;44.5;16;15.3;26.3;0.0;
25/02/2025 11:10:20;100;0;305.58;-4;-20.11;-3.85;643.7;12.90;75722;2837.999;-1801.590;1;314;-110;-111.3;44.2;44.5;16;15.3;26.3;0.0;
25/02/2025 11:10:40;100;0;304.62;-4;-20.07;-3.90;646.3;12.90;75722;2838.002;-1801.593;1;314;-110;-111.3;44.2;44.5;16;15.3;26.3;0.0;
25/02/2025 11:11:00;100;0;303.34;-4;-20.04;-3.89;649.0;12.80;75714;2838.005;-1801.597;1;314;-110;-112.9;44.2;44.5;16;15.3;26.3;0.0;
25/02/2025 11:11:20;100;0;300.46;-4;-20.01;-3.92;651.7;12.80;75706;2838.007;-1801.601;1;314;-110;-111.3;44.2;44.3;16;15.8;26.3;0.0;
25/02/2025 11:11:40;100;0;299.25;-4;-20.12;-3.88;654.4;12.80;75707;2838.010;-1801.604;1;314;-110;-112.9;44.2;44.5;14;14.0;26.3;0.0;
25/02/2025 11:12:00;100;0;298.24;-4;-20.11;-4.64;657.1;12.80;75705;2838.012;-1801.608;1;314;-110;-111.3;44.2;44.5;14;14.0;26.3;0.0;
25/02/2025 11:12:20;100;0;299.45;-4;-19.99;-4.58;659.9;12.70;75703;2838.015;-1801.612;1;314;-110;-111.3;44.2;44.6;14;14.0;26.3;0.0;
25/02/2025 11:12:40;100;0;300.78;-4;-19.66;-4.68;662.5;12.70;75682;2838.018;-1801.616;1;314;-110;-111.3;44.2;44.5;14;14.0;26.3;0.0;
25/02/2025 11:13:00;100;0;298.50;-4;-19.85;-4.65;665.0;12.70;75680;2838.020;-1801.619;1;314;-110;-111.3;44.2;44.5;14;14.0;26.3;0.0;
25/02/2025 11:13:20;100;0;300.90;-4;-19.98;-4.59;667.7;12.70;75673;2838.023;-1801.623;1;314;-110;-112.9;44.2;44.5;14;14.0;26.3;0.0;
25/02/2025 11:13:40;100;0;302.71;-4;-19.99;-4.58;670.4;12.70;75658;2838.025;-1801.627;1;314;-110;-112.9;44.2;44.5;14;14.0;26.3;0.0;
25/02/2025 11:14:00;100;0;303.82;-4;-20.10;-4.57;672.9;12.60;75659;2838.028;-1801.630;1;314;-110;-111.3;44.2;44.5;16;15.8;26.3;0.0;
25/02/2025 11:14:20;100;0;304.21;-4;-20.45;-3.29;675.6;12.60;75647;2838.031;-1801.634;1;314;-110;-111.3;44.2;44.5;16;16.2;26.3;0.0;
25/02/2025 11:14:40;100;0;304.92;-4;-20.24;-3.24;678.1;12.60;75643;2838.034;-1801.637;1;314;-110;-111.3;44.2;44.5;16;16.2;26.3;0.0;
25/02/2025 11:15:00;100;0;306.43;-4;-20.47;-3.26;680.9;12.60;75636;2838.037;-1801.641;1;314;-110;-112.9;44.2;44.3;16;16.2;26.3;0.0;
25/02/2025 11:15:20;100;0;306.80;-4;-20.27;-3.32;683.6;12.50;75636;2838.039;-1801.644;1;314;-110;-111.3;44.2;44.5;16;16.2;26.3;0.0;
25/02/2025 11:15:40;100;0;309.14;-4;-20.29;-3.32;686.3;12.50;75629;2838.042;-1801.648;1;314;-110;-111.3;44.2;44.5;16;16.2;26.3;0.0;
25/02/2025 11:16:00;100;0;312.52;-4;-20.20;-3.25;688.9;12.50;75622;2838.046;-1801.651;1;314;-110;-111.3;44.2;44.5;16;16.2;26.3;0.0;
25/02/2025 11:16:20;100;0;313.60;-4;-20.23;-3.28;691.5;12.50;75621;2838.049;-1801.654;1;314;-110;-112.9;44.2;44.5;16;16.2;26.3;0.0;
25/02/2025 11:16:40;100;0;314.49;-4;-20.66;-3.42;694.1;12.50;75618;2838.052;-1801.657;1;314;-110;-111.3;44.2;44.5;16;16.2;26.3;0.0;
25/02/2025 11:17:00;100;0;314.62;-4;-20.34;-3.31;696.8;12.40;75614;2838.055;-1801.660;1;314;-110;-112.9;44.2;44.5;16;16.2;26.3;0.0;
25/02/2025 11:17:20;100;0;314.27;-4;-20.44;-3.24;699.5;12.40;75597;2838.058;-1801.664;1;314;-110;-109.7;44.2;44.5;16;16.2;26.3;0.0;
25/02/2025 11:17:40;100;0;312.05;-4;-20.11;-3.32;702.1;12.40;75598;2838.062;-1801.667;1;314;-110;-112.9;44.2;44.5;16;16.2;26.3;0.0;
25/02/2025 11:18:00;100;0;311.51;-4;-20.21;-3.29;704.6;12.30;75590;2838.065;-1801.670;1;314;-110;-111.3;44.2;44.5;16;16.2;26.3;0.0;
25/02/2025 11:18:20;100;0;310.06;-4;-20.04;-3.38;707.1;12.30;75588;2838.067;-1801.673;1;314;-110;-112.9;44.2;44.5;16;16.2;26.3;0.0;
25/02/2025 11:18:40;100;0;307.61;-4;-19.92;-3.35;709.6;12.30;75588;2838.070;-1801.676;1;314;-110;-111.3;44.2;44.5;16;16.2;26.3;0.0;
25/02/2025 11:19:00;100;0;304.53;-4;-19.93;-3.32;712.0;12.30;75580;2838.073;-1801.680;1;314;-110;-111.3;44.2;44.5;16;16.2;26.3;0.0;
25/02/2025 11:19:20;100;0;304.22;-4;-19.89;-3.33;714.4;12.30;75578;2838.075;-1801.683;1;314;-110;-111.3;44.2;44.5;16;16.2;26.3;0.0;
25/02/2025 11:19:40;100;0;302.25;-4;-20.16;-3.34;716.9;12.30;75567;2838.078;-1801.686;1;314;-110;-111.3;44.2;44.5;16;16.2;26.3;0.0;
25/02/2025 11:20:00;100;0;299.15;-4;-20.01;-3.30;719.4;12.20;75564;2838.080;-1801.690;1;314;-110;-111.3;44.2;44.5;14;14.0;26.3;0.0;
25/02/2025 11:20:20;100;0;298.18;-4;-19.78;-4.62;721.6;12.20;75570;2838.083;-1801.693;1;314;-110;-111.3;44.2;44.5;14;14.0;26.3;0.0;
25/02/2025 11:20:40;100;0;298.83;-4;-19.64;-4.63;724.0;12.20;75562;2838.085;-1801.696;1;314;-110;-112.9;44.2;44.5;14;14.0;26.3;0.0;
25/02/2025 11:21:00;100;0;299.40;-4;-19.58;-4.57;726.5;12.20;75553;2838.087;-1801.700;1;314;-110;-111.3;44.2;44.5;14;14.0;26.3;0.0;
25/02/2025 11:21:20;100;0;297.81;-4;-19.76;-4.70;728.6;12.10;75545;2838.089;-1801.703;1;314;-110;-111.3;44.2;44.5;14;14.0;26.3;0.0;
25/02/2025 11:21:40;100;0;296.00;-4;-19.87;-4.72;731.1;12.10;75546;2838.092;-1801.707;1;314;-110;-111.3;44.2;44.5;12;11.7;26.3;0.0;
25/02/2025 11:22:00;100;0;295.76;-4;-19.48;-5.88;733.3;12.10;75539;2838.094;-1801.710;1;314;-110;-111.3;44.2;44.5;12;11.3;26.3;0.0;
25/02/2025 11:22:20;100;0;294.74;-4;-19.87;-5.83;735.7;12.10;75548;2838.096;-1801.714;1;314;-110;-114.5;44.2;44.5;10;9.9;26.3;0.0;
25/02/2025 11:22:40;100;0;294.18;-4;-19.22;-6.84;738.1;12.10;75539;2838.098;-1801.717;1;314;-110;-112.9;44.2;44.5;10;9.5;26.3;0.0;
25/02/2025 11:23:00;100;0;294.11;-4;-19.71;-6.82;740.4;12.00;75528;2838.100;-1801.721;1;314;-110;-111.3;44.2;44.6;10;9.5;26.3;0.0;
25/02/2025 11:23:20;100;0;295.37;-4;-19.48;-6.75;742.6;12.00;75531;2838.102;-1801.724;1;314;-110;-111.3;44.2;44.5;10;9.5;26.3;0.0;
25/02/2025 11:23:40;100;0;295.42;-4;-19.69;-6.78;745.0;12.00;75527;2838.105;-1801.728;1;314;-110;-111.3;44.2;44.5;10;9.5;26.3;0.0;
25/02/2025 11:24:00;100;0;296.32;-4;-19.26;-6.84;747.1;12.00;75528;2838.107;-1801.731;1;314;-110;-111.3;44.2;44.3;12;12.2;26.3;0.0;
25/02/2025 11:24:20;100;0;297.00;-4;-20.57;-5.16;749.4;12.00;75520;2838.109;-1801.734;1;314;-110;-112.9;44.2;44.5;12;12.6;26.3;0.0;
25/02/2025 11:24:40;100;0;297.05;-4;-19.40;-5.31;751.8;11.90;75517;2838.111;-1801.738;1;314;-110;-111.3;44.2;44.5;12;12.6;26.3;0.0;
25/02/2025 11:25:00;100;0;297.91;-4;-19.76;-5.31;754.2;11.90;75515;2838.113;-1801.741;1;314;-110;-111.3;44.2;44.6;12;12.6;26.3;0.0;
25/02/2025 11:25:20;100;0;299.33;-4;-19.76;-5.36;756.5;11.90;75521;2838.116;-1801.745;1;314;-110;-111.3;44.2;44.5;14;14.0;26.3;0.0;
25/02/2025 11:25:40;100;0;300.49;-4;-19.89;-4.40;758.9;11.90;75508;2838.118;-1801.748;1;314;-110;-111.3;44.2;44.5;14;14.0;26.3;0.0;
25/02/2025 11:26:00;100;0;302.21;-4;-19.92;-4.51;761.5;11.90;75512;2838.121;-1801.752;1;314;-110;-111.3;44.2;44.5;14;14.4;26.3;0.0;
25/02/2025 11:26:20;100;0;302.97;-4;-19.71;-4.42;764.1;11.80;75505;2838.123;-1801.755;1;314;-110;-111.3;44.2;44.5;14;14.4;26.3;0.0;
25/02/2025 11:26:40;100;0;303.85;-4;-19.74;-4.47;766.6;11.80;75493;2838.126;-1801.759;1;314;-110;-112.9;44.2;44.5;14;14.4;26.3;0.0;
25/02/2025 11:27:00;100;0;305.42;-4;-19.36;-4.49;769.0;11.80;75502;2838.129;-1801.762;1;314;-110;-111.3;44.2;44.5;14;14.4;26.3;0.0;
25/02/2025 11:27:20;100;0;303.48;-4;-19.40;-4.46;771.6;11.80;75486;2838.131;-1801.766;1;314;-110;-109.7;44.2;44.5;14;14.4;26.3;0.0;
25/02/2025 11:27:40;100;0;303.58;-4;-19.52;-4.43;774.3;11.80;75479;2838.134;-1801.769;1;314;-110;-111.3;44.2;44.5;14;14.4;26.3;0.0;
25/02/2025 11:28:00;100;0;304.49;-4;-19.87;-4.50;777.0;11.80;75469;2838.137;-1801.773;1;314;-110;-111.3;44.2;44.5;14;14.4;26.3;0.0;
25/02/2025 11:28:20;100;0;305.99;-4;-19.55;-4.45;779.8;11.70;75458;2838.140;-1801.777;1;314;-110;-111.3;44.2;44.5;14;14.4;26.3;0.0;
25/02/2025 11:28:40;100;0;309.14;-4;-19.80;-4.39;782.6;11.70;75459;2838.143;-1801.780;1;314;-110;-111.3;44.2;44.5;14;14.4;26.3;0.0;
25/02/2025 11:29:00;100;0;312.65;-4;-19.75;-4.40;785.4;11.70;75459;2838.146;-1801.784;1;314;-110;-109.7;44.2;44.5;14;14.0;26.3;0.0;
25/02/2025 11:29:20;100;0;314.80;-4;-19.59;-4.33;788.3;11.70;75443;2838.150;-1801.787;1;314;-110;-111.3;44.2;44.5;16;15.8;26.3;0.0;
25/02/2025 11:29:40;100;0;315.48;-4;-19.59;-3.29;791.2;11.60;75445;2838.153;-1801.790;1;314;-110;-112.9;44.2;44.5;16;16.7;26.3;0.0;
25/02/2025 11:30:00;100;0;317.24;-4;-19.83;-3.37;794.0;11.60;75437;2838.157;-1801.793;1;314;-110;-112.9;44.2;44.5;18;18.1;26.3;0.0;
25/02/2025 11:30:20;100;0;317.88;-4;-19.62;-2.46;796.8;11.60;75443;2838.160;-1801.796;1;314;-110;-111.3;44.2;44.5;18;18.5;26.3;0.0;
25/02/2025 11:30:40;100;0;317.23;-4;-20.02;-2.50;799.5;11.60;75439;2838.164;-1801.800;1;314;-110;-111.3;44.2;44.5;18;18.5;26.3;0.0;
25/02/2025 11:31:00;100;0;316.35;-4;-19.72;-2.46;802.4;11.60;75432;2838.167;-1801.803;1;314;-110;-111.3;44.2;44.5;18;18.5;26.3;0.0;
25/02/2025 11:31:20;100;0;314.02;-4;-19.81;-2.44;805.2;11.50;75433;2838.171;-1801.806;1;314;-110;-112.9;44.2;44.5;16;15.3;26.3;0.0;
25/02/2025 11:31:40;100;0;313.34;-4;-19.67;-3.96;808.1;11.50;75421;2838.174;-1801.810;1;314;-110;-111.3;44.2;44.5;16;15.3;26.3;0.0;
25/02/2025 11:32:00;100;0;311.74;-4;-19.49;-4.03;810.7;11.50;75416;2838.177;-1801.813;1;314;-110;-111.3;44.2;44.5;16;15.3;26.3;0.0;
25/02/2025 11:32:20;100;0;309.05;-4;-19.71;-4.01;813.2;11.50;75416;2838.180;-1801.816;1;314;-110;-111.3;44.2;44.5;16;15.3;26.3;0.0;
25/02/2025 11:32:40;100;0;309.06;-4;-19.56;-3.94;816.0;11.50;75411;2838.183;-1801.820;1;314;-110;-111.3;44.2;44.5;16;15.3;26.3;0.0;
25/02/2025 11:33:00;100;0;308.31;-4;-19.43;-4.01;818.7;11.40;75398;2838.186;-1801.823;1;314;-110;-111.3;44.2;44.5;16;15.3;26.3;0.0;
25/02/2025 11:33:20;100;0;309.39;-4;-19.61;-4.02;821.3;11.40;75399;2838.189;-1801.827;1;314;-110;-111.3;44.2;44.5;16;15.3;26.3;0.0;
25/02/2025 11:33:40;100;0;311.29;-4;-19.77;-4.00;823.8;11.40;75399;2838.192;-1801.830;1;314;-110;-111.3;44.2;44.5;16;15.3;26.3;0.0;
25/02/2025 11:34:00;100;0;312.46;-4;-19.80;-3.88;826.6;11.40;75389;2838.196;-1801.833;1;314;-110;-112.9;44.2;44.5;16;15.3;26.3;0.0;
25/02/2025 11:34:20;100;0;313.01;-4;-19.29;-4.02;829.3;11.40;75385;2838.199;-1801.836;1;314;-110;-111.3;44.2;44.5;16;15.3;26.3;0.0;
25/02/2025 11:34:40;100;0;311.98;-4;-19.17;-3.79;831.8;11.30;75377;2838.202;-1801.840;1;314;-110;-111.3;44.2;44.5;16;15.3;26.3;0.0;
25/02/2025 11:35:00;100;0;311.79;-4;-19.82;-4.00;834.2;11.30;75373;2838.205;-1801.843;1;314;-110;-109.7;44.2;44.5;16;15.3;26.3;0.0;
25/02/2025 11:35:20;100;0;313.17;-4;-19.36;-4.04;836.7;11.30;75380;2838.208;-1801.846;1;314;-110;-109.7;44.2;44.5;16;15.3;26.3;0.0;
25/02/2025 11:35:40;100;0;314.53;-4;-20.23;-3.99;839.5;11.30;75366;2838.211;-1801.849;1;314;-110;-111.3;44.2;44.5;16;15.3;26.3;0.0;
25/02/2025 11:36:00;100;0;314.66;-4;-19.23;-4.02;842.1;11.30;75362;2838.215;-1801.852;1;314;-110;-112.9;44.2;44.5;16;15.3;26.3;0.0;
25/02/2025 11:36:20;100;0;315.98;-4;-19.40;-3.94;844.6;11.20;75351;2838.218;-1801.855;1;314;-110;-111.3;44.2;44.5;18;18.5;26.3;0.0;
25/02/2025 11:36:40;100;0;315.69;-4;-20.03;-2.25;846.8;11.20;75349;2838.221;-1801.858;1;314;-110;-111.3;44.2;44.5;18;19.0;26.3;0.0;
25/02/2025 11:37:00;100;0;316.69;-4;-19.25;-2.21;849.1;11.20;75346;2838.224;-1801.861;1;314;-110;-114.5;44.2;44.3;18;19.0;26.3;0.0;
25/02/2025 11:37:20;100;0;320.97;-4;-19.38;-1.97;851.4;11.20;75338;2838.227;-1801.863;1;314;-110;-111.3;44.2;44.5;23;23.5;26.3;0.0;
25/02/2025 11:37:41;100;0;313.93;-4;-19.14;0.10;853.2;11.10;75331;2838.230;-1801.866;1;314;-130;-132.3;44.2;44.5;18;18.1;26.3;0.0;
25/02/2025 11:38:01;100;0;309.00;-4;-18.85;-2.78;855.0;11.10;75383;2838.232;-1801.868;1;314;-150;-151.6;44.6;44.8;16;15.8;26.3;0.0;
25/02/2025 11:38:21;100;0;311.05;-4;-19.83;-3.63;856.7;11.10;75422;2838.234;-1801.870;1;314;-170;-169.4;44.6;44.8;16;15.8;26.3;0.0;
25/02/2025 11:38:41;100;0;310.84;-4;-20.57;-3.46;859.2;11.10;75462;2838.237;-1801.873;1;314;-170;-171.0;44.6;44.9;16;15.8;26.3;0.0;
25/02/2025 11:39:01;100;0;310.37;-4;-21.43;-4.15;861.8;11.10;75455;2838.240;-1801.876;1;314;-170;-172.6;44.6;44.9;16;15.8;26.3;0.0;
25/02/2025 11:39:21;100;0;307.89;-4;-18.15;-3.96;864.6;11.10;75450;2838.243;-1801.880;1;314;-170;-171.0;45.1;45.2;16;15.8;26.3;0.0;
25/02/2025 11:39:41;100;0;310.38;-4;-22.83;-3.43;867.3;11.00;75449;2838.246;-1801.883;1;314;-170;-172.6;44.3;44.3;16;15.8;26.3;0.0;
25/02/2025 11:40:01;100;0;311.13;-4;-19.82;-3.60;871.0;11.00;75453;2838.250;-1801.888;1;314;-170;-172.6;44.3;44.2;16;15.8;26.3;0.0;
25/02/2025 11:40:21;100;0;310.07;-4;-18.33;-4.00;874.3;11.00;75461;2838.254;-1801.892;1;314;-170;-172.6;44.8;44.9;16;15.8;26.3;0.0;
25/02/2025 11:40:41;100;0;311.25;-4;-19.46;-3.60;877.5;11.00;75449;2838.258;-1801.896;1;314;-170;-172.6;44.8;45.1;16;15.8;26.3;0.0;
25/02/2025 11:41:01;100;0;311.44;-4;-18.98;-3.56;880.9;11.00;75441;2838.261;-1801.900;1;314;-170;-172.6;45.1;45.1;16;15.8;26.3;0.0;
25/02/2025 11:41:21;100;0;314.34;-4;-20.43;-3.56;884.1;10.90;75445;2838.265;-1801.904;1;314;-170;-171.0;45.1;45.2;16;15.8;26.3;0.0;
25/02/2025 11:41:41;100;0;308.70;-4;-19.80;-4.01;887.3;11.00;75444;2838.269;-1801.908;1;314;-170;-172.6;45.1;45.2;16;15.8;26.3;0.0;
25/02/2025 11:42:01;100;0;307.67;-4;-20.01;-3.51;890.5;10.90;75440;2838.272;-1801.912;1;314;-170;-171.0;45.1;45.1;16;15.8;26.3;0.0;
25/02/2025 11:42:21;100;0;305.41;-4;-19.88;-3.55;893.8;10.90;75437;2838.275;-1801.917;1;314;-170;-172.6;45.1;45.2;16;15.8;26.3;0.0;
25/02/2025 11:42:41;100;0;304.73;-4;-19.89;-3.40;897.1;10.90;75438;2838.279;-1801.921;1;314;-170;-172.6;45.1;45.2;16;15.8;26.3;43.1;
25/02/2025 11:43:01;100;0;303.57;-4;-19.94;-3.51;900.3;10.90;75438;2838.282;-1801.925;1;314;-170;-172.6;45.1;45.1;16;15.8;26.3;39.9;
25/02/2025 11:43:21;100;0;304.27;-4;-19.92;-3.52;903.7;10.90;75428;2838.285;-1801.930;1;314;-170;-172.6;45.1;45.2;16;15.8;26.3;36.9;
25/02/2025 11:43:41;100;0;303.38;-4;-20.15;-3.53;907.1;10.80;75426;2838.288;-1801.934;1;314;-170;-172.6;45.1;45.2;16;15.8;26.3;34.0;
25/02/2025 11:43:59;118;0;302.48;-4;-20.14;-3.57;910.4;10.80;75423;2838.291;-1801.938;1;314;450;-171.0;22.7;22.7;6;5.9;26.3;31.5;
25/02/2025 11:44:09;118;0;46.56;-4;-7.23;-9.26;911.8;10.80;75410;2838.293;-1801.937;1;314;450;-43.5;22.7;22.4;6;5.9;24.9;-1.0;
25/02/2025 11:44:19;118;0;37.10;-4;17.57;-9.40;912.2;10.80;75141;2838.294;-1801.936;1;314;450;80.6;22.7;22.7;6;5.9;24.9;-1.0;
25/02/2025 11:44:29;118;0;29.01;-4;27.65;-9.74;911.8;10.80;74880;2838.295;-1801.936;1;314;450;204.8;22.7;22.8;6;5.9;24.9;-1.0;
25/02/2025 11:44:39;118;0;29.75;-4;27.47;-9.71;911.0;10.80;74622;2838.296;-1801.936;1;314;450;329.0;22.7;22.8;6;5.9;24.9;-1.0;
25/02/2025 11:44:49;118;0;30.64;-4;25.39;-9.24;910.1;10.80;74384;2838.297;-1801.936;1;314;450;440.3;22.7;22.8;6;5.9;25.1;-1.0;
25/02/2025 11:44:59;118;0;33.23;-4;22.47;-8.59;908.9;10.80;74139;2838.299;-1801.935;1;314;450;450.0;22.7;22.8;6;5.9;25.1;-1.0;
25/02/2025 11:45:09;118;0;303.13;-4;20.45;-8.46;907.6;10.80;74130;2838.300;-1801.937;1;314;450;450.0;22.7;22.8;6;5.9;26.3;-1.0;
25/02/2025 11:45:29;117;0;297.02;-4;16.50;-8.37;905.1;10.90;74135;2838.303;-1801.941;1;314;450;451.6;22.7;22.8;6;5.9;26.3;-1.0;
25/02/2025 11:45:49;117;0;288.80;-4;18.41;-8.59;902.3;10.90;74130;2838.305;-1801.945;1;314;450;451.6;22.3;21.8;43;42.9;26.3;-1.0;
25/02/2025 11:46:09;117;0;292.45;-4;19.93;10.59;899.8;11.00;74143;2838.307;-1801.949;1;314;450;451.6;22.3;21.8;36;36.1;26.3;-1.0;
25/02/2025 11:46:29;117;0;298.16;-4;21.98;6.76;896.8;11.00;74134;2838.309;-1801.953;1;314;450;451.6;22.3;21.6;31;31.1;26.3;-1.0;
25/02/2025 11:46:49;117;0;301.10;-4;21.97;5.14;893.5;10.90;74124;2838.312;-1801.958;1;314;450;451.6;22.3;21.8;29;28.9;26.3;-1.0;
25/02/2025 11:47:09;117;0;300.53;-4;21.88;2.87;889.8;10.90;74132;2838.315;-1801.962;1;314;450;451.6;22.3;21.6;29;28.4;26.3;-1.0;
25/02/2025 11:47:29;117;0;298.80;-4;22.53;2.79;886.4;10.90;74113;2838.318;-1801.966;1;314;450;451.6;23.0;23.0;29;28.4;26.3;-1.0;
25/02/2025 11:47:49;117;0;292.89;-4;19.02;3.42;882.9;10.90;74113;2838.321;-1801.972;1;314;450;453.2;23.0;23.1;39;38.8;26.3;-1.0;
25/02/2025 11:48:09;117;0;297.21;-4;19.50;8.41;880.3;10.90;74116;2838.323;-1801.975;1;314;450;451.6;23.0;23.1;32;32.0;26.3;-1.0;
25/02/2025 11:48:29;117;0;301.86;-4;19.56;5.31;877.5;10.90;74117;2838.326;-1801.979;1;314;450;451.6;23.0;23.1;29;28.9;26.3;-1.0;
25/02/2025 11:48:49;117;0;301.05;-4;20.73;3.20;874.1;10.90;74111;2838.329;-1801.984;1;314;450;451.6;23.0;23.1;29;28.4;26.3;-1.0;
25/02/2025 11:49:09;117;0;302.41;-4;18.46;3.12;871.0;10.80;74102;2838.332;-1801.988;1;314;450;451.6;22.5;22.5;29;28.4;26.3;-1.0;
25/02/2025 11:49:29;117;0;300.96;-4;20.28;2.38;867.9;10.80;74111;2838.335;-1801.992;1;314;450;453.2;22.5;22.1;29;28.4;26.3;-1.0;
25/02/2025 11:49:49;117;0;300.76;-4;19.72;3.85;864.9;10.80;74103;2838.338;-1801.997;1;314;450;451.6;22.5;22.1;29;28.4;26.3;-1.0;
25/02/2025 11:50:09;117;0;302.62;-4;21.01;3.13;862.0;10.80;74102;2838.341;-1802.000;1;314;450;451.6;22.5;22.1;29;28.4;26.3;-1.0;
25/02/2025 11:50:29;117;0;304.65;-4;21.00;2.89;859.0;10.80;74088;2838.344;-1802.004;1;314;450;451.6;22.5;22.1;29;28.4;26.3;-1.0;
25/02/2025 11:50:49;117;0;305.52;-4;20.78;3.05;855.7;10.80;74087;2838.347;-1802.008;1;314;450;451.6;22.5;22.1;29;28.4;26.3;-1.0;
25/02/2025 11:51:09;117;0;306.92;-4;20.99;3.30;852.6;10.70;74088;2838.350;-1802.012;1;314;450;451.6;22.5;22.1;29;28.4;26.3;-1.0;
25/02/2025 11:51:29;117;0;305.87;-4;20.88;3.52;849.2;10.70;74085;2838.353;-1802.017;1;314;450;451.6;22.5;22.2;29;28.4;26.3;-1.0;
25/02/2025 11:51:49;117;0;307.08;-4;21.85;3.63;845.7;10.70;74084;2838.357;-1802.021;1;314;450;451.6;22.5;22.2;29;28.4;26.3;-1.0;
25/02/2025 11:52:09;117;0;308.88;-4;21.12;3.10;841.9;10.70;74074;2838.360;-1802.025;1;314;450;451.6;22.5;22.2;29;28.4;26.3;-1.0;
25/02/2025 11:52:29;117;0;307.65;-4;21.01;2.55;838.1;10.70;74071;2838.364;-1802.030;1;314;450;450.0;22.5;22.1;29;28.4;26.3;-1.0;
25/02/2025 11:52:49;117;0;310.15;-4;20.52;2.97;834.3;10.70;74072;2838.368;-1802.034;1;314;450;451.6;22.5;22.1;29;28.4;26.3;-1.0;
25/02/2025 11:53:09;117;0;309.81;-4;19.66;2.76;830.5;10.70;74056;2838.372;-1802.039;1;314;450;451.6;22.5;22.1;29;28.4;26.3;-1.0;
25/02/2025 11:53:29;117;0;308.16;-4;20.49;3.34;827.1;10.60;74042;2838.376;-1802.043;1;314;450;451.6;22.5;22.1;29;28.4;26.3;-1.0;
25/02/2025 11:53:49;117;0;308.48;-4;19.81;3.11;823.5;10.60;74045;2838.379;-1802.048;1;314;450;451.6;22.5;22.1;29;28.4;26.3;-1.0;
25/02/2025 11:54:09;117;0;310.41;-4;20.65;2.93;819.8;10.60;74043;2838.383;-1802.052;1;314;450;451.6;22.5;22.2;29;28.4;26.3;-1.0;
25/02/2025 11:54:29;117;0;311.00;-4;20.27;2.99;816.2;10.60;74043;2838.387;-1802.056;1;314;450;451.6;22.5;22.1;29;28.4;26.3;-1.0;
25/02/2025 11:54:49;117;0;309.82;-4;20.82;3.06;812.6;10.60;74038;2838.391;-1802.061;1;314;450;451.6;22.5;22.2;29;28.4;26.3;-1.0;
25/02/2025 11:55:09;117;0;310.88;-4;20.84;3.10;808.7;10.60;74029;2838.395;-1802.065;1;314;450;451.6;22.5;22.2;29;28.4;26.3;-1.0;
25/02/2025 11:55:29;117;0;309.73;-4;19.49;3.32;804.9;10.50;74029;2838.399;-1802.070;1;314;450;453.2;22.5;22.2;29;28.4;26.3;-1.0;
25/02/2025 11:55:49;117;0;310.70;-4;20.05;2.88;801.6;10.60;74041;2838.402;-1802.074;1;314;450;451.6;22.5;22.1;29;28.4;26.3;-1.0;
25/02/2025 11:56:09;117;0;311.60;-4;20.26;3.14;798.2;10.50;74028;2838.406;-1802.078;1;314;450;450.0;22.5;22.1;29;28.4;26.3;-1.0;
25/02/2025 11:56:29;117;0;312.03;-4;20.92;3.15;794.7;10.50;74044;2838.410;-1802.082;1;314;450;453.2;22.5;22.2;29;28.4;26.3;-1.0;
25/02/2025 11:56:49;117;0;312.34;-4;20.58;3.19;791.1;10.50;74047;2838.414;-1802.086;1;314;450;451.6;22.5;22.2;29;28.4;26.3;-1.0;
25/02/2025 11:57:09;117;0;313.37;-4;20.28;3.29;787.5;10.50;74032;2838.418;-1802.090;1;314;450;451.6;22.5;22.2;29;28.4;26.3;-1.0;
25/02/2025 11:57:29;117;0;313.93;-4;20.28;3.22;784.0;10.50;74038;2838.422;-1802.095;1;314;450;451.6;22.5;22.2;29;28.4;26.3;-1.0;
25/02/2025 11:57:49;117;0;314.53;-4;20.31;3.07;780.7;10.50;74044;2838.426;-1802.098;1;314;450;451.6;22.5;22.1;29;28.4;26.3;-1.0;
25/02/2025 11:58:09;117;0;314.38;-4;20.37;3.26;777.5;10.50;74049;2838.429;-1802.102;1;314;450;451.6;22.5;21.9;27;27.1;26.3;-1.0;
25/02/2025 11:58:29;117;0;313.14;-4;20.61;2.14;774.1;10.50;74051;2838.433;-1802.106;1;314;450;451.6;22.5;22.1;27;26.6;26.3;-1.0;
25/02/2025 11:58:49;117;0;312.70;-4;20.66;2.10;770.7;10.50;74042;2838.437;-1802.110;1;314;450;451.6;22.5;21.9;27;26.6;26.3;-1.0;
25/02/2025 11:59:09;117;0;312.01;-4;20.50;2.18;767.3;10.50;74055;2838.440;-1802.114;1;314;450;451.6;22.5;22.1;27;26.6;26.3;-1.0;
25/02/2025 11:59:29;117;0;311.69;-4;20.49;2.07;764.1;10.50;74042;2838.444;-1802.118;1;314;450;451.6;22.5;22.2;27;26.6;26.3;-1.0;
25/02/2025 11:59:49;117;0;311.81;-4;20.50;2.08;760.9;10.50;74049;2838.447;-1802.121;1;314;450;453.2;22.5;22.1;27;26.6;26.3;-1.0;
25/02/2025 12:00:09;117;0;309.92;-4;20.44;2.15;757.8;10.50;74061;2838.451;-1802.125;1;314;450;453.2;22.5;22.1;27;26.6;26.3;-1.0;
25/02/2025 12:00:29;117;0;308.00;-4;20.91;2.06;754.4;10.50;74069;2838.454;-1802.129;1;314;450;453.2;22.5;21.9;27;26.2;26.3;-1.0;
25/02/2025 12:00:49;117;0;307.40;-4;20.55;2.10;751.1;10.50;74072;2838.458;-1802.133;1;314;450;451.6;22.5;22.1;27;26.6;26.3;-1.0;
25/02/2025 12:01:09;117;0;307.98;-4;20.06;2.52;747.7;10.50;74078;2838.461;-1802.138;1;314;450;453.2;22.5;22.1;27;26.6;26.3;-1.0;
25/02/2025 12:01:29;117;0;307.92;-4;20.80;2.10;744.7;10.50;74067;2838.464;-1802.141;1;314;450;451.6;22.5;22.1;27;26.6;26.3;-1.0;
25/02/2025 12:01:49;117;0;307.92;-4;19.82;1.92;741.6;10.50;74075;2838.468;-1802.145;1;314;450;451.6;22.5;22.1;27;26.6;26.3;-1.0;
25/02/2025 12:02:09;117;0;308.07;-4;20.82;1.94;738.5;10.50;74078;2838.471;-1802.149;1;314;450;453.2;22.5;22.1;27;26.6;26.3;-1.0;
25/02/2025 12:02:29;117;0;308.58;-4;20.77;2.21;735.1;10.50;74078;2838.474;-1802.153;1;314;450;453.2;22.5;22.1;27;26.6;26.3;-1.0;
25/02/2025 12:02:49;117;0;305.19;-4;21.06;2.24;732.0;10.50;74083;2838.477;-1802.157;1;314;450;451.6;22.5;22.1;27;26.6;26.3;-1.0;
25/02/2025 12:03:09;117;0;302.28;-4;20.49;2.08;728.7;10.50;74078;2838.481;-1802.162;1;314;450;451.6;22.5;22.1;29;28.9;26.3;-1.0;
25/02/2025 12:03:29;117;0;304.46;-4;19.58;3.18;725.4;10.50;74078;2838.484;-1802.166;1;314;450;451.6;22.5;21.9;29;28.9;26.3;-1.0;
25/02/2025 12:03:49;117;0;303.92;-4;20.86;3.47;721.9;10.50;74081;2838.487;-1802.170;1;314;450;451.6;22.5;22.1;29;28.9;26.3;-1.0;
25/02/2025 12:04:09;117;0;304.47;-4;19.90;3.79;718.4;10.50;74082;2838.490;-1802.175;1;314;450;451.6;22.5;22.1;29;28.9;26.3;-1.0;
25/02/2025 12:04:29;117;0;304.55;-4;21.66;3.53;715.1;10.50;74083;2838.493;-1802.179;1;314;450;453.2;22.5;22.1;29;28.9;26.3;-1.0;
25/02/2025 12:04:49;117;0;303.77;-4;19.61;3.56;711.7;10.50;74081;2838.497;-1802.184;1;314;450;451.6;22.5;22.1;29;28.9;26.3;-1.0;
25/02/2025 12:05:09;117;0;306.65;-4;19.89;2.22;708.6;10.50;74072;2838.500;-1802.188;1;314;450;453.2;22.5;22.1;29;28.9;26.3;-1.0;
25/02/2025 12:05:29;117;0;312.85;-4;21.40;3.29;705.2;10.50;74083;2838.504;-1802.192;1;314;450;451.6;22.5;22.1;29;28.9;26.3;-1.0;
25/02/2025 12:05:49;117;0;312.19;-4;20.26;3.49;701.9;10.50;74093;2838.507;-1802.195;1;314;450;451.6;22.5;22.1;29;28.9;26.3;-1.0;
25/02/2025 12:06:09;117;0;312.23;-4;20.34;3.65;698.6;10.50;74093;2838.511;-1802.199;1;314;450;453.2;22.5;21.9;29;28.9;26.3;-1.0;
25/02/2025 12:06:29;117;0;312.71;-4;20.82;3.60;695.3;10.50;74099;2838.515;-1802.203;1;314;450;453.2;22.5;22.1;29;28.9;26.3;-1.0;
25/02/2025 12:06:49;117;0;313.58;-4;20.63;3.50;691.9;10.50;74094;2838.518;-1802.207;1;314;450;453.2;22.5;22.1;29;28.9;26.3;-1.0;
25/02/2025 12:07:09;117;0;313.59;-4;21.12;3.33;688.6;10.50;74090;2838.522;-1802.211;1;314;450;453.2;22.5;22.1;29;28.9;26.3;-1.0;
25/02/2025 12:07:29;117;0;313.62;-4;21.00;3.58;685.1;10.50;74101;2838.526;-1802.215;1;314;450;453.2;22.5;22.1;29;29.3;26.3;-1.0;
25/02/2025 12:07:49;117;0;312.74;-4;20.76;3.49;681.5;10.50;74099;2838.530;-1802.219;1;314;450;451.6;22.5;22.1;29;28.9;26.3;-1.0;
25/02/2025 12:08:09;117;0;312.55;-4;20.01;3.47;677.9;10.50;74099;2838.534;-1802.223;1;314;450;453.2;22.5;22.1;29;28.9;26.3;-1.0;
25/02/2025 12:08:29;117;0;313.72;-4;21.01;3.38;674.5;10.50;74100;2838.538;-1802.227;1;314;450;453.2;22.5;22.1;29;28.9;26.3;-1.0;
25/02/2025 12:08:49;117;0;313.63;-4;20.65;3.36;670.9;10.50;74094;2838.541;-1802.231;1;314;450;451.6;22.5;22.1;29;28.9;26.3;-1.0;
25/02/2025 12:09:09;117;0;314.74;-4;20.75;3.29;667.4;10.50;74094;2838.545;-1802.235;1;314;450;453.2;22.5;21.9;27;27.1;26.3;-1.0;
25/02/2025 12:09:29;117;0;313.90;-4;20.56;2.54;663.8;10.50;74097;2838.549;-1802.239;1;314;450;453.2;22.5;22.1;27;26.6;26.3;-1.0;
25/02/2025 12:09:49;117;0;314.47;-4;20.84;2.27;660.2;10.50;74094;2838.553;-1802.243;1;314;450;453.2;22.5;21.9;27;26.6;26.3;-1.0;
25/02/2025 12:10:09;117;0;313.37;-4;20.35;2.33;656.5;10.50;74087;2838.557;-1802.247;1;314;450;453.2;22.5;21.9;27;27.1;26.3;-1.0;
25/02/2025 12:10:29;117;0;313.27;-4;20.39;2.32;653.0;10.60;74096;2838.561;-1802.251;1;314;450;454.8;22.5;21.9;27;26.6;26.3;-1.0;
25/02/2025 12:10:50;117;0;313.59;-4;20.65;2.28;649.6;10.50;74108;2838.565;-1802.255;1;314;450;451.6;22.5;21.9;27;26.6;26.3;-1.0;
25/02/2025 12:11:10;117;0;311.90;-4;20.43;2.41;646.1;10.60;74110;2838.569;-1802.259;1;314;450;453.2;22.5;22.1;27;26.6;26.3;-1.0;
25/02/2025 12:11:30;117;0;312.55;-4;20.25;2.18;642.4;10.60;74128;2838.573;-1802.264;1;314;450;451.6;22.5;22.1;27;26.6;26.3;-1.0;
25/02/2025 12:11:50;117;0;313.59;-4;20.35;2.45;639.0;10.60;74127;2838.577;-1802.268;1;314;450;451.6;22.5;22.1;27;26.6;26.3;-1.0;
25/02/2025 12:12:10;117;0;313.10;-4;20.09;2.25;635.5;10.60;74132;2838.581;-1802.272;1;314;450;453.2;22.5;21.9;27;26.6;26.3;-1.0;
25/02/2025 12:12:30;117;0;313.90;-4;20.23;2.28;632.0;10.60;74132;2838.585;-1802.276;1;314;450;453.2;22.5;21.9;27;26.6;26.3;-1.0;
25/02/2025 12:12:50;117;0;314.43;-4;20.50;2.24;628.4;10.60;74124;2838.589;-1802.280;1;314;450;453.2;22.5;22.1;27;26.6;26.3;-1.0;
25/02/2025 12:13:10;117;0;315.04;-4;20.46;2.40;624.7;10.60;74142;2838.593;-1802.284;1;314;450;453.2;22.5;21.9;27;27.1;26.3;-1.0;
25/02/2025 12:13:30;117;0;314.16;-4;20.39;2.38;621.1;10.60;74131;2838.597;-1802.288;1;314;450;453.2;22.5;22.1;27;26.6;26.3;-1.0;
25/02/2025 12:13:50;117;0;313.59;-4;20.19;2.21;617.6;10.60;74139;2838.601;-1802.292;1;314;450;453.2;22.5;22.1;27;26.6;26.2;-1.0;
