Timestamp;NavState;SecurityLevel;Heading;Declination;Pitch;Roll;Depth;Temperature;Pa;Lat;Lon;DeadReckoning;DesiredH;BallastCmd;BallastPos;LinCmd;LinPos;AngCmd;AngPos;Voltage;Altitude;
16/02/2025 20:35:55;119;0;162.97;-4;-67.34;-13.23;-0.3;19.70;76555;2837.600;-1801.418;0;129;500;508.1;100.0;100.7;0;0.0;28.4;-1.0;
16/02/2025 20:36:05;116;0;185.18;-4;-58.77;-18.60;-0.3;19.80;76562;2837.599;-1801.423;0;128;500;509.7;100.0;100.7;0;0.0;28.4;-1.0;
16/02/2025 20:36:32;116;0;241.21;-4;-53.35;-8.18;-0.3;19.80;76560;2837.600;-1801.428;0;126;500;508.1;100.0;100.7;0;0.0;28.3;-1.0;
16/02/2025 20:37:11;116;0;304.60;-4;-52.15;-14.70;-0.1;19.90;76571;2837.599;-1801.428;0;-9999;500;508.1;100.0;100.9;0;0.0;28.3;-1.0;
16/02/2025 20:37:28;116;0;311.08;-4;-48.84;-17.68;-0.3;19.90;76587;2837.600;-1801.428;0;57;500;508.1;100.0;100.7;0;0.0;28.3;-1.0;
16/02/2025 20:37:48;116;0;301.82;-4;-61.65;-11.26;-0.2;19.90;76585;2837.601;-1801.432;0;58;500;508.1;100.0;100.7;0;0.0;28.3;-1.0;
16/02/2025 20:38:28;116;0;296.06;-4;-54.90;-12.27;-0.1;20.00;76594;2837.601;-1801.437;0;58;500;508.1;100.0;100.7;0;0.0;28.4;-1.0;
16/02/2025 20:39:13;116;0;319.63;-4;-58.62;-7.99;-0.1;20.10;76600;2837.600;-1801.445;0;58;500;509.7;100.0;100.7;0;0.0;28.4;-1.0;
16/02/2025 20:39:24;116;0;333.64;-4;-52.50;-14.02;-0.2;20.10;76602;2837.601;-1801.446;0;58;500;508.1;100.0;100.7;0;-0.5;28.4;-1.0;
16/02/2025 20:39:44;110;0;316.60;-4;-48.03;-8.74;0.0;20.20;76604;2837.601;-1801.446;0;58;-50;396.8;100.0;99.7;-14;-14.0;28.3;-1.0;
16/02/2025 20:39:54;110;0;314.29;-4;-52.64;-10.23;0.2;20.20;76954;2837.601;-1801.446;1;58;-50;243.5;100.0;99.7;-14;-14.4;28.3;-1.0;
16/02/2025 20:40:04;110;0;307.64;-4;-69.68;-25.54;0.8;20.20;77204;2837.601;-1801.446;1;58;-50;83.9;100.0;99.7;-14;-14.4;28.3;-1.0;
16/02/2025 20:40:14;110;0;301.66;-4;-66.95;-32.46;0.9;20.30;77544;2837.601;-1801.446;1;58;-50;-50.0;100.0;99.7;-14;-14.4;28.3;-1.0;
16/02/2025 20:40:24;110;0;308.49;-4;-68.47;-17.22;1.3;20.30;77828;2837.601;-1801.447;1;58;-50;-50.0;50.0;49.9;-14;-14.4;28.3;-1.0;
16/02/2025 20:40:44;100;0;337.27;-4;-33.82;-20.51;4.7;20.30;77808;2837.604;-1801.448;1;58;-50;-50.0;50.0;49.6;-14;-14.4;28.3;-1.0;
16/02/2025 20:41:04;100;0;354.29;-4;-32.37;-19.09;8.6;20.40;77799;2837.607;-1801.448;1;58;-50;-48.4;46.3;45.9;-70;-70.4;28.3;-1.0;
16/02/2025 20:41:24;100;0;3.85;-4;-27.48;-44.76;12.0;20.40;77786;2837.611;-1801.448;1;58;-50;-46.8;44.0;43.9;-58;-58.2;28.3;-1.0;
16/02/2025 20:41:44;100;0;15.83;-4;-22.21;-38.80;15.1;20.50;77782;2837.614;-1801.447;1;58;-50;-45.2;43.4;43.3;-44;-44.2;28.3;0.0;
16/02/2025 20:42:04;100;0;25.70;-4;-19.77;-32.87;17.8;20.50;77779;2837.618;-1801.445;1;58;-50;-45.2;43.4;43.3;-31;-31.1;28.4;0.0;
16/02/2025 20:42:24;100;0;36.96;-4;-19.67;-25.78;20.2;20.50;77784;2837.620;-1801.443;1;58;-50;-45.2;43.4;43.3;-13;-13.1;28.3;0.0;
16/02/2025 20:42:44;100;0;46.14;-4;-19.93;-17.30;22.8;20.50;77779;2837.623;-1801.440;1;58;-50;-43.5;43.4;43.4;2;1.8;28.3;0.0;
16/02/2025 20:43:04;100;0;53.66;-4;-20.97;-10.50;25.3;20.50;77783;2837.624;-1801.438;1;58;-50;-45.2;43.4;43.2;8;8.1;28.4;0.0;
16/02/2025 20:43:24;100;0;56.36;-4;-20.84;-7.50;27.9;20.50;77786;2837.626;-1801.435;1;58;-50;-45.2;43.4;43.3;8;8.6;28.3;0.0;
16/02/2025 20:43:44;100;0;59.09;-4;-20.84;-7.50;30.4;20.50;77791;2837.628;-1801.432;1;58;-50;-43.5;43.4;43.3;8;8.6;28.3;0.0;
16/02/2025 20:44:04;100;0;59.43;-4;-21.10;-7.46;33.1;20.50;77791;2837.630;-1801.428;1;58;-50;-45.2;43.4;43.3;8;8.6;28.4;0.0;
16/02/2025 20:44:24;100;0;59.17;-4;-20.64;-7.46;35.9;20.50;77786;2837.632;-1801.425;1;58;-50;-43.5;43.4;43.3;8;8.6;28.4;0.0;
16/02/2025 20:44:44;100;0;60.46;-4;-20.89;-7.41;38.4;20.50;77794;2837.633;-1801.422;1;58;-50;-43.5;43.4;43.3;8;8.6;28.3;0.0;
16/02/2025 20:45:04;100;0;61.62;-4;-20.92;-7.47;41.0;20.50;77794;2837.635;-1801.419;1;58;-50;-45.2;43.4;43.3;8;8.1;28.3;0.0;
16/02/2025 20:45:24;100;0;62.25;-4;-20.58;-7.50;43.6;20.50;77786;2837.637;-1801.416;1;58;-50;-43.5;43.4;43.3;8;8.6;28.3;0.0;
16/02/2025 20:45:44;100;0;63.95;-4;-20.60;-7.53;46.3;20.50;77789;2837.638;-1801.412;1;58;-50;-45.2;43.4;43.3;8;8.6;28.3;0.0;
16/02/2025 20:46:04;100;0;64.82;-4;-20.42;-7.49;48.8;20.50;77789;2837.640;-1801.409;1;58;-50;-43.5;43.4;43.3;8;8.6;28.4;0.0;
16/02/2025 20:46:24;100;0;67.08;-4;-20.29;-7.47;51.4;20.50;77789;2837.641;-1801.406;1;58;-50;-45.2;43.4;43.3;10;10.4;28.3;0.0;
16/02/2025 20:46:44;100;0;69.22;-4;-20.38;-6.44;53.9;20.50;77787;2837.642;-1801.402;1;58;-50;-45.2;43.4;43.3;10;10.8;28.3;0.0;
16/02/2025 20:47:04;100;0;72.97;-4;-20.82;-6.37;56.4;20.50;77793;2837.643;-1801.399;1;58;-50;-45.2;43.4;43.3;15;14.9;28.3;0.0;
16/02/2025 20:47:24;100;0;74.81;-4;-20.96;-4.24;59.1;20.50;77796;2837.644;-1801.395;1;58;-50;-43.5;43.4;43.3;18;18.1;28.4;0.0;
16/02/2025 20:47:44;100;0;74.64;-4;-21.10;-2.54;61.7;20.50;77784;2837.645;-1801.392;1;58;-50;-46.8;43.4;43.3;18;18.5;28.3;0.0;
16/02/2025 20:48:04;100;0;73.28;-4;-20.78;-2.59;64.3;20.50;77793;2837.646;-1801.388;1;58;-50;-45.2;43.4;43.3;16;15.8;28.3;0.0;
16/02/2025 20:48:24;100;0;70.48;-4;-20.69;-4.18;66.8;20.50;77787;2837.648;-1801.385;1;58;-50;-45.2;43.4;43.3;13;12.6;28.3;0.0;
16/02/2025 20:48:44;100;0;69.31;-4;-20.71;-5.62;69.5;20.50;77793;2837.649;-1801.381;1;58;-50;-41.9;43.4;43.3;13;12.6;28.3;0.0;
16/02/2025 20:49:04;100;0;70.56;-4;-20.89;-5.53;72.1;20.50;77798;2837.650;-1801.378;1;58;-50;-45.2;43.4;43.3;13;12.2;28.3;0.0;
16/02/2025 20:49:24;100;0;71.98;-4;-20.73;-5.59;74.8;20.50;77802;2837.651;-1801.374;1;58;-50;-45.2;43.4;43.3;13;12.2;28.3;0.0;
16/02/2025 20:49:44;100;0;72.04;-4;-20.62;-5.61;77.5;20.50;77805;2837.652;-1801.371;1;58;-50;-45.2;43.4;43.3;13;12.6;28.3;0.0;
16/02/2025 20:50:04;100;0;73.37;-4;-20.65;-5.56;80.1;20.50;77802;2837.653;-1801.368;1;58;-50;-45.2;43.4;43.3;16;15.8;28.3;0.0;
16/02/2025 20:50:24;100;0;72.78;-4;-20.83;-3.64;82.8;20.40;77806;2837.654;-1801.364;1;58;-50;-43.5;43.4;43.3;16;16.2;28.4;0.0;
16/02/2025 20:50:44;100;0;71.61;-4;-20.87;-3.69;85.3;20.40;77806;2837.656;-1801.360;1;58;-50;-43.5;43.4;43.4;14;13.5;28.3;0.0;
16/02/2025 20:51:05;100;0;71.07;-4;-20.85;-4.98;88.1;20.40;77792;2837.657;-1801.357;1;58;-50;-45.2;43.4;43.3;14;13.5;28.4;0.0;
16/02/2025 20:51:25;100;0;70.75;-4;-20.60;-4.97;90.8;20.40;77800;2837.658;-1801.353;1;58;-50;-45.2;43.4;43.3;14;13.5;28.3;0.0;
16/02/2025 20:51:45;100;0;70.69;-4;-20.65;-4.95;93.4;20.40;77804;2837.659;-1801.350;1;58;-50;-45.2;43.4;43.3;14;13.5;28.4;0.0;
16/02/2025 20:52:05;100;0;69.42;-4;-20.83;-4.96;96.1;20.40;77813;2837.660;-1801.346;1;58;-50;-45.2;43.4;43.3;12;12.2;28.3;0.0;
16/02/2025 20:52:25;100;0;69.01;-4;-20.62;-5.54;98.8;20.40;77799;2837.662;-1801.343;1;58;-50;-43.5;43.4;43.3;12;12.6;28.3;0.0;
16/02/2025 20:52:45;100;0;69.44;-4;-20.56;-5.55;101.5;20.40;77805;2837.663;-1801.339;1;58;-50;-43.5;43.4;43.3;12;12.6;28.4;0.0;
16/02/2025 20:53:05;100;0;73.59;-4;-20.26;-5.55;104.2;20.40;77810;2837.664;-1801.336;1;58;-50;-45.2;43.4;43.3;17;17.1;28.3;0.0;
16/02/2025 20:53:25;100;0;76.74;-4;-20.41;-3.07;106.9;20.40;77810;2837.665;-1801.332;1;58;-50;-43.5;43.4;43.3;21;21.7;28.3;0.0;
16/02/2025 20:53:45;100;0;76.75;-4;-21.12;-0.86;109.7;20.40;77791;2837.666;-1801.328;1;58;-50;-43.5;43.4;43.3;21;21.7;28.3;0.0;
16/02/2025 20:54:05;100;0;76.88;-4;-20.95;-0.81;112.5;20.40;77808;2837.667;-1801.324;1;58;-50;-45.2;43.4;43.3;21;21.7;28.4;0.0;
16/02/2025 20:54:25;100;0;74.88;-4;-20.60;-0.91;115.4;20.40;77788;2837.668;-1801.320;1;58;-50;-45.2;43.4;43.3;18;17.6;28.4;0.0;
16/02/2025 20:54:45;100;0;75.59;-4;-20.33;-3.10;118.1;20.40;77757;2837.669;-1801.317;1;58;-50;-45.2;43.4;43.3;20;19.9;28.3;0.0;
16/02/2025 20:55:05;100;0;77.65;-4;-20.31;-1.67;120.7;20.30;77752;2837.670;-1801.313;1;58;-50;-45.2;43.4;43.3;23;23.0;28.3;0.0;
16/02/2025 20:55:25;100;0;76.90;-4;-20.87;0.01;123.4;20.30;77747;2837.671;-1801.309;1;58;-50;-45.2;43.4;43.3;23;23.5;28.3;0.0;
16/02/2025 20:55:45;100;0;71.58;-4;-20.32;-0.05;125.9;20.30;77717;2837.672;-1801.306;1;58;-50;-48.4;43.4;43.3;15;14.9;28.4;0.0;
16/02/2025 20:56:05;100;0;67.61;-4;-20.03;-4.68;128.3;20.30;77702;2837.673;-1801.303;1;58;-50;-45.2;43.4;43.3;11;10.8;28.3;0.0;
16/02/2025 20:56:25;100;0;64.41;-4;-20.02;-6.57;130.8;20.30;77687;2837.674;-1801.299;1;58;-50;-45.2;43.4;43.3;11;10.4;28.3;0.0;
16/02/2025 20:56:45;100;0;61.07;-4;-20.10;-6.64;133.2;20.20;77683;2837.676;-1801.296;1;58;-50;-45.2;43.4;43.3;11;10.4;28.3;0.0;
16/02/2025 20:57:05;100;0;57.97;-4;-19.85;-6.64;135.4;20.20;77670;2837.678;-1801.294;1;58;-50;-45.2;43.4;43.3;11;10.4;28.3;0.0;
16/02/2025 20:57:25;100;0;54.45;-4;-20.17;-6.67;137.7;20.20;77661;2837.679;-1801.291;1;58;-50;-43.5;43.4;43.3;9;9.0;28.3;0.0;
16/02/2025 20:57:45;100;0;54.34;-4;-20.73;-7.19;140.1;20.20;77642;2837.681;-1801.288;1;58;-50;-43.5;43.4;43.3;9;9.5;28.3;0.0;
16/02/2025 20:58:05;100;0;52.63;-4;-20.49;-7.16;142.7;20.20;77631;2837.683;-1801.285;1;58;-50;-45.2;43.4;43.3;9;9.5;28.3;0.0;
16/02/2025 20:58:25;100;0;59.35;-4;-20.03;-7.21;145.4;20.10;77615;2837.685;-1801.282;1;58;-50;-45.2;43.4;43.3;9;9.5;28.3;0.0;
16/02/2025 20:58:45;100;0;65.27;-4;-19.80;-7.28;147.9;20.10;77594;2837.687;-1801.279;1;58;-50;-43.5;43.4;43.3;9;9.5;28.3;0.0;
16/02/2025 20:59:05;100;0;70.73;-4;-19.88;-7.23;150.4;20.10;77578;2837.688;-1801.275;1;58;-50;-45.2;43.4;43.3;14;14.0;28.3;0.0;
16/02/2025 20:59:25;100;0;73.01;-4;-19.89;-4.68;152.9;20.00;77582;2837.689;-1801.272;1;58;-50;-43.5;43.4;43.3;16;15.8;28.4;0.0;
16/02/2025 20:59:45;100;0;74.82;-4;-20.31;-3.60;155.6;20.00;77557;2837.690;-1801.268;1;58;-50;-45.2;43.4;43.3;19;19.4;28.3;0.0;
16/02/2025 21:00:05;100;0;75.62;-4;-20.42;-2.02;158.4;20.00;77550;2837.691;-1801.264;1;58;-50;-46.8;43.4;43.3;19;19.4;28.3;0.0;
16/02/2025 21:00:25;100;0;70.26;-4;-20.16;-1.99;161.4;19.90;77535;2837.692;-1801.260;1;57;-50;-46.8;43.4;43.3;14;14.0;28.3;0.0;
16/02/2025 21:00:45;100;0;67.72;-4;-20.07;-5.08;164.3;19.90;77527;2837.694;-1801.256;1;57;-50;-43.5;43.4;43.3;12;12.2;28.3;0.0;
16/02/2025 21:01:05;100;0;66.76;-4;-19.92;-5.93;167.3;19.90;77518;2837.696;-1801.252;1;57;-50;-43.5;43.4;43.3;12;12.2;28.3;0.0;
16/02/2025 21:01:25;100;0;66.87;-4;-19.81;-5.93;170.3;19.80;77491;2837.697;-1801.248;1;57;-50;-46.8;43.4;43.4;12;12.2;28.3;0.0;
16/02/2025 21:01:45;100;0;65.20;-4;-19.63;-6.00;173.2;19.80;77495;2837.699;-1801.244;1;57;-50;-45.2;43.4;43.3;12;11.7;28.3;0.0;
16/02/2025 21:02:05;100;0;64.24;-4;-19.62;-5.94;176.1;19.80;77490;2837.701;-1801.241;1;57;-50;-48.4;43.4;43.3;12;12.2;28.3;0.0;
16/02/2025 21:02:25;100;0;64.75;-4;-19.21;-6.02;178.8;19.70;77483;2837.702;-1801.237;1;57;-50;-45.2;43.4;43.3;12;12.2;28.4;0.0;
16/02/2025 21:02:45;100;0;66.05;-4;-19.29;-6.04;181.3;19.70;77465;2837.704;-1801.233;1;57;-50;-45.2;43.4;43.3;12;12.2;28.3;0.0;
16/02/2025 21:03:05;100;0;66.83;-4;-19.20;-5.94;183.9;19.70;77458;2837.705;-1801.230;1;57;-50;-45.2;43.4;43.3;12;11.7;28.4;0.0;
16/02/2025 21:03:25;100;0;72.47;-4;-19.54;-6.04;186.4;19.60;77433;2837.706;-1801.227;1;57;-50;-43.5;43.4;43.3;17;17.1;28.4;0.0;
16/02/2025 21:03:45;100;0;73.03;-4;-20.04;-2.86;188.9;19.60;77426;2837.707;-1801.223;1;57;-50;-45.2;43.4;43.3;17;18.1;28.3;0.0;
16/02/2025 21:04:05;100;0;74.54;-4;-19.81;-2.79;191.5;19.60;77400;2837.708;-1801.219;1;57;-50;-45.2;43.4;43.3;20;19.9;28.3;0.0;
16/02/2025 21:04:25;100;0;74.60;-4;-20.22;-1.63;193.9;19.50;77397;2837.709;-1801.216;1;57;-50;-45.2;43.4;43.3;20;20.3;28.3;0.0;
16/02/2025 21:04:45;100;0;71.22;-4;-20.41;-1.62;196.5;19.50;77373;2837.710;-1801.212;1;57;-50;-45.2;43.4;43.3;16;15.8;28.3;0.0;
16/02/2025 21:05:05;100;0;71.50;-4;-20.03;-3.98;199.0;19.40;77370;2837.712;-1801.209;1;57;-50;-45.2;43.4;43.3;16;15.8;28.3;0.0;
16/02/2025 21:05:25;100;0;67.67;-4;-20.02;-4.06;201.5;19.40;77354;2837.713;-1801.206;1;57;-50;-43.5;43.4;43.3;13;13.1;28.4;0.0;
16/02/2025 21:05:45;100;0;65.38;-4;-19.89;-5.44;204.0;19.30;77346;2837.714;-1801.203;1;57;-50;-43.5;43.4;43.3;13;12.6;28.3;0.0;
16/02/2025 21:06:05;100;0;67.55;-4;-19.71;-5.42;206.5;19.30;77331;2837.716;-1801.199;1;57;-50;-45.2;43.4;43.3;13;13.1;28.3;0.0;
16/02/2025 21:06:25;100;0;66.27;-4;-19.52;-5.47;209.0;19.30;77330;2837.717;-1801.196;1;57;-50;-45.2;43.4;43.3;13;13.1;28.3;0.0;
16/02/2025 21:06:45;100;0;66.56;-4;-19.53;-5.43;211.5;19.20;77312;2837.718;-1801.193;1;57;-50;-45.2;43.4;43.3;13;12.6;28.3;0.0;
16/02/2025 21:07:05;100;0;64.87;-4;-19.60;-5.42;214.0;19.20;77308;2837.720;-1801.189;1;57;-50;-43.5;43.4;43.3;11;10.4;28.3;0.0;
16/02/2025 21:07:25;100;0;68.27;-4;-19.70;-6.63;216.6;19.20;77298;2837.721;-1801.186;1;57;-50;-43.5;43.4;43.3;13;13.1;28.3;0.0;
16/02/2025 21:07:45;100;0;70.11;-4;-19.72;-5.11;219.3;19.10;77285;2837.723;-1801.182;1;57;-50;-43.5;43.4;43.3;15;14.9;28.3;0.0;
16/02/2025 21:08:05;100;0;70.80;-4;-19.69;-4.09;221.9;19.10;77266;2837.724;-1801.179;1;57;-50;-43.5;43.4;43.3;15;15.3;28.3;0.0;
16/02/2025 21:08:25;100;0;74.01;-4;-19.41;-4.05;224.5;19.00;77260;2837.725;-1801.175;1;57;-50;-43.5;43.4;43.3;20;20.8;28.3;0.0;
16/02/2025 21:08:45;100;0;74.22;-4;-19.79;-1.17;227.1;19.00;77245;2837.726;-1801.171;1;57;-50;-45.2;43.4;43.3;20;21.2;28.4;0.0;
16/02/2025 21:09:05;100;0;72.62;-4;-19.81;-1.20;229.6;19.00;77246;2837.727;-1801.168;1;57;-50;-45.2;43.4;43.3;18;18.1;28.3;0.0;
16/02/2025 21:09:25;100;0;72.47;-4;-19.46;-3.00;232.1;18.90;77232;2837.728;-1801.164;1;57;-50;-45.2;43.4;43.3;18;17.6;28.3;0.0;
16/02/2025 21:09:45;100;0;70.70;-4;-19.41;-3.06;234.5;18.90;77225;2837.729;-1801.161;1;57;-50;-43.5;43.4;43.3;16;15.8;28.3;0.0;
16/02/2025 21:10:05;100;0;71.80;-4;-19.52;-3.93;236.9;18.80;77213;2837.730;-1801.158;1;57;-50;-45.2;43.4;43.3;16;15.8;28.4;0.0;
16/02/2025 21:10:25;100;0;73.27;-4;-19.59;-3.91;239.4;18.80;77211;2837.731;-1801.154;1;57;-50;-45.2;43.4;43.3;19;19.4;28.3;0.0;
16/02/2025 21:10:45;100;0;72.38;-4;-19.77;-1.92;241.8;18.80;77199;2837.732;-1801.151;1;57;-50;-43.5;43.4;43.3;19;19.9;28.3;0.0;
16/02/2025 21:11:05;100;0;72.85;-4;-19.78;-1.91;244.3;18.70;77182;2837.733;-1801.147;1;57;-50;-45.2;43.4;43.3;19;19.9;28.3;0.0;
16/02/2025 21:11:25;100;0;73.03;-4;-19.79;-1.90;246.7;18.70;77177;2837.734;-1801.144;1;57;-50;-45.2;43.4;43.3;19;19.9;28.3;0.0;
16/02/2025 21:11:45;100;0;71.21;-4;-19.55;-1.95;249.2;18.60;77171;2837.736;-1801.141;1;57;-50;-46.8;43.4;43.3;17;16.7;28.3;0.0;
16/02/2025 21:12:05;100;0;71.33;-4;-19.55;-3.57;251.6;18.60;77167;2837.737;-1801.137;1;57;-50;-45.2;43.4;43.4;17;16.7;28.4;0.0;
16/02/2025 21:12:25;100;0;72.60;-4;-19.56;-3.60;253.9;18.60;77160;2837.738;-1801.134;1;57;-50;-43.5;43.4;43.3;17;16.7;28.3;0.0;
16/02/2025 21:12:45;100;0;67.92;-4;-19.54;-3.56;256.4;18.50;77149;2837.739;-1801.131;1;57;-50;-45.2;43.4;43.3;14;14.0;28.3;0.0;
16/02/2025 21:13:05;100;0;63.97;-4;-19.34;-5.03;258.6;18.50;77133;2837.740;-1801.128;1;57;-50;-45.2;43.4;43.3;12;12.2;28.3;0.0;
16/02/2025 21:13:25;100;0;58.66;-4;-19.16;-6.12;260.8;18.40;77123;2837.742;-1801.125;1;57;-50;-45.2;43.4;43.3;12;11.7;28.3;0.0;
16/02/2025 21:13:45;100;0;54.78;-4;-19.43;-6.09;262.9;18.40;77121;2837.744;-1801.122;1;57;-50;-45.2;43.4;43.3;12;11.7;28.3;0.0;
16/02/2025 21:14:05;100;0;53.60;-4;-19.45;-6.05;265.0;18.40;77094;2837.746;-1801.120;1;57;-50;-45.2;43.4;43.3;12;11.3;28.3;0.0;
16/02/2025 21:14:25;100;0;51.57;-4;-19.26;-5.99;267.4;18.30;77092;2837.748;-1801.117;1;57;-50;-45.2;43.4;43.3;10;9.5;28.3;0.0;
16/02/2025 21:14:45;100;0;50.68;-4;-19.14;-6.92;269.6;18.30;77072;2837.750;-1801.115;1;57;-50;-45.2;43.4;43.3;10;9.9;28.3;0.0;
16/02/2025 21:15:05;100;0;51.81;-4;-19.08;-6.82;271.7;18.20;77063;2837.751;-1801.112;1;57;-50;-45.2;43.4;43.3;10;9.9;28.3;0.0;
16/02/2025 21:15:25;100;0;52.92;-4;-18.79;-6.94;274.0;18.20;77062;2837.753;-1801.109;1;57;-50;-43.5;43.7;43.9;10;9.5;28.3;0.0;
16/02/2025 21:15:45;100;0;54.01;-4;-19.66;-6.75;276.2;18.20;77052;2837.755;-1801.107;1;57;-50;-45.2;43.7;44.2;10;9.5;28.3;0.0;
16/02/2025 21:16:05;100;0;51.98;-4;-20.25;-6.88;278.5;18.10;77048;2837.757;-1801.104;1;57;-50;-45.2;43.7;44.2;10;9.5;28.3;0.0;
16/02/2025 21:16:25;100;0;49.21;-4;-20.45;-6.90;280.9;18.10;77041;2837.759;-1801.102;1;57;-50;-45.2;43.7;44.2;8;8.1;28.3;0.0;
16/02/2025 21:16:45;100;0;50.61;-4;-20.48;-8.01;283.4;18.10;77026;2837.761;-1801.099;1;57;-50;-45.2;43.7;44.2;8;7.7;28.3;0.0;
16/02/2025 21:17:05;100;0;55.28;-4;-20.21;-7.95;285.9;18.00;77010;2837.763;-1801.096;1;57;-50;-45.2;43.7;44.2;11;10.8;28.3;0.0;
16/02/2025 21:17:25;100;0;59.56;-4;-20.40;-6.02;288.4;18.00;77008;2837.765;-1801.093;1;57;-50;-45.2;43.7;44.2;11;11.7;28.3;0.0;
16/02/2025 21:17:45;100;0;63.42;-4;-20.72;-6.01;290.9;17.90;77002;2837.767;-1801.090;1;57;-50;-43.5;43.7;44.2;11;11.7;28.3;0.0;
16/02/2025 21:18:05;100;0;62.01;-4;-20.45;-5.97;293.3;17.90;76989;2837.768;-1801.087;1;57;-50;-45.2;43.7;44.2;11;11.7;28.3;0.0;
16/02/2025 21:18:25;100;0;66.91;-4;-20.18;-5.85;295.7;17.90;76975;2837.769;-1801.083;1;57;-50;-43.5;43.7;44.2;13;13.1;28.3;0.0;
16/02/2025 21:18:45;100;0;70.54;-4;-20.33;-5.10;298.0;17.80;76953;2837.770;-1801.080;1;57;-50;-43.5;43.7;44.2;16;15.8;28.3;0.0;
16/02/2025 21:19:05;100;0;71.06;-4;-20.67;-3.62;300.3;17.80;76961;2837.772;-1801.077;1;57;-50;-45.2;43.7;44.2;16;16.7;28.3;0.0;
16/02/2025 21:19:25;100;0;72.37;-4;-20.70;-3.53;302.6;17.80;76949;2837.773;-1801.074;1;57;-50;-45.2;43.7;44.2;18;18.1;28.3;0.0;
16/02/2025 21:19:45;100;0;72.91;-4;-20.46;-2.43;304.9;17.70;76943;2837.773;-1801.071;1;57;-50;-43.5;43.7;44.3;18;18.5;28.3;0.0;
16/02/2025 21:20:05;100;0;73.55;-4;-20.65;-2.52;307.1;17.70;76933;2837.774;-1801.068;1;57;-50;-43.5;43.7;44.2;20;20.3;28.4;0.0;
16/02/2025 21:20:25;100;0;71.27;-4;-20.69;-1.25;309.4;17.60;76926;2837.775;-1801.065;1;57;-50;-45.2;43.7;44.2;17;16.7;28.3;0.0;
16/02/2025 21:20:45;100;0;69.84;-4;-20.64;-3.43;311.6;17.60;76927;2837.776;-1801.062;1;57;-50;-45.2;43.7;44.2;15;14.9;28.3;0.0;
16/02/2025 21:21:05;100;0;68.84;-4;-20.22;-4.58;313.9;17.60;76913;2837.778;-1801.059;1;57;-50;-43.5;43.7;44.2;15;14.4;28.3;0.0;
16/02/2025 21:21:25;100;0;69.31;-4;-20.47;-4.60;316.2;17.50;76903;2837.779;-1801.056;1;57;-50;-45.2;43.7;44.2;15;14.4;28.3;0.0;
16/02/2025 21:21:45;100;0;71.37;-4;-20.55;-4.61;318.5;17.50;76893;2837.780;-1801.053;1;57;-50;-45.2;43.7;44.2;17;17.1;28.3;0.0;
16/02/2025 21:22:05;100;0;70.43;-4;-20.61;-2.82;321.0;17.50;76889;2837.781;-1801.050;1;57;-50;-45.2;43.7;44.2;17;18.1;28.3;0.0;
16/02/2025 21:22:25;100;0;67.62;-4;-21.01;-2.81;323.3;17.40;76880;2837.782;-1801.047;1;57;-50;-45.2;43.7;44.2;14;14.0;28.3;0.0;
16/02/2025 21:22:45;100;0;65.82;-4;-20.49;-4.91;325.8;17.40;76871;2837.784;-1801.043;1;57;-50;-45.2;43.7;44.2;14;14.0;28.3;0.0;
16/02/2025 21:23:05;100;0;66.78;-4;-20.58;-4.99;328.3;17.40;76856;2837.785;-1801.040;1;57;-50;-45.2;43.7;44.2;14;14.0;28.3;0.0;
16/02/2025 21:23:25;100;0;64.83;-4;-20.55;-5.04;330.8;17.30;76841;2837.786;-1801.037;1;57;-50;-45.2;43.7;44.2;12;11.7;28.3;0.0;
16/02/2025 21:23:45;100;0;64.46;-4;-20.40;-6.13;333.2;17.30;76840;2837.788;-1801.034;1;57;-50;-45.2;43.7;44.2;12;11.3;28.3;0.0;
16/02/2025 21:24:05;100;0;65.37;-4;-20.41;-6.08;335.7;17.30;76832;2837.789;-1801.031;1;57;-50;-45.2;43.7;44.2;12;11.7;28.3;0.0;
16/02/2025 21:24:25;100;0;64.87;-4;-20.55;-6.06;338.1;17.20;76828;2837.791;-1801.028;1;57;-50;-45.2;43.7;44.2;12;11.3;28.3;0.0;
16/02/2025 21:24:45;100;0;65.50;-4;-20.71;-6.06;340.6;17.20;76811;2837.792;-1801.025;1;57;-50;-45.2;43.7;44.2;12;11.3;28.3;0.0;
16/02/2025 21:25:05;100;0;64.87;-4;-20.57;-6.13;343.2;17.10;76801;2837.793;-1801.021;1;57;-50;-46.8;43.7;44.2;12;11.3;28.4;0.0;
16/02/2025 21:25:25;100;0;64.72;-4;-20.49;-6.07;345.7;17.10;76797;2837.795;-1801.018;1;56;-50;-46.8;43.7;44.2;12;11.7;28.3;0.0;
16/02/2025 21:25:45;100;0;67.88;-4;-20.39;-6.08;348.2;17.10;76796;2837.796;-1801.015;1;56;-50;-45.2;43.7;44.2;15;14.9;28.3;0.0;
16/02/2025 21:26:05;100;0;68.64;-4;-20.39;-4.10;350.6;17.10;76788;2837.798;-1801.011;1;56;-50;-45.2;43.7;44.2;15;15.3;28.3;0.0;
16/02/2025 21:26:26;100;0;71.57;-4;-20.09;-4.12;353.0;17.00;76770;2837.799;-1801.008;1;56;-50;-45.2;43.7;44.2;19;19.0;28.3;0.0;
16/02/2025 21:26:46;100;0;71.76;-4;-20.34;-1.79;355.3;17.00;76769;2837.800;-1801.005;1;56;-50;-45.2;43.7;44.2;19;19.9;28.4;0.0;
16/02/2025 21:27:06;100;0;69.35;-4;-20.44;-1.74;357.9;17.00;76744;2837.801;-1801.002;1;56;-50;-45.2;43.7;44.2;16;15.3;28.3;0.0;
16/02/2025 21:27:26;100;0;68.79;-4;-20.28;-4.21;360.2;16.90;76741;2837.802;-1800.998;1;56;-50;-45.2;43.7;44.2;16;15.3;28.3;0.0;
16/02/2025 21:27:46;100;0;68.80;-4;-20.33;-4.18;362.8;16.90;76726;2837.803;-1800.995;1;56;-50;-45.2;43.7;44.2;16;15.3;28.3;0.0;
16/02/2025 21:28:06;100;0;69.25;-4;-20.41;-4.15;365.4;16.80;76719;2837.805;-1800.991;1;56;-50;-45.2;43.7;44.3;16;15.3;28.3;0.0;
16/02/2025 21:28:26;100;0;68.74;-4;-20.27;-4.18;368.0;16.80;76721;2837.806;-1800.988;1;56;-50;-43.5;43.7;44.2;16;15.3;28.3;0.0;
16/02/2025 21:28:46;100;0;69.78;-4;-20.18;-4.17;370.7;16.80;76711;2837.807;-1800.984;1;56;-50;-45.2;43.7;44.2;16;15.3;28.3;0.0;
16/02/2025 21:29:06;100;0;71.65;-4;-20.15;-4.15;373.3;16.70;76696;2837.808;-1800.981;1;56;-50;-45.2;43.7;44.2;19;19.0;28.3;0.0;
16/02/2025 21:29:26;100;0;73.05;-4;-20.55;-2.04;376.0;16.70;76700;2837.810;-1800.977;1;56;-50;-43.5;43.7;44.2;21;21.2;28.3;0.0;
16/02/2025 21:29:46;100;0;72.81;-4;-20.65;-1.13;378.8;16.70;76700;2837.811;-1800.973;1;56;-50;-43.5;43.7;44.2;21;21.7;28.4;0.0;
16/02/2025 21:30:06;100;0;71.32;-4;-20.61;-0.95;381.5;16.60;76683;2837.812;-1800.970;1;56;-50;-45.2;43.7;44.2;19;19.0;28.3;0.0;
16/02/2025 21:30:26;100;0;70.72;-4;-20.44;-2.02;384.3;16.60;76677;2837.813;-1800.966;1;56;-50;-43.5;43.7;44.2;19;19.9;28.3;0.0;
16/02/2025 21:30:46;100;0;68.21;-4;-20.56;-1.98;387.1;16.60;76672;2837.815;-1800.962;1;56;-50;-45.2;43.7;44.2;16;15.8;28.3;0.0;
16/02/2025 21:31:06;100;0;65.39;-4;-20.15;-4.00;389.9;16.50;76656;2837.816;-1800.959;1;56;-50;-45.2;43.7;44.2;14;14.0;28.3;0.0;
16/02/2025 21:31:26;100;0;63.90;-4;-20.25;-4.95;392.8;16.50;76651;2837.818;-1800.955;1;56;-50;-43.5;43.7;44.2;14;14.0;28.3;0.0;
16/02/2025 21:31:46;100;0;63.30;-4;-20.19;-4.95;395.6;16.50;76643;2837.820;-1800.951;1;56;-50;-43.5;43.7;44.2;14;14.0;28.3;0.0;
16/02/2025 21:32:06;100;0;61.17;-4;-20.39;-4.92;398.3;16.40;76639;2837.821;-1800.948;1;56;-50;-45.2;43.7;44.3;14;14.0;28.3;0.0;
16/02/2025 21:32:26;100;0;55.32;-4;-20.09;-4.99;401.2;16.40;76623;2837.824;-1800.945;1;56;-50;-45.2;43.7;44.2;14;14.0;28.3;0.0;
16/02/2025 21:32:46;100;0;53.72;-4;-20.14;-4.96;403.9;16.40;76621;2837.826;-1800.941;1;56;-50;-45.2;43.7;44.2;12;12.2;28.3;0.0;
16/02/2025 21:33:06;100;0;54.15;-4;-20.04;-6.03;406.7;16.30;76617;2837.828;-1800.938;1;56;-50;-43.5;43.7;44.2;12;11.7;28.3;0.0;
16/02/2025 21:33:26;100;0;53.77;-4;-20.33;-6.00;409.5;16.30;76602;2837.830;-1800.935;1;56;-50;-45.2;43.7;44.2;12;11.7;28.3;0.0;
16/02/2025 21:33:46;100;0;53.00;-4;-20.06;-6.05;412.3;16.30;76597;2837.833;-1800.932;1;56;-50;-45.2;43.7;44.2;12;11.7;28.3;0.0;
16/02/2025 21:34:06;100;0;52.01;-4;-20.05;-6.05;415.0;16.20;76582;2837.835;-1800.929;1;56;-50;-45.2;43.7;44.3;12;11.7;28.3;0.0;
16/02/2025 21:34:26;100;0;50.91;-4;-19.73;-6.05;417.6;16.20;76585;2837.837;-1800.926;1;56;-50;-45.2;43.7;44.2;12;11.7;28.3;0.0;
16/02/2025 21:34:46;100;0;50.40;-4;-19.72;-6.09;420.3;16.20;76571;2837.839;-1800.923;1;56;-50;-45.2;43.7;44.2;12;11.7;28.3;0.0;
16/02/2025 21:35:06;100;0;48.47;-4;-19.57;-6.09;422.7;16.10;76561;2837.842;-1800.920;1;56;-50;-43.5;43.7;44.2;10;9.5;28.3;0.0;
16/02/2025 21:35:26;100;0;47.82;-4;-19.40;-7.19;425.1;16.10;76551;2837.844;-1800.917;1;56;-50;-45.2;43.7;44.2;10;9.5;28.3;0.0;
16/02/2025 21:35:46;100;0;48.69;-4;-19.68;-7.22;427.5;16.10;76539;2837.846;-1800.915;1;56;-50;-45.2;43.7;44.2;10;9.5;28.3;0.0;
16/02/2025 21:36:06;100;0;48.60;-4;-19.58;-7.18;429.8;16.10;76537;2837.848;-1800.912;1;56;-50;-45.2;43.7;44.2;10;9.5;28.3;0.0;
16/02/2025 21:36:26;100;0;50.10;-4;-19.87;-7.13;432.3;16.00;76530;2837.850;-1800.910;1;56;-50;-45.2;43.7;44.2;10;9.5;28.3;0.0;
16/02/2025 21:36:46;100;0;50.47;-4;-19.76;-7.14;434.7;16.00;76520;2837.852;-1800.907;1;56;-50;-45.2;43.7;44.2;10;9.5;28.3;0.0;
16/02/2025 21:37:06;100;0;51.83;-4;-19.69;-7.18;437.2;16.00;76517;2837.854;-1800.904;1;56;-50;-43.5;43.7;44.2;10;9.5;28.3;0.0;
16/02/2025 21:37:26;100;0;56.41;-4;-19.71;-7.17;439.6;16.00;76514;2837.856;-1800.901;1;56;-50;-45.2;43.7;44.2;12;12.2;28.3;0.0;
16/02/2025 21:37:46;100;0;57.46;-4;-19.92;-5.45;442.0;15.90;76493;2837.858;-1800.898;1;56;-50;-45.2;43.7;44.2;12;12.6;28.3;0.0;
16/02/2025 21:38:06;100;0;57.57;-4;-19.85;-5.41;444.3;15.90;76500;2837.860;-1800.895;1;56;-50;-45.2;43.7;44.2;12;12.6;28.3;0.0;
16/02/2025 21:38:26;100;0;58.10;-4;-19.95;-5.42;446.7;15.80;76485;2837.861;-1800.893;1;56;-50;-43.5;43.7;44.2;12;12.6;28.4;0.0;
16/02/2025 21:38:46;100;0;58.01;-4;-19.75;-5.49;449.0;15.80;76478;2837.863;-1800.890;1;56;-50;-45.2;43.7;44.2;12;12.6;28.3;0.0;
16/02/2025 21:39:06;100;0;56.09;-4;-19.76;-5.51;451.3;15.80;76471;2837.865;-1800.887;1;56;-50;-45.2;43.7;44.2;12;12.6;28.3;0.0;
16/02/2025 21:39:26;100;0;57.12;-4;-20.20;-5.48;453.5;15.80;76469;2837.866;-1800.884;1;56;-50;-46.8;43.7;44.3;12;12.6;28.4;0.0;
16/02/2025 21:39:46;100;0;58.97;-4;-20.09;-5.42;455.9;15.70;76459;2837.868;-1800.881;1;56;-50;-48.4;43.7;44.2;12;12.6;28.3;0.0;
16/02/2025 21:40:06;100;0;60.65;-4;-19.95;-5.47;458.3;15.70;76447;2837.870;-1800.878;1;56;-50;-46.8;43.7;44.2;12;12.6;28.3;0.0;
16/02/2025 21:40:26;100;0;62.25;-4;-19.85;-5.44;460.9;15.60;76426;2837.871;-1800.875;1;56;-50;-43.5;43.7;44.2;12;12.6;28.3;0.0;
16/02/2025 21:40:46;100;0;59.66;-4;-20.16;-5.48;463.3;15.60;76433;2837.873;-1800.872;1;56;-50;-45.2;43.7;44.2;12;12.6;28.3;0.0;
16/02/2025 21:41:06;100;0;60.37;-4;-19.84;-5.44;465.8;15.60;76416;2837.875;-1800.869;1;56;-50;-45.2;43.7;44.2;12;12.6;28.3;0.0;
16/02/2025 21:41:26;100;0;62.96;-4;-19.75;-5.53;468.2;15.60;76414;2837.876;-1800.866;1;56;-50;-45.2;43.7;44.2;12;12.6;28.3;0.0;
16/02/2025 21:41:46;100;0;64.82;-4;-20.15;-5.47;470.7;15.50;76399;2837.878;-1800.863;1;56;-50;-45.2;43.7;44.2;12;12.6;28.3;0.0;
16/02/2025 21:42:06;100;0;65.89;-4;-20.09;-5.49;473.4;15.50;76391;2837.879;-1800.859;1;56;-50;-45.2;43.7;44.2;14;14.0;28.3;0.0;
16/02/2025 21:42:26;100;0;67.74;-4;-20.45;-4.57;476.0;15.50;76382;2837.881;-1800.856;1;56;-50;-43.5;43.7;44.2;14;14.0;28.3;0.0;
16/02/2025 21:42:46;100;0;70.03;-4;-19.89;-4.88;478.6;15.40;76380;2837.882;-1800.852;1;56;-50;-43.5;43.7;44.2;18;18.5;28.3;0.0;
16/02/2025 21:43:06;100;0;71.21;-4;-20.54;-2.45;481.2;15.40;76371;2837.883;-1800.849;1;56;-50;-45.2;43.7;44.2;18;19.0;28.3;0.0;
16/02/2025 21:43:26;100;0;68.15;-4;-20.77;-2.26;483.9;15.40;76373;2837.884;-1800.845;1;56;-50;-43.5;43.7;44.2;16;15.8;28.3;0.0;
16/02/2025 21:43:46;100;0;67.45;-4;-20.10;-3.75;486.7;15.30;76360;2837.886;-1800.841;1;56;-50;-43.5;43.7;44.2;16;16.2;28.3;0.0;
16/02/2025 21:44:06;100;0;66.97;-4;-19.76;-3.68;489.4;15.30;76349;2837.887;-1800.838;1;56;-50;-43.5;43.7;44.2;16;16.2;28.3;0.0;
16/02/2025 21:44:26;100;0;68.35;-4;-19.81;-3.70;491.9;15.30;76339;2837.889;-1800.834;1;56;-50;-46.8;43.7;44.2;16;16.2;28.3;0.0;
16/02/2025 21:44:46;100;0;68.53;-4;-19.61;-3.74;494.5;15.20;76332;2837.890;-1800.831;1;56;-50;-45.2;43.7;44.0;16;16.2;28.3;0.0;
16/02/2025 21:45:06;100;0;65.51;-4;-19.45;-3.78;497.0;15.20;76333;2837.891;-1800.828;1;56;-50;-45.2;43.7;44.3;14;14.0;28.3;0.0;
16/02/2025 21:45:26;100;0;66.52;-4;-19.53;-5.14;499.4;15.20;76323;2837.893;-1800.824;1;56;-50;-45.2;43.7;44.2;14;13.5;28.3;0.0;
16/02/2025 21:45:46;100;0;68.27;-4;-19.56;-5.15;501.8;15.20;76324;2837.894;-1800.821;1;56;-50;-43.5;43.7;44.2;16;15.8;28.3;0.0;
16/02/2025 21:46:06;100;0;68.09;-4;-19.62;-3.34;504.2;15.10;76309;2837.895;-1800.818;1;56;-50;-46.8;43.7;44.2;16;16.7;28.3;0.0;
16/02/2025 21:46:26;100;0;67.50;-4;-19.74;-3.52;506.7;15.10;76305;2837.897;-1800.815;1;56;-50;-45.2;43.7;44.2;16;16.7;28.3;0.0;
16/02/2025 21:46:46;100;0;64.86;-4;-19.73;-3.23;509.2;15.10;76288;2837.898;-1800.811;1;56;-50;-46.8;43.7;44.2;14;14.0;28.3;0.0;
16/02/2025 21:47:06;100;0;65.39;-4;-19.52;-4.91;511.8;15.00;76288;2837.900;-1800.808;1;56;-50;-45.2;43.7;44.2;14;14.0;28.3;0.0;
16/02/2025 21:47:26;100;0;63.09;-4;-18.36;-5.11;514.3;15.00;76295;2837.901;-1800.804;1;56;-50;-45.2;44.2;44.2;14;14.0;28.3;0.0;
16/02/2025 21:47:46;100;0;61.17;-4;-19.35;-5.06;516.7;15.00;76288;2837.903;-1800.801;1;56;-50;-43.5;44.2;44.2;14;14.0;28.3;0.0;
16/02/2025 21:48:06;100;0;59.61;-4;-19.45;-5.08;519.0;15.00;76278;2837.905;-1800.798;1;56;-50;-43.5;44.2;44.2;14;14.0;28.3;0.0;
16/02/2025 21:48:26;100;0;57.84;-4;-19.42;-4.97;521.4;14.90;76272;2837.906;-1800.795;1;56;-50;-45.2;44.2;44.2;14;14.0;28.3;0.0;
16/02/2025 21:48:46;100;0;55.19;-4;-19.23;-5.19;523.7;14.90;76262;2837.908;-1800.792;1;56;-50;-43.5;44.2;44.3;14;14.0;28.3;0.0;
16/02/2025 21:49:06;100;0;54.59;-4;-19.35;-4.96;526.1;14.90;76262;2837.910;-1800.790;1;56;-50;-46.8;44.2;44.2;14;14.0;28.3;0.0;
16/02/2025 21:49:26;100;0;55.23;-4;-19.39;-5.06;528.5;14.90;76261;2837.912;-1800.787;1;56;-50;-43.5;44.2;44.2;14;14.0;28.4;0.0;
16/02/2025 21:49:46;100;0;52.96;-4;-19.45;-5.07;530.9;14.80;76254;2837.914;-1800.784;1;56;-50;-43.5;44.2;44.2;12;12.2;28.3;0.0;
16/02/2025 21:50:06;100;0;52.39;-4;-19.28;-6.14;533.2;14.80;76243;2837.916;-1800.781;1;56;-50;-43.5;44.2;44.0;12;11.7;28.3;0.0;
16/02/2025 21:50:26;100;0;54.77;-4;-19.64;-6.11;535.5;14.80;76236;2837.918;-1800.778;1;56;-50;-45.2;44.2;44.2;12;11.7;28.3;0.0;
16/02/2025 21:50:46;100;0;54.61;-4;-19.77;-6.15;537.9;14.80;76229;2837.920;-1800.776;1;56;-50;-45.2;44.2;44.2;12;11.7;28.4;0.0;
16/02/2025 21:51:06;100;0;54.62;-4;-19.75;-6.09;540.3;14.70;76218;2837.922;-1800.773;1;56;-50;-45.2;44.2;44.2;12;11.7;28.3;0.0;
16/02/2025 21:51:26;100;0;54.95;-4;-19.67;-6.09;542.8;14.70;76220;2837.924;-1800.770;1;56;-50;-43.5;44.2;44.2;12;11.7;28.3;0.0;
16/02/2025 21:51:46;100;0;55.47;-4;-19.60;-6.07;545.2;14.70;76221;2837.926;-1800.767;1;56;-50;-43.5;44.2;44.2;12;11.7;28.3;0.0;
16/02/2025 21:52:06;100;0;56.04;-4;-19.53;-6.09;547.6;14.60;76208;2837.927;-1800.764;1;56;-50;-45.2;44.2;44.2;12;11.7;28.3;0.0;
16/02/2025 21:52:26;100;0;56.34;-4;-19.57;-6.11;550.1;14.60;76196;2837.929;-1800.761;1;56;-50;-45.2;44.2;44.2;12;11.7;28.3;0.0;
16/02/2025 21:52:46;100;0;56.95;-4;-19.55;-6.09;552.4;14.60;76202;2837.931;-1800.758;1;56;-50;-45.2;44.2;44.2;12;11.7;28.3;0.0;
16/02/2025 21:53:06;100;0;60.09;-4;-19.53;-6.08;554.8;14.60;76210;2837.933;-1800.755;1;56;-50;-43.5;44.2;44.2;12;11.7;28.3;0.0;
16/02/2025 21:53:26;100;0;62.30;-4;-19.59;-6.07;557.2;14.60;76190;2837.934;-1800.752;1;56;-50;-45.2;44.2;44.2;12;11.7;28.3;0.0;
16/02/2025 21:53:46;100;0;63.54;-4;-19.53;-6.17;559.7;14.50;76178;2837.936;-1800.749;1;56;-50;-45.2;44.2;44.2;12;11.7;28.3;0.0;
16/02/2025 21:54:06;100;0;65.89;-4;-19.93;-6.11;562.2;14.50;76177;2837.937;-1800.746;1;56;-50;-45.2;44.2;44.2;14;14.0;28.3;0.0;
16/02/2025 21:54:26;100;0;69.11;-4;-20.09;-4.64;564.8;14.50;76167;2837.938;-1800.742;1;56;-50;-43.5;44.2;44.2;17;17.1;28.3;0.0;
16/02/2025 21:54:46;100;0;69.43;-4;-20.18;-2.96;567.4;14.40;76168;2837.940;-1800.739;1;56;-50;-45.2;44.2;44.0;17;18.1;28.3;0.0;
16/02/2025 21:55:06;100;0;69.32;-4;-19.99;-2.98;570.1;14.40;76158;2837.941;-1800.735;1;56;-50;-43.5;44.2;44.2;17;18.1;28.3;0.0;
16/02/2025 21:55:26;100;0;68.28;-4;-20.35;-2.89;572.7;14.40;76166;2837.942;-1800.732;1;56;-50;-46.8;44.2;44.2;17;18.1;28.3;0.0;
16/02/2025 21:55:46;100;0;68.48;-4;-19.73;-2.91;575.4;14.40;76154;2837.944;-1800.728;1;56;-50;-45.2;44.2;44.2;17;17.6;28.3;0.0;
16/02/2025 21:56:06;100;0;70.11;-4;-20.24;-2.97;578.1;14.30;76142;2837.945;-1800.724;1;56;-50;-45.2;44.2;44.2;17;18.1;28.3;0.0;
16/02/2025 21:56:26;100;0;70.78;-4;-19.75;-2.84;580.8;14.30;76149;2837.946;-1800.721;1;56;-50;-45.2;44.2;44.2;19;20.3;28.3;0.0;
16/02/2025 21:56:46;100;0;70.60;-4;-19.93;-1.19;583.4;14.30;76140;2837.948;-1800.717;1;56;-50;-43.5;44.2;44.2;19;21.2;28.3;0.0;
16/02/2025 21:57:06;100;0;68.76;-4;-19.72;-1.17;586.0;14.30;76128;2837.949;-1800.714;1;56;-50;-45.2;44.2;44.2;17;17.1;28.3;0.0;
16/02/2025 21:57:26;100;0;67.46;-4;-19.44;-2.37;588.5;14.20;76117;2837.950;-1800.710;1;56;-50;-45.2;44.2;44.2;17;19.0;28.3;0.0;
16/02/2025 21:57:46;100;0;63.17;-4;-19.79;-2.46;590.9;14.20;76102;2837.952;-1800.707;1;56;-50;-43.5;44.2;44.0;14;13.5;28.3;0.0;
16/02/2025 21:58:06;100;0;58.64;-4;-18.80;-5.29;593.3;14.20;76112;2837.954;-1800.704;1;56;-50;-43.5;44.6;44.8;14;13.5;28.3;0.0;
16/02/2025 21:58:26;100;0;57.33;-4;-20.52;-5.29;595.7;14.20;76096;2837.955;-1800.701;1;56;-50;-45.2;44.6;44.9;14;13.5;28.3;0.0;
16/02/2025 21:58:46;100;0;57.91;-4;-20.57;-5.17;598.0;14.20;76097;2837.957;-1800.698;1;56;-50;-43.5;44.6;44.9;14;13.5;28.3;0.0;
16/02/2025 21:59:06;100;0;59.97;-4;-20.30;-5.22;600.5;14.10;76082;2837.959;-1800.695;1;56;-50;-45.2;44.6;44.9;14;13.5;28.3;0.0;
16/02/2025 21:59:26;100;0;59.96;-4;-20.25;-5.27;602.9;14.10;76075;2837.960;-1800.692;1;56;-50;-45.2;44.6;44.9;14;13.5;28.3;0.0;
16/02/2025 21:59:46;100;0;60.28;-4;-20.47;-5.24;605.3;14.10;76072;2837.962;-1800.689;1;56;-50;-45.2;44.6;44.9;14;13.5;28.3;0.0;
16/02/2025 22:00:06;100;0;60.27;-4;-20.65;-5.27;607.8;14.00;76068;2837.964;-1800.686;1;56;-50;-45.2;44.6;44.9;14;13.5;28.3;0.0;
16/02/2025 22:00:26;100;0;59.37;-4;-20.48;-5.23;610.2;14.00;76056;2837.965;-1800.683;1;56;-50;-45.2;44.6;44.9;14;13.5;28.4;0.0;
16/02/2025 22:00:46;100;0;56.94;-4;-20.60;-5.25;612.7;14.00;76059;2837.967;-1800.680;1;56;-50;-45.2;44.6;44.9;14;13.5;28.3;0.0;
16/02/2025 22:01:07;100;0;56.69;-4;-20.44;-5.20;615.1;14.00;76047;2837.969;-1800.677;1;56;-50;-43.5;44.6;44.9;14;13.5;28.3;0.0;
16/02/2025 22:01:27;100;0;57.05;-4;-20.18;-5.18;617.5;13.90;76042;2837.971;-1800.675;1;56;-50;-45.2;44.6;44.9;14;13.5;28.3;0.0;
16/02/2025 22:01:47;100;0;57.77;-4;-20.41;-5.15;620.0;13.90;76041;2837.972;-1800.672;1;56;-50;-45.2;44.6;44.9;14;13.5;28.3;0.0;
16/02/2025 22:02:07;100;0;55.53;-4;-20.20;-5.23;622.4;13.90;76048;2837.974;-1800.669;1;56;-50;-45.2;44.6;44.9;14;13.5;28.4;0.0;
16/02/2025 22:02:27;100;0;55.49;-4;-20.23;-5.22;624.8;13.90;76041;2837.976;-1800.666;1;56;-50;-43.5;44.6;44.9;14;13.5;28.3;0.0;
16/02/2025 22:02:47;100;0;56.33;-4;-20.38;-5.08;627.1;13.80;76023;2837.978;-1800.663;1;56;-50;-43.5;44.6;44.9;14;13.5;28.3;0.0;
16/02/2025 22:03:07;100;0;57.71;-4;-20.40;-5.24;629.4;13.80;76020;2837.980;-1800.660;1;56;-50;-43.5;44.6;44.9;14;13.5;28.3;0.0;
16/02/2025 22:03:27;100;0;58.98;-4;-20.49;-5.28;631.8;13.80;76026;2837.981;-1800.657;1;56;-50;-45.2;44.6;44.9;14;13.5;28.3;0.0;
16/02/2025 22:03:47;100;0;59.73;-4;-20.35;-5.24;634.3;13.80;76007;2837.983;-1800.654;1;56;-50;-45.2;44.6;44.9;14;13.5;28.3;0.0;
16/02/2025 22:04:07;100;0;60.07;-4;-21.24;-5.23;636.7;13.80;76013;2837.985;-1800.651;1;56;-50;-43.5;44.6;44.9;14;13.5;28.3;0.0;
16/02/2025 22:04:27;100;0;58.96;-4;-20.30;-5.30;639.1;13.70;76009;2837.986;-1800.648;1;56;-50;-45.2;44.6;44.8;14;13.5;28.3;0.0;
16/02/2025 22:04:47;100;0;60.81;-4;-20.28;-5.25;641.4;13.70;76001;2837.988;-1800.645;1;56;-50;-43.5;44.6;45.1;14;13.5;28.3;0.0;
16/02/2025 22:05:07;100;0;61.41;-4;-20.43;-5.22;643.8;13.70;75979;2837.989;-1800.642;1;56;-50;-45.2;44.6;44.9;14;13.5;28.3;0.0;
16/02/2025 22:05:27;100;0;62.48;-4;-20.61;-5.25;646.2;13.70;75977;2837.991;-1800.639;1;56;-50;-43.5;44.6;44.9;14;13.5;28.3;0.0;
16/02/2025 22:05:47;100;0;62.40;-4;-20.46;-5.22;648.8;13.60;75967;2837.993;-1800.636;1;56;-50;-45.2;44.6;44.9;14;13.5;28.3;0.0;
16/02/2025 22:06:07;100;0;61.51;-4;-20.38;-5.20;651.2;13.60;75968;2837.994;-1800.633;1;56;-50;-43.5;44.6;44.9;14;13.5;28.3;0.0;
16/02/2025 22:06:27;100;0;64.08;-4;-20.31;-5.18;653.6;13.60;75965;2837.996;-1800.630;1;56;-50;-45.2;44.6;44.9;14;13.5;28.3;0.0;
16/02/2025 22:06:47;100;0;65.72;-4;-20.30;-5.20;656.1;13.60;75951;2837.997;-1800.627;1;56;-50;-45.2;44.6;44.9;14;13.5;28.3;0.0;
16/02/2025 22:07:07;100;0;66.27;-4;-20.32;-5.22;658.4;13.50;75943;2837.998;-1800.624;1;55;-50;-45.2;44.6;44.9;16;15.8;28.3;0.0;
16/02/2025 22:07:27;100;0;65.98;-4;-20.76;-3.35;660.8;13.50;75955;2838.000;-1800.621;1;55;-50;-45.2;44.6;45.1;16;17.1;28.4;0.0;
16/02/2025 22:07:47;100;0;64.37;-4;-20.79;-3.38;663.2;13.50;75933;2838.001;-1800.618;1;55;-50;-45.2;44.6;44.9;16;17.1;28.3;0.0;
16/02/2025 22:08:07;100;0;62.27;-4;-20.78;-3.36;665.6;13.50;75927;2838.003;-1800.615;1;55;-50;-45.2;44.6;44.9;14;13.5;28.3;0.0;
16/02/2025 22:08:27;100;0;61.03;-4;-20.65;-5.12;668.0;13.40;75918;2838.004;-1800.612;1;55;-50;-46.8;44.6;45.1;14;13.5;28.3;0.0;
16/02/2025 22:08:47;100;0;61.61;-4;-20.54;-5.16;670.3;13.40;75913;2838.006;-1800.609;1;55;-50;-45.2;44.6;44.9;14;13.5;28.3;0.0;
16/02/2025 22:09:07;100;0;62.53;-4;-20.72;-5.11;672.7;13.40;75909;2838.007;-1800.606;1;55;-50;-43.5;44.6;44.9;14;13.5;28.3;0.0;
16/02/2025 22:09:27;100;0;62.46;-4;-20.69;-5.20;674.9;13.40;75889;2838.008;-1800.603;1;55;-50;-45.2;44.6;44.9;14;13.5;28.3;0.0;
16/02/2025 22:09:47;100;0;63.95;-4;-20.61;-5.12;677.3;13.30;75885;2838.010;-1800.600;1;55;-50;-43.5;44.6;44.9;14;13.5;28.3;0.0;
16/02/2025 22:10:07;100;0;64.28;-4;-20.66;-5.07;679.5;13.30;75883;2838.011;-1800.598;1;55;-50;-45.2;44.6;45.1;14;13.5;28.3;0.0;
16/02/2025 22:10:27;100;0;64.61;-4;-20.43;-5.18;681.9;13.30;75881;2838.013;-1800.594;1;55;-50;-45.2;44.6;44.9;14;13.5;28.3;0.0;
16/02/2025 22:10:47;100;0;63.56;-4;-20.25;-5.19;684.2;13.30;75866;2838.014;-1800.591;1;55;-50;-45.2;44.6;44.9;14;13.5;28.3;0.0;
16/02/2025 22:11:07;100;0;62.92;-4;-20.60;-5.17;686.6;13.30;75866;2838.016;-1800.588;1;55;-50;-45.2;44.6;44.9;14;13.5;28.3;0.0;
16/02/2025 22:11:27;100;0;62.24;-4;-20.18;-4.91;689.0;13.20;75862;2838.017;-1800.585;1;55;-50;-45.2;44.6;44.9;14;13.5;28.3;0.0;
16/02/2025 22:11:47;100;0;61.64;-4;-20.56;-5.10;691.4;13.20;75853;2838.019;-1800.582;1;55;-50;-45.2;44.6;44.9;14;13.5;28.4;0.0;
16/02/2025 22:12:07;100;0;61.21;-4;-20.24;-5.12;693.7;13.20;75853;2838.020;-1800.580;1;55;-50;-43.5;44.6;44.9;14;13.5;28.3;0.0;
16/02/2025 22:12:27;100;0;61.56;-4;-20.30;-5.15;696.1;13.10;75841;2838.022;-1800.577;1;55;-50;-43.5;44.6;44.9;14;13.5;28.3;0.0;
16/02/2025 22:12:47;100;0;64.26;-4;-20.41;-5.30;698.5;13.10;75840;2838.023;-1800.573;1;55;-50;-45.2;44.6;44.9;14;13.5;28.3;0.0;
16/02/2025 22:13:07;100;0;68.08;-4;-19.54;-4.92;700.8;13.10;75827;2838.024;-1800.570;1;55;-50;-45.2;44.6;44.9;18;18.5;28.4;0.0;
16/02/2025 22:13:27;100;0;72.48;-4;-20.32;-2.15;703.2;13.10;75823;2838.025;-1800.567;1;55;-50;-45.2;44.6;45.1;23;23.0;28.3;0.0;
16/02/2025 22:13:47;100;0;71.06;-4;-20.97;-0.22;705.5;13.00;75805;2838.026;-1800.564;1;55;-50;-45.2;44.6;44.9;23;23.5;28.3;0.0;
16/02/2025 22:14:07;100;0;70.56;-4;-20.44;-0.01;707.9;13.00;75805;2838.028;-1800.561;1;55;-50;-45.2;44.6;44.9;21;20.8;28.3;0.0;
16/02/2025 22:14:27;100;0;69.22;-4;-20.77;-1.54;710.3;13.00;75791;2838.029;-1800.558;1;55;-50;-43.5;44.6;44.9;19;18.1;28.3;0.0;
16/02/2025 22:14:47;100;0;66.65;-4;-20.79;-1.84;712.8;13.00;75792;2838.030;-1800.554;1;55;-50;-43.5;44.6;45.1;17;16.7;28.3;0.0;
16/02/2025 22:15:07;100;0;62.78;-4;-20.41;-3.14;715.1;13.00;75790;2838.032;-1800.551;1;55;-50;-45.2;44.6;44.9;15;14.9;28.3;0.0;
16/02/2025 22:15:27;100;0;60.83;-4;-20.53;-3.63;717.5;12.90;75781;2838.033;-1800.549;1;55;-50;-43.5;44.6;44.9;15;16.7;28.3;0.0;
16/02/2025 22:15:47;100;0;60.35;-4;-20.58;-3.57;719.9;12.90;75771;2838.035;-1800.546;1;55;-50;-45.2;44.6;45.1;15;16.7;28.3;0.0;
16/02/2025 22:16:07;100;0;59.58;-4;-20.31;-3.56;722.3;12.90;75766;2838.036;-1800.543;1;55;-50;-45.2;44.6;45.1;15;16.7;28.4;0.0;
16/02/2025 22:16:27;100;0;58.64;-4;-20.47;-3.59;724.7;12.80;75759;2838.038;-1800.540;1;55;-50;-45.2;44.6;45.1;15;16.7;28.3;0.0;
16/02/2025 22:16:47;100;0;57.41;-4;-20.18;-3.58;727.2;12.80;75757;2838.040;-1800.537;1;55;-50;-43.5;44.6;45.1;15;16.7;28.3;0.0;
16/02/2025 22:17:07;100;0;56.56;-4;-20.30;-3.60;729.5;12.80;75747;2838.042;-1800.534;1;55;-50;-45.2;44.6;45.1;15;16.7;28.3;0.0;
16/02/2025 22:17:27;100;0;56.10;-4;-20.48;-3.53;731.9;12.80;75738;2838.043;-1800.531;1;55;-50;-45.2;44.6;45.1;15;16.7;28.3;0.0;
16/02/2025 22:17:47;100;0;56.11;-4;-20.41;-3.61;734.3;12.70;75740;2838.045;-1800.528;1;55;-50;-45.2;44.6;45.1;15;16.7;28.3;0.0;
16/02/2025 22:18:07;100;0;55.66;-4;-20.42;-3.62;736.7;12.70;75735;2838.047;-1800.525;1;55;-50;-45.2;44.6;45.1;15;16.7;28.3;0.0;
16/02/2025 22:18:27;100;0;54.54;-4;-20.08;-3.57;739.1;12.70;75713;2838.049;-1800.523;1;55;-50;-45.2;44.6;45.1;15;16.7;28.3;0.0;
16/02/2025 22:18:47;100;0;54.08;-4;-20.10;-3.60;741.5;12.70;75708;2838.051;-1800.520;1;55;-50;-45.2;44.6;45.1;15;16.7;28.3;0.0;
16/02/2025 22:19:07;100;0;53.32;-4;-20.27;-3.53;743.9;12.60;75706;2838.053;-1800.517;1;55;-50;-45.2;44.6;44.9;15;16.7;28.3;0.0;
16/02/2025 22:19:27;100;0;51.79;-4;-20.46;-3.58;746.2;12.60;75716;2838.055;-1800.514;1;55;-50;-45.2;44.6;45.1;15;16.7;28.3;0.0;
16/02/2025 22:19:47;100;0;50.13;-4;-20.11;-3.65;748.7;12.60;75687;2838.057;-1800.512;1;55;-50;-45.2;44.6;45.1;13;12.6;28.3;0.0;
16/02/2025 22:20:07;100;0;45.53;-4;-20.13;-5.73;751.1;12.60;75688;2838.059;-1800.509;1;55;-50;-45.2;44.6;45.1;10;9.0;28.3;0.0;
16/02/2025 22:20:27;100;0;44.90;-4;-19.90;-7.00;753.3;12.50;75689;2838.061;-1800.507;1;55;-50;-43.5;44.6;45.1;10;9.9;28.3;0.0;
16/02/2025 22:20:47;100;0;45.90;-4;-20.07;-7.05;755.7;12.50;75684;2838.064;-1800.504;1;55;-50;-43.5;44.6;44.9;10;9.5;28.3;0.0;
16/02/2025 22:21:07;100;0;46.45;-4;-20.01;-7.01;758.0;12.50;75674;2838.066;-1800.502;1;55;-50;-45.2;44.6;45.1;10;9.9;28.3;0.0;
16/02/2025 22:21:27;100;0;46.84;-4;-20.38;-7.05;760.4;12.50;75671;2838.068;-1800.500;1;55;-50;-45.2;44.6;45.1;10;9.9;28.3;0.0;
16/02/2025 22:21:47;100;0;45.08;-4;-19.60;-7.00;762.8;12.50;75665;2838.070;-1800.497;1;55;-50;-45.2;44.6;44.9;10;9.9;28.3;0.0;
16/02/2025 22:22:07;100;0;49.79;-4;-20.07;-7.01;765.1;12.40;75656;2838.072;-1800.495;1;55;-50;-45.2;44.6;44.9;13;13.1;28.3;0.0;
16/02/2025 22:22:27;100;0;50.98;-4;-20.26;-5.13;767.4;12.40;75651;2838.074;-1800.492;1;55;-50;-45.2;44.6;45.1;13;13.5;28.3;0.0;
16/02/2025 22:22:47;100;0;52.96;-4;-19.92;-5.27;769.7;12.40;75642;2838.076;-1800.489;1;55;-50;-45.2;44.6;44.9;13;13.5;28.3;0.0;
16/02/2025 22:23:07;100;0;55.35;-4;-19.98;-5.25;771.8;12.30;75638;2838.078;-1800.487;1;55;-50;-45.2;44.6;44.9;13;13.5;28.3;0.0;
16/02/2025 22:23:27;100;0;55.41;-4;-20.74;-5.16;774.1;12.40;75646;2838.080;-1800.484;1;55;-50;-45.2;44.6;44.9;13;13.5;28.3;0.0;
16/02/2025 22:23:47;100;0;55.22;-4;-20.61;-5.19;776.6;12.30;75629;2838.081;-1800.481;1;55;-50;-45.2;44.6;44.9;13;13.5;28.3;0.0;
16/02/2025 22:24:07;100;0;53.99;-4;-20.11;-5.18;779.2;12.30;75619;2838.083;-1800.478;1;55;-50;-45.2;44.6;45.1;13;13.5;28.3;0.0;
16/02/2025 22:24:27;100;0;55.27;-4;-20.04;-5.25;781.5;12.30;75609;2838.085;-1800.476;1;55;-50;-43.5;44.6;44.9;13;13.5;28.3;0.0;
16/02/2025 22:24:47;100;0;56.44;-4;-20.02;-5.20;783.9;12.30;75612;2838.087;-1800.473;1;55;-50;-45.2;44.6;44.9;13;13.5;28.3;0.0;
16/02/2025 22:25:07;100;0;55.82;-4;-20.68;-5.27;786.3;12.20;75592;2838.089;-1800.470;1;55;-50;-45.2;44.6;45.1;13;13.5;28.3;0.0;
16/02/2025 22:25:27;100;0;55.51;-4;-20.22;-5.28;789.0;12.20;75593;2838.091;-1800.467;1;55;-50;-43.5;44.6;45.1;13;13.1;28.4;0.0;
16/02/2025 22:25:47;100;0;56.35;-4;-20.04;-5.18;791.6;12.20;75580;2838.093;-1800.464;1;55;-50;-45.2;44.6;44.9;13;13.5;28.3;0.0;
16/02/2025 22:26:07;100;0;58.96;-4;-20.29;-5.18;794.3;12.10;75579;2838.095;-1800.460;1;55;-50;-45.2;44.6;44.9;13;13.5;28.3;0.0;
16/02/2025 22:26:27;100;0;59.01;-4;-20.72;-5.31;797.2;12.10;75580;2838.097;-1800.457;1;55;-50;-45.2;44.6;44.9;13;13.5;28.3;0.0;
16/02/2025 22:26:47;100;0;58.34;-4;-19.99;-5.41;800.0;12.10;75581;2838.099;-1800.453;1;55;-50;-45.2;44.6;45.1;13;13.5;28.3;0.0;
16/02/2025 22:27:07;100;0;58.16;-4;-19.83;-5.26;802.9;12.10;75582;2838.101;-1800.450;1;55;-50;-45.2;44.6;44.9;13;13.1;28.3;0.0;
16/02/2025 22:27:27;100;0;60.26;-4;-20.34;-5.32;805.8;12.00;75575;2838.103;-1800.446;1;55;-50;-45.2;44.6;44.9;13;13.5;28.3;0.0;
16/02/2025 22:27:47;100;0;60.46;-4;-20.59;-5.29;808.7;12.00;75554;2838.105;-1800.443;1;55;-50;-45.2;44.6;45.1;13;13.1;28.4;0.0;
16/02/2025 22:28:07;100;0;64.39;-4;-20.31;-5.16;811.8;12.00;75552;2838.106;-1800.439;1;55;-50;-43.5;44.6;44.9;15;14.9;28.3;0.0;
16/02/2025 22:28:27;100;0;67.46;-4;-20.30;-4.17;814.8;12.00;75535;2838.108;-1800.435;1;55;-50;-45.2;44.6;44.9;17;17.1;28.3;0.0;
16/02/2025 22:28:47;100;0;69.21;-4;-20.11;-2.50;817.6;11.90;75519;2838.109;-1800.431;1;55;-50;-45.2;44.6;45.1;19;19.0;28.3;0.0;
16/02/2025 22:29:07;100;0;68.85;-4;-20.13;-1.35;820.4;11.90;75521;2838.111;-1800.427;1;55;-50;-43.5;44.6;45.1;19;20.8;28.3;0.0;
16/02/2025 22:29:27;100;0;68.14;-4;-20.13;-1.39;823.1;11.90;75506;2838.112;-1800.424;1;55;-50;-43.5;44.6;45.1;19;20.8;28.3;0.0;
16/02/2025 22:29:47;100;0;65.89;-4;-20.00;-1.43;825.7;11.90;75502;2838.114;-1800.420;1;55;-50;-45.2;44.6;44.9;16;15.8;28.3;0.0;
16/02/2025 22:30:07;100;0;64.80;-4;-20.23;-3.66;828.3;11.80;75505;2838.115;-1800.417;1;55;-50;-45.2;44.6;45.1;16;16.7;28.3;0.0;
16/02/2025 22:30:27;100;0;64.02;-4;-20.48;-3.71;831.0;11.80;75498;2838.117;-1800.413;1;55;-50;-45.2;44.6;44.9;16;16.7;28.3;0.0;
16/02/2025 22:30:47;100;0;64.19;-4;-19.96;-3.67;833.7;11.80;75486;2838.119;-1800.410;1;55;-50;-45.2;44.6;44.9;16;16.7;28.3;0.0;
16/02/2025 22:31:07;100;0;65.05;-4;-20.29;-3.63;836.4;11.80;75485;2838.120;-1800.406;1;55;-50;-43.5;44.6;44.9;16;16.2;28.3;0.0;
16/02/2025 22:31:27;100;0;64.94;-4;-19.94;-3.69;839.1;11.70;75488;2838.122;-1800.403;1;55;-50;-45.2;44.6;44.9;16;16.7;28.3;0.0;
16/02/2025 22:31:47;100;0;63.90;-4;-19.82;-3.53;841.7;11.70;75486;2838.123;-1800.399;1;55;-50;-45.2;44.6;45.1;16;16.7;28.3;0.0;
16/02/2025 22:32:07;100;0;62.99;-4;-19.88;-3.72;844.4;11.70;75482;2838.125;-1800.396;1;55;-50;-45.2;44.6;45.1;16;16.7;28.3;0.0;
16/02/2025 22:32:27;100;0;61.80;-4;-19.99;-3.68;847.0;11.70;75466;2838.127;-1800.392;1;55;-50;-45.2;44.6;44.9;16;16.7;28.3;0.0;
16/02/2025 22:32:47;100;0;59.68;-4;-20.33;-3.68;849.6;11.70;75458;2838.128;-1800.389;1;55;-50;-45.2;44.6;44.9;14;14.0;28.3;0.0;
16/02/2025 22:33:07;100;0;56.30;-4;-20.19;-4.87;852.5;11.60;75451;2838.131;-1800.386;1;55;-50;-45.2;44.6;45.1;14;14.0;28.3;0.0;
16/02/2025 22:33:27;100;0;49.81;-4;-20.39;-5.09;855.4;11.60;75445;2838.133;-1800.383;1;55;-50;-43.5;44.6;45.1;14;14.0;28.3;0.0;
16/02/2025 22:33:47;100;0;48.06;-4;-19.81;-5.03;858.3;11.60;75442;2838.136;-1800.379;1;55;-50;-45.2;44.6;45.1;12;12.2;28.3;0.0;
16/02/2025 22:34:07;100;0;48.23;-4;-19.79;-5.98;861.1;11.60;75435;2838.138;-1800.376;1;55;-50;-45.2;44.6;45.1;12;12.2;28.3;0.0;
16/02/2025 22:34:27;100;0;48.98;-4;-19.62;-5.98;863.8;11.50;75436;2838.141;-1800.373;1;55;-50;-46.8;44.6;45.1;12;11.7;28.3;0.0;
16/02/2025 22:34:47;100;0;51.14;-4;-19.52;-6.03;866.6;11.50;75421;2838.143;-1800.370;1;55;-50;-45.2;44.6;45.1;12;11.7;28.3;0.0;
16/02/2025 22:35:07;100;0;52.96;-4;-19.67;-5.99;869.3;11.50;75424;2838.145;-1800.367;1;55;-50;-45.2;44.6;44.9;14;14.0;28.3;0.0;
16/02/2025 22:35:27;100;0;55.32;-4;-19.71;-4.82;871.9;11.50;75425;2838.147;-1800.364;1;55;-50;-45.2;44.6;45.1;14;14.4;28.3;0.0;
16/02/2025 22:35:47;100;0;56.39;-4;-19.81;-4.76;874.4;11.40;75408;2838.149;-1800.361;1;55;-50;-45.2;44.6;45.1;14;14.4;28.3;0.0;
16/02/2025 22:36:07;100;0;58.85;-4;-19.78;-4.79;876.9;11.40;75408;2838.151;-1800.358;1;55;-50;-43.5;44.6;44.9;14;14.4;28.3;0.0;
16/02/2025 22:36:27;100;0;59.93;-4;-19.89;-4.61;879.3;11.40;75399;2838.152;-1800.355;1;55;-50;-43.5;44.6;45.1;14;14.4;28.3;0.0;
16/02/2025 22:36:47;100;0;60.37;-4;-19.51;-4.77;881.8;11.40;75398;2838.154;-1800.352;1;55;-50;-43.5;44.6;45.1;14;14.4;28.3;0.0;
16/02/2025 22:37:08;100;0;60.37;-4;-19.59;-4.81;884.2;11.40;75396;2838.156;-1800.349;1;55;-50;-45.2;44.6;44.9;14;14.4;28.3;0.0;
16/02/2025 22:37:28;100;0;59.43;-4;-19.65;-4.70;886.6;11.30;75381;2838.158;-1800.346;1;55;-50;-45.2;44.6;44.9;14;14.4;28.3;0.0;
16/02/2025 22:37:48;100;0;58.44;-4;-19.68;-4.70;889.0;11.30;75374;2838.159;-1800.343;1;55;-50;-45.2;44.6;44.9;14;14.4;28.3;0.0;
16/02/2025 22:38:08;100;0;59.73;-4;-19.63;-4.79;891.4;11.30;75381;2838.161;-1800.340;1;55;-50;-45.2;44.6;45.1;14;14.4;28.3;0.0;
16/02/2025 22:38:28;100;0;60.57;-4;-19.57;-4.72;893.7;11.30;75373;2838.162;-1800.337;1;55;-50;-45.2;44.6;45.1;14;14.4;28.3;0.0;
16/02/2025 22:38:48;100;0;61.68;-4;-19.64;-4.75;896.0;11.20;75371;2838.164;-1800.334;1;55;-50;-45.2;44.6;45.1;14;14.4;28.3;0.0;
16/02/2025 22:39:08;100;0;62.08;-4;-19.66;-4.76;898.2;11.20;75364;2838.165;-1800.331;1;55;-50;-45.2;44.6;45.1;14;14.4;28.3;0.0;
16/02/2025 22:39:28;100;0;62.65;-4;-19.68;-4.74;900.5;11.20;75359;2838.167;-1800.328;1;55;-50;-45.2;44.6;45.1;14;14.4;28.3;0.0;
16/02/2025 22:39:48;100;0;62.92;-4;-19.61;-4.76;902.8;11.20;75345;2838.168;-1800.326;1;55;-50;-43.5;44.6;45.1;14;14.4;28.3;0.0;
16/02/2025 22:40:08;100;0;62.99;-4;-19.91;-4.75;905.0;11.10;75354;2838.170;-1800.323;1;55;-50;-43.5;44.6;44.9;14;14.4;28.4;0.0;
16/02/2025 22:40:28;100;0;62.75;-4;-19.63;-4.71;907.3;11.10;75341;2838.171;-1800.320;1;55;-50;-45.2;44.6;45.1;14;14.4;28.3;0.0;
16/02/2025 22:40:48;100;0;62.55;-4;-19.74;-4.78;909.6;11.10;75334;2838.173;-1800.317;1;55;-50;-45.2;44.6;44.9;14;14.4;28.3;0.0;
16/02/2025 22:41:08;100;0;62.44;-4;-19.83;-4.78;911.8;11.10;75335;2838.174;-1800.314;1;55;-50;-45.2;44.6;44.9;14;14.4;28.3;0.0;
16/02/2025 22:41:28;100;0;62.63;-4;-19.80;-4.77;914.2;11.00;75328;2838.176;-1800.311;1;55;-50;-45.2;44.6;45.1;14;14.4;28.3;0.0;
16/02/2025 22:41:48;100;0;64.80;-4;-19.75;-4.68;916.4;11.00;75329;2838.177;-1800.308;1;55;-50;-43.5;44.6;45.1;16;15.8;28.3;0.0;
16/02/2025 22:42:08;100;0;64.03;-4;-19.42;-3.79;918.7;11.00;75330;2838.178;-1800.305;1;55;-50;-45.2;44.6;44.9;16;16.2;28.3;0.0;
16/02/2025 22:42:28;100;0;63.94;-4;-19.64;-3.99;921.0;11.00;75317;2838.180;-1800.302;1;55;-50;-45.2;44.6;44.9;16;15.8;28.3;0.0;
16/02/2025 22:42:48;100;0;63.26;-4;-19.87;-3.88;923.2;11.00;75318;2838.181;-1800.299;1;55;-50;-45.2;44.6;45.1;16;16.2;28.3;0.0;
16/02/2025 22:43:08;100;0;61.76;-4;-19.72;-3.84;925.5;11.00;75319;2838.183;-1800.296;1;55;-50;-45.2;44.6;45.1;16;15.8;28.3;0.0;
16/02/2025 22:43:28;100;0;61.28;-4;-19.82;-3.71;927.8;10.90;75314;2838.184;-1800.293;1;55;-50;-45.2;44.6;45.1;16;16.2;28.3;0.0;
16/02/2025 22:43:48;100;0;60.21;-4;-19.84;-3.76;930.0;10.90;75309;2838.186;-1800.291;1;55;-50;-45.2;44.6;44.9;16;16.2;28.3;0.0;
16/02/2025 22:44:08;100;0;58.46;-4;-19.78;-3.82;932.2;10.90;75304;2838.187;-1800.288;1;55;-50;-45.2;44.6;44.9;16;15.8;28.3;0.0;
16/02/2025 22:44:28;100;0;54.75;-4;-19.71;-3.85;934.4;10.90;75299;2838.189;-1800.285;1;55;-50;-45.2;44.6;44.9;16;16.2;28.3;0.0;
16/02/2025 22:44:48;100;0;49.94;-4;-19.12;-3.84;936.6;10.90;75299;2838.191;-1800.283;1;55;-50;-43.5;44.6;45.1;13;12.6;28.3;0.0;
16/02/2025 22:45:08;100;0;51.46;-4;-19.59;-5.59;938.8;10.80;75289;2838.193;-1800.280;1;55;-50;-45.2;44.6;45.1;13;12.2;28.3;0.0;
16/02/2025 22:45:28;100;0;51.26;-4;-19.99;-5.68;940.8;10.80;75287;2838.195;-1800.278;1;55;-70;-71.0;44.6;45.1;13;12.6;28.3;0.0;
16/02/2025 22:45:48;100;0;52.32;-4;-19.03;-5.81;943.0;10.80;75356;2838.197;-1800.275;1;55;-70;-75.8;44.6;45.1;13;12.6;28.3;0.0;
16/02/2025 22:46:08;100;0;53.87;-4;-18.96;-5.58;945.3;10.80;75365;2838.198;-1800.273;1;55;-70;-75.8;44.9;44.9;13;12.2;28.3;0.0;
16/02/2025 22:46:28;100;0;53.68;-4;-19.06;-5.46;947.6;10.80;75370;2838.200;-1800.270;1;55;-70;-77.4;44.9;45.1;13;12.6;28.3;0.0;
16/02/2025 22:46:48;100;0;53.40;-4;-19.11;-5.66;949.9;10.80;75367;2838.202;-1800.267;1;55;-70;-80.6;44.9;45.1;13;12.6;28.3;0.0;
16/02/2025 22:47:08;100;0;54.90;-4;-19.12;-5.54;952.2;10.70;75376;2838.204;-1800.264;1;55;-70;-80.6;44.9;45.1;13;12.6;28.3;0.0;
16/02/2025 22:47:28;100;0;55.34;-4;-19.38;-5.49;954.4;10.70;75366;2838.206;-1800.262;1;55;-70;-80.6;44.9;44.9;13;12.6;28.3;0.0;
16/02/2025 22:47:48;100;0;54.83;-4;-19.13;-5.52;956.7;10.70;75351;2838.208;-1800.259;1;55;-70;-80.6;44.9;45.1;13;12.6;28.3;0.0;
16/02/2025 22:48:08;100;0;53.42;-4;-19.06;-5.48;959.0;10.70;75362;2838.210;-1800.256;1;55;-70;-80.6;44.9;44.9;13;12.6;28.3;0.0;
16/02/2025 22:48:28;100;0;54.67;-4;-19.20;-5.61;961.1;10.70;75353;2838.211;-1800.254;1;55;-70;-80.6;44.9;44.9;13;12.6;28.3;0.0;
16/02/2025 22:48:48;100;0;55.06;-4;-19.10;-5.65;963.2;10.60;75359;2838.213;-1800.251;1;55;-70;-80.6;44.9;45.1;13;12.6;28.3;0.0;
16/02/2025 22:49:08;100;0;56.04;-4;-18.93;-5.72;965.3;10.60;75341;2838.215;-1800.248;1;55;-70;-80.6;45.2;45.4;13;12.6;28.3;0.0;
16/02/2025 22:49:28;100;0;57.50;-4;-20.39;-5.67;967.4;10.60;75344;2838.216;-1800.246;1;55;-70;-83.9;45.2;45.7;13;12.6;28.3;0.0;
16/02/2025 22:49:48;100;0;59.04;-4;-19.91;-5.68;969.6;10.60;75334;2838.218;-1800.243;1;55;-70;-80.6;45.2;45.7;13;12.6;28.3;0.0;
16/02/2025 22:50:08;100;0;60.26;-4;-19.81;-5.58;971.8;10.60;75329;2838.220;-1800.240;1;55;-70;-80.6;45.2;45.7;13;12.6;28.3;0.0;
16/02/2025 22:50:28;100;0;59.72;-4;-20.29;-5.57;974.0;10.60;75338;2838.221;-1800.238;1;55;-70;-80.6;45.2;45.7;13;12.6;28.3;0.0;
16/02/2025 22:50:48;100;0;57.34;-4;-20.45;-5.50;976.3;10.50;75328;2838.223;-1800.235;1;55;-70;-80.6;45.2;45.5;13;12.6;28.3;0.0;
16/02/2025 22:51:08;100;0;57.42;-4;-20.43;-5.60;978.8;10.50;75326;2838.225;-1800.232;1;55;-70;-82.3;45.2;45.7;13;12.6;28.3;0.0;
16/02/2025 22:51:28;100;0;56.01;-4;-20.48;-5.59;981.2;10.50;75316;2838.226;-1800.229;1;55;-70;-79.0;45.2;45.5;13;12.6;28.3;0.0;
16/02/2025 22:51:48;100;0;58.37;-4;-20.58;-5.50;983.8;10.50;75306;2838.228;-1800.226;1;55;-70;-80.6;45.2;45.7;13;12.6;28.3;0.0;
16/02/2025 22:52:08;100;0;58.81;-4;-19.99;-5.59;986.2;10.50;75309;2838.230;-1800.223;1;55;-70;-80.6;45.2;45.5;13;12.6;28.3;0.0;
16/02/2025 22:52:28;100;0;57.96;-4;-20.01;-5.62;988.5;10.40;75296;2838.232;-1800.220;1;55;-70;-80.6;45.2;45.7;13;12.6;28.3;0.0;
16/02/2025 22:52:48;100;0;58.82;-4;-20.34;-5.58;990.9;10.40;75305;2838.233;-1800.217;1;55;-70;-79.0;45.2;45.7;13;12.6;28.3;0.0;
16/02/2025 22:53:08;100;0;61.58;-4;-20.61;-5.51;993.3;10.40;75286;2838.235;-1800.214;1;55;-70;-80.6;45.2;45.5;15;14.9;28.3;0.0;
16/02/2025 22:53:28;100;0;61.76;-4;-20.78;-4.12;996.0;10.40;75291;2838.236;-1800.211;1;55;-70;-80.6;45.2;45.5;15;15.3;28.3;0.0;
16/02/2025 22:53:48;100;0;63.05;-4;-20.62;-4.13;998.7;10.40;75283;2838.238;-1800.208;1;55;-70;-80.6;45.2;45.5;15;15.3;28.3;0.0;
16/02/2025 22:53:51;118;0;63.04;-4;-20.42;-4.08;999.0;10.40;75279;2838.238;-1800.207;1;55;150;-79.0;34.0;34.0;11;11.3;28.3;0.0;
16/02/2025 22:54:01;118;0;84.63;-4;-11.01;-6.94;1000.1;10.30;75268;2838.239;-1800.205;1;55;150;45.2;34.0;33.9;11;11.3;27.0;-1.0;
16/02/2025 22:54:11;118;0;80.39;-4;0.29;-6.45;1000.8;10.30;74989;2838.239;-1800.205;1;55;150;153.2;34.0;33.7;11;11.3;27.2;-1.0;
16/02/2025 22:54:21;118;0;63.09;-4;1.78;-6.75;1000.9;10.40;74796;2838.239;-1800.205;1;55;150;153.2;34.0;33.7;11;11.3;28.3;-1.0;
16/02/2025 22:54:31;118;0;61.37;-4;1.91;-6.69;1000.8;10.30;74804;2838.239;-1800.205;1;55;150;153.2;34.0;33.7;11;11.3;28.3;-1.0;
16/02/2025 22:54:51;117;0;57.25;-4;2.33;-6.93;1000.5;10.40;74806;2838.239;-1800.205;1;55;150;153.2;34.0;33.7;11;11.3;28.3;-1.0;
16/02/2025 22:55:11;117;0;53.34;-4;0.85;-7.14;1000.2;10.40;74795;2838.239;-1800.205;1;55;150;153.2;28.3;28.0;70;69.9;28.3;-1.0;
16/02/2025 22:55:31;117;0;53.22;-4;20.23;23.94;999.7;10.40;74800;2838.240;-1800.204;1;55;150;153.2;28.3;28.4;42;42.0;28.3;-1.0;
16/02/2025 22:55:51;117;0;55.59;-4;18.84;8.89;998.6;10.30;74796;2838.241;-1800.203;1;55;150;153.2;27.9;27.8;38;37.9;28.3;-1.0;
16/02/2025 22:56:11;117;0;57.27;-4;21.51;6.98;997.6;10.30;74787;2838.241;-1800.202;1;55;150;154.8;27.9;27.2;38;37.5;28.3;-1.0;
16/02/2025 22:56:31;117;0;58.00;-4;20.72;6.88;996.4;10.30;74788;2838.242;-1800.201;1;55;150;154.8;27.9;27.2;38;37.5;28.3;-1.0;
16/02/2025 22:56:51;117;0;58.79;-4;21.27;7.12;995.3;10.30;74777;2838.243;-1800.199;1;55;150;154.8;27.9;27.2;38;37.5;28.3;-1.0;
16/02/2025 22:57:11;117;0;60.34;-4;21.02;6.98;994.2;10.30;74776;2838.244;-1800.198;1;55;150;154.8;27.9;27.2;38;37.5;28.3;-1.0;
16/02/2025 22:57:31;117;0;61.88;-4;21.35;7.16;993.1;10.30;74778;2838.245;-1800.197;1;55;150;154.8;27.9;27.2;38;37.5;28.3;-1.0;
16/02/2025 22:57:51;117;0;64.14;-4;20.54;6.85;992.0;10.30;74789;2838.245;-1800.195;1;55;150;154.8;27.9;27.4;38;37.5;28.3;-1.0;
16/02/2025 22:58:11;117;0;63.09;-4;22.79;7.01;990.8;10.20;74780;2838.246;-1800.194;1;55;150;154.8;28.7;28.7;38;37.5;28.3;-1.0;
16/02/2025 22:58:31;117;0;66.28;-4;18.82;7.06;989.4;10.20;74778;2838.247;-1800.192;1;55;150;154.8;28.4;28.4;36;36.1;28.3;-1.0;
16/02/2025 22:58:51;117;0;66.44;-4;19.08;6.11;988.2;10.20;74774;2838.248;-1800.190;1;55;150;154.8;28.4;28.0;36;36.1;28.3;-1.0;
16/02/2025 22:59:11;117;0;68.18;-4;20.19;6.00;987.0;10.20;74772;2838.248;-1800.189;1;55;150;154.8;28.4;28.0;36;36.1;28.3;-1.0;
16/02/2025 22:59:31;117;0;69.17;-4;19.17;6.13;985.7;10.20;74766;2838.249;-1800.187;1;55;150;154.8;28.4;28.0;34;33.4;28.3;-1.0;
16/02/2025 22:59:51;117;0;68.97;-4;19.83;4.70;984.5;10.20;74775;2838.250;-1800.185;1;55;150;154.8;28.4;27.8;34;33.4;28.3;-1.0;
16/02/2025 23:00:11;117;0;68.74;-4;19.52;4.78;983.3;10.10;74763;2838.250;-1800.184;1;55;150;154.8;28.4;27.8;34;33.4;28.3;-1.0;
16/02/2025 23:00:31;117;0;70.38;-4;20.88;4.55;982.1;10.10;74756;2838.251;-1800.182;1;55;150;154.8;28.4;27.8;34;33.4;28.3;-1.0;
16/02/2025 23:00:51;117;0;69.38;-4;19.55;4.80;980.6;10.10;74754;2838.252;-1800.180;1;55;150;154.8;28.4;27.8;34;33.4;28.3;-1.0;
16/02/2025 23:01:11;117;0;71.76;-4;19.56;4.78;979.3;10.10;74758;2838.253;-1800.178;1;55;170;171.0;28.4;27.8;31;31.1;28.3;-1.0;
16/02/2025 23:01:31;117;0;68.27;-4;19.63;3.61;978.0;10.10;74713;2838.253;-1800.177;1;55;190;191.9;28.4;27.8;34;33.8;28.3;-1.0;
16/02/2025 23:01:51;117;0;66.20;-4;19.44;5.41;976.7;10.10;74673;2838.254;-1800.175;1;55;210;209.7;28.4;27.8;36;36.1;28.3;-1.0;
16/02/2025 23:02:11;117;0;69.24;-4;18.73;6.65;975.5;10.10;74625;2838.255;-1800.173;1;54;230;232.3;28.0;27.7;33;32.9;28.3;-1.0;
16/02/2025 23:02:31;117;0;69.09;-4;17.45;4.56;974.1;10.10;74584;2838.256;-1800.171;1;54;250;253.2;27.2;27.2;33;32.5;28.3;-1.0;
16/02/2025 23:02:51;117;0;70.22;-4;19.54;4.47;972.8;10.10;74545;2838.256;-1800.169;1;54;270;272.6;27.2;26.8;31;31.1;28.3;-1.0;
16/02/2025 23:03:11;117;0;69.93;-4;19.90;3.82;971.2;10.10;74504;2838.257;-1800.167;1;54;290;295.2;27.2;26.5;31;31.1;28.3;-1.0;
16/02/2025 23:03:31;117;0;76.75;-4;19.20;3.72;969.4;10.10;74456;2838.258;-1800.165;1;54;310;312.9;27.2;27.2;20;19.9;28.3;-1.0;
16/02/2025 23:03:51;117;0;67.17;-4;17.44;-2.15;967.7;10.10;74415;2838.259;-1800.162;1;54;330;333.9;26.5;26.2;33;32.9;28.3;-1.0;
16/02/2025 23:04:11;117;0;70.11;-4;18.48;4.95;965.8;10.10;74376;2838.260;-1800.159;1;54;350;351.6;26.0;25.8;29;28.9;28.3;-1.0;
16/02/2025 23:04:31;117;0;76.42;-4;19.19;2.95;963.7;10.10;74337;2838.261;-1800.156;1;54;350;351.6;26.0;25.6;19;19.0;28.3;-1.0;
16/02/2025 23:04:51;117;0;73.18;-4;18.78;-2.40;961.4;10.10;74331;2838.262;-1800.153;1;54;350;351.6;25.7;25.6;24;23.9;28.3;-1.0;
16/02/2025 23:05:11;117;0;72.50;-4;18.71;0.50;959.1;10.00;74327;2838.263;-1800.150;1;54;350;350.0;25.3;25.2;24;24.4;28.3;-1.0;
16/02/2025 23:05:31;117;0;71.65;-4;20.77;0.63;956.6;10.00;74324;2838.264;-1800.146;1;54;350;351.6;25.3;25.5;27;27.1;28.3;-1.0;
16/02/2025 23:05:51;117;0;71.79;-4;20.55;2.74;953.9;10.10;74345;2838.265;-1800.143;1;54;350;351.6;25.3;25.5;27;28.4;28.3;-1.0;
16/02/2025 23:06:11;117;0;72.09;-4;20.41;3.03;951.3;10.00;74333;2838.266;-1800.139;1;54;350;351.6;25.3;25.5;27;28.4;28.3;-1.0;
16/02/2025 23:06:31;117;0;71.75;-4;20.22;2.74;948.4;10.00;74325;2838.267;-1800.135;1;54;350;351.6;25.3;25.6;27;28.4;28.3;-1.0;
16/02/2025 23:06:51;117;0;70.75;-4;20.14;2.82;945.7;10.00;74328;2838.268;-1800.132;1;54;350;350.0;25.3;25.5;27;28.4;28.3;-1.0;
16/02/2025 23:07:11;117;0;70.44;-4;19.97;2.82;942.9;10.00;74328;2838.270;-1800.128;1;54;350;351.6;25.3;25.5;27;28.4;28.3;-1.0;
16/02/2025 23:07:31;117;0;70.73;-4;19.95;2.85;940.2;10.00;74320;2838.271;-1800.124;1;54;350;351.6;25.3;25.5;27;28.4;28.3;-1.0;
16/02/2025 23:07:51;117;0;71.25;-4;20.11;2.70;937.5;10.00;74316;2838.272;-1800.120;1;53;350;351.6;25.3;25.5;25;24.8;28.3;-1.0;
16/02/2025 23:08:11;117;0;69.89;-4;19.94;0.63;934.8;10.00;74316;2838.274;-1800.117;1;53;350;351.6;25.3;25.5;27;27.1;28.3;-1.0;
16/02/2025 23:08:31;117;0;68.94;-4;19.80;2.81;932.3;10.00;74320;2838.275;-1800.113;1;53;350;351.6;25.3;25.5;29;29.3;28.3;-1.0;
16/02/2025 23:08:51;117;0;68.66;-4;20.07;3.59;929.7;10.00;74315;2838.276;-1800.110;1;53;350;351.6;25.3;25.6;29;29.8;28.3;-1.0;
16/02/2025 23:09:11;117;0;69.35;-4;20.44;3.38;927.1;10.00;74312;2838.277;-1800.106;1;53;350;350.0;25.3;25.5;29;29.8;28.3;-1.0;
16/02/2025 23:09:31;117;0;68.94;-4;20.15;3.50;924.6;9.90;74312;2838.279;-1800.103;1;53;350;351.6;25.3;25.5;29;29.8;28.3;-1.0;
16/02/2025 23:09:51;117;0;70.54;-4;20.21;3.35;921.8;9.90;74307;2838.280;-1800.099;1;53;350;351.6;25.3;25.5;26;26.2;28.3;-1.0;
16/02/2025 23:10:11;117;0;69.53;-4;19.41;2.03;919.1;9.90;74313;2838.281;-1800.096;1;53;350;351.6;25.3;25.5;28;28.4;28.3;-1.0;
16/02/2025 23:10:31;117;0;68.78;-4;20.50;2.53;916.6;9.90;74309;2838.283;-1800.092;1;53;350;351.6;25.3;25.5;28;28.4;28.3;-1.0;
