Timestamp;NavState;SecurityLevel;Heading;Declination;Pitch;Roll;Depth;Temperature;Pa;Lat;Lon;DeadReckoning;DesiredH;BallastCmd;BallastPos;LinCmd;LinPos;AngCmd;AngPos;Voltage;Altitude;
13/02/2025 12:19:08;119;0;309.75;-4;-58.19;-16.30;0.2;18.10;76163;2837.447;-1759.600;0;274;500;509.7;100.0;100.7;0;-0.5;28.7;-1.0;
13/02/2025 12:19:18;116;0;323.93;-4;-50.26;-15.56;0.1;18.10;76170;2837.450;-1759.600;0;274;500;509.7;100.0;100.7;0;-0.5;28.7;-1.0;
13/02/2025 12:19:42;116;0;332.09;-4;-53.06;-17.07;0.3;18.20;76180;2837.452;-1759.600;0;274;500;509.7;100.0;100.7;0;-0.5;28.7;-1.0;
13/02/2025 12:20:14;116;0;328.86;-4;-55.58;-15.51;0.2;18.30;76203;2837.452;-1759.599;0;273;500;508.1;100.0;100.7;0;-0.5;28.7;-1.0;
13/02/2025 12:20:31;116;0;325.66;-4;-51.67;-17.81;0.2;18.40;76203;2837.453;-1759.599;0;273;500;509.7;100.0;100.7;0;-0.5;28.7;-1.0;
13/02/2025 12:20:51;116;0;328.24;-4;-53.07;-13.41;0.2;18.40;76207;2837.454;-1759.599;0;273;500;509.7;100.0;100.7;0;-0.5;28.7;-1.0;
13/02/2025 12:21:02;116;0;331.40;-4;-52.27;-13.34;0.3;18.50;76213;2837.455;-1759.599;0;273;500;509.7;100.0;100.7;0;-0.5;28.7;-1.0;
13/02/2025 12:21:22;116;0;332.62;-4;-54.02;-12.26;0.2;18.50;76222;2837.456;-1759.599;0;273;500;509.7;100.0;100.7;0;-0.5;28.7;-1.0;
13/02/2025 12:21:42;116;0;324.56;-4;-53.77;-6.95;0.3;18.60;76226;2837.458;-1759.599;0;273;500;509.7;100.0;100.7;0;-0.5;28.7;-1.0;
13/02/2025 12:22:02;116;0;331.71;-4;-56.56;-16.55;0.3;18.70;76231;2837.459;-1759.599;0;273;500;509.7;100.0;100.7;0;-0.5;28.7;-1.0;
13/02/2025 12:22:22;116;0;322.64;-4;-54.29;-10.97;0.3;18.70;76233;2837.460;-1759.599;0;273;500;509.7;100.0;100.7;0;-0.5;28.7;-1.0;
13/02/2025 12:22:42;116;0;317.83;-4;-56.06;-10.31;0.3;18.80;76247;2837.465;-1759.599;0;273;500;508.1;100.0;100.9;0;-0.5;28.7;-1.0;
13/02/2025 12:23:20;116;0;327.19;-4;-53.33;-8.48;0.3;18.90;76252;2837.465;-1759.599;0;273;500;508.1;100.0;100.7;0;-0.5;28.7;-1.0;
13/02/2025 12:24:23;116;0;332.72;-4;-51.61;-6.84;0.3;19.10;76274;2837.469;-1759.598;0;273;500;508.1;100.0;100.7;0;-0.5;28.7;-1.0;
13/02/2025 12:24:34;116;0;328.48;-4;-52.81;-11.06;0.3;19.20;76280;2837.470;-1759.598;0;273;500;508.1;100.0;100.7;0;-0.5;28.7;-1.0;
13/02/2025 12:25:37;116;0;340.96;-4;-51.98;-16.17;0.3;19.40;76292;2837.474;-1759.597;0;273;500;509.7;100.0;100.7;0;-0.5;28.7;-1.0;
13/02/2025 12:26:18;116;0;330.82;-4;-52.26;-13.16;0.3;19.50;76293;2837.477;-1759.597;0;273;500;509.7;100.0;100.7;0;-0.5;28.7;-1.0;
13/02/2025 12:26:38;116;0;325.38;-4;-56.63;-11.75;0.3;19.60;76295;2837.481;-1759.596;0;273;500;508.1;100.0;100.9;0;-0.5;28.7;-1.0;
13/02/2025 12:27:17;116;0;336.73;-4;-54.22;-18.25;0.2;19.70;76317;2837.481;-1759.596;0;272;500;509.7;100.0;100.7;0;-0.5;28.7;-1.0;
13/02/2025 12:27:42;116;0;332.54;-4;-50.96;-16.89;0.3;19.80;76314;2837.482;-1759.596;0;272;500;508.1;100.0;100.7;0;-0.5;28.7;-1.0;
13/02/2025 12:28:02;116;0;331.13;-4;-56.84;-10.31;0.3;19.80;76325;2837.484;-1759.596;0;272;500;509.7;100.0;100.7;0;-0.5;28.7;-1.0;
13/02/2025 12:28:22;116;0;329.27;-4;-55.31;-12.17;0.3;19.90;76321;2837.485;-1759.596;0;272;500;509.7;100.0;100.7;0;-0.5;28.7;-1.0;
13/02/2025 12:28:42;116;0;320.51;-4;-55.38;-11.91;0.3;20.00;76326;2837.487;-1759.596;0;272;500;509.7;100.0;100.7;0;-0.5;28.7;-1.0;
13/02/2025 12:29:02;116;0;321.14;-4;-52.90;-10.98;0.3;20.00;76326;2837.488;-1759.596;0;272;500;506.5;100.0;100.7;0;-0.5;28.7;-1.0;
13/02/2025 12:29:22;116;0;332.72;-4;-53.96;-13.18;0.2;20.10;76334;2837.491;-1759.596;0;272;500;509.7;100.0;100.7;0;-0.5;28.7;-1.0;
13/02/2025 12:29:45;116;0;328.98;-4;-56.33;-13.01;0.2;20.10;76335;2837.491;-1759.596;0;272;500;509.7;100.0;100.7;0;-0.5;28.7;-1.0;
13/02/2025 12:29:59;116;0;334.41;-4;-54.04;-20.14;0.3;20.10;76341;2837.492;-1759.595;0;272;500;509.7;100.0;100.7;0;-0.5;28.7;-1.0;
13/02/2025 12:30:10;116;0;332.14;-4;-53.31;-13.63;0.3;20.20;76346;2837.493;-1759.595;0;272;500;509.7;100.0;100.7;0;-0.5;28.7;-1.0;
13/02/2025 12:30:30;110;0;331.25;-4;-54.31;-8.32;-0.0;20.20;76352;2837.493;-1759.595;0;272;-100;395.2;100.0;99.9;-13;-13.1;28.7;-1.0;
13/02/2025 12:30:40;110;0;329.34;-4;-55.98;-20.28;0.1;20.20;76690;2837.493;-1759.595;1;272;-100;243.5;100.0;99.7;-13;-13.5;28.7;-1.0;
13/02/2025 12:30:50;110;0;327.22;-4;-61.06;-18.08;0.6;20.20;76942;2837.494;-1759.595;1;272;-100;83.9;100.0;99.7;-13;-13.5;28.7;-1.0;
13/02/2025 12:31:00;110;0;327.44;-4;-67.02;-22.71;0.9;20.30;77277;2837.495;-1759.595;1;272;-100;-79.0;100.0;99.9;-13;-13.5;28.7;-1.0;
13/02/2025 12:31:10;110;0;333.15;-4;-66.56;-23.87;1.2;20.30;77626;2837.495;-1759.596;1;272;-100;-98.4;49.2;49.2;-13;-13.5;28.7;-1.0;
13/02/2025 12:31:20;110;0;344.85;-4;-53.84;-17.79;2.8;20.30;77628;2837.497;-1759.596;1;272;-100;-101.6;49.2;48.9;-13;-13.5;28.7;-1.0;
13/02/2025 12:31:40;100;0;0.15;-4;-32.00;-18.62;7.2;20.30;77621;2837.502;-1759.596;1;272;-100;-100.0;49.2;48.7;-13;-13.5;28.7;-1.0;
13/02/2025 12:32:00;100;0;7.41;-4;-29.52;-18.08;12.0;20.40;77622;2837.507;-1759.596;1;271;-100;-98.4;49.2;48.7;70;69.9;28.7;-1.0;
13/02/2025 12:32:20;100;0;4.38;-4;-33.81;23.42;16.8;20.40;77637;2837.512;-1759.596;1;271;-100;-98.4;48.1;48.0;70;70.4;28.7;0.0;
13/02/2025 12:32:40;100;0;352.57;-4;-33.44;23.48;21.6;20.30;77635;2837.517;-1759.597;1;271;-100;-98.4;47.0;47.0;70;70.4;28.7;0.0;
13/02/2025 12:33:00;100;0;339.73;-4;-30.99;23.55;26.5;20.30;77649;2837.522;-1759.599;1;271;-100;-98.4;47.0;46.7;70;69.9;28.7;0.0;
13/02/2025 12:33:20;100;0;329.37;-4;-30.81;23.49;31.0;20.30;77639;2837.527;-1759.602;1;271;-100;-98.4;47.0;46.7;70;70.4;28.7;0.0;
13/02/2025 12:33:40;100;0;317.21;-4;-31.46;23.56;35.8;20.30;77636;2837.531;-1759.605;1;271;-100;-98.4;47.0;47.0;70;70.4;28.7;0.0;
13/02/2025 12:34:00;100;0;305.91;-4;-30.94;23.55;40.4;20.30;77643;2837.534;-1759.609;1;270;-100;-96.8;47.0;46.8;70;70.4;28.7;0.0;
13/02/2025 12:34:20;100;0;289.98;-4;-29.97;23.63;45.1;20.30;77640;2837.537;-1759.614;1;270;-100;-98.4;47.0;46.7;55;55.1;28.7;0.0;
13/02/2025 12:34:40;100;0;278.30;-4;-29.91;15.26;49.5;20.30;77638;2837.539;-1759.619;1;270;-100;-96.8;47.0;46.7;39;38.8;28.7;0.0;
13/02/2025 12:35:00;100;0;270.03;-4;-29.02;7.34;53.8;20.30;77630;2837.540;-1759.624;1;270;-100;-96.8;47.0;46.7;23;23.0;28.7;0.0;
13/02/2025 12:35:20;100;0;263.21;-4;-28.35;-0.39;58.1;20.30;77641;2837.540;-1759.629;1;270;-100;-98.4;47.5;47.7;14;14.0;28.7;0.0;
13/02/2025 12:35:40;100;0;261.02;-4;-29.23;-4.69;62.5;20.30;77635;2837.541;-1759.634;1;270;-100;-96.8;47.5;47.9;14;13.5;28.7;0.0;
13/02/2025 12:36:00;100;0;260.31;-4;-29.80;-4.78;66.9;20.30;77630;2837.542;-1759.638;1;270;-100;-98.4;47.5;47.9;14;13.5;28.7;0.0;
13/02/2025 12:36:20;100;0;258.25;-4;-29.51;-4.77;71.6;20.30;77617;2837.542;-1759.643;1;270;-100;-98.4;47.5;47.9;12;12.2;28.7;0.0;
13/02/2025 12:36:40;100;0;261.21;-4;-27.78;-5.89;76.0;20.30;77600;2837.542;-1759.648;1;270;-100;-96.8;48.2;48.2;12;11.7;28.7;0.0;
13/02/2025 12:37:00;100;0;263.12;-4;-28.65;-5.86;79.9;20.20;77572;2837.543;-1759.653;1;270;-100;-98.4;48.6;48.7;16;15.8;28.7;0.0;
13/02/2025 12:37:20;100;0;266.06;-4;-30.30;-3.54;84.2;20.20;77556;2837.544;-1759.658;1;270;-100;-98.4;48.6;48.7;20;19.9;28.7;0.0;
13/02/2025 12:37:40;100;0;266.53;-4;-28.80;-1.90;88.2;20.20;77531;2837.545;-1759.662;1;270;-100;-96.8;49.0;49.0;20;20.3;28.7;0.0;
13/02/2025 12:38:00;100;0;262.06;-4;-31.12;-1.45;92.3;20.20;77520;2837.546;-1759.666;1;270;-100;-100.0;49.0;49.3;17;16.7;28.7;0.0;
13/02/2025 12:38:21;100;0;259.52;-4;-30.80;-3.34;96.4;20.20;77519;2837.546;-1759.671;1;270;-100;-98.4;49.0;49.3;14;14.0;28.7;0.0;
13/02/2025 12:38:41;100;0;260.11;-4;-30.73;-4.80;100.6;20.10;77510;2837.547;-1759.675;1;270;-100;-98.4;49.0;49.3;14;14.0;28.7;0.0;
13/02/2025 12:39:01;100;0;253.62;-4;-33.89;-4.46;104.7;20.10;77477;2837.547;-1759.679;1;270;-100;-96.8;47.8;47.7;12;11.7;28.7;0.0;
13/02/2025 12:39:21;100;0;250.93;-4;-29.58;-5.67;109.1;20.10;77465;2837.547;-1759.683;1;270;-100;-101.6;47.8;47.6;12;11.7;28.7;0.0;
13/02/2025 12:39:41;100;0;248.61;-4;-28.53;-5.70;113.0;20.00;77449;2837.547;-1759.688;1;270;-100;-98.4;48.3;48.5;12;11.7;28.7;0.0;
13/02/2025 12:40:01;100;0;247.36;-4;-30.05;-5.72;116.7;20.00;77445;2837.547;-1759.691;1;270;-100;-98.4;48.3;48.6;12;11.7;28.7;0.0;
13/02/2025 12:40:21;100;0;244.23;-4;-30.07;-5.70;120.5;20.00;77428;2837.547;-1759.695;1;270;-100;-98.4;48.3;48.6;12;11.7;28.7;0.0;
13/02/2025 12:40:41;100;0;237.98;-4;-29.92;-5.84;124.3;19.90;77430;2837.546;-1759.699;1;270;-100;-100.0;48.3;48.6;7;7.2;28.7;0.0;
13/02/2025 12:41:01;100;0;229.24;-4;-31.30;-8.19;128.5;19.90;77400;2837.545;-1759.702;1;270;-100;-96.8;48.3;48.7;-8;-8.6;28.7;0.0;
13/02/2025 12:41:21;100;0;229.30;-4;-30.96;-15.92;132.9;19.90;77376;2837.544;-1759.706;1;270;-100;-96.8;48.3;48.6;-10;-9.9;28.7;0.0;
13/02/2025 12:41:41;100;0;232.40;-4;-30.08;-16.66;137.5;19.80;77356;2837.542;-1759.710;1;270;-100;-98.4;48.3;48.6;-6;-5.9;28.7;0.0;
13/02/2025 12:42:01;100;0;236.76;-4;-30.15;-13.93;142.1;19.80;77341;2837.541;-1759.714;1;270;-100;-96.8;48.3;48.7;1;0.9;28.7;0.0;
13/02/2025 12:42:21;100;0;242.43;-4;-28.52;-10.81;146.6;19.70;77318;2837.541;-1759.719;1;270;-100;-98.4;48.7;49.0;8;8.1;28.7;0.0;
13/02/2025 12:42:41;100;0;246.12;-4;-28.75;-7.03;150.6;19.70;77297;2837.540;-1759.723;1;270;-100;-96.8;49.1;49.0;11;10.8;28.7;0.0;
13/02/2025 12:43:01;100;0;248.54;-4;-29.53;-6.18;154.6;19.70;77295;2837.540;-1759.727;1;270;-100;-98.4;49.1;49.0;11;11.3;28.7;0.0;
13/02/2025 12:43:21;100;0;248.18;-4;-30.34;-5.91;158.8;19.60;77284;2837.540;-1759.731;1;270;-100;-98.4;49.1;49.2;11;11.3;28.7;0.0;
13/02/2025 12:43:41;100;0;249.94;-4;-29.66;-5.34;163.1;19.60;77275;2837.540;-1759.736;1;270;-100;-98.4;49.1;49.0;11;11.3;28.7;0.0;
13/02/2025 12:44:01;100;0;252.21;-4;-30.38;-6.08;167.2;19.50;77264;2837.540;-1759.740;1;270;-100;-98.4;49.1;49.0;11;11.3;28.7;0.0;
13/02/2025 12:44:21;100;0;257.28;-4;-29.54;-5.92;171.2;19.50;77260;2837.540;-1759.744;1;270;-100;-98.4;49.1;49.0;13;13.1;28.7;0.0;
13/02/2025 12:44:41;100;0;258.36;-4;-30.20;-4.90;175.2;19.40;77254;2837.541;-1759.749;1;270;-100;-98.4;49.1;49.0;13;13.5;28.7;0.0;
13/02/2025 12:45:01;100;0;256.36;-4;-30.69;-4.67;179.4;19.40;77250;2837.541;-1759.753;1;270;-100;-98.4;49.1;49.0;13;13.5;28.7;0.0;
13/02/2025 12:45:21;100;0;251.37;-4;-30.83;-4.83;183.6;19.40;77227;2837.541;-1759.757;1;270;-100;-96.8;49.1;49.0;11;10.8;28.7;0.0;
13/02/2025 12:45:41;100;0;245.72;-4;-30.36;-6.32;187.8;19.30;77213;2837.541;-1759.761;1;270;-100;-98.4;49.1;49.0;11;10.4;28.7;0.0;
13/02/2025 12:46:01;100;0;245.29;-4;-30.36;-6.46;191.9;19.30;77197;2837.541;-1759.766;1;270;-100;-98.4;49.1;49.0;11;10.4;28.7;0.0;
13/02/2025 12:46:21;100;0;241.61;-4;-30.35;-6.46;196.0;19.20;77180;2837.540;-1759.769;1;270;-100;-96.8;49.1;49.0;9;9.0;28.7;0.0;
13/02/2025 12:46:41;100;0;241.41;-4;-30.37;-7.18;200.2;19.10;77165;2837.540;-1759.774;1;270;-100;-98.4;49.1;49.0;9;9.0;28.7;0.0;
13/02/2025 12:47:01;100;0;239.92;-4;-30.87;-7.08;204.5;19.10;77150;2837.539;-1759.777;1;270;-100;-98.4;49.1;49.0;7;7.2;28.7;0.0;
13/02/2025 12:47:21;100;0;240.97;-4;-30.42;-8.26;208.9;19.10;77146;2837.538;-1759.782;1;270;-100;-96.8;49.1;49.0;7;6.3;28.7;0.0;
13/02/2025 12:47:41;100;0;239.57;-4;-30.16;-8.29;213.3;19.00;77135;2837.537;-1759.786;1;270;-100;-98.4;49.1;49.0;7;6.8;28.7;0.0;
13/02/2025 12:48:01;100;0;238.53;-4;-30.44;-8.33;217.5;19.00;77129;2837.537;-1759.790;1;270;-100;-98.4;49.1;49.0;5;5.0;28.7;0.0;
13/02/2025 12:48:21;100;0;236.73;-4;-30.16;-9.35;221.9;18.90;77112;2837.536;-1759.794;1;270;-100;-98.4;49.1;49.0;2;1.8;28.7;0.0;
13/02/2025 12:48:41;100;0;240.61;-4;-29.74;-10.67;226.2;18.90;77100;2837.535;-1759.798;1;270;-100;-98.4;49.1;49.0;7;7.2;28.7;0.0;
13/02/2025 12:49:01;100;0;241.55;-4;-30.05;-7.62;230.5;18.80;77086;2837.534;-1759.802;1;270;-100;-96.8;49.1;49.0;7;8.1;28.7;0.0;
13/02/2025 12:49:21;100;0;246.03;-4;-30.53;-7.61;234.9;18.80;77077;2837.534;-1759.807;1;270;-100;-96.8;49.1;49.0;10;9.9;28.7;0.0;
13/02/2025 12:49:41;100;0;249.07;-4;-30.48;-6.35;239.4;18.70;77056;2837.534;-1759.811;1;270;-100;-98.4;49.1;49.0;10;10.8;28.7;0.0;
13/02/2025 12:50:01;100;0;254.48;-4;-30.10;-6.32;243.7;18.70;77039;2837.534;-1759.816;1;270;-100;-98.4;49.1;49.0;10;10.4;28.7;0.0;
13/02/2025 12:50:21;100;0;252.35;-4;-29.79;-6.41;248.0;18.60;77021;2837.534;-1759.820;1;270;-100;-98.4;49.1;49.0;10;10.4;28.7;0.0;
13/02/2025 12:50:41;100;0;251.93;-4;-29.41;-6.27;252.2;18.50;76998;2837.534;-1759.825;1;270;-100;-98.4;49.1;49.0;10;10.4;28.7;0.0;
13/02/2025 12:51:01;100;0;248.74;-4;-29.29;-6.29;256.3;18.50;76984;2837.534;-1759.829;1;270;-100;-98.4;49.1;49.0;10;10.4;28.7;0.0;
13/02/2025 12:51:21;100;0;247.70;-4;-29.28;-6.08;260.2;18.40;76972;2837.534;-1759.833;1;270;-100;-96.8;49.1;49.0;10;10.4;28.7;0.0;
13/02/2025 12:51:41;100;0;243.63;-4;-29.25;-6.38;264.2;18.40;76950;2837.533;-1759.837;1;270;-100;-98.4;49.1;49.0;10;10.4;28.7;0.0;
13/02/2025 12:52:01;100;0;243.03;-4;-29.92;-5.96;268.2;18.30;76934;2837.533;-1759.841;1;270;-100;-98.4;49.1;49.0;10;10.4;28.7;0.0;
13/02/2025 12:52:21;100;0;242.52;-4;-29.45;-6.22;272.3;18.30;76929;2837.532;-1759.846;1;271;-100;-98.4;49.1;49.0;7;7.2;28.7;0.0;
13/02/2025 12:52:41;100;0;240.26;-4;-30.04;-8.07;276.3;18.20;76923;2837.532;-1759.849;1;271;-100;-98.4;49.1;49.0;7;6.8;28.7;0.0;
13/02/2025 12:53:01;100;0;240.46;-4;-29.73;-8.09;280.5;18.20;76909;2837.531;-1759.853;1;271;-100;-96.8;49.1;49.0;5;5.0;28.7;0.0;
13/02/2025 12:53:21;100;0;240.78;-4;-29.82;-9.09;284.6;18.10;76900;2837.531;-1759.857;1;271;-100;-98.4;49.1;49.0;5;5.0;28.7;0.0;
13/02/2025 12:53:41;100;0;241.29;-4;-30.44;-9.15;288.9;18.00;76889;2837.530;-1759.861;1;271;-100;-98.4;49.1;49.0;5;5.0;28.7;0.0;
13/02/2025 12:54:01;100;0;241.21;-4;-29.82;-9.16;293.2;18.00;76890;2837.529;-1759.866;1;271;-100;-98.4;49.1;49.0;5;5.0;28.7;0.0;
13/02/2025 12:54:21;100;0;243.32;-4;-29.99;-9.18;297.4;18.00;76868;2837.529;-1759.870;1;271;-100;-96.8;49.1;49.0;8;8.1;28.7;0.0;
13/02/2025 12:54:41;100;0;244.39;-4;-30.11;-7.19;301.8;17.90;76855;2837.528;-1759.874;1;271;-100;-98.4;49.1;49.0;8;8.6;28.7;0.0;
13/02/2025 12:55:01;100;0;245.79;-4;-30.19;-7.25;306.1;17.90;76862;2837.528;-1759.878;1;271;-100;-98.4;49.1;49.0;8;8.6;28.7;0.0;
13/02/2025 12:55:21;100;0;248.24;-4;-30.12;-7.20;310.4;17.80;76846;2837.528;-1759.883;1;271;-100;-98.4;49.1;49.0;10;10.4;28.7;0.0;
13/02/2025 12:55:41;100;0;248.55;-4;-30.32;-6.17;314.7;17.70;76830;2837.528;-1759.887;1;271;-100;-98.4;49.1;49.0;10;10.8;28.7;0.0;
13/02/2025 12:56:01;100;0;249.11;-4;-29.97;-6.14;319.0;17.70;76830;2837.527;-1759.892;1;271;-100;-96.8;49.1;49.0;10;10.8;28.7;0.0;
13/02/2025 12:56:21;100;0;247.96;-4;-29.79;-6.20;323.2;17.60;76814;2837.527;-1759.896;1;271;-100;-98.4;49.1;49.0;10;10.8;28.7;0.0;
13/02/2025 12:56:41;100;0;249.31;-4;-30.31;-6.23;327.6;17.60;76818;2837.527;-1759.900;1;271;-100;-98.4;49.1;49.0;10;10.8;28.7;0.0;
13/02/2025 12:57:01;100;0;251.10;-4;-29.33;-6.28;331.9;17.50;76795;2837.527;-1759.905;1;271;-100;-96.8;49.1;49.0;10;10.8;28.7;0.0;
13/02/2025 12:57:21;100;0;252.68;-4;-30.64;-6.24;336.1;17.50;76786;2837.527;-1759.909;1;271;-100;-98.4;49.1;49.2;10;10.8;28.7;0.0;
13/02/2025 12:57:41;100;0;252.25;-4;-30.81;-6.17;340.7;17.40;76759;2837.527;-1759.914;1;271;-100;-96.8;49.1;49.0;10;10.8;28.7;0.0;
13/02/2025 12:58:01;100;0;252.09;-4;-30.65;-6.22;345.4;17.40;76745;2837.527;-1759.919;1;271;-100;-96.8;49.1;49.0;10;10.8;28.7;0.0;
13/02/2025 12:58:21;100;0;250.83;-4;-30.52;-6.17;350.1;17.30;76719;2837.527;-1759.923;1;271;-100;-96.8;49.1;49.0;10;10.8;28.7;0.0;
13/02/2025 12:58:41;100;0;247.96;-4;-30.43;-6.17;354.8;17.30;76711;2837.527;-1759.928;1;271;-100;-98.4;49.1;49.0;10;10.8;28.7;0.0;
13/02/2025 12:59:01;100;0;245.67;-4;-30.21;-6.19;359.3;17.20;76705;2837.526;-1759.933;1;271;-100;-96.8;49.1;49.0;8;8.1;28.7;0.0;
13/02/2025 12:59:21;100;0;242.09;-4;-29.81;-7.67;363.9;17.20;76694;2837.525;-1759.937;1;271;-100;-98.4;49.1;49.0;5;5.0;28.7;0.0;
13/02/2025 12:59:41;100;0;241.14;-4;-29.02;-9.39;368.2;17.10;76682;2837.525;-1759.941;1;271;-100;-96.8;49.1;49.0;5;4.5;28.7;0.0;
13/02/2025 13:00:01;100;0;244.21;-4;-28.77;-9.41;372.4;17.10;76673;2837.524;-1759.946;1;271;-100;-96.8;49.4;49.9;8;8.1;28.7;0.0;
13/02/2025 13:00:21;100;0;245.43;-4;-29.96;-7.21;376.6;17.00;76656;2837.524;-1759.950;1;271;-100;-98.4;49.4;49.8;8;9.0;28.7;0.0;
13/02/2025 13:00:41;100;0;247.93;-4;-30.34;-7.15;380.9;17.00;76655;2837.524;-1759.954;1;271;-100;-96.8;49.4;49.8;10;9.9;28.7;0.0;
13/02/2025 13:01:01;100;0;249.06;-4;-30.35;-6.53;385.2;16.90;76639;2837.523;-1759.959;1;271;-100;-98.4;49.4;49.8;10;10.4;28.7;0.0;
13/02/2025 13:01:21;100;0;247.13;-4;-30.71;-6.57;389.6;16.90;76638;2837.523;-1759.963;1;271;-100;-98.4;49.4;49.9;10;10.4;28.7;0.0;
13/02/2025 13:01:41;100;0;247.72;-4;-30.48;-6.51;394.0;16.80;76627;2837.523;-1759.967;1;271;-100;-96.8;49.4;49.9;10;10.4;28.7;0.0;
13/02/2025 13:02:01;100;0;248.87;-4;-30.65;-6.43;398.4;16.70;76613;2837.523;-1759.972;1;271;-100;-98.4;49.4;49.9;10;10.4;28.7;0.0;
13/02/2025 13:02:21;100;0;244.41;-4;-30.90;-6.57;402.8;16.70;76600;2837.522;-1759.976;1;271;-100;-100.0;49.4;49.9;8;8.1;28.7;0.0;
13/02/2025 13:02:41;100;0;241.85;-4;-30.66;-7.65;407.2;16.60;76593;2837.522;-1759.980;1;271;-100;-98.4;49.4;49.9;6;5.4;28.7;0.0;
13/02/2025 13:03:01;100;0;236.89;-4;-30.92;-9.06;411.6;16.60;76581;2837.521;-1759.984;1;271;-100;-98.4;49.4;49.9;1;0.9;28.7;0.0;
13/02/2025 13:03:21;100;0;239.68;-4;-30.56;-11.17;416.1;16.50;76566;2837.520;-1759.988;1;271;-100;-98.4;49.4;49.9;3;3.2;28.7;0.0;
13/02/2025 13:03:41;100;0;248.81;-4;-30.91;-9.93;420.5;16.50;76557;2837.520;-1759.993;1;271;-100;-96.8;49.4;49.9;10;9.9;28.7;0.0;
13/02/2025 13:04:01;100;0;255.15;-4;-31.11;-6.48;425.1;16.50;76553;2837.520;-1759.997;1;271;-100;-96.8;49.4;49.9;10;10.4;28.7;0.0;
13/02/2025 13:04:21;100;0;256.68;-4;-31.17;-6.36;429.5;16.40;76547;2837.520;-1800.002;1;271;-100;-100.0;49.4;49.9;10;10.4;28.7;0.0;
13/02/2025 13:04:41;100;0;259.60;-4;-31.03;-6.45;434.0;16.40;76525;2837.521;-1800.007;1;271;-100;-98.4;49.4;49.9;10;10.4;28.7;0.0;
13/02/2025 13:05:01;100;0;260.10;-4;-31.03;-6.41;438.6;16.30;76535;2837.521;-1800.011;1;271;-100;-98.4;49.4;49.9;10;10.4;28.7;0.0;
13/02/2025 13:05:21;100;0;259.64;-4;-31.28;-6.36;443.0;16.30;76518;2837.522;-1800.016;1;271;-100;-98.4;49.4;49.8;10;10.4;28.7;0.0;
13/02/2025 13:05:41;100;0;258.07;-4;-31.13;-6.39;447.4;16.20;76517;2837.522;-1800.020;1;271;-100;-98.4;49.4;49.9;10;10.4;28.7;0.0;
13/02/2025 13:06:01;100;0;255.11;-4;-31.05;-6.41;451.8;16.20;76511;2837.523;-1800.025;1;271;-100;-98.4;49.4;49.9;10;10.4;28.7;0.0;
13/02/2025 13:06:21;100;0;254.22;-4;-31.15;-6.38;456.3;16.10;76519;2837.523;-1800.029;1;271;-100;-98.4;49.4;49.8;10;10.4;28.7;0.0;
13/02/2025 13:06:41;100;0;253.44;-4;-31.62;-6.36;460.8;16.10;76495;2837.523;-1800.034;1;271;-100;-98.4;49.4;49.9;10;10.4;28.7;0.0;
13/02/2025 13:07:01;100;0;254.34;-4;-31.88;-6.35;465.3;16.00;76492;2837.523;-1800.038;1;271;-100;-98.4;49.4;49.9;10;10.4;28.7;0.0;
13/02/2025 13:07:21;100;0;253.26;-4;-32.04;-6.40;469.8;16.00;76497;2837.523;-1800.043;1;271;-100;-96.8;48.8;48.7;10;10.4;28.7;0.0;
13/02/2025 13:07:41;100;0;253.88;-4;-30.10;-6.36;474.4;16.00;76476;2837.523;-1800.047;1;271;-100;-96.8;48.8;48.5;10;10.4;28.7;0.0;
13/02/2025 13:08:01;100;0;256.64;-4;-29.39;-6.44;478.5;15.90;76465;2837.524;-1800.052;1;271;-100;-98.4;48.8;48.6;10;10.4;28.7;0.0;
13/02/2025 13:08:21;100;0;257.78;-4;-28.62;-6.48;482.3;15.90;76456;2837.524;-1800.056;1;271;-100;-98.4;49.2;49.5;10;10.4;28.7;0.0;
13/02/2025 13:08:41;100;0;257.26;-4;-29.76;-6.50;486.2;15.80;76433;2837.524;-1800.061;1;271;-100;-98.4;49.2;49.5;10;10.4;28.7;0.0;
13/02/2025 13:09:01;100;0;256.08;-4;-29.86;-6.56;490.1;15.80;76432;2837.525;-1800.065;1;271;-100;-98.4;49.2;49.6;10;10.4;28.7;0.0;
13/02/2025 13:09:21;100;0;262.33;-4;-30.58;-6.46;494.1;15.70;76425;2837.525;-1800.069;1;271;-100;-100.0;49.2;49.6;15;14.9;28.7;0.0;
13/02/2025 13:09:41;100;0;264.11;-4;-30.14;-3.91;498.4;15.70;76418;2837.526;-1800.074;1;271;-100;-96.8;49.2;49.6;15;14.9;28.7;0.0;
13/02/2025 13:09:44;118;0;263.52;-4;-29.97;-4.09;498.9;15.70;76405;2837.526;-1800.074;1;271;220;-93.5;20.4;20.5;13;13.1;28.7;0.0;
13/02/2025 13:09:54;118;0;206.85;-4;-16.54;-5.99;500.4;15.70;76386;2837.525;-1800.075;1;271;220;37.1;20.4;20.0;13;13.1;28.0;-1.0;
13/02/2025 13:10:04;118;0;344.39;-4;12.79;-5.70;500.9;15.60;76112;2837.526;-1800.076;1;271;220;162.9;20.4;20.5;13;13.1;28.0;-1.0;
13/02/2025 13:10:14;118;0;352.87;-4;27.12;-6.30;500.1;15.60;75845;2837.528;-1800.076;1;271;220;222.6;20.4;20.8;13;13.1;28.0;-1.0;
13/02/2025 13:10:24;118;0;266.28;-4;30.15;-6.20;498.7;15.60;75724;2837.528;-1800.078;1;271;220;222.6;20.4;20.6;13;13.1;28.7;-1.0;
13/02/2025 13:10:44;117;0;260.71;-4;31.10;-6.04;495.6;15.60;75710;2837.529;-1800.081;1;271;220;222.6;20.4;20.6;13;13.1;28.7;-1.0;
13/02/2025 13:11:04;117;0;250.29;-4;30.80;-5.97;491.9;15.50;75718;2837.529;-1800.085;1;271;220;222.6;20.4;20.6;36;36.1;28.7;-1.0;
13/02/2025 13:11:24;117;0;244.74;-4;32.77;6.66;488.4;15.50;75719;2837.529;-1800.088;1;271;220;222.6;21.3;21.4;36;36.6;28.7;-1.0;
13/02/2025 13:11:44;117;0;245.18;-4;32.46;6.63;484.7;15.40;75715;2837.529;-1800.091;1;271;220;222.6;22.0;22.1;36;36.6;28.7;-1.0;
13/02/2025 13:12:04;117;0;244.58;-4;31.07;6.68;481.1;15.40;75720;2837.529;-1800.095;1;271;220;222.6;22.0;22.1;36;36.6;28.7;-1.0;
13/02/2025 13:12:24;117;0;242.23;-4;30.75;6.63;477.5;15.40;75714;2837.529;-1800.098;1;271;220;222.6;22.0;22.1;36;36.6;28.7;-1.0;
13/02/2025 13:12:44;117;0;240.40;-4;30.55;6.70;474.0;15.30;75704;2837.529;-1800.102;1;271;220;222.6;22.0;22.2;38;37.9;28.7;-1.0;
13/02/2025 13:13:04;117;0;240.27;-4;30.31;7.62;470.5;15.30;75709;2837.528;-1800.105;1;271;220;222.6;22.0;22.2;38;38.4;28.7;-1.0;
13/02/2025 13:13:24;117;0;240.05;-4;30.19;7.64;467.2;15.20;75700;2837.528;-1800.108;1;271;220;222.6;22.0;22.2;38;38.4;28.7;-1.0;
13/02/2025 13:13:44;117;0;242.04;-4;30.01;7.63;463.8;15.20;75710;2837.528;-1800.112;1;271;220;222.6;22.0;22.2;38;38.4;28.7;-1.0;
13/02/2025 13:14:04;117;0;245.92;-4;30.10;7.64;460.6;15.20;75711;2837.528;-1800.115;1;271;220;222.6;22.0;22.2;36;35.6;28.7;-1.0;
13/02/2025 13:14:24;117;0;245.92;-4;29.98;5.98;457.3;15.20;75715;2837.528;-1800.119;1;271;220;221.0;22.0;22.2;36;35.2;28.7;-1.0;
13/02/2025 13:14:44;117;0;246.10;-4;30.03;5.92;454.1;15.10;75711;2837.528;-1800.122;1;271;220;222.6;22.0;22.2;36;35.2;28.7;-1.0;
13/02/2025 13:15:04;117;0;246.57;-4;30.22;5.89;450.9;15.10;75707;2837.528;-1800.125;1;271;220;222.6;22.0;22.2;36;35.2;28.7;-1.0;
13/02/2025 13:15:24;117;0;247.92;-4;30.07;5.83;447.5;15.10;75705;2837.528;-1800.129;1;271;220;222.6;22.0;22.2;36;35.2;28.7;-1.0;
13/02/2025 13:15:44;117;0;249.34;-4;30.04;5.85;444.1;15.10;75693;2837.528;-1800.132;1;271;220;221.0;22.0;22.1;36;35.2;28.7;-1.0;
13/02/2025 13:16:04;117;0;251.20;-4;29.97;5.89;440.9;15.00;75697;2837.528;-1800.136;1;271;220;221.0;22.0;22.2;36;35.2;28.7;-1.0;
13/02/2025 13:16:24;117;0;252.13;-4;29.99;5.90;437.5;15.00;75693;2837.529;-1800.139;1;271;220;221.0;22.0;22.1;36;35.2;28.7;-1.0;
13/02/2025 13:16:44;117;0;252.39;-4;30.00;5.91;434.2;15.00;75688;2837.529;-1800.143;1;271;220;222.6;22.0;22.2;36;35.2;28.7;-1.0;
13/02/2025 13:17:04;117;0;250.60;-4;29.99;5.97;431.0;15.00;75692;2837.529;-1800.146;1;271;220;222.6;22.0;22.2;36;35.2;28.7;-1.0;
13/02/2025 13:17:25;117;0;248.96;-4;30.32;6.00;427.7;14.90;75676;2837.529;-1800.150;1;271;220;222.6;22.0;22.2;36;35.2;28.7;-1.0;
13/02/2025 13:17:45;117;0;245.60;-4;30.22;6.10;424.3;14.90;75675;2837.529;-1800.153;1;271;220;222.6;22.0;22.2;36;35.2;28.7;-1.0;
13/02/2025 13:18:05;117;0;243.20;-4;30.04;5.95;421.0;14.90;75678;2837.529;-1800.157;1;271;220;222.6;22.0;22.2;36;35.2;28.7;-1.0;
13/02/2025 13:18:25;117;0;241.23;-4;30.33;5.93;417.7;14.90;75671;2837.529;-1800.160;1;271;220;222.6;22.0;22.2;36;35.2;28.7;-1.0;
13/02/2025 13:18:45;117;0;236.63;-4;29.66;5.99;414.5;14.90;75677;2837.529;-1800.163;1;271;220;222.6;22.0;22.1;39;38.8;28.7;-1.0;
13/02/2025 13:19:05;117;0;238.02;-4;29.92;8.11;411.3;14.80;75662;2837.528;-1800.166;1;271;220;222.6;22.0;22.2;39;39.3;28.7;-1.0;
13/02/2025 13:19:25;117;0;242.80;-4;30.36;8.17;408.3;14.80;75673;2837.528;-1800.169;1;271;220;222.6;22.0;22.2;36;35.6;28.7;-1.0;
13/02/2025 13:19:45;117;0;250.68;-4;30.19;6.39;405.0;14.80;75667;2837.528;-1800.172;1;271;220;222.6;22.0;22.1;36;36.1;28.7;-1.0;
13/02/2025 13:20:05;117;0;250.91;-4;30.24;6.45;401.8;14.80;75667;2837.529;-1800.176;1;271;220;222.6;22.0;22.1;36;36.1;28.7;-1.0;
13/02/2025 13:20:25;117;0;250.48;-4;30.17;6.40;398.6;14.80;75674;2837.529;-1800.179;1;271;220;222.6;22.0;22.2;36;36.1;28.7;-1.0;
13/02/2025 13:20:45;117;0;249.71;-4;30.45;6.36;395.4;14.80;75674;2837.529;-1800.183;1;271;220;222.6;22.0;22.2;36;36.1;28.7;-1.0;
13/02/2025 13:21:05;117;0;247.53;-4;30.36;6.47;392.0;14.70;75667;2837.529;-1800.186;1;271;220;222.6;22.0;22.2;36;36.1;28.7;-1.0;
13/02/2025 13:21:25;117;0;246.10;-4;30.32;6.40;388.7;14.70;75679;2837.529;-1800.190;1;271;220;222.6;22.0;22.1;36;36.1;28.7;-1.0;
13/02/2025 13:21:45;117;0;245.03;-4;30.17;6.39;385.5;14.70;75680;2837.529;-1800.193;1;271;220;222.6;22.0;22.2;36;36.1;28.7;-1.0;
13/02/2025 13:22:05;117;0;245.28;-4;30.07;6.33;382.3;14.70;75663;2837.529;-1800.196;1;271;220;221.0;22.0;22.2;36;36.1;28.7;-1.0;
13/02/2025 13:22:25;117;0;245.39;-4;30.01;6.38;379.0;14.70;75669;2837.529;-1800.200;1;271;220;222.6;22.0;22.2;36;36.1;28.7;-1.0;
13/02/2025 13:22:45;117;0;245.84;-4;30.16;6.37;376.0;14.70;75667;2837.529;-1800.203;1;271;220;222.6;22.0;22.1;36;36.1;28.7;-1.0;
13/02/2025 13:23:05;117;0;244.63;-4;30.13;6.47;372.8;14.70;75668;2837.529;-1800.206;1;271;220;224.2;22.0;22.2;36;36.1;28.7;-1.0;
13/02/2025 13:23:25;117;0;242.55;-4;30.47;6.42;369.7;14.70;75679;2837.529;-1800.209;1;271;220;222.6;22.0;22.2;36;36.1;28.7;-1.0;
13/02/2025 13:23:45;117;0;241.14;-4;30.36;6.49;366.4;14.70;75666;2837.529;-1800.212;1;271;220;222.6;22.0;22.2;36;36.1;28.7;-1.0;
13/02/2025 13:24:05;117;0;242.57;-4;30.13;6.43;363.4;14.70;75663;2837.529;-1800.215;1;271;220;222.6;22.0;22.2;36;36.1;28.7;-1.0;
13/02/2025 13:24:25;117;0;244.66;-4;30.11;6.43;360.3;14.60;75669;2837.529;-1800.219;1;271;220;222.6;22.0;22.2;36;36.1;28.7;-1.0;
13/02/2025 13:24:45;117;0;246.40;-4;30.01;6.41;357.2;14.60;75666;2837.529;-1800.222;1;271;220;222.6;22.0;22.1;36;36.1;28.7;-1.0;
13/02/2025 13:25:05;117;0;246.67;-4;29.76;6.41;354.1;14.60;75670;2837.529;-1800.225;1;271;220;222.6;22.0;22.2;36;36.1;28.7;-1.0;
13/02/2025 13:25:25;117;0;247.16;-4;29.87;6.38;351.2;14.60;75676;2837.529;-1800.228;1;271;220;222.6;22.0;22.2;36;36.1;28.7;-1.0;
13/02/2025 13:25:45;117;0;247.74;-4;30.01;6.39;348.3;14.60;75678;2837.530;-1800.231;1;271;220;222.6;22.0;22.2;36;36.1;28.7;-1.0;
13/02/2025 13:26:05;117;0;247.20;-4;30.04;6.38;345.4;14.60;75677;2837.530;-1800.234;1;271;220;222.6;22.0;22.2;36;36.1;28.7;-1.0;
13/02/2025 13:26:25;117;0;248.47;-4;29.83;6.34;342.3;14.60;75679;2837.530;-1800.238;1;271;220;222.6;22.0;22.2;36;36.1;28.7;-1.0;
13/02/2025 13:26:45;117;0;249.99;-4;29.93;6.39;339.4;14.60;75685;2837.530;-1800.241;1;271;220;222.6;22.0;22.2;36;36.1;28.7;-1.0;
13/02/2025 13:27:05;117;0;252.19;-4;29.81;6.41;336.6;14.60;75683;2837.531;-1800.244;1;271;220;222.6;22.0;22.2;34;33.4;28.7;-1.0;
13/02/2025 13:27:25;117;0;255.18;-4;29.46;5.70;333.7;14.60;75683;2837.531;-1800.247;1;271;220;222.6;22.0;22.1;32;32.0;28.7;-1.0;
13/02/2025 13:27:45;117;0;255.57;-4;29.90;4.50;330.7;14.60;75688;2837.532;-1800.250;1;271;220;222.6;22.0;22.2;32;32.5;28.7;-1.0;
13/02/2025 13:28:05;117;0;255.50;-4;29.73;4.51;327.8;14.60;75688;2837.532;-1800.253;1;271;220;224.2;22.0;22.2;32;32.5;28.7;-1.0;
13/02/2025 13:28:25;117;0;251.00;-4;30.17;4.57;324.7;14.60;75702;2837.533;-1800.257;1;271;220;224.2;22.0;22.2;35;35.2;28.7;-1.0;
13/02/2025 13:28:45;117;0;248.57;-4;30.19;6.29;321.7;14.60;75703;2837.533;-1800.260;1;271;220;224.2;22.0;22.1;35;36.1;28.7;-1.0;
13/02/2025 13:29:05;117;0;248.45;-4;30.18;6.27;318.5;14.60;75711;2837.533;-1800.263;1;271;220;222.6;22.0;22.2;35;36.1;28.7;-1.0;
13/02/2025 13:29:25;117;0;247.77;-4;30.20;6.24;315.3;14.60;75710;2837.533;-1800.267;1;271;220;221.0;22.0;22.2;35;36.1;28.7;-1.0;
13/02/2025 13:29:45;117;0;245.11;-4;29.56;6.23;312.3;14.60;75711;2837.533;-1800.270;1;271;220;224.2;22.0;22.2;35;36.1;28.7;-1.0;
13/02/2025 13:30:05;117;0;246.77;-4;29.87;6.14;309.4;14.60;75714;2837.533;-1800.273;1;271;220;224.2;22.0;22.2;35;36.1;28.7;-1.0;
13/02/2025 13:30:25;117;0;245.14;-4;29.72;5.96;306.4;14.60;75727;2837.533;-1800.276;1;271;220;222.6;22.0;22.2;35;36.1;28.7;-1.0;
13/02/2025 13:30:45;117;0;244.18;-4;29.85;6.17;303.5;14.60;75730;2837.533;-1800.279;1;271;220;224.2;22.0;22.2;35;35.6;28.7;-1.0;
13/02/2025 13:31:05;117;0;243.30;-4;29.84;6.31;300.5;14.60;75727;2837.533;-1800.282;1;271;220;222.6;22.0;22.2;35;36.1;28.7;-1.0;
13/02/2025 13:31:25;117;0;244.29;-4;29.75;6.07;297.4;14.60;75732;2837.534;-1800.285;1;271;220;224.2;22.0;22.2;35;35.6;28.7;-1.0;
13/02/2025 13:31:45;117;0;245.56;-4;29.80;6.24;294.4;14.60;75732;2837.534;-1800.288;1;271;220;222.6;22.0;22.2;35;35.6;28.7;-1.0;
13/02/2025 13:32:05;117;0;249.25;-4;29.57;6.26;291.5;14.60;75732;2837.534;-1800.291;1;271;220;224.2;22.0;22.2;35;36.1;28.7;-1.0;
13/02/2025 13:32:25;117;0;250.05;-4;29.51;6.26;288.4;14.60;75739;2837.534;-1800.295;1;271;220;222.6;22.0;22.2;35;36.1;28.7;-1.0;
13/02/2025 13:32:45;117;0;246.53;-4;29.90;6.35;285.6;14.60;75730;2837.534;-1800.298;1;271;220;222.6;22.0;22.2;35;36.1;28.7;-1.0;
13/02/2025 13:33:05;117;0;249.20;-4;29.78;6.23;282.6;14.70;75751;2837.535;-1800.301;1;271;220;224.2;22.0;22.2;35;36.1;28.7;-1.0;
13/02/2025 13:33:25;117;0;251.79;-4;29.80;6.22;279.7;14.70;75763;2837.535;-1800.304;1;271;220;224.2;22.0;22.2;35;36.1;28.7;-1.0;
13/02/2025 13:33:45;117;0;250.98;-4;29.57;6.32;276.9;14.70;75762;2837.535;-1800.307;1;271;220;222.6;22.0;22.2;35;36.1;28.7;-1.0;
13/02/2025 13:34:05;117;0;253.35;-4;29.74;6.23;274.0;14.70;75763;2837.536;-1800.310;1;271;220;224.2;22.0;22.2;33;32.0;28.7;-1.0;
13/02/2025 13:34:25;117;0;254.53;-4;29.77;5.06;271.1;14.70;75773;2837.536;-1800.313;1;270;220;222.6;22.0;22.2;30;29.8;28.7;-1.0;
13/02/2025 13:34:45;117;0;254.46;-4;29.30;2.97;268.3;14.70;75765;2837.537;-1800.317;1;270;220;224.2;22.0;22.2;30;29.8;28.7;-1.0;
13/02/2025 13:35:05;117;0;256.55;-4;29.03;2.85;265.4;14.70;75767;2837.537;-1800.320;1;270;220;222.6;22.0;22.2;30;29.8;28.7;-1.0;
13/02/2025 13:35:25;117;0;254.04;-4;29.18;2.91;262.6;14.70;75774;2837.538;-1800.323;1;270;220;222.6;22.0;22.2;32;32.0;28.7;-1.0;
13/02/2025 13:35:45;117;0;253.34;-4;29.33;4.42;259.8;14.70;75775;2837.538;-1800.326;1;270;220;222.6;22.0;22.2;30;29.3;28.7;-1.0;
13/02/2025 13:36:05;117;0;255.65;-4;29.20;2.55;257.1;14.70;75785;2837.539;-1800.329;1;270;220;224.2;22.0;22.2;27;27.1;28.7;-1.0;
13/02/2025 13:36:25;117;0;257.28;-4;29.50;1.74;254.2;14.80;75787;2837.540;-1800.332;1;270;220;224.2;22.0;22.2;27;27.5;28.7;-1.0;
13/02/2025 13:36:45;117;0;255.58;-4;29.42;1.66;251.4;14.80;75797;2837.540;-1800.336;1;270;220;224.2;22.0;22.2;30;29.8;28.7;-1.0;
13/02/2025 13:37:05;117;0;254.30;-4;29.47;3.19;248.6;14.80;75805;2837.541;-1800.339;1;270;220;222.6;22.0;22.2;30;30.2;28.7;-1.0;
13/02/2025 13:37:25;117;0;255.29;-4;29.43;3.17;245.7;14.80;75822;2837.541;-1800.342;1;270;220;224.2;22.0;22.2;30;30.2;28.7;-1.0;
13/02/2025 13:37:45;117;0;257.24;-4;29.49;3.15;242.7;14.80;75810;2837.542;-1800.346;1;270;220;224.2;22.0;22.2;30;30.2;28.7;-1.0;
13/02/2025 13:38:05;117;0;252.80;-4;29.42;3.21;239.9;14.80;75827;2837.542;-1800.349;1;270;220;224.2;22.0;22.2;32;32.0;28.7;-1.0;
13/02/2025 13:38:25;117;0;247.17;-4;29.86;4.52;237.0;14.80;75831;2837.542;-1800.352;1;270;220;222.6;22.0;22.2;35;35.2;28.7;-1.0;
13/02/2025 13:38:45;117;0;243.94;-4;29.65;6.17;234.0;14.90;75838;2837.542;-1800.355;1;270;220;224.2;22.0;22.2;35;35.6;28.7;-1.0;
13/02/2025 13:39:05;117;0;241.10;-4;29.85;6.21;231.2;14.90;75832;2837.542;-1800.358;1;270;220;224.2;22.0;22.2;35;35.6;28.7;-1.0;
13/02/2025 13:39:25;117;0;238.52;-4;29.61;6.23;228.4;14.90;75859;2837.542;-1800.361;1;270;220;224.2;22.0;22.2;35;35.6;28.7;-1.0;
13/02/2025 13:39:45;117;0;236.10;-4;29.56;6.28;225.6;14.90;75864;2837.542;-1800.363;1;270;220;224.2;22.0;22.2;35;35.6;28.7;-1.0;
13/02/2025 13:40:05;117;0;234.64;-4;29.56;6.26;222.8;14.90;75861;2837.542;-1800.366;1;270;220;224.2;22.0;22.2;37;37.0;28.7;-1.0;
13/02/2025 13:40:25;117;0;233.89;-4;29.64;7.30;220.0;14.90;75862;2837.542;-1800.368;1;270;220;224.2;22.0;22.2;37;37.5;28.7;-1.0;
13/02/2025 13:40:45;117;0;235.31;-4;29.75;7.46;217.4;14.90;75863;2837.541;-1800.371;1;270;220;222.6;22.0;22.2;37;37.5;28.7;-1.0;
13/02/2025 13:41:05;117;0;237.60;-4;29.76;7.23;214.7;15.00;75881;2837.541;-1800.374;1;270;220;224.2;22.0;22.2;37;37.5;28.7;-1.0;
13/02/2025 13:41:25;117;0;237.90;-4;29.67;7.28;211.9;15.00;75889;2837.541;-1800.376;1;270;220;224.2;22.0;22.2;37;37.5;28.7;-1.0;
13/02/2025 13:41:45;117;0;239.49;-4;29.62;7.30;209.3;15.00;75901;2837.541;-1800.379;1;270;220;222.6;22.0;22.2;37;37.5;28.7;-1.0;
13/02/2025 13:42:05;117;0;241.51;-4;29.62;7.29;206.6;15.00;75911;2837.541;-1800.382;1;270;220;224.2;22.0;22.2;37;37.5;28.7;-1.0;
13/02/2025 13:42:25;117;0;242.44;-4;29.58;7.29;204.1;15.00;75913;2837.541;-1800.384;1;270;220;224.2;22.0;22.2;35;34.3;28.7;-1.0;
13/02/2025 13:42:45;117;0;240.64;-4;29.51;5.84;201.5;15.10;75920;2837.541;-1800.387;1;270;220;224.2;22.0;22.2;35;35.2;28.7;-1.0;
13/02/2025 13:43:05;117;0;240.30;-4;29.33;5.87;199.0;15.10;75935;2837.542;-1800.390;1;270;220;224.2;22.0;22.1;35;35.2;28.7;-1.0;
13/02/2025 13:43:25;117;0;242.66;-4;29.16;5.86;196.6;15.10;75937;2837.542;-1800.392;1;270;220;222.6;22.0;22.2;35;35.2;28.7;-1.0;
13/02/2025 13:43:45;117;0;244.24;-4;29.50;5.88;194.0;15.10;75939;2837.542;-1800.395;1;270;220;225.8;22.0;22.2;35;35.2;28.7;-1.0;
13/02/2025 13:44:05;117;0;245.79;-4;29.45;5.89;191.5;15.10;75939;2837.542;-1800.398;1;270;220;224.2;22.0;22.1;35;35.2;28.7;-1.0;
13/02/2025 13:44:25;117;0;248.84;-4;29.37;5.83;189.0;15.20;75949;2837.543;-1800.401;1;270;220;225.8;22.0;22.2;33;31.1;28.7;-1.0;
13/02/2025 13:44:45;117;0;251.00;-4;29.07;5.35;186.5;15.20;75958;2837.543;-1800.403;1;270;220;224.2;22.0;22.2;29;28.9;28.7;-1.0;
13/02/2025 13:45:05;117;0;247.67;-4;29.06;2.35;184.1;15.20;75966;2837.543;-1800.406;1;270;220;225.8;22.0;22.2;32;32.0;28.7;-1.0;
13/02/2025 13:45:25;117;0;248.77;-4;29.03;4.31;181.6;15.20;75985;2837.544;-1800.409;1;270;220;224.2;22.0;22.2;32;32.5;28.7;-1.0;
13/02/2025 13:45:45;117;0;248.34;-4;29.59;4.42;179.4;15.30;75986;2837.544;-1800.411;1;270;220;224.2;22.0;22.2;26;25.7;28.7;-1.0;
13/02/2025 13:46:05;117;0;252.81;-4;28.87;1.49;177.0;15.30;75998;2837.545;-1800.414;1;270;220;224.2;21.7;21.4;24;23.9;28.7;-1.0;
13/02/2025 13:46:25;117;0;246.82;-4;29.45;-0.52;174.5;15.30;76014;2837.545;-1800.417;1;270;220;225.8;21.7;21.4;34;34.7;28.7;-1.0;
13/02/2025 13:46:45;117;0;248.12;-4;31.38;6.34;172.0;15.30;76024;2837.545;-1800.419;1;270;220;224.2;21.7;21.4;31;30.7;28.7;-1.0;
13/02/2025 13:47:05;117;0;242.91;-4;31.18;2.91;169.1;15.40;76041;2837.545;-1800.422;1;270;220;225.8;21.7;21.4;35;35.2;28.7;-1.0;
13/02/2025 13:47:25;117;0;239.55;-4;30.77;6.35;166.3;15.40;76040;2837.545;-1800.425;1;270;220;225.8;21.7;21.4;35;36.1;28.7;-1.0;
13/02/2025 13:47:45;117;0;238.47;-4;31.54;6.19;163.6;15.40;76045;2837.545;-1800.428;1;270;220;224.2;21.7;21.4;35;35.6;28.7;-1.0;
13/02/2025 13:48:05;117;0;234.36;-4;31.68;6.31;160.9;15.40;76054;2837.545;-1800.430;1;270;220;224.2;21.7;21.4;35;35.6;28.7;-1.0;
13/02/2025 13:48:25;117;0;231.36;-4;30.57;6.81;158.2;15.50;76057;2837.545;-1800.432;1;270;220;224.2;21.7;21.4;37;37.0;28.7;-1.0;
13/02/2025 13:48:45;117;0;231.07;-4;31.39;7.40;155.6;15.50;76061;2837.545;-1800.435;1;270;220;224.2;21.7;21.4;37;37.9;28.7;-1.0;
13/02/2025 13:49:05;117;0;230.40;-4;31.02;7.37;153.1;15.50;76076;2837.545;-1800.437;1;270;220;224.2;21.7;21.4;37;37.9;28.7;-1.0;
13/02/2025 13:49:25;117;0;231.30;-4;31.02;7.35;150.5;15.60;76077;2837.545;-1800.439;1;270;220;224.2;21.7;21.5;37;37.9;28.7;-1.0;
13/02/2025 13:49:45;117;0;232.65;-4;30.72;7.27;147.8;15.60;76080;2837.544;-1800.442;1;270;220;224.2;21.7;21.4;37;37.5;28.7;-1.0;
13/02/2025 13:50:05;117;0;232.88;-4;30.64;7.28;145.1;15.60;76087;2837.544;-1800.444;1;270;220;225.8;21.7;21.4;37;37.5;28.7;-1.0;
13/02/2025 13:50:25;117;0;231.43;-4;30.68;7.38;142.5;15.60;76093;2837.544;-1800.447;1;270;220;224.2;21.7;21.4;37;37.9;28.7;-1.0;
13/02/2025 13:50:45;117;0;234.62;-4;30.81;7.31;139.8;15.70;76114;2837.544;-1800.449;1;270;220;224.2;21.7;21.4;35;34.7;28.7;-1.0;
13/02/2025 13:51:05;117;0;235.82;-4;30.67;5.91;136.9;15.70;76115;2837.544;-1800.452;1;270;220;222.6;21.7;21.4;35;35.2;28.7;-1.0;
13/02/2025 13:51:25;117;0;238.17;-4;30.48;5.76;134.1;15.70;76123;2837.543;-1800.454;1;270;220;222.6;21.7;21.4;35;35.2;28.7;-1.0;
13/02/2025 13:51:45;117;0;241.95;-4;30.40;5.83;131.4;15.80;76132;2837.544;-1800.457;1;270;220;224.2;21.7;21.4;35;35.2;28.7;-1.0;
13/02/2025 13:52:06;117;0;244.70;-4;30.24;5.86;128.6;15.80;76148;2837.544;-1800.460;1;270;220;224.2;21.7;21.4;35;35.2;28.7;-1.0;
13/02/2025 13:52:26;117;0;253.04;-4;29.84;5.62;125.8;15.80;76157;2837.544;-1800.463;1;270;220;224.2;21.7;21.4;30;29.8;28.7;-1.0;
13/02/2025 13:52:46;117;0;251.01;-4;30.12;2.85;123.1;15.80;76187;2837.545;-1800.466;1;270;220;225.8;21.7;21.4;30;29.8;28.7;-1.0;
13/02/2025 13:53:06;117;0;248.12;-4;30.06;2.91;120.4;15.90;76194;2837.545;-1800.469;1;270;220;225.8;21.7;21.4;34;33.8;28.7;-1.0;
13/02/2025 13:53:26;117;0;248.51;-4;30.65;5.53;117.7;15.90;76215;2837.545;-1800.472;1;270;220;224.2;21.7;21.4;34;34.7;28.7;-1.0;
13/02/2025 13:53:46;117;0;247.13;-4;30.99;5.58;114.6;15.90;76229;2837.545;-1800.475;1;270;220;224.2;21.7;21.4;34;34.3;28.7;-1.0;
13/02/2025 13:54:06;117;0;249.63;-4;29.66;5.57;111.6;16.00;76239;2837.546;-1800.478;1;270;220;224.2;21.7;21.4;34;34.7;28.7;-1.0;
13/02/2025 13:54:26;117;0;248.45;-4;30.64;5.34;109.0;16.00;76263;2837.546;-1800.481;1;270;220;224.2;21.7;21.4;31;31.1;28.7;-1.0;
13/02/2025 13:54:46;117;0;244.75;-4;30.89;3.51;106.1;16.10;76264;2837.546;-1800.484;1;270;220;225.8;21.7;21.4;35;35.6;28.7;-1.0;
13/02/2025 13:55:06;117;0;242.70;-4;30.64;6.39;103.2;16.10;76271;2837.546;-1800.487;1;270;220;225.8;21.7;21.4;35;36.1;28.7;-1.0;
13/02/2025 13:55:26;117;0;242.14;-4;30.53;6.37;100.5;16.10;76297;2837.546;-1800.489;1;270;220;225.8;21.7;21.4;35;36.1;28.7;-1.0;
13/02/2025 13:55:46;117;0;237.51;-4;30.88;6.45;97.8;16.20;76304;2837.546;-1800.492;1;270;220;224.2;21.7;21.4;35;36.1;28.7;-1.0;
13/02/2025 13:56:06;117;0;235.25;-4;30.83;6.44;95.1;16.20;76310;2837.546;-1800.494;1;270;220;224.2;21.7;21.4;35;36.1;28.7;-1.0;
13/02/2025 13:56:26;117;0;231.39;-4;30.91;6.44;92.4;16.30;76313;2837.546;-1800.497;1;270;220;221.0;21.7;21.4;37;37.5;28.7;-1.0;
13/02/2025 13:56:46;117;0;231.04;-4;30.79;7.29;89.6;16.30;76329;2837.546;-1800.499;1;270;220;224.2;21.7;21.4;37;37.9;28.7;-1.0;
13/02/2025 13:57:06;117;0;230.92;-4;30.24;7.25;86.7;16.30;76378;2837.545;-1800.502;1;270;220;225.8;21.7;21.4;39;38.8;28.7;-1.0;
13/02/2025 13:57:26;117;0;230.26;-4;30.14;8.06;84.2;16.40;76432;2837.545;-1800.504;1;270;220;225.8;21.7;21.4;36;34.7;28.7;-1.0;
13/02/2025 13:57:46;117;0;230.55;-4;30.51;6.83;81.7;16.40;76466;2837.545;-1800.507;1;270;220;225.8;21.7;21.4;36;35.6;28.7;-1.0;
13/02/2025 13:58:06;117;0;231.84;-4;30.24;6.74;79.2;16.50;76490;2837.545;-1800.509;1;270;220;224.2;21.7;21.4;36;35.6;28.7;-1.0;
13/02/2025 13:58:26;117;0;232.32;-4;30.31;6.76;76.7;16.60;76503;2837.544;-1800.511;1;270;220;224.2;21.7;21.4;36;36.1;28.7;-1.0;
13/02/2025 13:58:46;117;0;232.58;-4;30.29;6.79;74.3;16.60;76512;2837.544;-1800.514;1;270;220;224.2;21.7;21.4;36;36.1;28.7;-1.0;
13/02/2025 13:59:06;117;0;232.99;-4;30.48;6.74;71.8;16.70;76537;2837.544;-1800.516;1;270;220;227.4;21.7;21.4;36;36.1;28.7;-1.0;
13/02/2025 13:59:26;117;0;232.95;-4;30.40;6.72;69.2;16.70;76543;2837.544;-1800.518;1;270;220;225.8;21.7;21.5;36;36.1;28.7;-1.0;
13/02/2025 13:59:46;117;0;234.70;-4;30.17;6.75;66.5;16.80;76552;2837.544;-1800.521;1;270;220;225.8;21.7;21.4;36;36.1;28.7;-1.0;
13/02/2025 14:00:06;117;0;236.69;-4;30.27;6.78;63.8;16.80;76563;2837.544;-1800.524;1;270;220;224.2;21.7;21.4;36;36.1;28.7;-1.0;
13/02/2025 14:00:26;117;0;237.71;-4;30.19;6.75;61.2;16.90;76575;2837.544;-1800.526;1;270;220;225.8;21.7;21.4;36;36.1;28.7;-1.0;
13/02/2025 14:00:46;117;0;237.11;-4;30.16;6.79;58.5;16.90;76581;2837.543;-1800.529;1;270;220;224.2;21.7;21.4;36;36.1;28.7;-1.0;
13/02/2025 14:01:06;117;0;237.17;-4;30.52;6.80;55.7;17.00;76592;2837.543;-1800.531;1;270;220;224.2;21.7;21.4;36;36.1;28.7;-1.0;
13/02/2025 14:01:26;117;0;237.86;-4;30.43;6.82;52.9;17.00;76602;2837.543;-1800.534;1;270;220;225.8;21.7;21.4;36;36.1;28.7;-1.0;
13/02/2025 14:01:46;117;0;236.93;-4;30.51;6.77;50.1;17.10;76613;2837.543;-1800.537;1;270;220;225.8;21.7;21.4;36;36.1;28.7;-1.0;
13/02/2025 14:02:06;117;0;237.43;-4;30.28;6.86;47.2;17.10;76619;2837.543;-1800.540;1;270;220;225.8;21.7;21.4;36;36.1;28.7;-1.0;
13/02/2025 14:02:26;117;0;238.22;-4;30.30;6.88;44.3;17.20;76617;2837.543;-1800.542;1;270;220;225.8;21.7;21.4;36;36.1;28.7;-1.0;
13/02/2025 14:02:46;117;0;239.50;-4;30.35;6.82;41.5;17.20;76633;2837.543;-1800.545;1;270;220;225.8;21.7;21.4;36;36.1;28.7;-1.0;
13/02/2025 14:03:06;117;0;240.26;-4;29.73;6.81;38.7;17.30;76650;2837.543;-1800.548;1;270;220;225.8;21.7;21.4;36;36.1;28.7;-1.0;
13/02/2025 14:03:26;117;0;241.34;-4;30.04;6.89;35.9;17.40;76669;2837.543;-1800.551;1;270;220;225.8;21.7;21.5;36;36.1;28.7;-1.0;
13/02/2025 14:03:46;117;0;242.99;-4;30.34;6.72;33.1;17.40;76679;2837.543;-1800.554;1;270;220;225.8;21.7;21.4;36;36.1;28.7;-1.0;
13/02/2025 14:04:06;117;0;244.24;-4;30.35;6.75;30.3;17.40;76686;2837.543;-1800.557;1;270;220;225.8;21.7;21.4;36;36.1;28.7;-1.0;
13/02/2025 14:04:26;117;0;245.88;-4;30.00;6.89;27.6;17.50;76699;2837.543;-1800.560;1;270;220;224.2;21.7;21.5;36;36.1;28.7;-1.0;
13/02/2025 14:04:46;117;0;245.63;-4;30.29;6.82;24.8;17.50;76699;2837.543;-1800.563;1;270;220;224.2;21.7;21.4;36;36.1;28.7;-1.0;
13/02/2025 14:05:06;117;0;246.51;-4;30.04;6.88;22.0;17.60;76712;2837.543;-1800.565;1;270;220;225.8;21.7;21.4;36;36.1;28.7;-1.0;
13/02/2025 14:05:26;117;0;247.74;-4;30.19;6.95;19.2;17.60;76718;2837.544;-1800.568;1;270;220;225.8;21.7;21.4;36;36.1;28.7;-1.0;
13/02/2025 14:05:46;117;0;248.76;-4;30.37;6.80;16.3;17.70;76724;2837.544;-1800.572;1;270;220;224.2;21.7;21.4;34;32.9;28.7;-1.0;
13/02/2025 14:06:06;117;0;247.99;-4;30.23;5.83;13.4;17.70;76732;2837.544;-1800.575;1;270;220;225.8;21.7;21.4;34;35.2;28.7;-1.0;
13/02/2025 14:06:26;117;0;248.66;-4;30.17;5.92;10.5;17.80;76742;2837.545;-1800.578;1;270;220;225.8;21.7;21.4;34;35.2;28.7;-1.0;
13/02/2025 14:06:46;117;0;249.33;-4;29.90;5.85;7.5;17.80;76740;2837.545;-1800.581;1;270;220;225.8;21.7;21.4;34;35.2;28.7;-1.0;
13/02/2025 14:07:06;117;0;248.96;-4;30.30;5.87;4.6;17.90;76744;2837.545;-1800.584;1;270;220;224.2;21.7;21.4;34;35.2;28.7;-1.0;
13/02/2025 14:07:16;115;0;248.54;-4;29.78;5.52;3.1;17.90;76751;2837.545;-1800.586;1;270;500;232.3;100.0;65.4;0;-0.9;28.7;-1.0;
13/02/2025 14:07:26;115;0;234.94;-4;11.67;-13.16;2.0;17.90;76732;2837.545;-1800.587;1;270;500;351.6;100.0;100.0;0;-0.5;28.5;-1.0;
13/02/2025 14:07:36;115;0;204.98;-4;-60.98;-10.97;2.5;17.90;76465;2837.545;-1800.588;1;270;500;464.5;100.0;100.6;0;-0.5;28.5;-1.0;
13/02/2025 14:07:46;115;0;180.77;-4;-69.73;-11.80;2.1;18.00;76214;2837.545;-1800.588;1;270;500;508.1;100.0;100.6;0;-0.9;28.5;-1.0;
13/02/2025 14:07:56;115;0;219.62;-4;-35.55;-13.26;-0.1;18.00;76150;2837.545;-1800.589;1;270;500;508.1;100.0;100.6;0;-0.5;28.7;-1.0;
13/02/2025 14:08:16;119;0;281.51;-4;-56.51;-8.36;0.1;18.10;76166;2837.545;-1800.589;1;270;500;511.3;100.0;100.6;0;-0.9;28.7;-1.0;
13/02/2025 14:08:26;119;0;293.60;-4;-50.07;-12.10;0.0;18.10;76184;2837.385;-1800.454;0;270;500;511.3;100.0;100.6;0;-0.9;28.7;-1.0;
