Timestamp;NavState;SecurityLevel;Heading;Declination;Pitch;Roll;Depth;Temperature;Pa;Lat;Lon;DeadReckoning;DesiredH;BallastCmd;BallastPos;LinCmd;LinPos;AngCmd;AngPos;Voltage;Altitude;
14/02/2025 01:31:38;119;0;57.87;-4;-57.85;-5.21;0.1;17.30;75856;2838.731;-1759.274;0;255;500;508.1;100.0;100.6;0;0.9;28.6;-1.0;
14/02/2025 01:31:48;116;0;78.46;-4;-52.31;-11.75;-0.0;17.40;75869;2838.733;-1759.273;0;255;500;508.1;100.0;100.6;0;0.9;28.6;-1.0;
14/02/2025 01:32:13;116;0;110.98;-4;-51.97;-7.59;-0.0;17.50;75869;2838.733;-1759.273;0;255;500;509.7;100.0;100.6;0;0.9;28.6;-1.0;
14/02/2025 01:32:40;116;0;74.96;-4;-50.21;-12.15;0.2;17.50;75876;2838.733;-1759.273;0;-9999;500;508.1;100.0;100.6;0;0.9;28.6;-1.0;
14/02/2025 01:33:01;116;0;84.23;-4;-55.48;-12.02;0.1;17.60;75892;2838.732;-1759.274;0;237;500;508.1;100.0;100.6;0;0.9;28.6;-1.0;
14/02/2025 01:33:21;116;0;91.09;-4;-54.37;-16.43;0.1;17.70;75900;2838.732;-1759.273;0;237;500;508.1;100.0;100.7;0;0.9;28.6;-1.0;
14/02/2025 01:34:24;116;0;86.95;-4;-57.39;-13.78;0.1;17.90;75923;2838.731;-1759.270;0;237;500;508.1;100.0;100.6;0;0.9;28.6;-1.0;
14/02/2025 01:35:23;116;0;92.12;-4;-54.37;-21.74;0.0;18.10;75945;2838.729;-1759.268;0;237;500;508.1;100.0;100.6;0;0.9;28.7;-1.0;
14/02/2025 01:36:26;116;0;95.56;-4;-58.30;-8.68;0.1;18.40;75967;2838.728;-1759.266;0;237;500;508.1;100.0;100.6;0;0.9;28.6;-1.0;
14/02/2025 01:36:47;116;0;94.59;-4;-55.36;-12.12;0.1;18.50;75972;2838.727;-1759.265;0;237;500;508.1;100.0;100.6;0;0.9;28.7;-1.0;
14/02/2025 01:37:07;110;0;107.53;-4;-53.66;-21.06;0.0;18.60;75986;2838.727;-1759.265;0;237;-100;401.6;100.0;99.7;-13;-13.5;28.6;-1.0;
14/02/2025 01:37:17;110;0;111.29;-4;-54.67;-15.84;0.1;18.60;76319;2838.727;-1759.265;1;237;-100;253.2;100.0;99.7;-13;-13.5;28.6;-1.0;
14/02/2025 01:37:27;110;0;114.88;-4;-62.67;-17.85;0.6;18.70;76566;2838.727;-1759.265;1;237;-100;93.5;100.0;99.7;-13;-13.5;28.6;-1.0;
14/02/2025 01:37:37;110;0;116.07;-4;-65.81;-19.49;0.9;18.70;76879;2838.728;-1759.264;1;237;-100;-64.5;100.0;99.9;-13;-13.5;28.6;-1.0;
14/02/2025 01:37:47;110;0;104.45;-4;-68.49;-8.71;1.2;18.80;77239;2838.728;-1759.264;1;237;-100;-100.0;50.0;49.9;-13;-14.0;28.6;-1.0;
14/02/2025 01:37:57;110;0;114.57;-4;-52.83;-18.10;2.8;18.80;77262;2838.728;-1759.264;1;237;-100;-101.6;50.0;49.6;-13;-13.5;28.6;-1.0;
14/02/2025 01:38:17;100;0;128.23;-4;-32.56;-18.19;7.2;18.90;77280;2838.727;-1759.261;1;237;-100;-98.4;50.0;49.6;-13;-13.5;28.6;-1.0;
14/02/2025 01:38:37;100;0;135.81;-4;-31.34;-18.31;12.4;18.90;77285;2838.725;-1759.257;1;237;-100;-96.8;46.6;46.1;-70;-70.4;28.6;-1.0;
14/02/2025 01:38:57;100;0;150.22;-4;-25.21;-45.21;16.9;19.00;77277;2838.722;-1759.255;1;237;-100;-93.5;45.0;45.1;-70;-70.4;28.7;0.0;
14/02/2025 01:39:17;100;0;162.99;-4;-21.42;-45.39;20.6;19.00;77284;2838.718;-1759.253;1;237;-100;-95.2;45.0;44.9;-65;-65.0;28.6;0.0;
14/02/2025 01:39:37;100;0;177.16;-4;-20.75;-42.42;23.9;19.10;77279;2838.715;-1759.253;1;237;-100;-95.2;45.0;44.8;-46;-46.0;28.6;0.0;
14/02/2025 01:39:57;100;0;191.64;-4;-20.78;-33.01;27.1;19.10;77284;2838.712;-1759.254;1;237;-100;-93.5;45.0;44.8;-26;-26.2;28.6;0.0;
14/02/2025 01:40:17;100;0;203.42;-4;-21.42;-23.28;30.1;19.10;77290;2838.710;-1759.256;1;237;-100;-93.5;45.0;44.9;-7;-7.2;28.6;0.0;
14/02/2025 01:40:37;100;0;211.68;-4;-22.26;-14.38;33.4;19.10;77294;2838.707;-1759.259;1;237;-100;-93.5;44.4;44.2;6;5.9;28.7;0.0;
14/02/2025 01:40:57;100;0;213.78;-4;-21.76;-8.63;36.5;19.10;77298;2838.705;-1759.261;1;238;-100;-93.5;44.4;44.0;8;8.1;28.6;0.0;
14/02/2025 01:41:17;100;0;216.38;-4;-21.73;-7.35;39.6;19.20;77295;2838.703;-1759.264;1;238;-100;-93.5;44.4;44.0;8;8.6;28.6;0.0;
14/02/2025 01:41:37;100;0;215.15;-4;-21.65;-7.23;42.6;19.20;77303;2838.701;-1759.266;1;238;-100;-93.5;44.4;44.0;8;8.6;28.6;0.0;
14/02/2025 01:41:57;100;0;216.90;-4;-21.68;-7.36;45.6;19.20;77308;2838.699;-1759.269;1;238;-100;-95.2;44.4;44.2;10;9.9;28.6;0.0;
14/02/2025 01:42:17;100;0;217.50;-4;-21.76;-6.47;48.7;19.20;77313;2838.698;-1759.272;1;238;-100;-95.2;44.4;44.2;10;9.9;28.7;0.0;
14/02/2025 01:42:37;100;0;218.31;-4;-21.91;-6.52;51.7;19.20;77312;2838.696;-1759.274;1;238;-100;-93.5;44.4;44.2;10;9.9;28.7;0.0;
14/02/2025 01:42:58;100;0;219.93;-4;-22.01;-6.52;54.9;19.20;77315;2838.694;-1759.277;1;238;-100;-95.2;43.8;43.7;10;9.9;28.6;0.0;
14/02/2025 01:43:18;100;0;220.60;-4;-21.17;-6.42;58.1;19.20;77318;2838.692;-1759.280;1;238;-100;-93.5;43.8;43.7;10;10.4;28.6;0.0;
14/02/2025 01:43:38;100;0;220.19;-4;-20.90;-6.53;61.3;19.20;77312;2838.690;-1759.283;1;238;-100;-93.5;43.8;43.6;10;10.4;28.6;0.0;
14/02/2025 01:43:58;100;0;221.27;-4;-20.70;-6.44;64.4;19.30;77325;2838.688;-1759.286;1;238;-100;-93.5;43.8;43.6;10;10.4;28.6;0.0;
14/02/2025 01:44:18;100;0;221.85;-4;-20.34;-6.48;67.5;19.30;77327;2838.686;-1759.290;1;238;-100;-95.2;43.8;43.6;10;9.9;28.7;0.0;
14/02/2025 01:44:38;100;0;223.61;-4;-21.09;-6.56;70.4;19.30;77330;2838.684;-1759.293;1;238;-100;-96.8;43.8;43.6;10;10.4;28.7;0.0;
14/02/2025 01:44:58;100;0;227.80;-4;-21.47;-6.62;73.5;19.30;77327;2838.682;-1759.296;1;238;-100;-93.5;43.8;43.6;10;9.9;28.6;0.0;
14/02/2025 01:45:18;100;0;232.45;-4;-21.23;-6.48;76.7;19.30;77323;2838.681;-1759.300;1;238;-100;-96.8;43.8;43.6;12;12.6;28.6;0.0;
14/02/2025 01:45:38;100;0;234.40;-4;-21.71;-5.24;79.9;19.30;77329;2838.680;-1759.303;1;238;-100;-93.5;43.8;43.6;12;13.1;28.6;0.0;
14/02/2025 01:45:58;100;0;237.21;-4;-21.23;-5.32;83.2;19.30;77332;2838.678;-1759.308;1;238;-100;-93.5;43.8;43.6;15;15.3;28.6;0.0;
14/02/2025 01:46:18;100;0;239.12;-4;-21.56;-3.89;86.6;19.30;77329;2838.677;-1759.312;1;238;-100;-93.5;43.8;43.6;18;18.1;28.6;0.0;
14/02/2025 01:46:38;100;0;232.52;-4;-21.20;-2.50;90.2;19.30;77318;2838.675;-1759.316;1;237;-100;-93.5;43.8;43.6;12;12.2;28.6;0.0;
14/02/2025 01:46:58;100;0;235.53;-4;-20.24;-5.91;93.6;19.30;77292;2838.674;-1759.320;1;237;-100;-93.5;43.8;43.6;14;14.0;28.7;0.0;
14/02/2025 01:47:18;100;0;234.38;-4;-20.51;-4.41;96.8;19.30;77277;2838.673;-1759.324;1;237;-100;-93.5;43.8;43.6;14;14.4;28.7;0.0;
14/02/2025 01:47:38;100;0;231.00;-4;-21.05;-4.35;100.1;19.30;77254;2838.671;-1759.328;1;237;-100;-95.2;43.8;43.6;12;12.2;28.6;0.0;
14/02/2025 01:47:58;100;0;224.88;-4;-21.34;-5.66;103.5;19.30;77232;2838.669;-1759.331;1;237;-100;-93.5;43.8;43.6;12;12.2;28.6;0.0;
14/02/2025 01:48:18;100;0;223.97;-4;-21.21;-5.72;107.0;19.20;77210;2838.667;-1759.335;1;237;-100;-95.2;43.8;43.7;12;11.7;28.6;0.0;
14/02/2025 01:48:38;100;0;228.83;-4;-20.21;-5.72;110.3;19.20;77188;2838.665;-1759.338;1;237;-100;-93.5;43.8;43.6;12;12.2;28.6;0.0;
14/02/2025 01:48:58;100;0;233.63;-4;-20.35;-5.80;113.5;19.20;77171;2838.664;-1759.342;1;237;-100;-93.5;43.8;43.6;14;14.0;28.7;0.0;
14/02/2025 01:49:18;100;0;235.42;-4;-19.61;-4.69;116.4;19.20;77142;2838.662;-1759.346;1;237;-100;-93.5;43.8;43.6;14;14.4;28.6;0.0;
14/02/2025 01:49:38;100;0;241.66;-4;-18.58;-4.28;119.3;19.20;77128;2838.661;-1759.350;1;237;-100;-93.5;44.2;44.5;24;23.9;28.6;0.0;
14/02/2025 01:49:58;100;0;237.10;-4;-20.09;0.27;122.0;19.10;77094;2838.661;-1759.353;1;237;-100;-95.2;44.2;44.5;20;19.4;28.6;0.0;
14/02/2025 01:50:18;100;0;231.86;-4;-20.64;-2.13;124.6;19.10;77074;2838.660;-1759.357;1;237;-100;-93.5;44.2;44.5;14;14.0;28.6;0.0;
14/02/2025 01:50:38;100;0;228.10;-4;-20.73;-5.03;127.2;19.00;77052;2838.658;-1759.359;1;237;-100;-93.5;44.2;44.6;12;12.2;28.6;0.0;
14/02/2025 01:50:58;100;0;225.01;-4;-20.61;-5.85;129.9;19.00;77036;2838.657;-1759.362;1;237;-100;-93.5;44.2;44.5;12;12.2;28.7;0.0;
14/02/2025 01:51:18;100;0;221.14;-4;-21.20;-5.84;132.7;19.00;77024;2838.655;-1759.365;1;237;-100;-93.5;44.2;44.6;12;11.7;28.6;0.0;
14/02/2025 01:51:38;100;0;219.28;-4;-20.73;-5.87;135.5;18.90;77010;2838.654;-1759.368;1;237;-100;-95.2;44.2;44.5;12;12.2;28.7;0.0;
14/02/2025 01:51:58;100;0;218.94;-4;-20.89;-5.87;138.6;18.90;76989;2838.652;-1759.370;1;237;-100;-91.9;44.2;44.6;12;12.2;28.7;0.0;
14/02/2025 01:52:18;100;0;224.58;-4;-20.93;-5.98;141.6;18.80;76980;2838.650;-1759.374;1;237;-100;-93.5;44.2;44.5;12;11.7;28.6;0.0;
14/02/2025 01:52:38;100;0;227.09;-4;-20.73;-5.86;144.5;18.80;76963;2838.648;-1759.377;1;237;-100;-95.2;44.2;44.5;12;12.2;28.6;0.0;
14/02/2025 01:52:58;100;0;229.24;-4;-20.97;-5.87;147.5;18.80;76955;2838.647;-1759.380;1;237;-100;-93.5;44.2;44.6;12;12.2;28.6;0.0;
14/02/2025 01:53:18;100;0;232.45;-4;-21.05;-5.94;150.5;18.70;76940;2838.646;-1759.384;1;237;-100;-93.5;44.2;44.6;12;12.2;28.6;0.0;
14/02/2025 01:53:38;100;0;235.82;-4;-20.90;-5.83;153.4;18.70;76934;2838.645;-1759.387;1;237;-100;-93.5;44.2;44.6;17;17.1;28.7;0.0;
14/02/2025 01:53:58;100;0;234.67;-4;-21.45;-2.99;156.5;18.70;76918;2838.643;-1759.391;1;237;-100;-93.5;44.2;44.6;15;14.9;28.6;0.0;
14/02/2025 01:54:18;100;0;233.49;-4;-21.45;-4.64;159.6;18.60;76914;2838.642;-1759.395;1;237;-100;-93.5;44.2;44.6;15;14.4;28.6;0.0;
14/02/2025 01:54:38;100;0;233.80;-4;-21.38;-4.63;162.7;18.60;76893;2838.641;-1759.398;1;237;-100;-93.5;44.2;44.5;15;14.4;28.6;0.0;
14/02/2025 01:54:58;100;0;234.68;-4;-21.16;-4.60;165.8;18.50;76886;2838.639;-1759.402;1;237;-100;-93.5;44.2;44.6;15;14.4;28.6;0.0;
14/02/2025 01:55:18;100;0;234.12;-4;-20.58;-4.50;168.9;18.50;76865;2838.638;-1759.406;1;237;-100;-95.2;44.2;44.6;15;14.4;28.7;0.0;
14/02/2025 01:55:38;100;0;235.46;-4;-20.95;-4.65;172.0;18.40;76861;2838.637;-1759.409;1;237;-100;-93.5;44.2;44.5;15;14.4;28.6;0.0;
14/02/2025 01:55:58;100;0;235.47;-4;-20.69;-4.63;175.0;18.40;76849;2838.636;-1759.413;1;237;-100;-95.2;44.2;44.5;17;17.1;28.7;0.0;
14/02/2025 01:56:18;100;0;233.12;-4;-21.28;-2.95;178.2;18.40;76839;2838.634;-1759.417;1;237;-100;-93.5;44.2;44.6;14;14.0;28.6;0.0;
14/02/2025 01:56:38;100;0;232.83;-4;-21.27;-5.16;181.4;18.30;76839;2838.633;-1759.420;1;237;-100;-96.8;44.2;44.6;14;13.5;28.7;0.0;
14/02/2025 01:56:58;100;0;233.66;-4;-20.38;-5.40;184.7;18.30;76821;2838.631;-1759.425;1;237;-100;-93.5;44.2;44.6;14;13.5;28.6;0.0;
14/02/2025 01:57:18;100;0;232.28;-4;-21.25;-5.18;187.8;18.20;76815;2838.630;-1759.428;1;237;-100;-95.2;44.2;44.6;14;13.5;28.6;0.0;
14/02/2025 01:57:38;100;0;229.68;-4;-21.11;-5.11;191.0;18.20;76799;2838.628;-1759.432;1;237;-100;-93.5;44.2;44.6;12;12.2;28.6;0.0;
14/02/2025 01:57:58;100;0;226.84;-4;-21.38;-5.44;194.2;18.20;76804;2838.627;-1759.435;1;237;-100;-93.5;44.2;44.6;12;12.2;28.6;0.0;
14/02/2025 01:58:18;100;0;225.03;-4;-20.72;-5.46;197.1;18.10;76770;2838.625;-1759.438;1;237;-100;-93.5;44.2;44.6;12;12.2;28.7;0.0;
14/02/2025 01:58:38;100;0;228.86;-4;-20.68;-5.61;200.0;18.10;76772;2838.624;-1759.441;1;237;-100;-93.5;44.2;44.5;12;12.6;28.6;0.0;
14/02/2025 01:58:58;100;0;230.65;-4;-20.44;-5.70;202.7;18.00;76759;2838.622;-1759.445;1;237;-100;-93.5;44.2;44.5;14;14.4;28.7;0.0;
14/02/2025 01:59:18;100;0;229.28;-4;-20.71;-4.49;205.4;18.00;76750;2838.621;-1759.448;1;237;-100;-96.8;44.2;44.6;14;14.4;28.6;0.0;
14/02/2025 01:59:38;100;0;226.01;-4;-20.94;-4.43;208.1;17.90;76748;2838.620;-1759.451;1;237;-100;-91.9;44.2;44.5;12;11.7;28.6;0.0;
14/02/2025 01:59:58;100;0;224.38;-4;-22.18;-5.56;211.1;17.90;76734;2838.618;-1759.453;1;237;-100;-93.5;43.5;43.4;12;12.2;28.6;0.0;
14/02/2025 02:00:18;100;0;225.11;-4;-19.65;-5.70;214.2;17.80;76721;2838.616;-1759.457;1;237;-100;-93.5;43.5;43.2;12;12.2;28.6;0.0;
14/02/2025 02:00:38;100;0;226.06;-4;-19.00;-5.80;217.1;17.80;76724;2838.615;-1759.460;1;237;-100;-95.2;43.8;44.0;12;12.2;28.6;0.0;
14/02/2025 02:00:58;100;0;226.76;-4;-19.71;-5.72;220.0;17.80;76709;2838.613;-1759.463;1;237;-100;-93.5;43.8;44.2;12;12.2;28.7;0.0;
14/02/2025 02:01:18;100;0;227.07;-4;-20.03;-5.74;223.1;17.70;76692;2838.611;-1759.467;1;237;-100;-93.5;43.8;44.2;12;12.2;28.7;0.0;
14/02/2025 02:01:38;100;0;227.19;-4;-20.00;-5.71;226.3;17.70;76691;2838.609;-1759.471;1;237;-100;-93.5;43.8;44.2;12;12.2;28.7;0.0;
14/02/2025 02:01:58;100;0;226.60;-4;-20.12;-5.71;229.5;17.60;76682;2838.608;-1759.474;1;237;-100;-93.5;43.8;44.2;12;12.2;28.6;0.0;
14/02/2025 02:02:18;100;0;224.01;-4;-19.92;-5.77;232.8;17.60;76675;2838.605;-1759.478;1;237;-100;-93.5;43.8;44.3;12;12.2;28.6;0.0;
14/02/2025 02:02:38;100;0;223.79;-4;-19.42;-5.77;236.1;17.50;76669;2838.603;-1759.481;1;237;-100;-93.5;43.8;44.2;12;12.2;28.6;0.0;
14/02/2025 02:02:58;100;0;224.12;-4;-20.59;-5.87;239.2;17.50;76668;2838.601;-1759.484;1;237;-100;-95.2;43.8;44.2;12;12.2;28.6;0.0;
14/02/2025 02:03:18;100;0;225.25;-4;-20.27;-5.57;242.7;17.50;76675;2838.599;-1759.488;1;237;-100;-95.2;43.8;44.2;12;12.2;28.6;0.0;
14/02/2025 02:03:38;100;0;225.62;-4;-21.30;-5.76;246.1;17.40;76660;2838.597;-1759.492;1;237;-100;-93.5;43.8;44.2;12;12.2;28.6;0.0;
14/02/2025 02:03:58;100;0;223.65;-4;-19.50;-5.69;249.7;17.40;76657;2838.595;-1759.496;1;237;-100;-93.5;43.8;44.2;12;12.2;28.6;0.0;
14/02/2025 02:04:18;100;0;226.50;-4;-20.32;-5.80;253.3;17.30;76654;2838.592;-1759.500;1;237;-100;-93.5;43.8;44.2;12;12.2;28.6;0.0;
14/02/2025 02:04:38;100;0;227.84;-4;-20.39;-5.64;257.0;17.30;76646;2838.590;-1759.504;1;237;-100;-95.2;43.8;44.2;12;12.2;28.6;0.0;
14/02/2025 02:04:58;100;0;231.13;-4;-20.30;-5.67;260.8;17.30;76646;2838.588;-1759.508;1;237;-100;-95.2;43.8;44.2;12;12.2;28.6;0.0;
14/02/2025 02:05:18;100;0;231.25;-4;-20.21;-5.69;264.5;17.20;76652;2838.586;-1759.513;1;237;-100;-93.5;43.8;44.2;12;12.2;28.6;0.0;
14/02/2025 02:05:38;100;0;233.08;-4;-20.12;-5.72;268.2;17.20;76637;2838.584;-1759.517;1;237;-100;-93.5;43.8;44.2;12;12.2;28.6;0.0;
14/02/2025 02:05:58;100;0;236.39;-4;-20.27;-5.68;271.8;17.20;76634;2838.583;-1759.522;1;237;-100;-93.5;43.8;44.2;15;15.3;28.7;0.0;
14/02/2025 02:06:18;100;0;239.84;-4;-20.93;-3.96;275.5;17.10;76623;2838.581;-1759.526;1;237;-100;-93.5;43.8;44.2;19;19.0;28.6;0.0;
14/02/2025 02:06:38;100;0;242.39;-4;-20.75;-2.21;279.2;17.10;76613;2838.580;-1759.531;1;237;-100;-93.5;43.8;44.2;23;23.0;28.6;0.0;
14/02/2025 02:06:58;100;0;239.55;-4;-20.29;-0.09;282.7;17.10;76600;2838.579;-1759.536;1;237;-100;-95.2;43.8;44.3;19;19.0;28.6;0.0;
14/02/2025 02:07:18;100;0;240.35;-4;-19.73;-2.74;286.0;17.00;76594;2838.578;-1759.540;1;237;-100;-93.5;43.8;44.2;21;21.2;28.6;0.0;
14/02/2025 02:07:38;100;0;239.93;-4;-19.78;-1.03;289.1;17.00;76592;2838.577;-1759.544;1;237;-100;-95.2;43.8;44.3;21;21.7;28.6;0.0;
14/02/2025 02:07:58;100;0;240.47;-4;-20.22;-1.08;292.3;16.90;76583;2838.576;-1759.548;1;237;-100;-93.5;43.8;44.2;21;21.7;28.6;0.0;
14/02/2025 02:08:18;100;0;237.75;-4;-19.56;-1.15;295.4;16.90;76571;2838.574;-1759.552;1;237;-100;-93.5;43.8;44.3;19;19.0;28.7;0.0;
14/02/2025 02:08:38;100;0;236.08;-4;-20.04;-2.33;298.6;16.90;76562;2838.573;-1759.556;1;237;-100;-93.5;43.8;44.2;16;15.8;28.6;0.0;
14/02/2025 02:08:58;100;0;240.12;-4;-20.09;-4.37;301.6;16.80;76561;2838.572;-1759.560;1;237;-100;-91.9;43.8;44.3;24;23.9;28.6;0.0;
14/02/2025 02:09:18;100;0;238.48;-4;-19.64;0.56;304.2;16.80;76543;2838.571;-1759.564;1;237;-100;-93.5;43.8;44.3;24;24.4;28.6;0.0;
14/02/2025 02:09:38;100;0;233.27;-4;-20.54;0.49;306.6;16.70;76539;2838.571;-1759.566;1;237;-100;-93.5;43.8;44.3;19;18.5;28.6;0.0;
14/02/2025 02:09:58;100;0;228.70;-4;-21.03;-2.61;309.3;16.70;76532;2838.569;-1759.569;1;237;-100;-93.5;43.8;44.2;13;13.1;28.6;0.0;
14/02/2025 02:10:18;100;0;226.89;-4;-20.33;-5.38;312.0;16.70;76517;2838.568;-1759.572;1;237;-100;-93.5;43.8;44.3;13;12.6;28.6;0.0;
14/02/2025 02:10:38;100;0;225.66;-4;-20.50;-5.44;314.7;16.60;76516;2838.566;-1759.575;1;237;-100;-93.5;43.8;44.2;13;12.6;28.6;0.0;
14/02/2025 02:10:58;100;0;224.40;-4;-20.24;-5.48;317.4;16.60;76500;2838.565;-1759.578;1;237;-100;-93.5;43.8;44.3;13;12.6;28.6;0.0;
14/02/2025 02:11:18;100;0;222.20;-4;-20.20;-5.43;320.2;16.60;76493;2838.563;-1759.581;1;237;-100;-93.5;43.8;44.3;13;12.6;28.6;0.0;
14/02/2025 02:11:38;100;0;222.37;-4;-20.51;-5.50;323.0;16.50;76483;2838.562;-1759.584;1;237;-100;-95.2;43.8;44.3;13;12.6;28.6;0.0;
14/02/2025 02:11:58;100;0;222.45;-4;-20.04;-5.47;325.8;16.50;76466;2838.560;-1759.587;1;237;-100;-93.5;43.8;44.2;13;12.6;28.6;0.0;
14/02/2025 02:12:18;100;0;224.40;-4;-19.99;-5.52;328.5;16.50;76462;2838.558;-1759.590;1;237;-100;-95.2;43.8;44.3;13;12.6;28.6;0.0;
14/02/2025 02:12:38;100;0;228.08;-4;-19.89;-5.41;331.4;16.40;76461;2838.557;-1759.593;1;237;-100;-96.8;43.8;44.3;13;12.6;28.7;0.0;
14/02/2025 02:12:58;100;0;229.55;-4;-19.92;-5.45;334.2;16.40;76460;2838.556;-1759.596;1;237;-100;-93.5;43.8;44.2;13;13.1;28.6;0.0;
14/02/2025 02:13:18;100;0;234.88;-4;-19.45;-5.49;336.9;16.40;76447;2838.554;-1759.600;1;236;-100;-95.2;43.8;44.2;19;19.0;28.6;0.0;
14/02/2025 02:13:38;100;0;234.69;-4;-19.59;-2.27;339.6;16.30;76436;2838.553;-1759.603;1;236;-100;-93.5;43.8;44.2;19;19.4;28.7;0.0;
14/02/2025 02:13:58;100;0;234.52;-4;-19.91;-2.22;342.0;16.30;76421;2838.553;-1759.606;1;236;-100;-93.5;43.8;44.2;21;21.2;28.6;0.0;
14/02/2025 02:14:18;100;0;232.59;-4;-20.08;-0.90;344.6;16.20;76421;2838.551;-1759.609;1;236;-100;-91.9;43.8;44.2;17;17.1;28.6;0.0;
14/02/2025 02:14:38;100;0;231.84;-4;-19.85;-3.46;347.1;16.20;76412;2838.551;-1759.612;1;236;-100;-93.5;43.8;44.2;19;19.0;28.6;0.0;
14/02/2025 02:14:58;100;0;231.92;-4;-19.40;-1.96;349.6;16.20;76394;2838.549;-1759.616;1;236;-100;-93.5;43.8;44.2;15;14.4;28.6;0.0;
14/02/2025 02:15:18;100;0;231.68;-4;-19.78;-4.74;352.1;16.10;76389;2838.548;-1759.619;1;236;-100;-93.5;43.8;44.3;18;18.1;28.7;0.0;
14/02/2025 02:15:38;100;0;228.23;-4;-20.35;-2.50;354.7;16.10;76379;2838.547;-1759.621;1;236;-100;-93.5;43.8;44.2;14;14.0;28.7;0.0;
14/02/2025 02:15:58;100;0;226.66;-4;-20.13;-4.86;357.3;16.10;76378;2838.546;-1759.624;1;236;-100;-95.2;43.8;44.2;14;14.0;28.7;0.0;
14/02/2025 02:16:18;100;0;225.69;-4;-20.09;-4.87;360.1;16.00;76367;2838.544;-1759.628;1;236;-100;-93.5;43.8;44.2;14;14.0;28.6;0.0;
14/02/2025 02:16:38;100;0;224.70;-4;-20.08;-5.00;363.0;16.00;76362;2838.542;-1759.631;1;236;-100;-93.5;43.8;44.2;14;14.0;28.6;0.0;
14/02/2025 02:16:58;100;0;222.82;-4;-19.77;-4.94;365.9;15.90;76350;2838.541;-1759.634;1;236;-100;-93.5;43.8;44.2;14;14.0;28.6;0.0;
14/02/2025 02:17:18;100;0;222.35;-4;-19.80;-4.85;368.8;15.90;76352;2838.539;-1759.637;1;236;-100;-93.5;43.8;44.2;14;14.0;28.6;0.0;
14/02/2025 02:17:38;100;0;220.71;-4;-19.55;-4.88;371.7;15.90;76350;2838.537;-1759.640;1;236;-100;-93.5;43.8;44.3;14;14.0;28.6;0.0;
14/02/2025 02:17:59;100;0;218.67;-4;-19.99;-4.88;374.6;15.80;76344;2838.535;-1759.642;1;236;-100;-93.5;43.8;44.3;14;14.0;28.6;0.0;
14/02/2025 02:18:19;100;0;216.96;-4;-20.01;-4.90;377.5;15.80;76343;2838.533;-1759.645;1;236;-100;-95.2;43.8;44.3;12;11.3;28.6;0.0;
14/02/2025 02:18:39;100;0;216.93;-4;-19.78;-5.71;380.5;15.80;76320;2838.531;-1759.648;1;236;-100;-93.5;43.8;44.3;12;12.2;28.7;0.0;
14/02/2025 02:18:59;100;0;216.95;-4;-19.77;-5.73;383.4;15.70;76318;2838.529;-1759.651;1;236;-100;-95.2;43.8;44.3;12;12.2;28.6;0.0;
14/02/2025 02:19:19;100;0;215.05;-4;-19.69;-5.73;386.4;15.70;76322;2838.527;-1759.653;1;236;-100;-95.2;43.8;44.3;12;12.2;28.6;0.0;
14/02/2025 02:19:39;100;0;212.39;-4;-19.60;-5.74;389.3;15.70;76304;2838.525;-1759.656;1;236;-100;-91.9;43.8;44.3;9;9.0;28.6;0.0;
14/02/2025 02:19:59;100;0;211.26;-4;-19.70;-7.44;392.3;15.60;76306;2838.522;-1759.658;1;236;-100;-93.5;43.8;44.2;9;8.6;28.6;0.0;
14/02/2025 02:20:19;100;0;211.65;-4;-19.54;-7.50;395.3;15.60;76294;2838.520;-1759.660;1;236;-100;-95.2;43.8;44.2;9;8.6;28.6;0.0;
14/02/2025 02:20:39;100;0;210.64;-4;-19.53;-7.49;398.2;15.60;76284;2838.518;-1759.663;1;236;-100;-93.5;43.8;44.2;7;6.8;28.6;0.0;
14/02/2025 02:20:59;100;0;211.68;-4;-19.28;-8.58;401.1;15.50;76282;2838.515;-1759.665;1;237;-100;-93.5;43.8;44.2;7;6.8;28.6;0.0;
14/02/2025 02:21:19;100;0;217.50;-4;-18.84;-8.23;403.9;15.50;76271;2838.513;-1759.668;1;237;-100;-93.5;44.2;44.2;12;12.6;28.6;0.0;
14/02/2025 02:21:39;100;0;219.50;-4;-19.17;-5.32;406.5;15.50;76260;2838.512;-1759.671;1;237;-100;-95.2;44.2;44.2;12;13.1;28.6;0.0;
14/02/2025 02:21:59;100;0;220.53;-4;-19.43;-5.39;409.2;15.40;76262;2838.510;-1759.673;1;237;-100;-93.5;44.2;44.2;12;13.1;28.7;0.0;
14/02/2025 02:22:19;100;0;221.72;-4;-19.25;-5.33;411.9;15.40;76243;2838.508;-1759.676;1;237;-100;-95.2;44.2;44.3;12;13.1;28.6;0.0;
14/02/2025 02:22:39;100;0;224.32;-4;-18.84;-5.34;414.5;15.40;76239;2838.507;-1759.679;1;237;-100;-95.2;44.5;44.6;12;12.6;28.6;0.0;
14/02/2025 02:22:59;100;0;223.58;-4;-19.62;-5.19;417.1;15.30;76247;2838.505;-1759.682;1;237;-100;-93.5;44.5;44.9;12;13.1;28.6;0.0;
14/02/2025 02:23:19;100;0;224.55;-4;-20.16;-5.39;419.5;15.30;76229;2838.504;-1759.685;1;237;-100;-96.8;44.5;44.9;12;12.6;28.7;0.0;
14/02/2025 02:23:39;100;0;226.09;-4;-20.03;-5.26;422.1;15.30;76210;2838.503;-1759.688;1;237;-100;-95.2;44.5;45.1;12;13.1;28.7;0.0;
14/02/2025 02:23:59;100;0;228.61;-4;-20.13;-5.20;424.7;15.20;76220;2838.501;-1759.691;1;237;-100;-95.2;44.5;44.8;14;14.0;28.6;0.0;
14/02/2025 02:24:19;100;0;230.65;-4;-21.14;-4.61;427.3;15.20;76211;2838.500;-1759.693;1;236;-100;-93.5;44.5;44.9;16;16.2;28.6;0.0;
14/02/2025 02:24:39;100;0;231.06;-4;-20.53;-3.57;430.0;15.20;76201;2838.499;-1759.697;1;236;-100;-95.2;44.5;44.9;16;16.2;28.6;0.0;
14/02/2025 02:24:59;100;0;232.63;-4;-20.74;-3.67;432.6;15.10;76195;2838.498;-1759.700;1;236;-100;-93.5;44.5;44.9;16;16.2;28.6;0.0;
14/02/2025 02:25:19;100;0;233.76;-4;-20.76;-3.58;435.3;15.10;76190;2838.497;-1759.703;1;236;-100;-95.2;44.5;44.9;19;19.0;28.6;0.0;
14/02/2025 02:25:39;100;0;235.03;-4;-20.86;-2.11;438.0;15.10;76181;2838.496;-1759.706;1;236;-100;-95.2;44.5;44.9;19;19.4;28.6;0.0;
14/02/2025 02:25:59;100;0;236.33;-4;-20.87;-2.05;440.8;15.00;76174;2838.495;-1759.710;1;236;-100;-93.5;44.5;44.9;22;22.1;28.7;0.0;
14/02/2025 02:26:19;100;0;234.75;-4;-20.91;-0.50;443.6;15.00;76175;2838.494;-1759.713;1;236;-100;-93.5;44.5;44.9;19;19.0;28.6;0.0;
14/02/2025 02:26:39;100;0;234.33;-4;-21.24;-2.32;446.5;15.00;76171;2838.493;-1759.716;1;236;-100;-93.5;44.5;44.8;19;19.0;28.6;0.0;
14/02/2025 02:26:59;100;0;231.99;-4;-20.61;-2.33;449.5;15.00;76153;2838.492;-1759.720;1;236;-100;-93.5;44.5;44.9;16;15.3;28.7;0.0;
14/02/2025 02:27:19;100;0;229.43;-4;-21.04;-4.00;452.3;14.90;76146;2838.490;-1759.723;1;236;-100;-93.5;44.5;44.9;14;13.5;28.6;0.0;
14/02/2025 02:27:39;100;0;228.51;-4;-20.90;-5.12;455.3;14.90;76142;2838.489;-1759.726;1;236;-100;-93.5;44.5;44.9;14;13.5;28.6;0.0;
14/02/2025 02:27:59;100;0;225.10;-4;-20.97;-5.19;458.4;14.90;76124;2838.487;-1759.730;1;236;-100;-93.5;44.5;44.9;14;13.5;28.6;0.0;
14/02/2025 02:28:19;100;0;222.57;-4;-20.71;-5.18;461.5;14.80;76120;2838.485;-1759.733;1;236;-100;-93.5;44.5;44.9;14;13.5;28.6;0.0;
14/02/2025 02:28:39;100;0;222.80;-4;-20.70;-5.23;464.6;14.80;76117;2838.483;-1759.736;1;236;-100;-95.2;44.5;44.9;14;13.5;28.6;0.0;
14/02/2025 02:28:59;100;0;223.24;-4;-19.86;-5.12;467.6;14.80;76102;2838.482;-1759.739;1;236;-100;-93.5;44.5;44.9;14;13.5;28.6;0.0;
14/02/2025 02:29:19;100;0;222.84;-4;-20.23;-5.17;470.4;14.70;76092;2838.480;-1759.742;1;236;-100;-95.2;44.5;44.9;14;13.5;28.6;0.0;
14/02/2025 02:29:39;100;0;221.83;-4;-20.91;-5.19;473.2;14.70;76080;2838.478;-1759.745;1;236;-100;-95.2;44.5;44.9;14;13.5;28.7;0.0;
14/02/2025 02:29:59;100;0;222.39;-4;-20.33;-5.09;476.2;14.70;76084;2838.476;-1759.748;1;236;-100;-95.2;44.5;44.9;14;13.5;28.6;0.0;
14/02/2025 02:30:19;100;0;220.84;-4;-20.92;-5.44;479.0;14.60;76079;2838.475;-1759.751;1;236;-100;-93.5;44.5;44.9;14;13.5;28.6;0.0;
14/02/2025 02:30:39;100;0;222.13;-4;-20.74;-4.80;482.2;14.60;76064;2838.473;-1759.754;1;236;-100;-93.5;44.5;44.9;14;13.5;28.6;0.0;
14/02/2025 02:30:59;100;0;223.33;-4;-21.41;-5.40;485.2;14.60;76066;2838.471;-1759.757;1;236;-100;-96.8;44.5;44.9;14;13.5;28.6;0.0;
14/02/2025 02:31:19;100;0;223.13;-4;-19.63;-5.36;488.4;14.50;76051;2838.469;-1759.760;1;236;-100;-93.5;44.5;44.9;14;13.5;28.6;0.0;
14/02/2025 02:31:39;100;0;218.50;-4;-19.71;-5.17;491.3;14.50;76047;2838.467;-1759.763;1;236;-100;-93.5;44.5;44.9;14;13.5;28.6;0.0;
14/02/2025 02:31:59;100;0;217.03;-4;-20.54;-5.32;494.1;14.50;76051;2838.465;-1759.765;1;236;-100;-95.2;44.5;44.9;14;13.5;28.6;0.0;
14/02/2025 02:32:19;100;0;220.08;-4;-20.06;-5.12;497.1;14.50;76049;2838.463;-1759.768;1;236;-100;-93.5;44.5;44.9;14;13.5;28.6;0.0;
14/02/2025 02:32:39;100;0;222.35;-4;-20.37;-5.08;500.1;14.40;76026;2838.461;-1759.771;1;236;-100;-95.2;44.5;44.9;14;13.5;28.6;0.0;
14/02/2025 02:32:59;100;0;222.57;-4;-20.35;-5.20;503.1;14.40;76024;2838.459;-1759.775;1;236;-100;-93.5;44.5;44.9;14;13.5;28.6;0.0;
14/02/2025 02:33:19;100;0;223.31;-4;-19.80;-5.00;505.9;14.40;76035;2838.458;-1759.778;1;236;-100;-95.2;44.5;44.9;14;13.5;28.6;0.0;
14/02/2025 02:33:39;100;0;226.95;-4;-19.85;-5.20;508.7;14.30;76022;2838.456;-1759.781;1;236;-100;-93.5;44.5;44.9;14;13.5;28.6;0.0;
14/02/2025 02:33:59;100;0;227.62;-4;-21.08;-4.89;511.6;14.30;76028;2838.455;-1759.784;1;236;-100;-95.2;44.5;44.9;14;13.5;28.6;0.0;
14/02/2025 02:34:19;100;0;224.44;-4;-21.18;-5.03;514.8;14.30;76025;2838.453;-1759.787;1;236;-100;-93.5;44.5;44.9;14;13.5;28.6;0.0;
14/02/2025 02:34:39;100;0;223.62;-4;-19.96;-4.69;517.7;14.30;76009;2838.451;-1759.790;1;236;-100;-93.5;44.5;44.9;14;13.5;28.6;0.0;
14/02/2025 02:34:59;100;0;225.04;-4;-20.12;-5.25;520.4;14.20;76011;2838.450;-1759.793;1;236;-100;-93.5;44.5;44.9;14;13.5;28.6;0.0;
14/02/2025 02:35:19;100;0;224.12;-4;-22.07;-5.03;523.3;14.20;76009;2838.448;-1759.796;1;236;-100;-95.2;43.9;43.7;14;13.5;28.6;0.0;
14/02/2025 02:35:39;100;0;223.42;-4;-21.70;-4.92;526.6;14.20;76000;2838.446;-1759.799;1;236;-100;-93.5;43.9;43.6;14;13.5;28.7;0.0;
14/02/2025 02:35:59;100;0;224.00;-4;-15.35;-5.18;530.3;14.20;75993;2838.443;-1759.804;1;236;-100;-93.5;45.3;45.4;14;13.5;28.6;0.0;
14/02/2025 02:36:19;100;0;226.43;-4;-22.41;-5.89;533.3;14.10;75981;2838.442;-1759.807;1;236;-100;-93.5;44.6;44.6;14;13.5;28.6;0.0;
14/02/2025 02:36:39;100;0;219.37;-4;-21.82;-4.74;536.7;14.10;75982;2838.439;-1759.810;1;236;-100;-95.2;44.6;44.5;14;13.5;28.6;0.0;
14/02/2025 02:36:59;100;0;219.90;-4;-20.17;-5.66;540.3;14.10;75981;2838.437;-1759.814;1;236;-100;-95.2;44.6;44.3;14;13.5;28.6;0.0;
14/02/2025 02:37:19;100;0;227.27;-4;-15.09;-5.46;543.8;14.10;75967;2838.434;-1759.818;1;236;-100;-95.2;46.0;46.1;14;13.5;28.6;0.0;
14/02/2025 02:37:39;100;0;230.97;-4;-21.00;-5.22;546.3;14.00;75965;2838.433;-1759.821;1;236;-100;-93.5;46.0;46.4;17;17.1;28.6;0.0;
14/02/2025 02:37:59;100;0;236.53;-4;-22.56;-3.98;548.9;14.00;75952;2838.433;-1759.824;1;236;-100;-95.2;45.3;45.1;26;26.2;28.6;0.0;
14/02/2025 02:38:19;100;0;238.37;-4;-22.96;1.24;551.7;14.00;75956;2838.432;-1759.827;1;236;-100;-95.2;44.4;44.3;26;26.6;28.6;0.0;
14/02/2025 02:38:39;100;0;235.10;-4;-20.86;1.81;554.9;13.90;75946;2838.431;-1759.831;1;236;-100;-93.5;44.4;44.0;18;18.1;28.7;0.0;
14/02/2025 02:38:59;100;0;231.56;-4;-22.14;-3.12;557.6;13.90;75947;2838.430;-1759.834;1;236;-100;-93.5;43.7;43.7;18;18.1;28.6;0.0;
14/02/2025 02:39:19;100;0;232.50;-4;-16.75;-2.90;560.7;13.90;75935;2838.428;-1759.838;1;236;-100;-95.2;44.7;44.9;15;15.3;28.6;0.0;
14/02/2025 02:39:39;100;0;230.12;-4;-20.03;-3.94;563.1;13.80;75925;2838.427;-1759.841;1;236;-100;-93.5;44.7;45.1;15;15.3;28.6;0.0;
14/02/2025 02:39:59;100;0;222.18;-4;-23.77;-4.63;565.8;13.80;75926;2838.426;-1759.843;1;236;-100;-95.2;43.6;43.4;13;13.1;28.6;0.0;
14/02/2025 02:40:19;100;0;223.48;-4;-18.37;-5.23;569.0;13.80;75919;2838.423;-1759.847;1;236;-100;-93.5;44.1;44.0;13;13.1;28.6;0.0;
14/02/2025 02:40:39;100;0;216.93;-4;-16.66;-5.54;571.7;13.80;75906;2838.421;-1759.850;1;236;-100;-93.5;45.1;45.2;13;13.1;28.7;0.0;
14/02/2025 02:40:59;100;0;222.66;-4;-19.56;-5.72;574.0;13.70;75896;2838.420;-1759.852;1;236;-100;-93.5;45.1;45.5;13;13.1;28.6;0.0;
14/02/2025 02:41:19;100;0;230.06;-4;-21.76;-5.53;577.3;13.70;75896;2838.418;-1759.856;1;236;-100;-93.5;45.1;45.5;13;13.1;28.6;0.0;
14/02/2025 02:41:39;100;0;224.17;-4;-21.77;-5.49;580.4;13.70;75889;2838.417;-1759.859;1;236;-100;-95.2;45.1;45.5;13;13.1;28.6;0.0;
14/02/2025 02:41:59;100;0;227.72;-4;-19.07;-5.75;583.2;13.70;75894;2838.415;-1759.862;1;236;-100;-95.2;45.1;45.5;13;13.1;28.6;0.0;
14/02/2025 02:42:19;100;0;227.03;-4;-21.08;-5.43;585.7;13.60;75883;2838.414;-1759.865;1;236;-100;-96.8;45.1;45.5;15;15.3;28.6;0.0;
14/02/2025 02:42:39;100;0;227.05;-4;-20.11;-3.99;588.4;13.60;75873;2838.413;-1759.868;1;236;-100;-95.2;45.1;45.5;15;15.8;28.6;0.0;
14/02/2025 02:42:59;100;0;222.38;-4;-24.11;-3.77;590.5;13.60;75868;2838.412;-1759.870;1;236;-100;-95.2;43.8;43.9;15;15.3;28.7;0.0;
14/02/2025 02:43:19;100;0;227.73;-4;-20.41;-3.83;592.8;13.60;75873;2838.411;-1759.873;1;236;-100;-95.2;43.8;43.6;15;15.8;28.6;0.0;
14/02/2025 02:43:39;100;0;223.69;-4;-19.02;-4.60;595.2;13.50;75869;2838.410;-1759.875;1;236;-100;-93.5;43.8;43.7;15;15.8;28.6;0.0;
14/02/2025 02:43:59;100;0;224.63;-4;-21.60;-5.01;597.5;13.50;75855;2838.408;-1759.878;1;236;-100;-95.2;43.8;43.6;15;15.8;28.7;0.0;
14/02/2025 02:44:19;100;0;226.84;-4;-19.43;-4.11;600.5;13.50;75843;2838.407;-1759.881;1;236;-100;-93.5;43.8;43.6;15;15.3;28.6;0.0;
14/02/2025 02:44:39;100;0;226.18;-4;-16.46;-3.28;603.6;13.50;75847;2838.405;-1759.885;1;236;-100;-93.5;44.9;45.1;15;15.3;28.6;0.0;
14/02/2025 02:44:59;100;0;220.87;-4;-16.71;-3.61;605.3;13.40;75845;2838.404;-1759.887;1;236;-120;-124.2;45.9;46.1;15;15.8;28.6;0.0;
14/02/2025 02:45:19;100;0;233.59;-4;-22.88;-4.87;607.1;13.40;75905;2838.403;-1759.889;1;236;-140;-140.3;45.0;44.9;35;35.2;28.6;0.0;
14/02/2025 02:45:39;100;0;222.94;-4;-21.65;6.78;610.0;13.40;75949;2838.402;-1759.892;1;236;-140;-146.8;45.0;44.9;14;13.5;28.6;0.0;
14/02/2025 02:45:59;100;0;221.58;-4;-21.30;-5.14;612.9;13.40;75950;2838.400;-1759.895;1;236;-140;-150.0;45.0;44.9;14;13.5;28.6;0.0;
14/02/2025 02:46:19;100;0;215.28;-4;-19.88;-5.68;616.4;13.30;75966;2838.397;-1759.898;1;236;-140;-151.6;45.0;44.9;11;10.4;28.6;0.0;
14/02/2025 02:46:39;100;0;219.39;-4;-20.11;-7.25;619.5;13.30;75958;2838.395;-1759.901;1;236;-140;-153.2;45.0;44.9;13;13.1;28.7;0.0;
14/02/2025 02:46:59;100;0;222.70;-4;-20.79;-4.74;622.5;13.30;75959;2838.394;-1759.904;1;236;-140;-153.2;45.0;44.9;13;13.5;28.6;0.0;
14/02/2025 02:47:19;100;0;219.18;-4;-18.02;-5.75;625.4;13.30;75949;2838.391;-1759.907;1;236;-140;-153.2;45.6;45.7;13;13.5;28.6;0.0;
14/02/2025 02:47:39;100;0;217.71;-4;-19.50;-4.95;628.0;13.20;75957;2838.390;-1759.909;1;236;-140;-153.2;45.6;45.7;13;13.5;28.6;0.0;
14/02/2025 02:47:59;100;0;215.67;-4;-16.61;-4.78;629.8;13.20;75949;2838.388;-1759.911;1;236;-160;-159.7;46.6;46.7;13;13.5;28.6;0.0;
14/02/2025 02:48:19;100;0;228.74;-4;-26.52;-3.80;631.6;13.20;75967;2838.388;-1759.913;1;236;-180;-180.6;44.7;44.5;32;32.0;28.7;0.0;
14/02/2025 02:48:39;100;0;222.58;-4;-21.81;4.87;634.6;13.20;75998;2838.387;-1759.916;1;236;-180;-182.3;44.7;44.5;14;13.5;28.6;0.0;
14/02/2025 02:48:59;100;0;228.46;-4;-18.20;-4.90;636.9;13.20;75997;2838.385;-1759.919;1;236;-180;-182.3;45.2;45.4;14;13.5;28.6;0.0;
14/02/2025 02:49:19;100;0;226.17;-4;-21.13;-4.50;639.2;13.10;75997;2838.384;-1759.921;1;236;-180;-183.9;45.2;45.5;14;13.5;28.7;0.0;
14/02/2025 02:49:39;100;0;228.05;-4;-20.88;-4.08;641.8;13.10;75991;2838.383;-1759.924;1;236;-180;-183.9;45.2;45.5;14;13.5;28.6;0.0;
14/02/2025 02:49:59;100;0;226.77;-4;-20.16;-4.70;644.2;13.10;75993;2838.382;-1759.927;1;236;-180;-183.9;45.2;45.5;14;13.5;28.6;0.0;
14/02/2025 02:50:19;100;0;225.95;-4;-20.83;-4.99;646.0;13.10;75988;2838.381;-1759.929;1;236;-200;-201.6;45.2;45.7;19;19.0;28.6;0.0;
14/02/2025 02:50:39;100;0;221.81;-4;-21.20;-1.51;648.3;13.10;76021;2838.380;-1759.931;1;236;-200;-201.6;45.2;45.5;14;14.0;28.6;0.0;
14/02/2025 02:50:59;100;0;229.35;-4;-19.72;-4.92;650.8;13.00;76023;2838.379;-1759.934;1;236;-200;-203.2;45.2;45.7;16;15.8;28.7;0.0;
14/02/2025 02:51:19;100;0;230.55;-4;-19.90;-2.92;652.7;13.00;76015;2838.379;-1759.936;1;236;-220;-219.4;45.2;45.5;23;23.0;28.6;0.0;
14/02/2025 02:51:39;100;0;223.80;-4;-21.53;0.31;654.7;13.00;76056;2838.378;-1759.938;1;236;-240;-240.3;45.2;45.7;17;17.1;28.6;0.0;
14/02/2025 02:51:59;100;0;217.61;-4;-21.77;-2.99;657.1;13.00;76108;2838.376;-1759.940;1;236;-240;-243.5;45.2;45.7;14;14.0;28.6;0.0;
14/02/2025 02:52:19;100;0;219.34;-4;-21.71;-3.79;660.6;13.00;76097;2838.374;-1759.943;1;236;-240;-243.5;45.2;45.7;14;14.4;28.6;0.0;
14/02/2025 02:52:40;100;0;216.60;-4;-19.39;-3.92;664.0;13.00;76098;2838.372;-1759.947;1;236;-240;-246.8;45.2;45.7;12;12.2;28.6;0.0;
14/02/2025 02:53:00;100;0;216.47;-4;-20.35;-5.65;666.0;12.90;76094;2838.370;-1759.949;1;236;-260;-261.3;45.2;45.7;14;14.4;28.6;0.0;
14/02/2025 02:53:20;100;0;211.47;-4;-18.58;-3.57;668.5;12.90;76132;2838.369;-1759.951;1;236;-260;-264.5;45.7;45.7;11;10.8;28.6;0.0;
14/02/2025 02:53:40;100;0;212.86;-4;-21.30;-5.78;670.8;12.90;76135;2838.367;-1759.953;1;236;-260;-266.1;45.7;45.7;13;13.1;28.6;0.0;
14/02/2025 02:54:00;100;0;215.05;-4;-21.98;-4.76;673.9;12.90;76120;2838.365;-1759.955;1;236;-260;-267.7;45.7;45.7;13;13.5;28.6;0.0;
14/02/2025 02:54:20;100;0;211.50;-4;-21.13;-4.39;677.4;12.80;76121;2838.362;-1759.958;1;236;-260;-267.7;45.7;45.7;8;8.1;28.6;0.0;
14/02/2025 02:54:40;100;0;211.74;-4;-20.55;-7.37;680.9;12.80;76110;2838.360;-1759.961;1;236;-260;-267.7;45.7;45.7;8;7.7;28.6;0.0;
14/02/2025 02:55:00;100;0;214.16;-4;-19.92;-6.65;684.4;12.80;76100;2838.357;-1759.964;1;236;-260;-267.7;45.7;45.7;10;9.9;28.6;0.0;
14/02/2025 02:55:20;100;0;213.71;-4;-21.10;-5.94;687.9;12.80;76093;2838.354;-1759.967;1;236;-260;-267.7;45.7;45.5;10;10.4;28.6;0.0;
14/02/2025 02:55:40;100;0;218.50;-4;-19.59;-5.73;691.6;12.70;76091;2838.351;-1759.970;1;236;-260;-267.7;45.7;45.5;12;12.6;28.6;0.0;
14/02/2025 02:56:00;100;0;218.54;-4;-20.93;-4.83;695.1;12.70;76087;2838.349;-1759.973;1;236;-260;-267.7;45.7;45.7;12;12.6;28.6;0.0;
14/02/2025 02:56:20;100;0;218.91;-4;-20.79;-5.25;699.0;12.70;76082;2838.346;-1759.977;1;236;-260;-267.7;45.7;45.7;12;12.6;28.6;0.0;
14/02/2025 02:56:40;100;0;216.79;-4;-19.80;-4.21;702.4;12.70;76065;2838.344;-1759.980;1;236;-260;-267.7;45.7;45.7;12;13.1;28.6;0.0;
14/02/2025 02:57:00;100;0;210.17;-4;-19.86;-4.98;705.6;12.70;76054;2838.341;-1759.983;1;236;-260;-269.4;45.7;45.7;6;5.9;28.6;0.0;
14/02/2025 02:57:20;100;0;213.69;-4;-20.44;-8.08;709.0;12.60;76047;2838.338;-1759.986;1;236;-260;-267.7;45.7;45.5;9;9.0;28.6;0.0;
14/02/2025 02:57:40;100;0;215.46;-4;-19.58;-6.38;712.6;12.60;76046;2838.336;-1759.989;1;236;-260;-267.7;45.7;45.5;11;10.8;28.7;0.0;
14/02/2025 02:58:00;100;0;217.11;-4;-20.21;-5.39;716.0;12.60;76036;2838.333;-1759.992;1;236;-260;-267.7;45.7;45.5;11;11.3;28.7;0.0;
14/02/2025 02:58:20;100;0;215.29;-4;-21.05;-5.42;719.7;12.60;76033;2838.330;-1759.995;1;236;-260;-267.7;45.7;45.7;11;11.3;28.6;0.0;
14/02/2025 02:58:40;100;0;217.36;-4;-20.91;-5.54;723.6;12.50;76035;2838.327;-1759.999;1;236;-260;-267.7;45.7;45.7;11;11.3;28.6;0.0;
14/02/2025 02:59:00;100;0;217.10;-4;-21.12;-5.59;727.5;12.50;76022;2838.325;-1800.002;1;236;-260;-269.4;45.7;45.7;11;11.3;28.6;0.0;
14/02/2025 02:59:20;100;0;220.61;-4;-21.43;-5.33;731.7;12.50;76016;2838.321;-1800.006;1;236;-260;-269.4;45.7;45.7;11;11.3;28.6;0.0;
14/02/2025 02:59:40;100;0;224.76;-4;-20.96;-5.47;735.9;12.50;76011;2838.319;-1800.010;1;236;-260;-267.7;45.7;45.7;13;13.1;28.6;0.0;
14/02/2025 03:00:00;100;0;221.30;-4;-19.11;-4.20;739.6;12.40;76003;2838.316;-1800.014;1;236;-260;-269.4;45.7;45.7;13;13.5;28.6;0.0;
14/02/2025 03:00:20;100;0;220.13;-4;-20.20;-4.27;743.2;12.40;75999;2838.313;-1800.018;1;236;-260;-267.7;45.7;45.7;13;13.5;28.6;0.0;
14/02/2025 03:00:40;100;0;219.13;-4;-19.79;-4.64;746.6;12.40;75993;2838.311;-1800.021;1;236;-260;-269.4;45.7;45.7;13;13.5;28.6;0.0;
14/02/2025 03:01:00;100;0;220.62;-4;-19.54;-5.02;749.6;12.40;75994;2838.309;-1800.024;1;236;-260;-267.7;45.7;45.7;13;13.5;28.6;0.0;
14/02/2025 03:01:20;100;0;226.29;-4;-19.99;-4.39;752.5;12.30;75987;2838.308;-1800.027;1;236;-260;-267.7;45.7;45.7;13;13.1;28.6;0.0;
14/02/2025 03:01:40;100;0;214.13;-4;-20.95;-4.30;755.6;12.30;75972;2838.305;-1800.030;1;236;-260;-269.4;45.7;45.5;11;10.8;28.6;0.0;
14/02/2025 03:02:00;100;0;213.35;-4;-21.57;-6.30;759.0;12.30;75963;2838.303;-1800.032;1;236;-260;-267.7;45.7;45.7;9;9.0;28.6;0.0;
14/02/2025 03:02:20;100;0;207.71;-4;-19.17;-6.20;762.7;12.30;75960;2838.299;-1800.035;1;237;-260;-267.7;45.7;45.7;-3;-3.2;28.6;0.0;
14/02/2025 03:02:40;100;0;213.59;-4;-21.56;-12.19;765.8;12.30;75953;2838.297;-1800.038;1;237;-260;-267.7;45.7;45.7;10;10.4;28.6;0.0;
14/02/2025 03:03:00;100;0;206.97;-4;-18.45;-5.75;769.0;12.20;75943;2838.294;-1800.040;1;237;-260;-267.7;46.1;45.7;-1;10.4;28.6;18.0;
14/02/2025 03:03:03;118;0;206.75;-4;-18.50;-12.15;769.3;12.20;75938;2838.294;-1800.040;1;237;100;-267.7;34.0;34.0;12;12.6;28.6;0.0;
14/02/2025 03:03:13;118;0;144.99;-4;-11.95;-5.42;770.3;12.20;75927;2838.293;-1800.040;1;237;100;-141.9;34.0;33.9;12;13.1;27.6;-1.0;
14/02/2025 03:03:23;118;0;134.75;-4;-3.70;-5.02;770.8;12.20;75659;2838.293;-1800.039;1;237;100;-17.7;34.0;33.7;12;13.1;27.6;-1.0;
14/02/2025 03:03:33;118;0;134.57;-4;0.85;-5.79;770.8;12.20;75381;2838.294;-1800.039;1;237;100;103.2;34.0;33.7;12;13.1;27.6;-1.0;
14/02/2025 03:03:43;118;0;205.66;-4;2.26;-5.60;770.4;12.20;75153;2838.294;-1800.039;1;237;100;103.2;34.0;33.7;12;13.1;28.6;-1.0;
14/02/2025 03:03:53;118;0;209.41;-4;1.82;-6.18;769.9;12.20;75140;2838.294;-1800.040;1;237;100;103.2;34.0;33.6;12;13.1;28.6;-1.0;
14/02/2025 03:04:13;117;0;208.99;-4;1.17;-6.14;768.9;12.20;75153;2838.295;-1800.040;1;237;100;103.2;34.0;33.7;12;13.1;28.6;-1.0;
14/02/2025 03:04:33;117;0;210.52;-4;1.28;-5.93;768.1;12.20;75153;2838.296;-1800.041;1;237;100;103.2;28.4;28.4;23;23.9;28.6;-1.0;
14/02/2025 03:04:53;117;0;210.33;-4;17.38;-0.98;767.4;12.20;75135;2838.296;-1800.041;1;237;100;104.8;27.6;27.5;23;23.5;28.6;-1.0;
14/02/2025 03:05:13;117;0;206.07;-4;21.83;-0.62;766.3;12.20;75151;2838.295;-1800.042;1;237;100;106.5;27.6;27.7;34;33.8;28.7;-1.0;
14/02/2025 03:05:33;117;0;205.55;-4;20.77;5.48;765.0;12.20;75141;2838.295;-1800.043;1;237;100;106.5;27.6;27.8;37;37.5;28.6;-1.0;
14/02/2025 03:05:53;117;0;202.61;-4;19.56;7.10;763.6;12.10;75137;2838.294;-1800.044;1;237;100;106.5;27.6;27.8;37;37.5;28.6;-1.0;
14/02/2025 03:06:13;117;0;206.88;-4;21.71;7.07;762.2;12.10;75144;2838.294;-1800.045;1;237;100;104.8;27.6;27.7;37;37.9;28.6;-1.0;
14/02/2025 03:06:33;117;0;207.97;-4;21.84;7.11;760.5;12.10;75131;2838.293;-1800.046;1;237;100;104.8;27.6;27.7;37;37.9;28.6;-1.0;
14/02/2025 03:06:53;117;0;218.65;-4;20.50;7.28;758.4;12.10;75121;2838.292;-1800.048;1;237;100;104.8;27.6;27.8;37;37.5;28.6;-1.0;
14/02/2025 03:07:13;117;0;227.25;-4;22.81;6.75;756.7;12.00;75125;2838.291;-1800.050;1;237;100;106.5;28.4;28.6;27;26.6;28.6;-1.0;
14/02/2025 03:07:33;117;0;231.32;-4;16.60;1.34;755.4;12.00;75126;2838.291;-1800.052;1;237;100;106.5;27.4;27.1;15;14.9;28.6;-1.0;
14/02/2025 03:07:53;117;0;236.77;-4;20.34;-4.81;754.4;12.00;75129;2838.291;-1800.053;1;236;100;104.8;27.4;27.5;-12;-12.2;28.6;-1.0;
14/02/2025 03:08:13;117;0;233.55;-4;22.34;-19.90;753.8;12.00;75119;2838.292;-1800.054;1;236;100;106.5;28.1;28.1;-12;-12.6;28.6;-1.0;
14/02/2025 03:08:33;117;0;231.77;-4;19.97;-19.49;752.7;12.00;75125;2838.292;-1800.055;1;236;100;104.8;28.1;28.4;-3;-2.7;28.6;-1.0;
14/02/2025 03:08:53;117;0;228.60;-4;19.68;-14.53;751.3;12.00;75128;2838.292;-1800.057;1;236;100;104.8;28.1;28.4;21;21.2;28.6;-1.0;
14/02/2025 03:09:13;117;0;230.15;-4;18.39;-1.41;749.6;11.90;75116;2838.291;-1800.059;1;236;100;106.5;27.6;27.1;27;27.1;28.6;-1.0;
14/02/2025 03:09:33;117;0;232.87;-4;20.63;2.15;747.9;11.90;75122;2838.291;-1800.061;1;236;120;122.6;27.6;28.0;19;19.0;28.6;-1.0;
14/02/2025 03:09:53;117;0;236.61;-4;21.53;-3.23;746.4;11.90;75092;2838.291;-1800.063;1;236;140;141.9;27.6;28.0;1;0.9;28.7;-1.0;
14/02/2025 03:10:13;117;0;231.45;-4;18.90;-12.23;744.9;11.90;75034;2838.291;-1800.065;1;236;160;161.3;27.3;27.0;18;18.1;28.6;-1.0;
14/02/2025 03:10:33;117;0;220.23;-4;19.79;-3.36;743.1;11.90;74999;2838.290;-1800.067;1;236;180;183.9;27.3;27.0;37;37.0;28.6;-1.0;
14/02/2025 03:10:53;117;0;223.23;-4;18.17;6.52;741.4;11.90;74964;2838.289;-1800.069;1;236;200;203.2;26.8;26.7;34;33.4;28.6;-1.0;
14/02/2025 03:11:13;117;0;225.58;-4;20.26;4.70;739.8;11.90;74917;2838.289;-1800.071;1;236;220;222.6;26.8;26.7;29;28.9;28.6;-1.0;
14/02/2025 03:11:33;117;0;224.54;-4;22.14;2.81;738.0;11.90;74883;2838.288;-1800.073;1;236;240;243.5;27.4;27.5;33;32.9;28.6;-1.0;
14/02/2025 03:11:53;117;0;225.90;-4;21.45;4.42;735.1;11.90;74849;2838.286;-1800.076;1;236;240;243.5;27.4;27.5;37;37.0;28.6;-1.0;
14/02/2025 03:12:13;117;0;228.83;-4;17.70;6.93;732.1;11.90;74838;2838.285;-1800.079;1;236;240;243.5;26.7;26.7;37;37.5;28.6;-1.0;
14/02/2025 03:12:33;117;0;231.32;-4;23.02;7.19;729.4;11.90;74838;2838.284;-1800.082;1;236;240;243.5;27.6;27.8;33;33.8;28.6;-1.0;
14/02/2025 03:12:53;117;0;232.89;-4;17.46;5.02;726.2;11.80;74826;2838.282;-1800.087;1;236;240;243.5;26.9;26.8;35;36.1;28.6;-1.0;
14/02/2025 03:13:13;117;0;232.18;-4;20.81;5.65;723.2;11.80;74840;2838.281;-1800.090;1;236;240;243.5;26.9;26.2;35;36.1;28.6;-1.0;
14/02/2025 03:13:33;117;0;232.76;-4;20.40;5.94;719.8;11.80;74829;2838.279;-1800.094;1;236;240;243.5;26.9;26.2;35;36.1;28.6;-1.0;
14/02/2025 03:13:53;117;0;236.81;-4;18.67;6.26;716.2;11.80;74843;2838.277;-1800.099;1;236;240;245.2;26.5;26.5;32;30.7;28.6;-1.0;
14/02/2025 03:14:13;117;0;239.18;-4;19.91;5.46;713.1;11.80;74840;2838.276;-1800.103;1;236;240;241.9;26.5;26.7;28;28.0;28.6;-1.0;
14/02/2025 03:14:33;117;0;241.18;-4;18.78;1.90;709.8;11.80;74836;2838.275;-1800.108;1;236;240;243.5;26.1;25.9;26;25.7;28.6;-1.0;
14/02/2025 03:14:53;117;0;239.60;-4;19.57;0.82;706.7;11.80;74834;2838.274;-1800.112;1;236;240;243.5;26.1;25.5;26;25.7;28.6;-1.0;
14/02/2025 03:15:13;117;0;235.86;-4;21.71;1.23;703.4;11.80;74834;2838.273;-1800.115;1;236;240;243.5;26.1;26.1;29;28.9;28.6;-1.0;
14/02/2025 03:15:33;117;0;238.80;-4;18.57;2.60;700.0;11.80;74832;2838.272;-1800.120;1;236;240;240.3;25.7;25.5;29;29.3;28.6;-1.0;
14/02/2025 03:15:53;117;0;241.65;-4;21.28;2.76;697.1;11.70;74822;2838.271;-1800.124;1;236;240;243.5;25.7;25.9;24;23.5;28.6;-1.0;
14/02/2025 03:16:13;117;0;238.68;-4;17.30;0.79;694.2;11.70;74820;2838.269;-1800.128;1;236;240;243.5;24.9;24.7;28;28.4;28.6;-1.0;
14/02/2025 03:16:33;117;0;240.82;-4;24.80;2.27;691.6;11.80;74824;2838.269;-1800.131;1;236;240;243.5;26.3;26.7;13;13.1;28.6;-1.0;
14/02/2025 03:16:53;117;0;234.00;-4;19.17;-5.87;688.4;11.70;74826;2838.267;-1800.135;1;236;240;243.5;26.3;26.7;34;33.8;28.6;-1.0;
14/02/2025 03:17:13;117;0;234.84;-4;18.54;5.43;685.4;11.70;74817;2838.266;-1800.139;1;236;240;243.5;25.9;25.9;32;31.6;28.6;-1.0;
14/02/2025 03:17:33;117;0;233.26;-4;20.29;3.86;682.8;11.70;74816;2838.265;-1800.142;1;236;240;243.5;25.9;25.3;32;31.6;28.6;-1.0;
14/02/2025 03:17:53;117;0;232.64;-4;21.44;4.13;680.1;11.70;74803;2838.264;-1800.145;1;235;240;243.5;25.9;25.5;32;31.6;28.6;-1.0;
14/02/2025 03:18:13;117;0;233.71;-4;20.83;3.99;677.6;11.70;74812;2838.263;-1800.148;1;235;240;241.9;25.9;25.3;27;26.6;28.6;-1.0;
14/02/2025 03:18:33;117;0;236.61;-4;21.80;1.09;675.1;11.70;74809;2838.262;-1800.151;1;235;240;243.5;25.9;25.3;24;23.5;28.6;-1.0;
14/02/2025 03:18:53;117;0;233.92;-4;22.02;-0.14;672.6;11.70;74815;2838.262;-1800.154;1;235;240;243.5;26.5;26.5;26;26.6;28.6;-1.0;
14/02/2025 03:19:13;117;0;233.68;-4;19.52;1.54;670.2;11.70;74807;2838.261;-1800.157;1;235;240;243.5;26.5;26.5;28;28.0;28.6;-1.0;
14/02/2025 03:19:33;117;0;232.80;-4;18.70;2.48;668.0;11.70;74802;2838.260;-1800.160;1;235;240;243.5;26.1;26.1;28;28.9;28.6;-1.0;
14/02/2025 03:19:53;117;0;231.05;-4;20.01;2.42;665.5;11.70;74805;2838.259;-1800.163;1;235;240;241.9;26.1;26.1;31;31.1;28.6;-1.0;
14/02/2025 03:20:13;117;0;230.67;-4;20.18;3.91;663.5;11.70;74803;2838.258;-1800.165;1;235;260;262.9;26.1;26.2;26;26.2;28.6;-1.0;
14/02/2025 03:20:33;117;0;229.63;-4;20.00;1.13;661.2;11.60;74756;2838.257;-1800.168;1;235;260;262.9;26.1;26.2;32;32.5;28.6;-1.0;
14/02/2025 03:20:53;117;0;230.50;-4;19.64;4.88;659.0;11.60;74754;2838.256;-1800.170;1;235;260;262.9;26.1;26.2;32;32.9;28.6;-1.0;
14/02/2025 03:21:13;117;0;230.95;-4;20.58;4.78;656.6;11.60;74754;2838.256;-1800.173;1;235;260;261.3;26.1;26.2;30;28.9;28.6;-1.0;
14/02/2025 03:21:33;117;0;229.88;-4;19.41;2.95;654.2;11.60;74754;2838.254;-1800.176;1;235;260;261.3;26.1;26.2;33;33.4;28.6;-1.0;
14/02/2025 03:21:53;117;0;230.24;-4;17.47;5.02;651.8;11.60;74754;2838.253;-1800.179;1;235;260;262.9;25.3;25.2;33;34.3;28.6;-1.0;
14/02/2025 03:22:13;117;0;228.71;-4;20.92;5.21;649.8;11.60;74752;2838.253;-1800.182;1;235;280;283.9;25.3;25.6;29;28.9;28.6;-1.0;
14/02/2025 03:22:33;117;0;239.47;-4;22.13;2.29;647.5;11.60;74700;2838.252;-1800.184;1;235;280;283.9;26.0;26.2;15;14.9;28.6;-1.0;
14/02/2025 03:22:53;117;0;232.96;-4;17.93;-5.22;645.2;11.60;74694;2838.251;-1800.187;1;235;280;283.9;25.3;24.9;28;28.0;28.6;-1.0;
14/02/2025 03:23:13;117;0;235.07;-4;20.35;2.23;643.1;11.60;74698;2838.251;-1800.190;1;235;280;283.9;25.3;24.7;22;22.1;28.6;-1.0;
14/02/2025 03:23:33;117;0;231.09;-4;20.61;-1.38;641.0;11.60;74700;2838.250;-1800.193;1;235;280;283.9;25.3;24.7;25;24.8;28.6;-1.0;
14/02/2025 03:23:53;117;0;228.13;-4;21.19;0.14;639.2;11.60;74701;2838.249;-1800.195;1;235;300;303.2;25.3;24.7;25;25.3;28.6;-1.0;
14/02/2025 03:24:14;117;0;223.73;-4;20.07;0.66;637.5;11.60;74663;2838.249;-1800.196;1;235;320;322.6;25.3;24.7;33;32.9;28.6;-1.0;
14/02/2025 03:24:34;117;0;224.66;-4;22.97;5.11;635.4;11.60;74640;2838.248;-1800.199;1;235;320;322.6;26.2;26.2;33;33.4;28.6;-1.0;
14/02/2025 03:24:54;117;0;228.93;-4;17.29;5.30;633.4;11.60;74638;2838.247;-1800.201;1;235;320;321.0;25.4;25.3;33;33.4;28.6;-1.0;
14/02/2025 03:25:14;117;0;232.06;-4;18.10;4.77;632.0;11.60;74633;2838.247;-1800.203;1;235;340;343.5;24.8;24.9;14;14.0;28.6;-1.0;
14/02/2025 03:25:34;117;0;230.59;-4;19.59;-5.08;630.4;11.60;74594;2838.246;-1800.205;1;235;360;362.9;24.8;25.0;16;15.8;28.6;-1.0;
14/02/2025 03:25:54;117;0;218.34;-4;18.27;-3.68;628.7;11.60;74555;2838.246;-1800.207;1;235;380;382.3;24.3;24.0;35;35.2;28.6;-1.0;
14/02/2025 03:26:14;117;0;225.53;-4;20.56;6.20;626.9;11.60;74514;2838.245;-1800.209;1;235;400;403.2;24.3;23.7;29;28.9;28.6;-1.0;
14/02/2025 03:26:34;117;0;221.19;-4;20.09;2.68;624.6;11.60;74475;2838.244;-1800.211;1;235;400;403.2;24.3;23.7;35;35.2;28.6;-1.0;
14/02/2025 03:26:54;117;0;224.01;-4;20.26;6.44;622.3;11.60;74485;2838.243;-1800.214;1;235;400;401.6;24.3;23.7;35;35.6;28.6;-1.0;
14/02/2025 03:27:14;117;0;225.94;-4;21.47;6.54;619.8;11.60;74468;2838.241;-1800.216;1;235;400;403.2;24.3;23.7;35;35.6;28.6;-1.0;
14/02/2025 03:27:34;117;0;228.40;-4;21.12;6.40;617.1;11.60;74482;2838.240;-1800.219;1;235;400;403.2;24.3;23.7;35;35.6;28.6;-1.0;
14/02/2025 03:27:54;117;0;229.83;-4;20.49;6.48;614.2;11.60;74471;2838.239;-1800.223;1;235;400;403.2;24.3;23.7;33;32.0;28.6;-1.0;
14/02/2025 03:28:14;117;0;230.53;-4;21.17;5.16;611.4;11.60;74483;2838.237;-1800.226;1;235;400;398.4;24.3;23.7;33;33.4;28.6;-1.0;
14/02/2025 03:28:34;117;0;233.08;-4;19.86;4.95;608.3;11.60;74486;2838.236;-1800.230;1;235;400;403.2;24.3;24.4;31;32.0;28.6;-1.0;
14/02/2025 03:28:54;117;0;231.43;-4;19.10;4.73;605.5;11.60;74474;2838.235;-1800.233;1;235;400;401.6;24.3;24.6;33;32.9;28.6;-1.0;
14/02/2025 03:29:14;117;0;233.37;-4;20.25;5.28;602.6;11.60;74477;2838.233;-1800.237;1;235;400;403.2;24.3;24.6;30;29.8;28.6;-1.0;
14/02/2025 03:29:34;117;0;233.80;-4;18.44;3.12;599.6;11.60;74479;2838.232;-1800.241;1;234;400;401.6;23.9;23.7;30;29.3;28.6;-1.0;
14/02/2025 03:29:54;117;0;233.32;-4;20.55;3.09;596.6;11.60;74468;2838.231;-1800.244;1;234;400;403.2;23.9;23.1;30;29.3;28.6;-1.0;
14/02/2025 03:30:14;117;0;234.22;-4;20.98;3.20;593.4;11.60;74465;2838.229;-1800.248;1;234;400;403.2;23.9;23.1;30;29.3;28.6;-1.0;
14/02/2025 03:30:34;117;0;233.96;-4;21.44;3.01;590.2;11.60;74477;2838.228;-1800.252;1;234;400;401.6;23.9;23.3;30;29.3;28.6;-1.0;
14/02/2025 03:30:54;117;0;233.32;-4;21.35;3.09;587.1;11.60;74482;2838.227;-1800.255;1;234;400;403.2;23.9;23.1;30;29.3;28.6;-1.0;
14/02/2025 03:31:14;117;0;233.26;-4;21.43;3.20;584.1;11.60;74485;2838.225;-1800.259;1;234;400;401.6;23.9;23.1;30;29.3;28.6;-1.0;
14/02/2025 03:31:34;117;0;233.99;-4;21.27;3.12;581.0;11.60;74484;2838.224;-1800.263;1;234;400;403.2;23.9;23.1;30;29.3;28.6;-1.0;
14/02/2025 03:31:54;117;0;233.80;-4;21.52;3.09;578.0;11.60;74491;2838.223;-1800.266;1;234;400;403.2;23.9;23.9;28;28.0;28.6;-1.0;
14/02/2025 03:32:14;117;0;231.86;-4;20.66;2.50;574.9;11.60;74496;2838.221;-1800.270;1;234;400;403.2;23.9;24.0;31;31.6;28.6;-1.0;
14/02/2025 03:32:34;117;0;231.91;-4;20.54;4.37;572.0;11.60;74499;2838.220;-1800.273;1;234;400;403.2;23.9;24.0;31;32.0;28.6;-1.0;
14/02/2025 03:32:54;117;0;234.38;-4;20.22;4.39;569.1;11.60;74504;2838.219;-1800.277;1;234;400;401.6;23.9;24.0;28;28.0;28.6;-1.0;
14/02/2025 03:33:14;117;0;233.59;-4;20.04;2.36;566.2;11.60;74515;2838.218;-1800.280;1;234;400;400.0;23.9;24.0;28;27.5;28.6;-1.0;
14/02/2025 03:33:34;117;0;231.07;-4;19.91;2.31;563.3;11.60;74512;2838.216;-1800.284;1;234;400;403.2;23.9;24.0;32;32.0;28.6;-1.0;
14/02/2025 03:33:54;117;0;231.79;-4;20.18;4.96;560.5;11.60;74512;2838.215;-1800.287;1;234;400;403.2;23.9;24.0;30;29.8;28.6;-1.0;
14/02/2025 03:34:14;117;0;229.13;-4;20.23;3.44;557.4;11.60;74512;2838.213;-1800.290;1;234;400;403.2;23.9;24.0;34;33.8;28.6;-1.0;
14/02/2025 03:34:34;117;0;224.76;-4;20.00;5.91;554.5;11.60;74520;2838.212;-1800.294;1;234;400;401.6;23.9;24.0;34;34.3;28.6;-1.0;
14/02/2025 03:34:54;117;0;222.99;-4;20.48;5.71;551.5;11.60;74534;2838.210;-1800.297;1;234;400;401.6;23.9;24.0;34;34.3;28.6;-1.0;
14/02/2025 03:35:14;117;0;224.28;-4;20.43;5.92;548.4;11.70;74527;2838.208;-1800.300;1;234;400;401.6;23.9;24.0;34;34.3;28.6;-1.0;
14/02/2025 03:35:34;117;0;224.81;-4;20.64;5.58;545.2;11.70;74535;2838.206;-1800.303;1;234;400;401.6;23.9;23.9;34;34.3;28.6;-1.0;
14/02/2025 03:35:54;117;0;223.74;-4;21.87;5.67;542.1;11.70;74536;2838.204;-1800.307;1;234;400;403.2;23.9;24.0;34;34.3;28.6;-1.0;
14/02/2025 03:36:14;117;0;227.42;-4;20.10;5.92;538.7;11.70;74539;2838.202;-1800.310;1;234;400;400.0;23.9;24.0;34;34.3;28.6;-1.0;
14/02/2025 03:36:34;117;0;227.36;-4;19.66;5.54;535.7;11.70;74536;2838.201;-1800.314;1;234;400;401.6;23.9;24.0;34;34.3;28.6;-1.0;
14/02/2025 03:36:54;117;0;230.58;-4;20.45;5.77;532.6;11.70;74540;2838.199;-1800.317;1;234;400;401.6;23.9;24.0;32;31.1;28.6;-1.0;
14/02/2025 03:37:14;117;0;230.59;-4;20.15;4.55;529.6;11.70;74535;2838.198;-1800.321;1;234;400;403.2;23.9;24.0;32;32.9;28.6;-1.0;
14/02/2025 03:37:34;117;0;230.67;-4;20.63;5.02;526.4;11.70;74535;2838.196;-1800.325;1;234;400;403.2;23.9;24.0;32;33.4;28.6;-1.0;
14/02/2025 03:37:54;117;0;233.15;-4;20.21;4.93;523.0;11.70;74534;2838.194;-1800.329;1;234;400;403.2;23.9;24.0;30;29.3;28.6;-1.0;
14/02/2025 03:38:14;117;0;234.78;-4;19.68;4.61;519.9;11.70;74544;2838.193;-1800.332;1;234;400;401.6;23.9;24.0;28;28.0;28.6;-1.0;
14/02/2025 03:38:34;117;0;233.70;-4;20.47;2.41;516.8;11.70;74534;2838.192;-1800.336;1;234;400;401.6;23.9;24.0;30;29.8;28.6;-1.0;
14/02/2025 03:38:54;117;0;234.18;-4;20.03;3.73;513.6;11.70;74536;2838.190;-1800.340;1;234;400;401.6;23.9;24.0;30;30.7;28.6;-1.0;
14/02/2025 03:39:14;117;0;234.80;-4;20.13;3.69;510.6;11.70;74534;2838.189;-1800.344;1;234;400;403.2;23.9;24.0;27;26.6;28.6;-1.0;
14/02/2025 03:39:34;117;0;233.18;-4;19.70;1.98;507.5;11.70;74540;2838.188;-1800.348;1;233;400;403.2;23.9;24.0;29;28.9;28.6;-1.0;
14/02/2025 03:39:54;117;0;231.48;-4;19.88;3.17;504.6;11.80;74537;2838.186;-1800.351;1;233;400;403.2;23.9;24.0;29;29.3;28.6;-1.0;
14/02/2025 03:40:14;117;0;231.62;-4;19.58;3.30;501.8;11.80;74529;2838.185;-1800.355;1;233;400;401.6;23.9;24.0;29;29.3;28.6;-1.0;
14/02/2025 03:40:34;117;0;231.30;-4;19.93;3.20;498.8;11.80;74532;2838.183;-1800.358;1;233;400;403.2;23.9;24.0;29;29.3;28.6;-1.0;
14/02/2025 03:40:54;117;0;230.25;-4;19.78;3.21;495.9;11.80;74541;2838.182;-1800.362;1;233;400;403.2;23.9;24.0;31;31.1;28.6;-1.0;
14/02/2025 03:41:14;117;0;230.67;-4;20.03;4.08;493.1;11.80;74538;2838.181;-1800.365;1;233;400;401.6;23.9;24.0;29;28.4;28.6;-1.0;
14/02/2025 03:41:34;117;0;231.80;-4;20.15;2.56;490.2;11.80;74536;2838.179;-1800.368;1;233;400;403.2;23.9;24.0;29;28.4;28.6;-1.0;
14/02/2025 03:41:54;117;0;233.14;-4;19.93;2.43;487.3;11.80;74542;2838.178;-1800.372;1;233;400;403.2;23.9;24.0;29;28.4;28.6;-1.0;
14/02/2025 03:42:14;117;0;233.30;-4;20.00;2.49;484.4;11.80;74560;2838.177;-1800.375;1;233;400;403.2;23.9;24.0;27;27.1;28.6;-1.0;
14/02/2025 03:42:34;117;0;233.48;-4;19.98;1.88;481.6;11.80;74546;2838.176;-1800.379;1;233;400;403.2;23.9;24.0;27;27.1;28.6;-1.0;
14/02/2025 03:42:54;117;0;233.28;-4;19.92;1.96;478.7;11.80;74564;2838.174;-1800.382;1;233;400;400.0;23.9;24.0;27;27.1;28.6;-1.0;
14/02/2025 03:43:14;117;0;233.67;-4;19.89;1.92;475.7;11.80;74570;2838.173;-1800.386;1;233;400;401.6;23.9;24.0;27;27.1;28.6;-1.0;
14/02/2025 03:43:34;117;0;234.94;-4;19.84;1.87;472.8;11.80;74561;2838.172;-1800.390;1;233;400;401.6;23.9;24.0;25;24.4;28.6;-1.0;
14/02/2025 03:43:54;117;0;234.49;-4;19.71;0.45;469.9;11.90;74573;2838.171;-1800.393;1;233;400;401.6;23.9;24.0;25;24.4;28.6;-1.0;
14/02/2025 03:44:14;117;0;234.42;-4;19.65;0.40;467.1;11.80;74560;2838.170;-1800.397;1;233;400;403.2;23.9;24.0;25;24.4;28.6;-1.0;
14/02/2025 03:44:34;117;0;233.19;-4;19.48;0.46;464.2;11.90;74579;2838.168;-1800.400;1;233;400;403.2;23.9;24.0;28;28.0;28.6;-1.0;
14/02/2025 03:44:54;117;0;232.79;-4;19.58;2.70;461.3;11.90;74583;2838.167;-1800.404;1;233;400;403.2;23.9;24.0;28;28.4;28.6;-1.0;
14/02/2025 03:45:14;117;0;232.15;-4;19.65;2.63;458.4;11.90;74578;2838.166;-1800.407;1;233;400;403.2;23.9;24.0;28;28.4;28.6;-1.0;
14/02/2025 03:45:34;117;0;231.44;-4;19.68;2.65;455.6;11.90;74585;2838.164;-1800.411;1;233;400;403.2;23.9;24.0;28;28.4;28.6;-1.0;
14/02/2025 03:45:54;117;0;230.53;-4;19.51;2.72;452.7;11.90;74585;2838.163;-1800.414;1;233;400;403.2;23.9;24.0;30;29.8;28.6;-1.0;
14/02/2025 03:46:14;117;0;231.51;-4;19.62;3.62;449.9;11.90;74585;2838.162;-1800.418;1;233;400;401.6;23.9;24.0;28;27.5;28.6;-1.0;
14/02/2025 03:46:34;117;0;232.04;-4;19.45;2.04;447.2;11.90;74603;2838.160;-1800.421;1;233;400;403.2;23.9;24.0;28;27.5;28.6;-1.0;
14/02/2025 03:46:54;117;0;230.52;-4;19.87;2.10;444.6;11.90;74597;2838.159;-1800.424;1;233;400;403.2;23.9;24.0;28;27.1;28.6;-1.0;
14/02/2025 03:47:14;117;0;227.41;-4;19.47;2.13;441.9;11.90;74603;2838.158;-1800.427;1;232;400;403.2;23.9;24.0;31;31.1;28.6;-1.0;
14/02/2025 03:47:34;117;0;225.83;-4;19.46;4.39;439.3;12.00;74609;2838.156;-1800.430;1;232;400;403.2;23.9;24.0;31;31.1;28.6;-1.0;
14/02/2025 03:47:54;117;0;224.40;-4;19.57;4.25;436.6;12.00;74625;2838.155;-1800.433;1;232;400;401.6;23.9;24.0;31;31.6;28.6;-1.0;
14/02/2025 03:48:14;117;0;223.26;-4;19.56;4.17;434.0;12.00;74624;2838.153;-1800.436;1;232;400;401.6;23.9;24.0;33;32.9;28.6;-1.0;
14/02/2025 03:48:34;117;0;222.12;-4;19.62;5.71;431.2;12.00;74632;2838.151;-1800.439;1;232;400;403.2;23.9;24.0;33;33.8;28.6;-1.0;
14/02/2025 03:48:54;117;0;221.10;-4;19.67;5.45;428.6;12.00;74640;2838.150;-1800.441;1;232;400;403.2;23.9;24.0;33;33.8;28.6;-1.0;
14/02/2025 03:49:14;117;0;221.61;-4;19.87;5.69;425.7;12.00;74642;2838.148;-1800.444;1;232;400;403.2;23.9;24.0;33;33.8;28.6;-1.0;
14/02/2025 03:49:34;117;0;222.35;-4;19.75;5.61;422.9;12.00;74644;2838.146;-1800.447;1;232;400;403.2;23.9;24.0;33;33.8;28.6;-1.0;
14/02/2025 03:49:54;117;0;223.22;-4;19.82;5.57;420.1;12.10;74644;2838.145;-1800.450;1;232;400;401.6;23.9;24.0;33;33.8;28.6;-1.0;
14/02/2025 03:50:14;117;0;224.30;-4;19.73;5.55;417.3;12.10;74649;2838.143;-1800.453;1;232;400;403.2;23.9;24.0;33;33.8;28.6;-1.0;
14/02/2025 03:50:34;117;0;225.39;-4;19.92;5.54;414.4;12.10;74658;2838.142;-1800.456;1;232;400;403.2;23.9;24.0;33;34.3;28.7;-1.0;
14/02/2025 03:50:54;117;0;226.30;-4;19.90;5.55;411.7;12.10;74655;2838.140;-1800.459;1;232;400;403.2;23.9;24.0;31;29.8;28.6;-1.0;
14/02/2025 03:51:14;117;0;225.84;-4;19.83;4.91;408.7;12.10;74660;2838.138;-1800.463;1;232;400;403.2;23.9;24.0;31;32.5;28.6;-1.0;
14/02/2025 03:51:34;117;0;226.66;-4;19.93;4.80;405.9;12.20;74664;2838.137;-1800.466;1;232;400;403.2;23.9;24.0;31;32.5;28.6;-1.0;
14/02/2025 03:51:54;117;0;227.47;-4;19.80;4.86;403.0;12.20;74661;2838.135;-1800.469;1;232;400;403.2;23.9;24.0;31;32.5;28.6;-1.0;
14/02/2025 03:52:14;117;0;230.33;-4;19.82;4.78;400.1;12.20;74666;2838.134;-1800.473;1;232;400;403.2;23.9;24.0;29;28.9;28.6;-1.0;
14/02/2025 03:52:34;117;0;231.80;-4;19.69;2.91;397.2;12.20;74672;2838.133;-1800.476;1;232;400;401.6;23.9;24.0;27;27.1;28.6;-1.0;
14/02/2025 03:52:54;117;0;231.71;-4;19.63;1.77;394.3;12.20;74678;2838.131;-1800.479;1;232;400;403.2;23.9;24.0;27;26.6;28.6;-1.0;
14/02/2025 03:53:14;117;0;230.73;-4;19.46;1.71;391.5;12.20;74675;2838.130;-1800.483;1;232;400;401.6;23.9;23.9;27;26.6;28.6;-1.0;
14/02/2025 03:53:34;117;0;229.06;-4;19.39;1.75;388.7;12.30;74683;2838.128;-1800.486;1;232;400;403.2;23.9;24.0;30;29.8;28.6;-1.0;
14/02/2025 03:53:54;117;0;229.32;-4;19.50;3.66;385.7;12.30;74686;2838.127;-1800.490;1;232;400;403.2;23.9;24.0;30;30.7;28.6;-1.0;
14/02/2025 03:54:14;117;0;229.93;-4;19.54;3.62;382.8;12.30;74685;2838.125;-1800.493;1;232;400;403.2;23.9;24.0;30;30.2;28.6;-1.0;
14/02/2025 03:54:34;117;0;230.83;-4;19.54;3.73;380.0;12.30;74699;2838.124;-1800.497;1;232;400;403.2;23.9;24.0;28;28.0;28.6;-1.0;
14/02/2025 03:54:54;117;0;231.69;-4;19.32;2.09;377.2;12.30;74702;2838.123;-1800.500;1;232;400;404.8;23.9;24.0;28;28.0;28.6;-1.0;
14/02/2025 03:55:14;117;0;231.62;-4;19.46;2.34;374.3;12.30;74701;2838.121;-1800.504;1;232;400;403.2;23.9;24.0;28;28.0;28.6;-1.0;
14/02/2025 03:55:34;117;0;231.97;-4;19.24;2.37;371.4;12.30;74703;2838.120;-1800.507;1;232;400;403.2;23.9;24.0;26;26.2;28.6;-1.0;
14/02/2025 03:55:54;117;0;230.92;-4;19.31;1.16;368.6;12.40;74721;2838.118;-1800.511;1;232;400;401.6;23.9;24.0;28;28.0;28.6;-1.0;
14/02/2025 03:56:14;117;0;231.07;-4;19.39;2.58;365.8;12.40;74697;2838.117;-1800.514;1;232;400;403.2;23.9;24.0;28;28.4;28.6;-1.0;
14/02/2025 03:56:34;117;0;231.36;-4;19.52;2.56;362.9;12.40;74712;2838.116;-1800.518;1;232;400;401.6;23.9;24.0;28;28.4;28.6;-1.0;
14/02/2025 03:56:54;117;0;230.49;-4;19.40;2.60;360.1;12.40;74714;2838.114;-1800.521;1;232;400;403.2;23.9;24.0;28;28.4;28.6;-1.0;
14/02/2025 03:57:14;117;0;230.22;-4;19.43;2.42;357.4;12.40;74721;2838.113;-1800.524;1;231;400;403.2;23.9;24.0;28;28.4;28.6;-1.0;
14/02/2025 03:57:34;117;0;231.69;-4;19.52;2.54;354.6;12.40;74728;2838.111;-1800.528;1;231;400;401.6;23.9;24.0;25;24.8;28.6;-1.0;
14/02/2025 03:57:55;117;0;230.64;-4;19.22;0.65;351.8;12.50;74738;2838.110;-1800.531;1;231;400;401.6;23.9;24.0;27;27.1;28.7;-1.0;
14/02/2025 03:58:15;117;0;231.45;-4;19.26;2.02;349.1;12.50;74738;2838.109;-1800.534;1;231;400;403.2;23.9;24.2;27;27.1;28.6;-1.0;
14/02/2025 03:58:35;117;0;231.51;-4;19.31;2.03;346.4;12.50;74744;2838.107;-1800.538;1;231;400;403.2;23.9;24.0;25;24.8;28.6;-1.0;
14/02/2025 03:58:55;117;0;227.51;-4;19.08;0.80;343.7;12.50;74757;2838.106;-1800.541;1;231;400;403.2;23.9;24.0;29;28.9;28.6;-1.0;
14/02/2025 03:59:15;117;0;226.11;-4;19.27;3.30;341.0;12.50;74765;2838.104;-1800.544;1;231;400;403.2;23.9;24.0;29;29.8;28.6;-1.0;
14/02/2025 03:59:35;117;0;225.23;-4;19.57;3.26;338.2;12.60;74763;2838.103;-1800.547;1;231;400;403.2;23.9;24.0;29;29.8;28.6;-1.0;
14/02/2025 03:59:55;117;0;225.90;-4;19.55;3.12;335.4;12.60;74774;2838.101;-1800.550;1;231;400;403.2;23.9;24.2;29;29.8;28.6;-1.0;
14/02/2025 04:00:15;117;0;225.23;-4;19.55;3.36;332.6;12.60;74777;2838.100;-1800.553;1;231;400;403.2;23.9;24.0;31;31.1;28.6;-1.0;
14/02/2025 04:00:35;117;0;224.78;-4;19.35;4.27;329.7;12.60;74786;2838.098;-1800.556;1;231;400;403.2;23.9;24.0;31;31.6;28.6;-1.0;
14/02/2025 04:00:55;117;0;224.81;-4;19.42;4.29;326.8;12.60;74790;2838.096;-1800.560;1;231;400;403.2;23.9;24.0;31;31.6;28.6;-1.0;
14/02/2025 04:01:15;117;0;224.91;-4;19.45;4.11;324.0;12.70;74797;2838.095;-1800.563;1;231;400;403.2;23.9;24.0;31;31.6;28.6;-1.0;
14/02/2025 04:01:35;117;0;226.00;-4;19.41;4.30;321.1;12.70;74794;2838.093;-1800.566;1;231;400;403.2;23.9;24.0;31;31.6;28.6;-1.0;
14/02/2025 04:01:55;117;0;227.57;-4;19.50;4.24;318.1;12.70;74800;2838.091;-1800.570;1;231;400;404.8;23.9;24.0;31;31.6;28.6;-1.0;
14/02/2025 04:02:15;117;0;229.34;-4;19.47;4.27;315.3;12.70;74803;2838.090;-1800.573;1;231;400;401.6;23.9;24.0;28;28.0;28.6;-1.0;
14/02/2025 04:02:35;117;0;230.54;-4;19.32;2.29;312.3;12.70;74823;2838.088;-1800.577;1;231;400;404.8;23.9;24.0;28;27.5;28.6;-1.0;
14/02/2025 04:02:55;117;0;230.97;-4;19.26;2.34;309.5;12.80;74822;2838.087;-1800.580;1;231;400;403.2;23.9;23.9;26;26.2;28.6;-1.0;
14/02/2025 04:03:15;117;0;229.85;-4;19.08;1.28;306.7;12.80;74822;2838.085;-1800.584;1;231;400;403.2;23.9;24.0;26;25.7;28.6;-1.0;
14/02/2025 04:03:35;117;0;228.25;-4;18.93;1.18;303.8;12.80;74834;2838.084;-1800.587;1;231;400;403.2;23.5;23.6;29;29.3;28.6;-1.0;
14/02/2025 04:03:55;117;0;228.68;-4;19.80;3.16;301.0;12.80;74830;2838.082;-1800.590;1;231;400;403.2;23.5;23.3;29;29.8;28.6;-1.0;
14/02/2025 04:04:15;117;0;229.61;-4;20.27;3.13;298.1;12.80;74824;2838.081;-1800.594;1;231;400;403.2;23.5;23.3;27;27.1;28.6;-1.0;
14/02/2025 04:04:35;117;0;228.70;-4;20.16;1.49;295.1;12.90;74837;2838.079;-1800.597;1;231;400;403.2;23.5;23.3;27;26.2;28.6;-1.0;
