Timestamp;NavState;SecurityLevel;Heading;Declination;Pitch;Roll;Depth;Temperature;Pa;Lat;Lon;DeadReckoning;DesiredH;BallastCmd;BallastPos;LinCmd;LinPos;AngCmd;AngPos;Voltage;Altitude;
19/02/2025 22:51:05;119;0;207.45;-4;-54.71;-10.61;0.4;17.70;75857;2837.401;-1801.202;0;320;500;509.7;100.0;100.7;0;-0.5;27.6;-1.0;
19/02/2025 22:51:15;116;0;221.28;-4;-61.59;-20.24;0.5;17.70;75864;2837.403;-1801.205;0;320;500;508.1;100.0;100.7;0;-0.5;27.6;-1.0;
19/02/2025 22:51:43;116;0;246.58;-4;-53.80;-10.18;0.4;17.80;75884;2837.405;-1801.206;0;320;500;508.1;100.0;100.6;0;-0.5;27.6;-1.0;
19/02/2025 22:52:03;116;0;262.43;-4;-57.15;-9.39;0.3;17.90;75881;2837.404;-1801.207;0;-9999;500;508.1;100.0;100.6;0;-0.5;27.6;-1.0;
19/02/2025 22:52:22;116;0;265.34;-4;-62.92;-19.98;0.3;17.90;75888;2837.407;-1801.209;0;320;500;509.7;100.0;100.6;0;-0.5;27.6;-1.0;
19/02/2025 22:53:24;116;0;240.29;-4;-54.03;-12.35;0.4;18.10;75915;2837.410;-1801.214;0;321;500;508.1;100.0;100.7;0;-0.5;27.6;-1.0;
19/02/2025 22:54:37;116;0;266.41;-4;-52.48;-3.60;0.3;18.40;75932;2837.417;-1801.214;0;321;500;508.1;100.0;100.6;0;-0.5;27.6;-1.0;
19/02/2025 22:56:18;116;0;222.74;-4;-58.06;-10.75;0.5;18.80;75963;2837.421;-1801.215;0;-9999;500;509.7;100.0;100.6;0;-0.5;27.6;-1.0;
19/02/2025 22:56:29;116;0;233.69;-4;-43.29;-10.94;0.3;18.80;75966;2837.422;-1801.214;0;319;500;509.7;100.0;100.6;0;-0.5;27.6;-1.0;
19/02/2025 22:56:49;116;0;234.62;-4;-59.64;-13.71;0.3;18.90;75970;2837.423;-1801.217;0;318;500;508.1;100.0;100.7;0;-0.5;27.6;-1.0;
19/02/2025 22:56:59;116;0;226.55;-4;-47.74;-6.65;0.3;19.00;75980;2837.424;-1801.216;0;319;500;509.7;100.0;100.7;0;-0.5;27.6;-1.0;
19/02/2025 22:57:19;116;0;232.95;-4;-49.18;-3.72;0.3;19.10;75986;2837.425;-1801.216;0;318;500;508.1;100.0;100.6;0;-0.5;27.6;-1.0;
19/02/2025 22:57:40;116;0;220.34;-4;-52.54;-15.11;0.3;19.10;75985;2837.427;-1801.217;0;318;500;509.7;100.0;100.6;0;-0.5;27.6;-1.0;
19/02/2025 22:57:48;116;0;236.59;-4;-54.78;-8.94;0.3;19.20;75994;2837.428;-1801.216;0;318;500;509.7;100.0;100.6;0;-0.5;27.6;-1.0;
19/02/2025 22:58:08;116;0;240.37;-4;-54.86;-16.55;0.4;19.30;75997;2837.430;-1801.218;0;317;500;509.7;100.0;100.6;0;-0.5;27.6;-1.0;
19/02/2025 22:58:28;116;0;222.05;-4;-47.48;2.40;0.3;19.30;75999;2837.430;-1801.217;0;317;500;508.1;100.0;100.6;0;-0.5;27.6;-1.0;
19/02/2025 22:58:48;116;0;198.76;-4;-50.39;-9.45;0.4;19.40;76006;2837.432;-1801.217;0;317;500;508.1;100.0;100.7;0;-0.5;27.6;-1.0;
19/02/2025 22:59:08;116;0;239.36;-4;-68.02;-29.83;0.4;19.50;76012;2837.432;-1801.216;0;317;500;509.7;100.0;100.6;0;-0.5;27.6;-1.0;
19/02/2025 22:59:25;116;0;248.35;-4;-54.99;-5.83;0.3;19.50;76009;2837.431;-1801.215;0;-9999;500;509.7;100.0;100.6;0;-0.5;27.6;-1.0;
19/02/2025 22:59:45;116;0;224.95;-4;-49.10;-13.43;0.4;19.60;76014;2837.434;-1801.216;0;98;500;509.7;100.0;100.6;0;-0.5;27.6;-1.0;
19/02/2025 23:00:05;116;0;212.37;-4;-45.80;-17.31;0.2;19.60;76027;2837.435;-1801.216;0;98;500;508.1;100.0;100.6;0;-0.5;27.6;-1.0;
19/02/2025 23:00:16;116;0;247.08;-4;-53.22;-20.33;0.4;19.70;76031;2837.434;-1801.216;0;98;500;508.1;100.0;100.6;0;-0.5;27.6;-1.0;
19/02/2025 23:00:36;110;0;235.64;-4;-61.06;-16.06;-0.1;19.70;76029;2837.434;-1801.216;0;98;-50;393.5;100.0;99.9;-9;-9.0;27.6;-1.0;
19/02/2025 23:00:46;110;0;226.32;-4;-46.44;-16.96;0.0;19.70;76382;2837.434;-1801.216;1;98;-50;243.5;100.0;99.9;-9;-9.5;27.6;-1.0;
19/02/2025 23:00:56;110;0;222.91;-4;-62.03;-20.02;0.4;19.70;76621;2837.434;-1801.216;1;98;-50;82.3;100.0;99.7;-9;-9.5;27.6;-1.0;
19/02/2025 23:01:06;110;0;218.74;-4;-66.30;-18.21;0.8;19.80;76953;2837.434;-1801.216;1;98;-50;-48.4;100.0;99.9;-9;-9.0;27.6;-1.0;
19/02/2025 23:01:16;110;0;233.84;-4;-66.29;-13.35;1.3;19.80;77219;2837.434;-1801.216;1;98;-50;-48.4;43.2;43.2;-9;-9.0;27.6;-1.0;
19/02/2025 23:01:36;100;0;259.99;-4;-29.91;-17.07;4.8;19.80;77195;2837.433;-1801.219;1;98;-50;-46.8;43.2;42.9;-9;-9.5;27.6;-1.0;
19/02/2025 23:01:56;100;0;267.24;-4;-20.07;-16.68;7.7;19.90;77204;2837.433;-1801.223;1;98;-50;-43.5;43.2;42.9;70;69.9;27.6;-1.0;
19/02/2025 23:02:16;100;0;264.63;-4;-23.30;23.50;10.4;19.90;77216;2837.432;-1801.227;1;98;-50;-43.5;42.2;42.3;70;70.4;27.6;-1.0;
19/02/2025 23:02:36;100;0;258.77;-4;-21.35;23.99;13.2;19.80;77214;2837.432;-1801.230;1;98;-50;-43.5;42.2;42.1;70;70.4;27.6;0.0;
19/02/2025 23:02:56;100;0;248.48;-4;-22.89;23.97;16.1;19.80;77220;2837.430;-1801.234;1;98;-50;-43.5;41.3;41.4;70;70.4;27.6;0.0;
19/02/2025 23:03:16;100;0;239.03;-4;-19.95;23.89;18.9;19.80;77223;2837.428;-1801.237;1;98;-50;-43.5;41.3;41.1;70;70.4;27.6;0.0;
19/02/2025 23:03:36;100;0;225.62;-4;-19.74;24.09;21.4;19.80;77218;2837.426;-1801.240;1;98;-50;-43.5;41.3;41.1;70;70.4;27.6;0.0;
19/02/2025 23:03:56;100;0;213.40;-4;-19.00;23.82;24.0;19.80;77219;2837.423;-1801.242;1;98;-50;-43.5;41.6;41.7;70;70.4;27.6;0.0;
19/02/2025 23:04:16;100;0;205.32;-4;-19.45;23.68;26.5;19.80;77230;2837.420;-1801.243;1;98;-50;-43.5;41.6;41.8;70;70.4;27.6;0.0;
19/02/2025 23:04:36;100;0;193.83;-4;-19.62;23.69;28.8;19.80;77228;2837.417;-1801.244;1;98;-50;-43.5;41.6;41.7;70;70.4;27.6;0.0;
19/02/2025 23:04:56;100;0;185.37;-4;-19.53;23.99;31.3;19.80;77222;2837.414;-1801.244;1;98;-50;-43.5;41.6;41.8;70;70.4;27.6;0.0;
19/02/2025 23:05:16;100;0;174.42;-4;-19.33;23.85;33.6;19.80;77234;2837.411;-1801.243;1;98;-50;-43.5;41.6;41.8;70;70.4;27.6;0.0;
19/02/2025 23:05:36;100;0;165.05;-4;-19.23;23.83;36.0;19.80;77231;2837.407;-1801.242;1;98;-50;-43.5;41.6;41.7;70;70.4;27.6;0.0;
19/02/2025 23:05:56;100;0;152.21;-4;-19.18;23.88;38.4;19.80;77232;2837.405;-1801.241;1;97;-50;-43.5;41.6;41.7;70;70.4;27.6;0.0;
19/02/2025 23:06:16;100;0;143.54;-4;-19.40;23.85;40.8;19.80;77237;2837.402;-1801.238;1;97;-50;-41.9;41.6;41.8;70;70.4;27.6;0.0;
19/02/2025 23:06:36;100;0;133.03;-4;-19.24;23.81;43.1;19.80;77240;2837.400;-1801.236;1;97;-50;-43.5;41.6;41.7;57;56.9;27.6;0.0;
19/02/2025 23:06:56;100;0;123.95;-4;-18.46;16.35;45.4;19.80;77246;2837.398;-1801.233;1;97;-50;-43.5;42.1;42.3;44;44.2;27.6;0.0;
19/02/2025 23:07:16;100;0;116.59;-4;-19.50;9.95;47.6;19.80;77238;2837.396;-1801.229;1;97;-50;-43.5;42.1;42.4;33;32.9;27.6;0.0;
19/02/2025 23:07:36;100;0;110.94;-4;-19.35;4.27;49.9;19.80;77249;2837.395;-1801.226;1;97;-50;-43.5;42.1;42.4;22;22.1;27.6;0.0;
19/02/2025 23:07:56;100;0;108.76;-4;-18.90;-1.04;52.2;19.80;77248;2837.394;-1801.223;1;97;-50;-43.5;42.4;42.4;22;21.7;27.6;0.0;
19/02/2025 23:08:16;100;0;106.16;-4;-18.88;-1.06;54.5;19.80;77249;2837.393;-1801.219;1;97;-50;-43.5;42.8;42.9;18;18.1;27.6;0.0;
19/02/2025 23:08:36;100;0;103.03;-4;-19.88;-3.11;56.8;19.80;77248;2837.392;-1801.216;1;97;-50;-46.8;42.8;43.0;15;14.9;27.6;0.0;
19/02/2025 23:08:56;100;0;102.16;-4;-20.33;-4.47;59.2;19.80;77251;2837.392;-1801.212;1;97;-50;-43.5;42.8;43.0;15;14.9;27.6;0.0;
19/02/2025 23:09:16;100;0;100.30;-4;-19.95;-4.44;61.7;19.80;77254;2837.391;-1801.208;1;97;-50;-43.5;42.8;43.0;15;14.9;27.6;0.0;
19/02/2025 23:09:36;100;0;100.11;-4;-19.84;-4.42;64.1;19.80;77264;2837.390;-1801.205;1;97;-50;-41.9;42.8;43.0;15;14.9;27.6;0.0;
19/02/2025 23:09:56;100;0;100.30;-4;-19.68;-4.51;66.6;19.80;77260;2837.390;-1801.201;1;97;-50;-43.5;42.8;42.9;15;14.9;27.6;0.0;
19/02/2025 23:10:16;100;0;100.05;-4;-19.87;-4.50;68.9;19.80;77264;2837.389;-1801.198;1;97;-50;-41.9;42.8;43.0;15;14.9;27.6;0.0;
19/02/2025 23:10:36;100;0;97.60;-4;-19.69;-4.45;71.3;19.80;77278;2837.389;-1801.194;1;97;-50;-43.5;42.8;43.0;15;14.9;27.6;0.0;
19/02/2025 23:10:56;100;0;93.84;-4;-19.58;-4.58;73.6;19.80;77265;2837.388;-1801.191;1;97;-50;-43.5;42.8;43.0;15;14.9;27.6;0.0;
19/02/2025 23:11:16;100;0;92.77;-4;-19.70;-4.54;75.8;19.80;77264;2837.388;-1801.187;1;97;-50;-43.5;42.8;43.0;15;14.9;27.6;0.0;
19/02/2025 23:11:36;100;0;92.06;-4;-19.21;-4.60;78.1;19.80;77266;2837.388;-1801.184;1;97;-50;-43.5;42.8;43.0;15;14.9;27.6;0.0;
19/02/2025 23:11:56;100;0;93.72;-4;-20.13;-4.60;80.4;19.80;77266;2837.388;-1801.180;1;97;-50;-45.2;42.8;43.0;15;14.4;27.6;0.0;
19/02/2025 23:12:16;100;0;93.27;-4;-19.39;-4.47;83.0;19.80;77270;2837.387;-1801.176;1;97;-50;-43.5;42.8;42.9;15;14.4;27.6;0.0;
19/02/2025 23:12:36;100;0;97.08;-4;-19.52;-4.70;85.6;19.80;77260;2837.387;-1801.172;1;97;-50;-43.5;42.8;43.0;15;14.4;27.6;0.0;
19/02/2025 23:12:56;100;0;90.06;-4;-20.34;-4.66;87.9;19.80;77266;2837.387;-1801.168;1;97;-50;-43.5;42.8;43.0;13;12.6;27.6;0.0;
19/02/2025 23:13:16;100;0;90.97;-4;-20.48;-5.80;90.6;19.80;77266;2837.387;-1801.164;1;97;-50;-45.2;42.8;43.0;13;12.2;27.6;0.0;
19/02/2025 23:13:36;100;0;90.10;-4;-19.73;-5.90;93.2;19.70;77264;2837.386;-1801.160;1;97;-50;-43.5;42.8;43.0;13;12.6;27.6;0.0;
19/02/2025 23:13:56;100;0;92.20;-4;-19.11;-5.60;95.6;19.70;77275;2837.386;-1801.157;1;97;-50;-43.5;42.8;43.0;13;12.6;27.6;0.0;
19/02/2025 23:14:16;100;0;92.22;-4;-18.88;-5.31;98.0;19.70;77272;2837.386;-1801.153;1;97;-50;-41.9;43.1;43.2;13;12.2;27.6;0.0;
19/02/2025 23:14:36;100;0;93.78;-4;-20.16;-5.49;100.1;19.70;77263;2837.386;-1801.150;1;97;-50;-43.5;43.1;43.4;13;12.2;27.6;0.0;
19/02/2025 23:14:56;100;0;95.81;-4;-19.90;-5.88;102.1;19.70;77260;2837.385;-1801.147;1;97;-50;-43.5;43.1;43.4;13;12.2;27.6;0.0;
19/02/2025 23:15:16;100;0;97.85;-4;-20.50;-5.49;103.9;19.70;77244;2837.385;-1801.144;1;97;-70;-71.0;43.1;43.4;13;12.6;27.6;0.0;
19/02/2025 23:15:36;100;0;99.95;-4;-19.47;-5.53;105.9;19.70;77308;2837.384;-1801.141;1;97;-90;-91.9;43.1;43.4;13;12.6;27.6;0.0;
19/02/2025 23:15:56;100;0;100.27;-4;-19.12;-5.47;108.0;19.70;77363;2837.384;-1801.138;1;97;-90;-93.5;43.1;43.4;13;12.6;27.6;0.0;
19/02/2025 23:16:16;100;0;103.12;-4;-19.38;-5.49;110.3;19.70;77344;2837.383;-1801.134;1;97;-90;-95.2;43.1;43.4;16;15.8;27.6;0.0;
19/02/2025 23:16:36;100;0;113.02;-4;-19.53;-3.37;112.7;19.70;77327;2837.382;-1801.131;1;97;-90;-93.5;43.1;43.4;27;27.5;27.6;0.0;
19/02/2025 23:16:56;100;0;110.86;-4;-20.00;2.35;115.2;19.60;77297;2837.381;-1801.127;1;97;-90;-95.2;43.1;43.4;22;22.1;27.6;0.0;
19/02/2025 23:17:16;100;0;103.64;-4;-20.06;-0.72;117.7;19.60;77273;2837.380;-1801.123;1;97;-90;-93.5;43.1;43.3;15;14.4;27.6;0.0;
19/02/2025 23:17:36;100;0;97.86;-4;-19.38;-4.49;120.3;19.60;77260;2837.379;-1801.119;1;97;-90;-93.5;43.1;43.3;15;14.4;27.6;0.0;
19/02/2025 23:17:56;100;0;95.80;-4;-19.33;-4.44;122.7;19.50;77235;2837.379;-1801.116;1;97;-90;-95.2;43.1;43.3;15;14.4;27.6;0.0;
19/02/2025 23:18:16;100;0;95.14;-4;-19.21;-4.49;125.3;19.50;77225;2837.378;-1801.112;1;97;-90;-93.5;43.1;43.4;15;14.4;27.6;0.0;
19/02/2025 23:18:36;100;0;93.85;-4;-19.59;-4.39;128.0;19.50;77218;2837.378;-1801.108;1;97;-90;-93.5;43.1;43.4;15;14.4;27.6;0.0;
19/02/2025 23:18:56;100;0;93.54;-4;-19.56;-4.44;130.5;19.50;77213;2837.378;-1801.104;1;97;-90;-93.5;43.1;43.4;15;14.0;27.6;0.0;
19/02/2025 23:19:16;100;0;91.80;-4;-19.64;-4.32;133.2;19.40;77216;2837.377;-1801.100;1;97;-90;-93.5;43.1;43.3;15;14.4;27.6;0.0;
19/02/2025 23:19:36;100;0;88.63;-4;-19.88;-4.30;136.0;19.40;77188;2837.377;-1801.095;1;97;-90;-96.8;43.1;43.4;12;12.2;27.6;0.0;
19/02/2025 23:19:56;100;0;85.87;-4;-19.42;-5.78;138.7;19.40;77181;2837.378;-1801.091;1;97;-90;-95.2;43.1;43.4;12;11.3;27.6;0.0;
19/02/2025 23:20:16;100;0;84.69;-4;-19.19;-5.74;141.3;19.30;77168;2837.378;-1801.087;1;97;-90;-93.5;43.1;43.4;9;9.0;27.6;0.0;
19/02/2025 23:20:36;100;0;84.09;-4;-19.17;-7.13;143.9;19.30;77156;2837.378;-1801.083;1;97;-90;-93.5;43.1;43.4;9;8.6;27.6;0.0;
19/02/2025 23:20:56;100;0;86.05;-4;-18.66;-7.19;146.3;19.30;77154;2837.378;-1801.079;1;97;-90;-93.5;43.5;43.4;11;10.8;27.6;0.0;
19/02/2025 23:21:16;100;0;90.87;-4;-18.91;-5.74;148.7;19.20;77147;2837.378;-1801.075;1;97;-90;-96.8;43.8;43.9;13;13.1;27.6;0.0;
19/02/2025 23:21:36;100;0;94.75;-4;-20.39;-4.70;151.3;19.20;77125;2837.378;-1801.071;1;97;-90;-96.8;43.8;44.2;13;13.5;27.6;0.0;
19/02/2025 23:21:56;100;0;98.06;-4;-20.74;-4.74;154.2;19.20;77119;2837.377;-1801.067;1;97;-90;-93.5;43.8;44.2;13;13.5;27.6;0.0;
19/02/2025 23:22:16;100;0;99.56;-4;-20.81;-4.73;157.1;19.10;77101;2837.376;-1801.063;1;97;-90;-93.5;43.8;44.2;13;13.5;27.6;0.0;
19/02/2025 23:22:36;100;0;96.36;-4;-20.50;-4.68;160.1;19.10;77095;2837.376;-1801.059;1;97;-90;-93.5;43.8;44.2;13;13.5;27.6;0.0;
19/02/2025 23:22:56;100;0;101.69;-4;-21.52;-4.66;163.1;19.10;77067;2837.375;-1801.055;1;97;-90;-95.2;43.8;44.2;13;13.5;27.6;0.0;
19/02/2025 23:23:16;100;0;102.06;-4;-21.22;-4.65;166.3;19.00;77048;2837.374;-1801.050;1;97;-90;-95.2;43.8;44.2;13;13.5;27.6;0.0;
19/02/2025 23:23:36;100;0;102.20;-4;-21.16;-4.57;169.5;19.00;77029;2837.373;-1801.046;1;97;-90;-95.2;43.8;44.2;15;14.9;27.6;0.0;
19/02/2025 23:23:56;100;0;101.69;-4;-21.02;-3.80;172.7;18.90;77017;2837.372;-1801.041;1;97;-90;-95.2;43.8;44.3;15;15.3;27.6;0.0;
19/02/2025 23:24:16;100;0;103.82;-4;-20.92;-3.75;176.0;18.90;77012;2837.371;-1801.036;1;97;-90;-96.8;43.8;44.2;15;15.3;27.6;0.0;
19/02/2025 23:24:36;100;0;102.25;-4;-20.96;-3.84;179.3;18.80;76989;2837.370;-1801.032;1;97;-90;-95.2;43.8;44.3;15;15.3;27.6;0.0;
19/02/2025 23:24:56;100;0;101.85;-4;-21.31;-3.77;182.7;18.80;76991;2837.369;-1801.027;1;97;-90;-95.2;43.8;44.2;15;15.3;27.6;0.0;
19/02/2025 23:25:16;100;0;102.27;-4;-20.76;-3.75;186.1;18.80;76970;2837.368;-1801.022;1;97;-90;-93.5;43.8;44.2;15;15.3;27.6;0.0;
19/02/2025 23:25:36;100;0;102.33;-4;-20.58;-3.85;189.4;18.70;76963;2837.367;-1801.017;1;97;-90;-95.2;43.8;44.3;15;15.3;27.6;0.0;
19/02/2025 23:25:56;100;0;97.22;-4;-20.40;-3.87;192.7;18.70;76948;2837.367;-1801.012;1;97;-90;-95.2;43.8;44.3;15;15.3;27.6;0.0;
19/02/2025 23:26:16;100;0;96.94;-4;-20.35;-3.83;195.9;18.60;76942;2837.366;-1801.008;1;97;-90;-93.5;43.8;44.3;15;15.3;27.6;0.0;
19/02/2025 23:26:36;100;0;96.66;-4;-20.48;-3.93;199.3;18.60;76932;2837.366;-1801.003;1;97;-90;-95.2;43.8;44.2;15;15.3;27.6;0.0;
19/02/2025 23:26:56;100;0;95.87;-4;-20.41;-3.88;202.5;18.50;76921;2837.365;-1800.998;1;97;-90;-95.2;43.8;44.2;15;15.3;27.6;0.0;
19/02/2025 23:27:16;100;0;94.50;-4;-20.49;-3.91;206.0;18.50;76906;2837.365;-1800.992;1;97;-90;-93.5;43.8;44.2;15;15.3;27.6;0.0;
19/02/2025 23:27:36;100;0;91.98;-4;-20.45;-3.89;209.4;18.50;76910;2837.364;-1800.987;1;97;-90;-95.2;43.8;44.2;15;15.3;27.6;0.0;
19/02/2025 23:27:56;100;0;94.68;-4;-20.52;-3.91;212.8;18.40;76889;2837.364;-1800.983;1;97;-90;-95.2;43.8;44.2;15;15.3;27.6;0.0;
19/02/2025 23:28:16;100;0;95.39;-4;-20.23;-3.96;216.1;18.40;76891;2837.363;-1800.978;1;97;-90;-95.2;43.8;44.2;15;14.9;27.6;0.0;
19/02/2025 23:28:36;100;0;97.66;-4;-20.36;-3.82;219.5;18.30;76866;2837.363;-1800.973;1;97;-90;-93.5;43.8;44.2;15;15.3;27.6;0.0;
19/02/2025 23:28:56;100;0;98.11;-4;-20.47;-3.92;222.8;18.30;76861;2837.362;-1800.968;1;97;-90;-95.2;43.8;44.2;15;15.3;27.6;0.0;
19/02/2025 23:29:16;100;0;95.76;-4;-20.65;-3.90;226.1;18.20;76843;2837.361;-1800.963;1;97;-90;-95.2;43.8;44.2;15;15.3;27.6;0.0;
19/02/2025 23:29:36;100;0;96.24;-4;-20.54;-3.84;229.5;18.20;76842;2837.361;-1800.958;1;97;-90;-91.9;43.8;44.2;15;15.3;27.6;0.0;
19/02/2025 23:29:56;100;0;95.92;-4;-20.84;-3.80;232.9;18.20;76836;2837.360;-1800.953;1;97;-90;-95.2;43.8;44.2;15;15.3;27.6;0.0;
19/02/2025 23:30:16;100;0;94.29;-4;-20.97;-3.80;236.5;18.10;76832;2837.360;-1800.948;1;97;-90;-95.2;43.8;44.3;15;15.3;27.6;0.0;
19/02/2025 23:30:36;100;0;90.76;-4;-21.00;-3.81;240.0;18.10;76823;2837.360;-1800.943;1;97;-90;-95.2;43.8;44.2;13;12.6;27.6;0.0;
19/02/2025 23:30:57;100;0;89.73;-4;-20.93;-5.31;243.5;18.00;76819;2837.360;-1800.938;1;97;-90;-95.2;43.8;44.3;13;12.2;27.6;0.0;
19/02/2025 23:31:17;100;0;86.39;-4;-20.59;-5.36;247.1;18.00;76806;2837.360;-1800.932;1;97;-90;-95.2;43.8;44.2;11;10.8;27.6;0.0;
19/02/2025 23:31:37;100;0;82.45;-4;-20.79;-6.08;250.6;18.00;76800;2837.360;-1800.927;1;97;-90;-95.2;43.8;44.2;7;7.2;27.6;0.0;
19/02/2025 23:31:57;100;0;80.12;-4;-20.21;-8.04;254.1;17.90;76799;2837.361;-1800.922;1;97;-90;-95.2;43.8;44.2;4;4.1;27.6;0.0;
19/02/2025 23:32:17;100;0;80.13;-4;-20.54;-9.73;257.5;17.90;76782;2837.362;-1800.917;1;97;-90;-95.2;43.8;44.2;4;3.6;27.6;0.0;
19/02/2025 23:32:37;100;0;80.65;-4;-20.30;-9.66;261.1;17.80;76774;2837.362;-1800.912;1;97;-90;-95.2;43.8;44.2;4;3.6;27.6;0.0;
19/02/2025 23:32:57;100;0;80.54;-4;-20.04;-9.61;264.7;17.80;76771;2837.363;-1800.907;1;97;-90;-95.2;43.8;44.2;4;3.6;27.6;0.0;
19/02/2025 23:33:17;100;0;80.95;-4;-20.33;-9.59;268.3;17.70;76746;2837.364;-1800.901;1;97;-90;-95.2;43.8;44.2;4;3.6;27.6;0.0;
19/02/2025 23:33:37;100;0;82.89;-4;-20.20;-9.55;271.9;17.70;76746;2837.364;-1800.896;1;97;-90;-95.2;43.8;44.2;7;7.2;27.6;0.0;
19/02/2025 23:33:57;100;0;86.05;-4;-20.18;-7.48;275.6;17.60;76738;2837.364;-1800.891;1;97;-90;-95.2;43.8;44.2;10;9.9;27.6;0.0;
19/02/2025 23:34:17;100;0;89.25;-4;-20.12;-6.12;279.1;17.60;76736;2837.364;-1800.885;1;97;-90;-95.2;43.8;44.2;12;12.6;27.6;0.0;
19/02/2025 23:34:37;100;0;90.76;-4;-20.40;-4.91;282.6;17.60;76723;2837.364;-1800.880;1;97;-90;-95.2;43.8;44.2;12;13.1;27.6;0.0;
19/02/2025 23:34:57;100;0;90.73;-4;-20.36;-4.88;286.2;17.50;76715;2837.364;-1800.875;1;97;-90;-95.2;43.8;44.2;12;13.1;27.6;0.0;
19/02/2025 23:35:17;100;0;93.04;-4;-20.30;-4.86;289.6;17.50;76714;2837.364;-1800.869;1;98;-90;-95.2;43.8;44.2;12;13.1;27.6;0.0;
19/02/2025 23:35:37;100;0;95.55;-4;-20.22;-5.24;293.0;17.40;76708;2837.363;-1800.864;1;98;-90;-95.2;43.8;44.3;12;13.1;27.6;0.0;
19/02/2025 23:35:57;100;0;97.84;-4;-19.87;-4.85;296.3;17.40;76687;2837.362;-1800.859;1;97;-90;-95.2;43.8;44.2;12;13.1;27.6;0.0;
19/02/2025 23:36:17;100;0;98.29;-4;-19.73;-5.04;299.5;17.40;76680;2837.362;-1800.855;1;97;-90;-93.5;43.8;44.3;12;13.1;27.6;0.0;
19/02/2025 23:36:37;100;0;96.92;-4;-20.15;-5.05;302.6;17.30;76671;2837.361;-1800.850;1;97;-90;-95.2;43.8;44.2;12;13.1;27.6;0.0;
19/02/2025 23:36:57;100;0;95.64;-4;-20.32;-4.96;305.8;17.30;76667;2837.361;-1800.845;1;97;-90;-95.2;43.8;44.2;12;13.1;27.6;0.0;
19/02/2025 23:37:17;100;0;92.73;-4;-20.33;-4.88;309.0;17.20;76669;2837.360;-1800.840;1;98;-90;-95.2;43.8;44.2;12;13.1;27.6;0.0;
19/02/2025 23:37:37;100;0;88.94;-4;-20.00;-5.00;312.2;17.20;76660;2837.360;-1800.836;1;98;-90;-95.2;43.8;44.3;12;13.1;27.6;0.0;
19/02/2025 23:37:57;100;0;86.93;-4;-20.04;-4.99;315.2;17.20;76646;2837.360;-1800.831;1;98;-90;-95.2;43.8;44.2;10;9.9;27.6;0.0;
19/02/2025 23:38:17;100;0;88.07;-4;-19.95;-6.54;318.3;17.10;76639;2837.360;-1800.826;1;98;-90;-93.5;43.8;44.2;10;9.9;27.6;0.0;
19/02/2025 23:38:37;100;0;92.19;-4;-20.08;-6.49;321.5;17.10;76625;2837.360;-1800.822;1;98;-90;-95.2;43.8;44.2;13;13.1;27.6;0.0;
19/02/2025 23:38:57;100;0;91.87;-4;-20.35;-4.62;324.6;17.10;76617;2837.360;-1800.817;1;98;-90;-95.2;43.8;44.2;13;13.5;27.6;0.0;
19/02/2025 23:39:17;100;0;92.05;-4;-20.31;-4.64;327.7;17.00;76606;2837.360;-1800.812;1;98;-90;-93.5;43.8;44.2;13;13.5;27.6;0.0;
19/02/2025 23:39:37;100;0;89.90;-4;-20.40;-4.63;330.9;17.00;76596;2837.360;-1800.807;1;98;-90;-95.2;43.8;44.3;13;13.5;27.6;0.0;
19/02/2025 23:39:57;100;0;88.69;-4;-20.32;-4.62;334.0;16.90;76583;2837.360;-1800.803;1;98;-90;-95.2;43.8;44.2;11;10.4;27.6;0.0;
19/02/2025 23:40:17;100;0;89.57;-4;-20.03;-6.36;337.2;16.90;76570;2837.360;-1800.798;1;98;-90;-95.2;43.8;44.2;11;9.9;27.6;0.0;
19/02/2025 23:40:37;100;0;89.68;-4;-20.04;-6.34;340.2;16.80;76560;2837.360;-1800.793;1;98;-90;-95.2;43.8;44.2;11;9.9;27.6;0.0;
19/02/2025 23:40:57;100;0;90.97;-4;-20.25;-6.38;343.4;16.80;76554;2837.359;-1800.789;1;98;-90;-95.2;43.8;44.2;11;9.9;27.6;0.0;
19/02/2025 23:41:17;100;0;92.34;-4;-20.22;-6.34;346.5;16.80;76544;2837.359;-1800.784;1;98;-90;-93.5;43.8;44.2;13;13.1;27.6;0.0;
19/02/2025 23:41:37;100;0;92.06;-4;-20.34;-4.46;349.6;16.70;76532;2837.359;-1800.779;1;98;-90;-95.2;43.8;44.3;13;14.0;27.6;0.0;
19/02/2025 23:41:57;100;0;92.52;-4;-20.28;-4.49;352.7;16.70;76534;2837.359;-1800.775;1;98;-90;-95.2;43.8;44.2;13;14.0;27.6;0.0;
19/02/2025 23:42:17;100;0;93.06;-4;-20.20;-4.52;355.8;16.60;76527;2837.358;-1800.770;1;98;-90;-95.2;43.8;44.2;13;14.0;27.6;0.0;
19/02/2025 23:42:37;100;0;92.27;-4;-20.27;-4.52;358.8;16.60;76510;2837.358;-1800.765;1;98;-90;-95.2;43.8;44.3;13;14.0;27.6;0.0;
19/02/2025 23:42:57;100;0;91.26;-4;-19.99;-4.49;361.7;16.50;76504;2837.358;-1800.761;1;98;-90;-93.5;43.8;44.2;13;14.0;27.6;0.0;
19/02/2025 23:43:17;100;0;89.85;-4;-19.79;-4.64;364.7;16.50;76496;2837.358;-1800.756;1;98;-90;-95.2;43.8;44.2;13;14.0;27.6;0.0;
19/02/2025 23:43:37;100;0;89.70;-4;-19.90;-4.65;367.5;16.50;76490;2837.358;-1800.752;1;98;-90;-96.8;43.8;44.2;13;13.5;27.6;0.0;
19/02/2025 23:43:57;100;0;90.00;-4;-19.76;-4.57;370.4;16.40;76474;2837.358;-1800.748;1;98;-90;-95.2;43.8;44.2;13;14.0;27.6;0.0;
19/02/2025 23:44:17;100;0;89.85;-4;-19.83;-4.56;373.3;16.40;76474;2837.357;-1800.744;1;98;-90;-93.5;43.8;44.2;13;13.5;27.6;0.0;
19/02/2025 23:44:37;100;0;90.47;-4;-20.03;-4.57;376.1;16.40;76459;2837.357;-1800.739;1;98;-90;-95.2;43.8;44.2;13;14.0;27.6;0.0;
19/02/2025 23:44:57;100;0;90.74;-4;-19.67;-4.56;379.0;16.30;76457;2837.357;-1800.735;1;98;-90;-95.2;43.8;44.2;13;14.0;27.6;0.0;
19/02/2025 23:45:17;100;0;90.63;-4;-19.87;-4.62;381.9;16.30;76451;2837.357;-1800.730;1;98;-90;-95.2;43.8;44.2;13;14.0;27.6;0.0;
19/02/2025 23:45:37;100;0;90.08;-4;-19.73;-4.70;384.8;16.30;76461;2837.357;-1800.726;1;98;-90;-95.2;43.8;44.2;13;14.0;27.6;0.0;
19/02/2025 23:45:57;100;0;89.58;-4;-19.53;-4.50;387.5;16.20;76451;2837.357;-1800.722;1;98;-90;-95.2;43.8;44.2;11;10.8;27.6;0.0;
19/02/2025 23:46:17;100;0;90.40;-4;-19.56;-6.27;390.3;16.20;76442;2837.357;-1800.718;1;98;-90;-95.2;43.8;44.3;11;10.4;27.6;0.0;
19/02/2025 23:46:37;100;0;90.93;-4;-19.51;-6.30;393.0;16.10;76438;2837.357;-1800.714;1;98;-90;-95.2;43.8;44.2;11;10.4;27.6;0.0;
19/02/2025 23:46:57;100;0;90.42;-4;-19.87;-6.31;395.8;16.10;76432;2837.357;-1800.710;1;98;-90;-95.2;43.8;44.2;11;10.4;27.6;0.0;
19/02/2025 23:47:17;100;0;91.14;-4;-20.15;-6.26;398.5;16.10;76422;2837.356;-1800.705;1;98;-90;-95.2;43.8;44.2;11;10.4;27.6;0.0;
19/02/2025 23:47:37;100;0;90.85;-4;-20.10;-6.16;401.4;16.00;76410;2837.356;-1800.701;1;98;-90;-95.2;43.8;44.2;11;10.4;27.6;0.0;
19/02/2025 23:47:57;100;0;90.47;-4;-20.22;-6.20;404.4;16.00;76406;2837.356;-1800.696;1;98;-90;-95.2;43.8;44.2;11;10.4;27.6;0.0;
19/02/2025 23:48:17;100;0;89.63;-4;-19.99;-6.23;407.4;16.00;76405;2837.356;-1800.692;1;98;-90;-95.2;43.8;44.2;11;10.4;27.6;0.0;
19/02/2025 23:48:37;100;0;89.36;-4;-20.09;-6.22;410.2;15.90;76389;2837.356;-1800.688;1;98;-90;-95.2;43.8;44.2;11;10.4;27.6;0.0;
19/02/2025 23:48:57;100;0;90.18;-4;-19.91;-6.18;413.2;15.90;76394;2837.356;-1800.683;1;98;-90;-95.2;43.8;44.2;11;10.4;27.6;0.0;
19/02/2025 23:49:17;100;0;91.94;-4;-19.91;-6.19;416.0;15.90;76379;2837.356;-1800.679;1;98;-90;-95.2;43.8;44.2;11;10.4;27.6;0.0;
19/02/2025 23:49:37;100;0;91.96;-4;-19.61;-6.31;418.9;15.80;76368;2837.355;-1800.675;1;98;-90;-93.5;43.8;44.2;11;10.4;27.6;0.0;
19/02/2025 23:49:57;100;0;93.56;-4;-19.85;-6.23;421.7;15.80;76372;2837.355;-1800.670;1;98;-90;-95.2;43.8;44.3;11;10.4;27.6;0.0;
19/02/2025 23:50:17;100;0;91.62;-4;-19.63;-6.30;424.5;15.80;76357;2837.355;-1800.666;1;98;-90;-95.2;43.8;44.2;11;10.4;27.6;0.0;
19/02/2025 23:50:37;100;0;92.47;-4;-19.71;-6.21;427.3;15.70;76344;2837.355;-1800.662;1;98;-90;-95.2;43.8;44.2;11;10.8;27.6;0.0;
19/02/2025 23:50:57;100;0;92.63;-4;-19.75;-6.26;430.0;15.70;76340;2837.354;-1800.658;1;98;-90;-93.5;43.8;44.2;11;10.4;27.6;0.0;
19/02/2025 23:51:17;100;0;93.16;-4;-19.79;-6.19;432.8;15.70;76333;2837.354;-1800.653;1;98;-90;-95.2;43.8;44.2;11;10.4;27.6;0.0;
19/02/2025 23:51:37;100;0;93.26;-4;-19.70;-6.27;435.7;15.60;76329;2837.354;-1800.649;1;98;-90;-95.2;43.8;44.2;11;10.4;27.6;0.0;
19/02/2025 23:51:57;100;0;93.27;-4;-19.63;-6.30;438.5;15.60;76317;2837.353;-1800.645;1;98;-90;-95.2;43.8;44.2;11;10.4;27.6;0.0;
19/02/2025 23:52:17;100;0;93.05;-4;-20.03;-6.23;441.4;15.60;76316;2837.353;-1800.641;1;98;-90;-95.2;43.8;44.2;11;10.4;27.6;0.0;
19/02/2025 23:52:37;100;0;92.98;-4;-20.03;-6.24;444.3;15.50;76307;2837.353;-1800.636;1;98;-90;-95.2;43.8;44.2;11;10.4;27.6;0.0;
19/02/2025 23:52:57;100;0;92.45;-4;-20.37;-6.20;447.3;15.50;76303;2837.353;-1800.632;1;98;-90;-93.5;43.8;44.2;11;10.4;27.6;0.0;
19/02/2025 23:53:17;100;0;91.47;-4;-19.97;-6.17;450.3;15.40;76299;2837.352;-1800.627;1;98;-90;-95.2;43.8;44.2;11;10.4;27.6;0.0;
19/02/2025 23:53:37;100;0;91.24;-4;-19.71;-6.25;453.4;15.40;76300;2837.352;-1800.623;1;98;-90;-96.8;43.8;44.2;11;10.4;27.6;0.0;
19/02/2025 23:53:57;100;0;90.91;-4;-19.78;-6.31;456.3;15.40;76298;2837.352;-1800.618;1;98;-90;-95.2;43.8;44.2;11;10.4;27.6;0.0;
19/02/2025 23:54:17;100;0;90.77;-4;-19.66;-6.33;459.3;15.40;76283;2837.352;-1800.614;1;98;-90;-95.2;43.8;44.2;11;10.4;27.6;0.0;
19/02/2025 23:54:37;100;0;90.73;-4;-20.10;-6.28;462.4;15.30;76289;2837.352;-1800.609;1;98;-90;-95.2;43.8;44.2;11;10.4;27.6;0.0;
19/02/2025 23:54:57;100;0;90.58;-4;-19.83;-6.09;465.5;15.30;76275;2837.352;-1800.604;1;98;-90;-95.2;43.8;44.2;11;10.8;27.6;0.0;
19/02/2025 23:55:17;100;0;91.69;-4;-19.88;-6.31;468.6;15.30;76265;2837.351;-1800.599;1;98;-90;-95.2;43.8;44.2;11;10.4;27.6;0.0;
19/02/2025 23:55:37;100;0;93.30;-4;-19.68;-6.32;471.7;15.20;76261;2837.351;-1800.595;1;98;-90;-95.2;43.8;44.2;11;10.4;27.6;0.0;
19/02/2025 23:55:57;100;0;94.61;-4;-19.26;-6.24;474.6;15.20;76257;2837.351;-1800.590;1;98;-90;-93.5;43.8;44.2;11;10.4;27.6;0.0;
19/02/2025 23:56:17;100;0;95.47;-4;-19.27;-6.31;477.4;15.20;76240;2837.350;-1800.586;1;98;-90;-96.8;43.8;44.2;11;10.4;27.6;0.0;
19/02/2025 23:56:37;100;0;97.06;-4;-19.23;-6.31;480.2;15.10;76234;2837.350;-1800.582;1;98;-90;-95.2;43.8;44.2;11;10.4;27.6;0.0;
19/02/2025 23:56:57;100;0;98.86;-4;-19.35;-6.28;482.9;15.10;76235;2837.349;-1800.577;1;98;-90;-93.5;43.8;44.2;11;10.4;27.6;0.0;
19/02/2025 23:57:17;100;0;101.35;-4;-19.43;-6.29;485.7;15.10;76242;2837.348;-1800.573;1;98;-90;-95.2;43.8;44.2;11;10.4;27.6;0.0;
19/02/2025 23:57:37;100;0;103.79;-4;-19.76;-6.29;488.4;15.10;76233;2837.347;-1800.569;1;98;-90;-95.2;43.8;44.3;13;13.1;27.6;0.0;
19/02/2025 23:57:57;100;0;105.87;-4;-19.80;-4.58;491.4;15.00;76217;2837.346;-1800.565;1;98;-90;-95.2;43.8;44.2;13;13.5;27.6;0.0;
19/02/2025 23:58:17;100;0;105.40;-4;-19.95;-4.67;494.4;15.00;76216;2837.345;-1800.560;1;98;-90;-95.2;43.8;44.2;13;13.5;27.6;0.0;
19/02/2025 23:58:37;100;0;104.56;-4;-19.94;-4.73;497.5;15.00;76206;2837.344;-1800.556;1;98;-90;-95.2;43.8;44.3;13;13.5;27.6;0.0;
19/02/2025 23:58:57;100;0;101.32;-4;-19.82;-4.71;500.5;14.90;76202;2837.343;-1800.551;1;98;-90;-93.5;43.8;44.2;13;13.5;27.6;0.0;
19/02/2025 23:59:17;100;0;100.78;-4;-19.34;-4.71;503.4;14.90;76201;2837.342;-1800.547;1;98;-90;-95.2;43.8;44.2;13;13.5;27.6;0.0;
19/02/2025 23:59:37;100;0;96.83;-4;-19.71;-4.77;506.2;14.90;76187;2837.342;-1800.543;1;98;-90;-95.2;43.8;44.2;13;13.5;27.6;0.0;
19/02/2025 23:59:57;100;0;97.15;-4;-19.36;-4.81;509.1;14.90;76185;2837.341;-1800.538;1;98;-90;-95.2;43.8;44.2;13;13.5;27.6;0.0;
20/02/2025 00:00:17;100;0;98.23;-4;-19.42;-4.78;511.9;14.80;76176;2837.341;-1800.534;1;98;-90;-95.2;43.8;44.2;13;13.5;27.6;0.0;
20/02/2025 00:00:37;100;0;98.13;-4;-19.50;-4.81;514.6;14.80;76165;2837.340;-1800.530;1;98;-90;-95.2;43.8;44.2;13;13.5;27.6;0.0;
20/02/2025 00:00:57;100;0;97.21;-4;-19.58;-4.71;517.4;14.80;76165;2837.339;-1800.526;1;98;-90;-95.2;43.8;44.2;13;13.5;27.6;0.0;
20/02/2025 00:01:17;100;0;96.18;-4;-19.51;-4.79;520.1;14.70;76154;2837.339;-1800.521;1;98;-90;-95.2;43.8;44.3;13;13.5;27.6;0.0;
20/02/2025 00:01:37;100;0;96.13;-4;-19.57;-4.78;523.0;14.70;76157;2837.338;-1800.517;1;98;-90;-95.2;43.8;44.3;13;13.5;27.6;0.0;
20/02/2025 00:01:57;100;0;94.44;-4;-19.55;-4.80;525.8;14.70;76147;2837.338;-1800.513;1;98;-90;-95.2;43.8;44.2;13;13.5;27.6;0.0;
20/02/2025 00:02:17;100;0;95.00;-4;-19.39;-4.72;528.7;14.60;76143;2837.338;-1800.508;1;98;-90;-93.5;43.8;44.2;13;13.5;27.6;0.0;
20/02/2025 00:02:37;100;0;95.01;-4;-19.27;-4.73;531.5;14.60;76131;2837.337;-1800.504;1;98;-90;-93.5;43.8;44.2;13;13.5;27.6;0.0;
20/02/2025 00:02:57;100;0;91.66;-4;-19.49;-4.76;534.2;14.60;76138;2837.337;-1800.500;1;98;-90;-93.5;43.8;44.3;13;13.5;27.6;0.0;
20/02/2025 00:03:17;100;0;90.53;-4;-19.49;-4.75;537.0;14.60;76120;2837.337;-1800.495;1;98;-90;-96.8;43.8;44.2;11;10.8;27.6;0.0;
20/02/2025 00:03:37;100;0;90.24;-4;-19.29;-6.19;539.7;14.50;76113;2837.337;-1800.491;1;98;-90;-95.2;43.8;44.2;11;10.8;27.6;0.0;
20/02/2025 00:03:57;100;0;88.55;-4;-19.40;-6.20;542.4;14.50;76117;2837.337;-1800.487;1;98;-90;-95.2;43.8;44.3;11;10.8;27.6;0.0;
20/02/2025 00:04:17;100;0;88.02;-4;-19.23;-6.17;545.1;14.50;76105;2837.337;-1800.483;1;98;-90;-95.2;43.8;44.2;11;10.8;27.6;0.0;
20/02/2025 00:04:37;100;0;92.14;-4;-19.07;-6.14;547.7;14.50;76092;2837.336;-1800.479;1;98;-90;-95.2;43.8;44.2;11;10.8;27.6;0.0;
20/02/2025 00:04:57;100;0;95.42;-4;-18.99;-6.14;550.4;14.40;76093;2837.336;-1800.474;1;98;-90;-96.8;44.1;44.2;11;10.8;27.6;0.0;
20/02/2025 00:05:18;100;0;95.86;-4;-19.14;-6.11;553.0;14.40;76080;2837.336;-1800.470;1;98;-90;-95.2;44.1;44.2;11;10.8;27.6;0.0;
20/02/2025 00:05:38;100;0;97.51;-4;-18.99;-6.12;555.6;14.40;76082;2837.335;-1800.466;1;98;-90;-95.2;44.4;44.6;11;10.8;27.6;0.0;
20/02/2025 00:05:58;100;0;99.20;-4;-20.17;-6.16;558.1;14.40;76072;2837.334;-1800.463;1;98;-90;-95.2;44.4;44.8;11;10.8;27.6;0.0;
20/02/2025 00:06:18;100;0;100.98;-4;-20.47;-6.05;560.8;14.30;76077;2837.334;-1800.459;1;98;-90;-95.2;44.4;44.8;11;10.8;27.6;0.0;
20/02/2025 00:06:38;100;0;102.54;-4;-20.50;-6.02;563.6;14.30;76066;2837.333;-1800.454;1;98;-90;-95.2;44.4;44.8;13;13.1;27.6;0.0;
20/02/2025 00:06:58;100;0;100.52;-4;-20.68;-4.50;566.3;14.30;76046;2837.332;-1800.451;1;98;-90;-93.5;44.4;44.8;13;14.0;27.6;0.0;
20/02/2025 00:07:18;100;0;102.16;-4;-20.51;-4.50;569.0;14.20;76049;2837.331;-1800.447;1;98;-90;-95.2;44.4;44.8;13;14.0;27.6;0.0;
20/02/2025 00:07:38;100;0;104.37;-4;-20.49;-4.58;571.6;14.20;76037;2837.330;-1800.443;1;98;-90;-93.5;44.4;44.8;13;14.0;27.6;0.0;
20/02/2025 00:07:58;100;0;105.75;-4;-20.48;-4.66;574.2;14.20;76034;2837.329;-1800.439;1;98;-90;-95.2;44.4;44.8;13;14.0;27.6;0.0;
20/02/2025 00:08:18;100;0;106.35;-4;-20.59;-4.40;576.7;14.20;76042;2837.328;-1800.436;1;98;-90;-95.2;44.4;44.8;15;14.9;27.6;0.0;
20/02/2025 00:08:38;100;0;106.49;-4;-20.66;-3.82;579.3;14.10;76030;2837.327;-1800.432;1;98;-90;-95.2;44.4;44.8;15;15.3;27.6;0.0;
20/02/2025 00:08:58;100;0;104.94;-4;-20.71;-3.83;581.9;14.10;76026;2837.326;-1800.428;1;98;-90;-95.2;44.4;44.8;15;15.3;27.6;0.0;
20/02/2025 00:09:18;100;0;103.44;-4;-20.65;-3.84;584.4;14.10;76021;2837.326;-1800.425;1;98;-90;-95.2;44.4;44.9;13;12.6;27.6;0.0;
20/02/2025 00:09:38;100;0;104.00;-4;-20.45;-5.21;586.9;14.10;76019;2837.325;-1800.421;1;98;-90;-93.5;44.4;44.8;13;12.6;27.6;0.0;
20/02/2025 00:09:58;100;0;104.36;-4;-20.47;-5.21;589.5;14.00;76013;2837.324;-1800.417;1;98;-90;-93.5;44.4;44.8;13;12.6;27.6;0.0;
20/02/2025 00:10:18;100;0;106.57;-4;-20.44;-5.25;591.9;14.00;76011;2837.323;-1800.414;1;98;-90;-95.2;44.4;44.9;15;15.3;27.6;0.0;
20/02/2025 00:10:38;100;0;105.41;-4;-20.77;-3.71;594.6;14.00;75999;2837.322;-1800.410;1;98;-90;-95.2;44.4;44.8;15;15.8;27.6;0.0;
20/02/2025 00:10:58;100;0;103.25;-4;-20.57;-3.73;597.1;13.90;75980;2837.321;-1800.406;1;98;-90;-95.2;44.4;44.8;13;13.1;27.6;0.0;
20/02/2025 00:11:18;100;0;100.70;-4;-20.45;-5.23;599.5;13.90;75980;2837.320;-1800.403;1;98;-90;-95.2;44.4;44.8;13;12.6;27.6;0.0;
20/02/2025 00:11:38;100;0;97.73;-4;-20.34;-5.18;601.9;13.90;75966;2837.320;-1800.399;1;98;-90;-95.2;44.4;44.8;13;12.6;27.6;0.0;
20/02/2025 00:11:58;100;0;96.66;-4;-20.27;-5.17;604.2;13.90;75980;2837.319;-1800.395;1;98;-90;-95.2;44.4;44.8;13;12.6;27.6;0.0;
20/02/2025 00:12:18;100;0;95.52;-4;-20.40;-5.29;606.5;13.80;75960;2837.319;-1800.392;1;98;-90;-95.2;44.4;44.8;13;12.6;27.6;0.0;
20/02/2025 00:12:38;100;0;92.59;-4;-20.32;-5.26;608.9;13.80;75960;2837.319;-1800.388;1;98;-90;-95.2;44.4;44.8;13;12.6;27.6;0.0;
20/02/2025 00:12:58;100;0;89.71;-4;-20.28;-5.25;611.3;13.80;75966;2837.319;-1800.385;1;98;-90;-95.2;44.4;44.8;11;10.8;27.6;0.0;
20/02/2025 00:13:18;100;0;89.07;-4;-19.99;-6.32;613.6;13.80;75950;2837.319;-1800.381;1;98;-90;-95.2;44.4;44.8;11;10.4;27.6;0.0;
20/02/2025 00:13:38;100;0;88.96;-4;-20.62;-6.37;616.0;13.70;75945;2837.319;-1800.378;1;98;-90;-95.2;44.4;44.8;11;10.8;27.6;0.0;
20/02/2025 00:13:58;100;0;90.28;-4;-20.44;-6.20;618.5;13.70;75935;2837.319;-1800.374;1;98;-90;-95.2;44.4;44.8;11;10.8;27.6;0.0;
20/02/2025 00:14:18;100;0;91.34;-4;-20.40;-6.30;620.9;13.70;75931;2837.318;-1800.370;1;98;-90;-95.2;44.4;44.8;11;10.8;27.6;0.0;
20/02/2025 00:14:38;100;0;89.67;-4;-19.37;-6.32;623.3;13.70;75929;2837.318;-1800.366;1;98;-90;-95.2;44.4;44.8;11;10.4;27.6;0.0;
20/02/2025 00:14:58;100;0;84.28;-4;-20.39;-6.27;625.4;13.60;75925;2837.319;-1800.363;1;98;-90;-95.2;44.4;44.8;7;7.2;27.6;0.0;
20/02/2025 00:15:18;100;0;86.64;-4;-19.77;-8.05;627.7;13.60;75912;2837.319;-1800.360;1;98;-90;-95.2;44.4;44.9;10;9.9;27.6;0.0;
20/02/2025 00:15:38;100;0;92.50;-4;-20.14;-6.12;630.2;13.60;75915;2837.318;-1800.356;1;98;-90;-95.2;44.4;44.8;12;12.2;27.6;0.0;
20/02/2025 00:15:58;100;0;92.84;-4;-19.92;-5.01;632.6;13.50;75890;2837.318;-1800.352;1;98;-90;-95.2;44.4;44.8;12;13.1;27.6;0.0;
20/02/2025 00:16:18;100;0;94.75;-4;-20.27;-4.96;634.9;13.50;75890;2837.318;-1800.349;1;98;-90;-95.2;44.4;44.8;12;13.1;27.6;0.0;
20/02/2025 00:16:38;100;0;93.69;-4;-20.19;-5.03;637.4;13.50;75897;2837.317;-1800.345;1;98;-90;-95.2;44.4;44.8;12;13.1;27.6;0.0;
20/02/2025 00:16:58;100;0;95.67;-4;-20.03;-4.98;639.7;13.50;75880;2837.317;-1800.342;1;98;-90;-96.8;44.4;44.9;12;13.1;27.6;0.0;
20/02/2025 00:17:18;100;0;97.58;-4;-20.08;-5.07;642.0;13.40;75874;2837.317;-1800.338;1;98;-90;-98.4;44.4;44.8;12;13.1;27.6;0.0;
20/02/2025 00:17:38;100;0;100.31;-4;-19.92;-5.06;644.4;13.40;75869;2837.316;-1800.334;1;98;-90;-95.2;44.4;44.8;12;13.1;27.6;0.0;
20/02/2025 00:17:58;100;0;102.16;-4;-20.22;-5.09;646.8;13.40;75864;2837.315;-1800.331;1;98;-90;-95.2;44.4;44.8;12;12.6;27.6;0.0;
20/02/2025 00:18:18;100;0;102.60;-4;-19.99;-5.02;649.3;13.40;75854;2837.314;-1800.327;1;98;-90;-95.2;44.4;44.8;12;13.1;27.6;0.0;
20/02/2025 00:18:38;100;0;100.05;-4;-20.26;-5.10;651.8;13.40;75850;2837.314;-1800.323;1;98;-90;-95.2;44.4;44.8;12;13.1;27.6;0.0;
20/02/2025 00:18:58;100;0;97.98;-4;-20.12;-5.11;654.5;13.30;75838;2837.313;-1800.319;1;98;-90;-95.2;44.4;44.8;12;13.1;27.6;0.0;
20/02/2025 00:19:18;100;0;97.41;-4;-19.98;-5.07;657.0;13.30;75839;2837.313;-1800.316;1;98;-90;-98.4;44.4;44.9;12;13.1;27.6;0.0;
20/02/2025 00:19:38;100;0;96.20;-4;-20.04;-5.11;659.6;13.30;75829;2837.312;-1800.312;1;98;-90;-95.2;44.4;44.9;12;13.1;27.6;0.0;
20/02/2025 00:19:58;100;0;94.36;-4;-20.11;-5.03;662.2;13.20;75814;2837.312;-1800.308;1;98;-90;-95.2;44.4;44.9;12;13.1;27.6;0.0;
20/02/2025 00:20:18;100;0;91.76;-4;-20.06;-5.10;664.9;13.20;75806;2837.312;-1800.304;1;98;-90;-95.2;44.4;44.8;12;13.1;27.6;0.0;
20/02/2025 00:20:38;100;0;89.43;-4;-19.85;-5.14;667.5;13.20;75791;2837.312;-1800.300;1;98;-90;-95.2;44.4;44.9;12;13.1;27.6;0.0;
20/02/2025 00:20:58;100;0;88.55;-4;-19.99;-5.10;670.1;13.20;75795;2837.312;-1800.296;1;98;-90;-95.2;44.4;44.8;10;9.9;27.6;0.0;
20/02/2025 00:21:18;100;0;88.81;-4;-19.69;-6.67;672.7;13.10;75787;2837.312;-1800.292;1;98;-90;-95.2;44.4;44.8;10;9.5;27.6;0.0;
20/02/2025 00:21:38;100;0;89.19;-4;-19.58;-6.67;675.3;13.10;75775;2837.311;-1800.288;1;98;-90;-95.2;44.4;44.9;10;9.9;27.6;0.0;
20/02/2025 00:21:58;100;0;89.36;-4;-19.83;-6.70;678.0;13.10;75768;2837.311;-1800.284;1;98;-90;-95.2;44.4;44.8;10;9.5;27.6;0.0;
20/02/2025 00:22:18;100;0;91.19;-4;-19.89;-6.71;680.6;13.10;75758;2837.311;-1800.280;1;98;-90;-93.5;44.4;44.8;10;9.9;27.6;0.0;
20/02/2025 00:22:38;100;0;91.75;-4;-19.88;-6.63;683.4;13.00;75759;2837.311;-1800.276;1;98;-90;-95.2;44.4;44.9;10;9.9;27.6;0.0;
20/02/2025 00:22:58;100;0;94.28;-4;-19.82;-6.59;686.1;13.00;75755;2837.311;-1800.272;1;98;-90;-95.2;44.4;44.8;12;12.2;27.6;0.0;
20/02/2025 00:23:18;100;0;96.65;-4;-19.93;-5.08;688.9;13.00;75744;2837.310;-1800.267;1;98;-90;-93.5;44.4;44.9;12;12.6;27.6;0.0;
20/02/2025 00:23:38;100;0;97.52;-4;-20.13;-5.17;691.5;13.00;75736;2837.310;-1800.263;1;98;-90;-95.2;44.4;44.9;12;12.6;27.6;0.0;
20/02/2025 00:23:58;100;0;97.05;-4;-19.77;-5.09;694.3;12.90;75736;2837.309;-1800.259;1;98;-90;-95.2;44.4;44.8;12;12.6;27.6;0.0;
20/02/2025 00:24:18;100;0;95.65;-4;-19.72;-5.23;697.0;12.90;75727;2837.309;-1800.255;1;98;-90;-95.2;44.4;44.8;12;12.6;27.6;0.0;
20/02/2025 00:24:38;100;0;93.22;-4;-19.85;-5.21;699.7;12.90;75722;2837.308;-1800.251;1;98;-90;-95.2;44.4;44.8;12;12.6;27.6;0.0;
20/02/2025 00:24:58;100;0;94.34;-4;-19.69;-5.20;702.2;12.90;75717;2837.308;-1800.247;1;98;-90;-95.2;44.4;44.8;12;12.6;27.6;0.0;
20/02/2025 00:25:18;100;0;96.55;-4;-19.72;-5.28;704.8;12.80;75716;2837.308;-1800.243;1;98;-90;-93.5;44.4;44.8;12;12.6;27.6;0.0;
20/02/2025 00:25:38;100;0;98.08;-4;-19.27;-5.19;707.3;12.80;75697;2837.307;-1800.240;1;98;-90;-95.2;44.4;44.9;12;12.6;27.6;0.0;
20/02/2025 00:25:58;100;0;97.52;-4;-20.01;-5.15;709.6;12.80;75688;2837.306;-1800.236;1;98;-90;-93.5;44.4;44.8;12;12.6;27.6;0.0;
20/02/2025 00:26:18;100;0;96.48;-4;-19.61;-5.36;711.9;12.70;75690;2837.306;-1800.232;1;98;-90;-95.2;44.4;44.8;12;12.6;27.6;0.0;
20/02/2025 00:26:38;100;0;95.10;-4;-18.61;-5.02;714.3;12.70;75680;2837.306;-1800.229;1;98;-90;-95.2;44.9;44.9;12;12.6;27.6;0.0;
20/02/2025 00:26:58;100;0;96.32;-4;-19.98;-5.19;716.7;12.70;75676;2837.305;-1800.225;1;98;-90;-95.2;44.9;45.2;12;12.6;27.6;0.0;
20/02/2025 00:27:18;100;0;93.97;-4;-20.46;-4.95;719.1;12.70;75668;2837.305;-1800.222;1;98;-90;-95.2;44.9;45.2;12;12.6;27.6;0.0;
20/02/2025 00:27:38;100;0;94.02;-4;-20.33;-5.20;721.4;12.60;75664;2837.305;-1800.218;1;98;-90;-95.2;44.9;45.2;12;12.6;27.6;0.0;
20/02/2025 00:27:58;100;0;95.43;-4;-20.66;-5.13;723.8;12.60;75662;2837.304;-1800.215;1;98;-90;-95.2;44.9;45.2;12;12.6;27.6;0.0;
20/02/2025 00:28:18;100;0;95.92;-4;-20.22;-5.03;726.4;12.60;75645;2837.304;-1800.211;1;98;-90;-95.2;44.9;45.2;12;12.6;27.6;0.0;
20/02/2025 00:28:38;100;0;97.95;-4;-20.56;-5.10;729.0;12.60;75638;2837.303;-1800.207;1;98;-90;-95.2;44.9;45.2;12;12.6;27.6;0.0;
20/02/2025 00:28:58;100;0;99.10;-4;-20.79;-5.15;731.6;12.50;75639;2837.303;-1800.203;1;98;-90;-95.2;44.9;45.2;12;12.6;27.6;0.0;
20/02/2025 00:29:18;100;0;101.91;-4;-20.27;-5.12;734.2;12.50;75630;2837.302;-1800.199;1;98;-90;-95.2;44.9;45.2;12;12.6;27.6;0.0;
20/02/2025 00:29:38;100;0;103.82;-4;-20.25;-5.17;736.9;12.50;75633;2837.301;-1800.195;1;98;-90;-95.2;44.9;45.2;12;12.6;27.6;0.0;
20/02/2025 00:29:58;100;0;108.09;-4;-20.43;-5.28;739.4;12.40;75622;2837.300;-1800.192;1;98;-90;-95.2;44.9;45.2;16;15.8;27.6;0.0;
20/02/2025 00:30:18;100;0;109.95;-4;-20.49;-3.54;742.2;12.40;75606;2837.299;-1800.188;1;98;-90;-93.5;44.9;45.2;18;18.1;27.6;0.0;
20/02/2025 00:30:38;100;0;108.81;-4;-20.69;-2.43;744.9;12.40;75594;2837.297;-1800.184;1;98;-90;-95.2;44.9;45.2;18;18.5;27.6;0.0;
20/02/2025 00:30:58;100;0;106.37;-4;-20.97;-2.34;747.7;12.40;75601;2837.296;-1800.180;1;98;-90;-95.2;44.9;45.2;15;14.9;27.6;0.0;
20/02/2025 00:31:18;100;0;103.49;-4;-20.53;-4.45;750.6;12.30;75593;2837.295;-1800.176;1;98;-90;-95.2;44.9;45.2;13;13.1;27.6;0.0;
20/02/2025 00:31:38;100;0;102.48;-4;-20.48;-5.08;753.4;12.30;75589;2837.294;-1800.172;1;98;-90;-95.2;44.9;45.2;13;13.1;27.6;0.0;
20/02/2025 00:31:58;100;0;101.38;-4;-20.49;-5.07;756.3;12.30;75568;2837.294;-1800.167;1;98;-90;-95.2;44.9;45.2;13;13.1;27.6;0.0;
20/02/2025 00:32:18;100;0;100.20;-4;-20.57;-5.09;759.2;12.30;75574;2837.293;-1800.163;1;98;-90;-95.2;44.9;45.2;13;12.6;27.6;0.0;
20/02/2025 00:32:38;100;0;99.50;-4;-20.37;-5.15;762.1;12.30;75567;2837.292;-1800.159;1;98;-90;-95.2;44.9;45.2;13;13.1;27.6;0.0;
20/02/2025 00:32:58;100;0;100.28;-4;-20.21;-5.08;764.8;12.20;75556;2837.292;-1800.155;1;98;-90;-95.2;44.9;45.2;13;12.6;27.6;0.0;
20/02/2025 00:33:18;100;0;101.34;-4;-20.76;-5.03;767.6;12.20;75539;2837.291;-1800.151;1;98;-90;-95.2;44.9;45.1;13;12.6;27.6;0.0;
20/02/2025 00:33:38;100;0;102.30;-4;-20.25;-5.24;770.4;12.20;75533;2837.290;-1800.147;1;98;-90;-95.2;44.9;45.4;13;12.6;27.6;0.0;
20/02/2025 00:33:58;100;0;102.47;-4;-20.27;-5.13;773.2;12.10;75525;2837.289;-1800.143;1;98;-90;-95.2;44.9;45.2;13;12.6;27.6;0.0;
20/02/2025 00:34:18;100;0;102.86;-4;-20.17;-5.17;776.0;12.10;75527;2837.288;-1800.138;1;98;-90;-95.2;44.9;45.2;13;13.1;27.6;0.0;
20/02/2025 00:34:38;100;0;103.84;-4;-20.38;-5.15;778.7;12.10;75526;2837.287;-1800.134;1;98;-90;-95.2;44.9;45.2;13;13.1;27.6;0.0;
20/02/2025 00:34:58;100;0;102.63;-4;-20.81;-5.19;781.6;12.10;75522;2837.286;-1800.130;1;98;-90;-93.5;44.9;45.2;13;13.1;27.6;0.0;
20/02/2025 00:35:18;100;0;100.28;-4;-20.45;-5.08;784.5;12.00;75509;2837.286;-1800.126;1;98;-90;-95.2;44.9;45.2;13;13.1;27.6;0.0;
20/02/2025 00:35:38;100;0;99.54;-4;-20.03;-4.86;787.3;12.00;75504;2837.285;-1800.122;1;98;-90;-95.2;44.9;45.2;13;12.6;27.6;0.0;
20/02/2025 00:35:58;100;0;99.19;-4;-20.27;-5.22;790.1;12.00;75493;2837.284;-1800.118;1;98;-90;-95.2;44.9;45.2;13;13.1;27.6;0.0;
20/02/2025 00:36:18;100;0;98.57;-4;-20.25;-5.09;793.0;11.90;75492;2837.284;-1800.113;1;98;-90;-95.2;44.9;45.2;13;13.1;27.6;0.0;
20/02/2025 00:36:38;100;0;98.38;-4;-19.90;-4.88;795.8;11.90;75485;2837.283;-1800.109;1;98;-90;-96.8;44.9;45.2;13;12.6;27.6;0.0;
20/02/2025 00:36:58;100;0;99.55;-4;-20.24;-5.11;798.6;11.90;75494;2837.282;-1800.105;1;98;-90;-95.2;44.9;45.2;13;12.6;27.6;0.0;
20/02/2025 00:37:18;100;0;98.36;-4;-20.00;-5.18;801.4;11.90;75479;2837.282;-1800.101;1;98;-90;-95.2;44.9;45.2;13;13.1;27.6;0.0;
20/02/2025 00:37:38;100;0;95.69;-4;-20.41;-5.15;804.2;11.80;75467;2837.281;-1800.097;1;98;-90;-93.5;44.9;45.2;13;12.6;27.6;0.0;
20/02/2025 00:37:58;100;0;94.44;-4;-20.31;-5.11;807.0;11.80;75465;2837.281;-1800.092;1;98;-90;-95.2;44.9;45.2;13;13.1;27.6;0.0;
20/02/2025 00:38:18;100;0;92.79;-4;-20.44;-5.12;809.9;11.80;75460;2837.280;-1800.088;1;98;-90;-95.2;44.9;45.2;13;12.6;27.6;0.0;
20/02/2025 00:38:38;100;0;91.27;-4;-20.17;-5.14;812.9;11.80;75453;2837.280;-1800.083;1;98;-90;-93.5;44.9;45.2;13;13.1;27.6;0.0;
20/02/2025 00:38:59;100;0;91.18;-4;-19.75;-5.25;815.8;11.80;75449;2837.280;-1800.079;1;98;-90;-95.2;44.9;45.2;13;12.6;27.6;0.0;
20/02/2025 00:39:19;100;0;91.08;-4;-20.07;-5.24;818.7;11.70;75434;2837.280;-1800.075;1;98;-90;-93.5;44.9;45.2;13;12.6;27.6;0.0;
20/02/2025 00:39:39;100;0;88.12;-4;-19.96;-5.24;821.7;11.70;75432;2837.280;-1800.070;1;98;-90;-95.2;44.9;45.2;10;9.9;27.6;0.0;
20/02/2025 00:39:59;100;0;89.45;-4;-20.42;-6.68;824.5;11.70;75414;2837.280;-1800.066;1;98;-90;-95.2;44.9;45.2;10;9.9;27.6;0.0;
20/02/2025 00:40:19;100;0;90.85;-4;-20.32;-6.72;827.6;11.60;75408;2837.280;-1800.061;1;98;-90;-95.2;44.9;45.2;10;9.9;27.6;0.0;
20/02/2025 00:40:39;100;0;91.40;-4;-19.35;-6.53;830.8;11.60;75407;2837.280;-1800.056;1;98;-90;-95.2;44.9;45.2;12;12.2;27.6;0.0;
20/02/2025 00:40:59;100;0;93.17;-4;-19.64;-5.13;833.8;11.60;75413;2837.279;-1800.052;1;98;-90;-95.2;44.9;45.2;12;12.6;27.6;0.0;
20/02/2025 00:41:19;100;0;95.37;-4;-20.13;-5.20;836.7;11.60;75404;2837.279;-1800.047;1;98;-90;-95.2;44.9;45.2;12;12.6;27.6;0.0;
20/02/2025 00:41:39;100;0;95.04;-4;-20.02;-5.16;839.6;11.50;75399;2837.278;-1800.043;1;98;-90;-95.2;44.9;45.2;12;12.6;27.6;0.0;
20/02/2025 00:41:59;100;0;95.16;-4;-19.87;-5.40;842.7;11.50;75396;2837.278;-1800.038;1;98;-90;-95.2;44.9;45.4;12;12.6;27.6;0.0;
20/02/2025 00:42:19;100;0;98.62;-4;-21.28;-5.43;845.8;11.50;75397;2837.277;-1800.034;1;98;-90;-95.2;44.9;45.2;12;12.6;27.6;0.0;
20/02/2025 00:42:39;100;0;100.64;-4;-19.69;-5.46;849.0;11.50;75399;2837.276;-1800.029;1;98;-90;-95.2;44.9;45.2;12;12.6;27.6;0.0;
20/02/2025 00:42:59;100;0;102.78;-4;-19.47;-5.27;852.2;11.40;75384;2837.275;-1800.024;1;98;-90;-95.2;44.9;45.2;12;12.6;27.6;0.0;
20/02/2025 00:43:19;100;0;103.90;-4;-19.79;-5.34;855.0;11.40;75388;2837.274;-1800.020;1;98;-90;-95.2;44.9;45.2;12;12.6;27.6;0.0;
20/02/2025 00:43:39;100;0;104.27;-4;-20.05;-5.37;857.9;11.40;75391;2837.273;-1800.016;1;98;-90;-95.2;44.9;45.2;12;12.6;27.6;0.0;
20/02/2025 00:43:59;100;0;103.78;-4;-21.00;-5.42;860.9;11.40;75383;2837.272;-1800.012;1;98;-90;-95.2;44.9;45.2;12;12.6;27.6;0.0;
20/02/2025 00:44:19;100;0;105.93;-4;-20.05;-5.31;864.3;11.40;75382;2837.271;-1800.007;1;98;-90;-95.2;44.9;45.2;15;14.9;27.6;0.0;
20/02/2025 00:44:39;100;0;107.74;-4;-20.02;-3.67;867.7;11.30;75378;2837.270;-1800.002;1;98;-90;-95.2;44.9;45.2;15;15.3;27.6;0.0;
20/02/2025 00:44:59;100;0;108.94;-4;-20.54;-4.09;871.0;11.30;75371;2837.268;-1759.997;1;98;-90;-95.2;44.9;45.2;17;17.1;27.6;0.0;
20/02/2025 00:45:19;100;0;107.52;-4;-19.84;-2.94;874.4;11.30;75371;2837.267;-1759.992;1;98;-90;-95.2;44.9;45.2;17;17.1;27.6;0.0;
20/02/2025 00:45:39;100;0;105.54;-4;-21.04;-3.35;877.8;11.30;75370;2837.266;-1759.988;1;98;-90;-93.5;44.9;45.2;14;14.0;27.6;0.0;
20/02/2025 00:45:59;100;0;102.71;-4;-19.49;-4.39;881.3;11.20;75363;2837.265;-1759.982;1;98;-90;-93.5;44.9;45.2;14;14.0;27.6;0.0;
20/02/2025 00:46:19;100;0;100.82;-4;-18.88;-4.84;884.7;11.20;75371;2837.264;-1759.977;1;98;-90;-95.2;45.2;45.2;14;14.0;27.6;0.0;
20/02/2025 00:46:39;100;0;101.24;-4;-19.83;-4.65;887.7;11.20;75362;2837.263;-1759.973;1;98;-90;-95.2;45.2;45.2;14;14.0;27.6;0.0;
20/02/2025 00:46:59;100;0;100.57;-4;-18.54;-4.59;890.8;11.20;75371;2837.262;-1759.968;1;98;-90;-95.2;45.6;45.8;14;14.0;27.6;0.0;
20/02/2025 00:47:19;100;0;95.90;-4;-21.50;-4.69;893.2;11.20;75356;2837.261;-1759.965;1;98;-90;-93.5;45.6;45.9;14;14.0;27.6;0.0;
20/02/2025 00:47:39;100;0;94.99;-4;-21.84;-4.66;895.9;11.10;75352;2837.261;-1759.961;1;98;-90;-95.2;45.6;45.9;12;11.7;27.6;0.0;
20/02/2025 00:47:59;100;0;94.29;-4;-21.89;-5.68;898.6;11.10;75355;2837.261;-1759.957;1;98;-90;-95.2;45.6;45.9;12;12.2;27.6;0.0;
20/02/2025 00:48:19;100;0;96.89;-4;-21.74;-5.91;901.4;11.10;75342;2837.260;-1759.953;1;98;-90;-95.2;45.6;45.9;12;12.2;27.6;0.0;
20/02/2025 00:48:39;100;0;97.82;-4;-23.03;-5.62;904.4;11.10;75346;2837.260;-1759.949;1;98;-90;-95.2;44.7;44.8;12;12.2;27.6;0.0;
20/02/2025 00:48:59;100;0;84.15;-4;-22.83;-5.63;907.3;11.10;75341;2837.260;-1759.945;1;98;-90;-93.5;43.9;43.6;6;5.9;27.6;0.0;
20/02/2025 00:49:19;100;0;86.60;-4;-19.84;-8.95;911.0;11.00;75340;2837.260;-1759.940;1;98;-90;-95.2;43.9;43.6;9;9.0;27.6;0.0;
20/02/2025 00:49:39;100;0;81.22;-4;-16.61;-6.94;914.7;11.00;75329;2837.261;-1759.934;1;98;-90;-95.2;44.9;45.2;2;1.8;27.6;0.0;
20/02/2025 00:49:59;100;0;82.66;-4;-18.59;-10.33;918.2;11.00;75328;2837.261;-1759.928;1;98;-90;-95.2;45.3;45.7;4;4.1;27.6;0.0;
20/02/2025 00:50:19;100;0;89.53;-4;-19.68;-9.49;921.5;11.00;75325;2837.261;-1759.923;1;98;-90;-95.2;45.3;45.7;11;11.3;27.6;0.0;
20/02/2025 00:50:39;100;0;93.19;-4;-20.98;-5.53;924.7;11.00;75324;2837.261;-1759.919;1;98;-90;-95.2;45.3;45.8;11;11.7;27.6;0.0;
20/02/2025 00:50:59;100;0;93.39;-4;-20.09;-5.83;927.8;11.00;75313;2837.261;-1759.914;1;98;-90;-95.2;45.3;45.7;11;11.7;27.6;0.0;
20/02/2025 00:51:19;100;0;95.60;-4;-20.97;-5.83;930.8;10.90;75323;2837.260;-1759.909;1;98;-90;-95.2;45.3;45.8;11;11.3;27.6;0.0;
20/02/2025 00:51:39;100;0;97.29;-4;-20.66;-5.82;933.9;10.90;75312;2837.260;-1759.905;1;98;-90;-95.2;45.3;45.8;11;11.7;27.6;0.0;
20/02/2025 00:51:59;100;0;100.15;-4;-21.32;-6.56;937.0;10.90;75306;2837.259;-1759.901;1;98;-90;-95.2;45.3;45.8;11;11.7;27.6;0.0;
20/02/2025 00:52:19;100;0;100.98;-4;-22.11;-5.77;939.9;10.90;75299;2837.258;-1759.897;1;98;-90;-95.2;44.7;44.6;13;14.0;27.6;0.0;
20/02/2025 00:52:39;100;0;104.41;-4;-18.10;-4.52;943.2;10.90;75302;2837.257;-1759.891;1;98;-90;-95.2;45.2;45.4;13;14.0;27.6;0.0;
20/02/2025 00:52:59;100;0;104.83;-4;-19.27;-5.23;946.1;10.80;75289;2837.256;-1759.887;1;98;-90;-95.2;45.2;45.5;13;14.0;27.6;0.0;
20/02/2025 00:53:19;100;0;102.29;-4;-21.92;-4.84;949.0;10.80;75293;2837.255;-1759.883;1;98;-90;-95.2;45.2;45.5;13;14.0;27.6;0.0;
20/02/2025 00:53:39;100;0;104.83;-4;-19.28;-4.85;952.0;10.80;75283;2837.254;-1759.878;1;98;-90;-95.2;45.2;45.5;13;14.0;27.6;0.0;
20/02/2025 00:53:59;100;0;102.29;-4;-20.21;-4.82;955.0;10.80;75281;2837.253;-1759.874;1;98;-90;-95.2;45.2;45.5;13;14.0;27.6;0.0;
20/02/2025 00:54:19;100;0;105.35;-4;-20.83;-4.64;957.9;10.80;75291;2837.252;-1759.870;1;98;-90;-93.5;45.2;45.5;13;14.0;27.6;0.0;
20/02/2025 00:54:39;100;0;101.50;-4;-19.79;-4.52;960.6;10.70;75275;2837.251;-1759.866;1;98;-90;-95.2;45.2;45.5;13;14.0;27.6;0.0;
20/02/2025 00:54:59;100;0;104.48;-4;-19.70;-4.72;962.8;10.70;75276;2837.250;-1759.863;1;98;-90;-95.2;45.2;45.5;15;14.9;27.6;0.0;
20/02/2025 00:55:19;100;0;102.97;-4;-20.16;-3.90;965.3;10.70;75271;2837.249;-1759.859;1;98;-90;-95.2;45.2;45.5;13;13.1;27.6;0.0;
20/02/2025 00:55:39;100;0;104.57;-4;-19.86;-5.16;967.4;10.70;75275;2837.249;-1759.856;1;98;-90;-95.2;45.2;45.5;15;14.9;27.6;0.0;
20/02/2025 00:55:59;100;0;100.34;-4;-19.74;-3.82;969.6;10.70;75275;2837.248;-1759.853;1;98;-90;-95.2;45.2;45.5;13;12.6;27.6;0.0;
20/02/2025 00:56:19;100;0;96.61;-4;-20.99;-5.24;971.9;10.60;75263;2837.248;-1759.849;1;98;-90;-95.2;45.2;45.5;13;12.6;27.6;0.0;
20/02/2025 00:56:39;100;0;95.94;-4;-20.46;-5.42;974.5;10.60;75252;2837.247;-1759.845;1;98;-90;-95.2;45.2;45.5;13;13.1;27.6;0.0;
20/02/2025 00:56:59;100;0;94.16;-4;-20.93;-6.06;976.9;10.60;75252;2837.247;-1759.842;1;98;-90;-95.2;45.2;45.5;13;12.6;27.6;0.0;
20/02/2025 00:57:19;100;0;95.14;-4;-20.56;-5.07;979.6;10.60;75258;2837.246;-1759.838;1;98;-90;-95.2;45.2;45.5;13;12.6;27.6;0.0;
20/02/2025 00:57:39;100;0;96.51;-4;-19.31;-4.82;982.2;10.60;75243;2837.246;-1759.834;1;98;-90;-93.5;45.2;45.5;13;13.1;27.6;0.0;
20/02/2025 00:57:59;100;0;96.80;-4;-20.55;-5.25;984.7;10.60;75247;2837.245;-1759.830;1;98;-90;-95.2;45.2;45.5;13;12.6;27.6;0.0;
20/02/2025 00:58:19;100;0;98.00;-4;-20.52;-5.18;987.3;10.50;75245;2837.245;-1759.826;1;98;-90;-95.2;45.2;45.5;13;13.1;27.6;0.0;
20/02/2025 00:58:39;100;0;95.70;-4;-19.73;-5.34;989.9;10.50;75238;2837.245;-1759.823;1;98;-90;-95.2;45.2;45.5;13;12.6;27.6;0.0;
20/02/2025 00:58:59;100;0;99.16;-4;-20.67;-5.02;992.6;10.50;75238;2837.244;-1759.819;1;98;-90;-95.2;45.2;45.5;13;12.6;27.6;16.2;
20/02/2025 00:59:02;118;0;99.46;-4;-19.26;-5.32;992.9;10.50;75235;2837.244;-1759.818;1;98;310;-90.3;27.4;27.4;9;9.0;27.6;15.4;
20/02/2025 00:59:12;118;0;96.44;-4;-8.02;-8.25;993.9;10.50;75214;2837.244;-1759.816;1;98;310;35.5;27.4;27.1;9;9.0;26.3;-1.0;
20/02/2025 00:59:22;118;0;87.83;-4;8.36;-6.63;993.9;10.50;74952;2837.243;-1759.816;1;98;310;161.3;27.4;27.0;9;9.0;26.2;-1.0;
20/02/2025 00:59:32;118;0;84.45;-4;17.17;-8.06;993.4;10.50;74705;2837.244;-1759.815;1;98;310;283.9;27.4;26.8;9;8.6;26.3;-1.0;
20/02/2025 00:59:42;118;0;83.93;-4;18.20;-7.57;992.5;10.50;74446;2837.244;-1759.814;1;98;310;312.9;27.4;26.8;9;9.0;26.4;-1.0;
20/02/2025 00:59:52;118;0;95.57;-4;13.65;-7.93;991.3;10.50;74408;2837.243;-1759.811;1;98;310;312.9;27.4;27.0;9;9.0;27.5;-1.0;
20/02/2025 01:00:12;117;0;83.75;-4;12.02;-7.55;990.0;10.50;74414;2837.243;-1759.809;1;98;310;312.9;27.4;27.0;9;9.0;27.6;-1.0;
20/02/2025 01:00:32;117;0;76.95;-4;14.25;-6.53;988.6;10.60;74414;2837.244;-1759.807;1;98;310;312.9;25.7;25.3;46;46.0;27.6;-1.0;
20/02/2025 01:00:52;117;0;84.16;-4;21.55;12.25;987.0;10.60;74411;2837.244;-1759.804;1;98;310;311.3;25.7;25.9;36;35.6;27.6;-1.0;
20/02/2025 01:01:12;117;0;86.71;-4;20.80;6.50;984.6;10.60;74409;2837.244;-1759.801;1;98;310;312.9;25.7;25.8;33;32.9;27.6;-1.0;
20/02/2025 01:01:32;117;0;90.39;-4;20.73;5.08;982.3;10.50;74397;2837.244;-1759.797;1;98;310;314.5;25.7;25.8;31;31.1;27.6;-1.0;
20/02/2025 01:01:52;117;0;89.66;-4;21.01;4.20;979.8;10.50;74388;2837.244;-1759.794;1;98;310;312.9;25.7;25.9;31;30.7;27.6;-1.0;
20/02/2025 01:02:12;117;0;91.37;-4;20.95;3.53;977.6;10.50;74399;2837.244;-1759.790;1;98;310;312.9;25.7;25.8;31;30.7;27.6;-1.0;
20/02/2025 01:02:32;117;0;91.16;-4;18.19;2.94;974.7;10.50;74388;2837.243;-1759.786;1;98;310;312.9;25.1;25.2;31;30.7;27.6;-1.0;
20/02/2025 01:02:52;117;0;93.25;-4;21.92;3.70;972.4;10.50;74390;2837.243;-1759.783;1;98;310;312.9;25.1;24.6;31;30.7;27.6;-1.0;
20/02/2025 01:03:12;117;0;92.72;-4;23.48;4.98;969.7;10.50;74393;2837.243;-1759.779;1;98;310;312.9;26.2;26.4;31;30.7;27.6;-1.0;
20/02/2025 01:03:32;117;0;96.35;-4;21.98;4.17;967.2;10.50;74382;2837.243;-1759.775;1;98;310;312.9;26.2;26.5;31;31.1;27.6;-1.0;
20/02/2025 01:03:52;117;0;95.66;-4;17.58;4.04;964.6;10.40;74386;2837.242;-1759.771;1;98;310;314.5;25.4;25.3;31;31.1;27.6;-1.0;
20/02/2025 01:04:12;117;0;97.97;-4;22.58;3.96;962.4;10.40;74375;2837.242;-1759.768;1;98;310;312.9;26.2;26.2;31;30.7;27.6;-1.0;
20/02/2025 01:04:32;117;0;101.66;-4;20.28;4.13;959.9;10.40;74367;2837.241;-1759.764;1;98;310;312.9;26.2;26.4;31;30.7;27.6;-1.0;
20/02/2025 01:04:52;117;0;102.33;-4;19.62;3.99;957.3;10.40;74359;2837.240;-1759.761;1;98;310;311.3;26.2;26.2;31;30.7;27.6;-1.0;
20/02/2025 01:05:12;117;0;102.05;-4;19.24;3.97;954.7;10.40;74362;2837.239;-1759.757;1;98;310;312.9;26.2;26.2;31;30.7;27.6;-1.0;
20/02/2025 01:05:32;117;0;103.14;-4;18.45;3.77;952.6;10.40;74357;2837.239;-1759.753;1;98;310;312.9;25.7;25.8;31;30.7;27.6;-1.0;
20/02/2025 01:05:52;117;0;104.10;-4;19.82;3.82;950.6;10.30;74358;2837.238;-1759.750;1;98;310;312.9;25.7;25.6;29;28.4;27.6;-1.0;
20/02/2025 01:06:12;117;0;102.44;-4;20.02;2.36;948.4;10.30;74348;2837.237;-1759.747;1;98;310;312.9;25.7;25.6;29;28.4;27.6;-1.0;
20/02/2025 01:06:32;117;0;101.96;-4;19.87;2.59;946.2;10.30;74346;2837.236;-1759.744;1;98;310;312.9;25.7;25.5;29;28.4;27.6;-1.0;
20/02/2025 01:06:52;117;0;102.68;-4;19.85;2.52;943.9;10.30;74342;2837.236;-1759.740;1;98;310;312.9;25.7;25.6;29;28.0;27.6;-1.0;
20/02/2025 01:07:12;117;0;102.93;-4;19.22;2.70;941.8;10.30;74341;2837.235;-1759.737;1;98;310;312.9;25.7;25.6;29;28.4;27.6;-1.0;
20/02/2025 01:07:32;117;0;101.09;-4;20.26;2.49;939.8;10.30;74345;2837.234;-1759.734;1;98;310;312.9;25.7;25.5;29;28.4;27.6;-1.0;
20/02/2025 01:07:52;117;0;83.80;-4;25.31;1.29;937.6;10.20;74342;2837.235;-1759.731;1;98;310;312.9;27.3;27.5;36;36.1;27.6;-1.0;
20/02/2025 01:08:12;117;0;79.14;-4;24.77;5.01;935.3;10.20;74333;2837.235;-1759.728;1;98;310;312.9;28.8;28.9;42;42.0;27.6;-1.0;
20/02/2025 01:08:32;117;0;86.38;-4;7.61;8.88;933.8;10.20;74342;2837.235;-1759.725;1;98;330;333.9;25.0;24.9;33;32.9;27.6;-1.0;
20/02/2025 01:08:52;117;0;83.76;-4;14.64;4.50;932.9;10.20;74300;2837.235;-1759.723;1;98;350;353.2;23.4;23.4;35;35.2;27.6;-1.0;
20/02/2025 01:09:12;117;0;74.83;-4;24.28;5.81;931.4;10.20;74262;2837.235;-1759.722;1;98;370;371.0;24.7;24.9;48;47.8;27.6;-1.0;
20/02/2025 01:09:32;117;0;72.39;-4;31.99;12.72;928.9;10.20;74221;2837.236;-1759.719;1;98;370;372.6;28.3;28.3;54;54.6;27.6;-1.0;
20/02/2025 01:09:52;117;0;69.27;-4;32.51;14.48;925.8;10.20;74208;2837.237;-1759.716;1;98;370;371.0;32.1;32.3;59;59.1;27.6;-1.0;
20/02/2025 01:10:12;117;0;76.43;-4;31.07;19.04;922.4;10.20;74203;2837.237;-1759.713;1;98;370;372.6;35.4;35.5;47;46.9;27.6;-1.0;
20/02/2025 01:10:32;117;0;83.97;-4;31.51;13.50;919.5;10.20;74209;2837.237;-1759.710;1;98;370;371.0;38.8;38.9;36;36.1;27.6;-1.0;
20/02/2025 01:10:52;117;0;80.95;-4;28.36;6.32;917.1;10.20;74209;2837.238;-1759.707;1;98;370;372.6;41.4;41.4;40;40.2;27.6;-1.0;
20/02/2025 01:11:12;117;0;78.00;-4;19.05;6.93;915.6;10.20;74200;2837.238;-1759.705;1;98;390;390.3;41.4;41.7;44;44.2;27.6;-1.0;
20/02/2025 01:11:32;117;0;86.56;-4;7.63;10.99;915.3;10.10;74163;2837.238;-1759.704;1;98;410;411.3;37.6;37.7;31;31.1;27.6;-1.0;
20/02/2025 01:11:52;117;0;89.65;-4;3.42;3.41;915.3;10.10;74106;2837.238;-1759.704;1;98;430;432.3;32.7;32.4;-12;-12.2;27.6;-1.0;
20/02/2025 01:12:12;117;0;60.74;-4;-10.18;-19.06;915.5;10.10;74064;2837.238;-1759.704;1;98;450;451.6;23.6;23.4;45;45.1;27.6;-1.0;
20/02/2025 01:12:32;117;0;75.69;-4;14.72;11.57;915.5;10.10;74020;2837.238;-1759.703;1;98;470;471.0;22.0;21.9;10;9.9;27.6;-1.0;
20/02/2025 01:12:52;117;0;89.60;-4;13.98;-8.90;915.3;10.10;73978;2837.238;-1759.703;1;98;490;493.5;20.2;19.9;30;29.8;27.6;-1.0;
20/02/2025 01:13:12;117;0;94.95;-4;25.44;3.89;914.3;10.10;73923;2837.237;-1759.702;1;98;500;503.2;21.9;21.9;30;30.2;27.6;-1.0;
20/02/2025 01:13:32;117;0;100.48;-4;24.62;4.14;912.1;10.10;73906;2837.237;-1759.699;1;98;500;503.2;23.2;23.3;30;29.8;27.6;-1.0;
20/02/2025 01:13:52;117;0;101.10;-4;21.86;4.19;909.5;10.10;73908;2837.236;-1759.695;1;98;500;503.2;23.2;23.4;30;29.8;27.6;-1.0;
20/02/2025 01:14:12;117;0;101.52;-4;20.93;4.07;907.2;10.10;73892;2837.236;-1759.692;1;98;500;503.2;23.2;23.4;30;29.8;27.6;-1.0;
20/02/2025 01:14:32;117;0;102.32;-4;20.76;4.02;904.7;10.10;73901;2837.235;-1759.688;1;98;500;501.6;23.2;23.4;30;29.8;27.6;-1.0;
20/02/2025 01:14:52;117;0;104.57;-4;19.83;3.94;902.1;10.10;73906;2837.234;-1759.684;1;98;500;503.2;23.2;23.4;30;29.8;27.6;-1.0;
20/02/2025 01:15:12;117;0;106.28;-4;19.20;4.07;899.6;10.10;73901;2837.233;-1759.681;1;98;500;504.8;23.2;23.4;28;28.0;27.6;-1.0;
20/02/2025 01:15:32;117;0;107.33;-4;18.39;2.84;897.2;10.10;73902;2837.232;-1759.677;1;98;500;504.8;22.8;22.8;28;28.0;27.6;-1.0;
20/02/2025 01:15:52;117;0;106.75;-4;18.68;2.40;895.0;10.10;73893;2837.231;-1759.674;1;98;500;504.8;22.4;22.4;28;27.5;27.6;-1.0;
20/02/2025 01:16:12;117;0;103.21;-4;19.07;3.06;892.8;10.10;73897;2837.230;-1759.670;1;98;500;504.8;22.4;22.5;28;28.0;27.6;-1.0;
20/02/2025 01:16:32;117;0;104.49;-4;20.56;2.95;890.5;10.10;73897;2837.229;-1759.667;1;98;500;503.2;22.4;22.4;28;28.0;27.6;-1.0;
20/02/2025 01:16:52;117;0;102.49;-4;20.91;2.03;888.1;10.10;73895;2837.229;-1759.663;1;98;500;504.8;22.4;22.1;30;29.8;27.6;-1.0;
20/02/2025 01:17:12;117;0;102.29;-4;20.73;3.89;885.2;10.10;73890;2837.228;-1759.659;1;98;500;506.5;22.4;22.2;30;30.2;27.6;-1.0;
20/02/2025 01:17:32;117;0;103.28;-4;20.56;4.78;882.1;10.10;73890;2837.227;-1759.655;1;98;500;504.8;22.4;22.1;30;30.2;27.6;-1.0;
20/02/2025 01:17:52;117;0;100.88;-4;21.13;4.47;879.0;10.10;73898;2837.226;-1759.651;1;98;500;504.8;22.4;22.1;30;30.2;27.6;-1.0;
20/02/2025 01:18:12;117;0;99.03;-4;20.53;4.10;875.8;10.10;73888;2837.225;-1759.646;1;98;500;504.8;22.4;22.1;30;29.8;27.6;-1.0;
20/02/2025 01:18:33;117;0;99.47;-4;21.66;4.88;872.8;10.10;73885;2837.224;-1759.642;1;98;500;503.2;22.4;22.1;30;30.2;27.6;-1.0;
20/02/2025 01:18:53;117;0;97.69;-4;21.42;4.07;869.5;10.10;73888;2837.224;-1759.637;1;98;500;504.8;22.4;22.2;30;30.2;27.6;-1.0;
20/02/2025 01:19:13;117;0;97.94;-4;21.13;4.16;866.2;10.00;73883;2837.223;-1759.632;1;98;500;506.5;22.4;22.1;30;30.2;27.6;-1.0;
20/02/2025 01:19:33;117;0;98.81;-4;21.23;4.05;862.8;10.00;73875;2837.222;-1759.627;1;98;500;503.2;22.4;22.1;30;30.2;27.6;-1.0;
20/02/2025 01:19:53;117;0;99.92;-4;21.51;4.11;859.3;10.00;73867;2837.222;-1759.623;1;98;500;501.6;22.4;22.1;30;30.2;27.6;-1.0;
20/02/2025 01:20:13;117;0;100.74;-4;21.78;4.14;855.7;10.00;73876;2837.221;-1759.618;1;98;500;503.2;22.4;22.1;30;30.2;27.6;-1.0;
20/02/2025 01:20:33;117;0;101.10;-4;20.57;4.22;852.1;10.00;73864;2837.220;-1759.612;1;98;500;504.8;22.4;22.1;30;30.2;27.6;-1.0;
20/02/2025 01:20:53;117;0;102.54;-4;21.26;4.31;848.8;10.00;73874;2837.219;-1759.608;1;98;500;504.8;22.4;22.2;30;30.2;27.6;-1.0;
20/02/2025 01:21:13;117;0;103.10;-4;20.07;4.11;845.5;10.00;73869;2837.218;-1759.603;1;98;500;504.8;22.4;22.1;30;29.8;27.6;-1.0;
20/02/2025 01:21:33;117;0;104.71;-4;20.70;3.99;842.5;10.00;73883;2837.217;-1759.599;1;98;500;504.8;22.4;22.1;30;30.2;27.6;-1.0;
20/02/2025 01:21:53;117;0;104.58;-4;20.58;4.01;839.3;10.00;73864;2837.216;-1759.594;1;97;500;506.5;22.4;22.1;28;28.0;27.6;-1.0;
20/02/2025 01:22:13;117;0;103.03;-4;20.87;2.82;836.2;10.00;73878;2837.215;-1759.590;1;97;500;501.6;22.4;22.1;28;28.0;27.6;-1.0;
20/02/2025 01:22:33;117;0;101.50;-4;20.71;2.78;833.0;10.00;73889;2837.214;-1759.585;1;97;500;504.8;22.4;22.1;30;29.8;27.6;-1.0;
20/02/2025 01:22:53;117;0;100.75;-4;20.29;4.50;829.9;10.00;73883;2837.213;-1759.581;1;97;500;504.8;22.4;22.1;30;30.2;27.6;-1.0;
20/02/2025 01:23:13;117;0;102.07;-4;21.10;4.29;826.6;10.00;73895;2837.212;-1759.576;1;97;500;504.8;22.4;22.1;30;30.2;27.6;-1.0;
20/02/2025 01:23:33;117;0;102.30;-4;21.47;4.16;823.2;10.00;73883;2837.211;-1759.571;1;97;500;504.8;22.4;22.1;30;30.2;27.6;-1.0;
20/02/2025 01:23:53;117;0;102.49;-4;20.77;4.06;819.8;10.00;73886;2837.210;-1759.566;1;97;500;504.8;22.4;21.9;30;30.2;27.6;-1.0;
20/02/2025 01:24:13;117;0;104.33;-4;20.85;3.85;816.5;10.00;73895;2837.209;-1759.562;1;97;500;504.8;22.4;22.1;28;28.0;27.6;-1.0;
20/02/2025 01:24:33;117;0;105.49;-4;21.40;2.99;813.2;10.00;73898;2837.208;-1759.557;1;97;500;504.8;22.4;21.9;28;28.0;27.6;-1.0;
20/02/2025 01:24:53;117;0;105.31;-4;20.53;3.03;809.9;10.00;73888;2837.206;-1759.552;1;97;500;504.8;22.4;22.1;28;28.0;27.6;-1.0;
20/02/2025 01:25:13;117;0;103.53;-4;20.41;2.67;806.7;10.00;73900;2837.205;-1759.548;1;97;500;504.8;22.4;22.1;28;28.0;27.6;-1.0;
20/02/2025 01:25:33;117;0;102.25;-4;20.21;3.00;803.5;10.00;73903;2837.204;-1759.543;1;97;500;504.8;22.4;21.9;28;28.0;27.6;-1.0;
20/02/2025 01:25:53;117;0;101.78;-4;20.74;2.89;800.4;10.00;73914;2837.204;-1759.539;1;97;500;504.8;22.4;22.1;28;28.0;27.6;-1.0;
20/02/2025 01:26:13;117;0;103.00;-4;20.50;2.85;797.4;10.00;73903;2837.203;-1759.534;1;97;500;504.8;22.4;21.9;28;28.0;27.6;-1.0;
20/02/2025 01:26:33;117;0;102.38;-4;20.68;2.87;794.3;10.00;73903;2837.202;-1759.530;1;97;500;504.8;22.4;22.1;28;28.0;27.6;-1.0;
