Timestamp;NavState;SecurityLevel;Heading;Declination;Pitch;Roll;Depth;Temperature;Pa;Lat;Lon;DeadReckoning;DesiredH;BallastCmd;BallastPos;LinCmd;LinPos;AngCmd;AngPos;Voltage;Altitude;
21/02/2025 23:47:22;119;0;300.13;-4;-55.67;-16.25;0.1;17.50;75706;2835.630;-1759.465;0;314;500;509.7;100.0;100.4;0;-0.5;27.2;-1.0;
21/02/2025 23:47:32;116;0;289.37;-4;-62.27;-16.75;0.0;17.50;75716;2835.633;-1759.482;0;314;500;509.7;100.0;100.4;0;-0.5;27.2;-1.0;
21/02/2025 23:48:03;116;0;295.12;-4;-47.39;-9.99;-0.0;17.60;75728;2835.640;-1759.481;0;314;500;508.1;100.0;100.6;0;-0.5;27.2;-1.0;
21/02/2025 23:48:38;116;0;342.04;-4;-52.43;-18.37;0.1;17.70;75737;2835.640;-1759.483;0;318;500;508.1;100.0;100.4;0;-0.5;27.2;-1.0;
21/02/2025 23:48:57;116;0;350.11;-4;-60.01;-11.19;0.0;17.70;75743;2835.643;-1759.485;0;318;500;509.7;100.0;100.6;0;-0.5;27.2;-1.0;
21/02/2025 23:49:17;116;0;330.94;-4;-55.63;-18.87;-0.0;17.80;75753;2835.645;-1759.486;0;318;500;509.7;100.0;100.4;0;-0.5;27.2;-1.0;
21/02/2025 23:50:20;116;0;317.27;-4;-58.65;-18.39;0.0;18.00;75772;2835.657;-1759.494;0;318;500;508.1;100.0;100.6;0;-0.5;27.2;-1.0;
21/02/2025 23:51:53;116;0;316.74;-4;-62.84;-11.68;0.1;18.40;75798;2835.669;-1759.510;0;318;500;508.1;100.0;100.4;0;-0.5;27.2;-1.0;
21/02/2025 23:53:15;116;0;279.23;-4;-55.66;-16.88;0.0;18.70;75828;2835.683;-1759.517;0;318;500;508.1;100.0;100.4;0;-0.5;27.2;-1.0;
21/02/2025 23:53:35;110;0;263.43;-4;-57.16;-11.79;0.0;18.80;75842;2835.683;-1759.517;0;318;-70;391.9;100.0;100.4;-7;-7.2;27.3;-1.0;
21/02/2025 23:53:45;110;0;236.70;-4;-61.29;-10.17;0.3;18.90;76188;2835.683;-1759.517;1;318;-70;240.3;100.0;100.4;-7;-7.2;27.2;-1.0;
21/02/2025 23:53:55;110;0;247.25;-4;-63.92;-16.66;0.7;18.90;76434;2835.683;-1759.517;1;318;-70;79.0;100.0;100.4;-7;-7.7;27.2;-1.0;
21/02/2025 23:54:05;110;0;231.27;-4;-64.28;-10.78;0.8;18.90;76777;2835.683;-1759.517;1;318;-70;-67.7;100.0;100.4;-7;-7.7;27.2;-1.0;
21/02/2025 23:54:15;110;0;212.75;-4;-69.25;-6.89;1.1;19.00;77075;2835.683;-1759.517;1;318;-70;-67.7;42.4;42.4;-7;-7.7;27.2;-1.0;
21/02/2025 23:54:35;100;0;229.08;-4;-33.96;-15.71;4.8;19.00;77040;2835.681;-1759.519;1;318;-70;-66.1;42.4;42.0;-7;-7.7;27.2;-1.0;
21/02/2025 23:54:55;100;0;235.23;-4;-19.75;-15.65;8.3;19.10;77046;2835.679;-1759.523;1;318;-70;-62.9;42.4;42.6;-70;-69.9;27.2;-1.0;
21/02/2025 23:55:15;100;0;241.18;-4;-18.57;-46.06;10.9;19.20;77040;2835.677;-1759.526;1;318;-70;-61.3;42.9;42.9;-70;-69.9;27.2;-1.0;
21/02/2025 23:55:35;100;0;252.67;-4;-19.18;-45.88;13.6;19.20;77036;2835.677;-1759.530;1;318;-70;-59.7;42.9;43.2;-58;-58.2;27.2;0.0;
21/02/2025 23:55:55;100;0;267.04;-4;-17.24;-39.31;16.0;19.30;77052;2835.677;-1759.533;1;318;-70;-61.3;43.7;44.2;-41;-41.1;27.2;0.0;
21/02/2025 23:56:15;100;0;280.25;-4;-19.89;-30.69;18.7;19.30;77048;2835.677;-1759.537;1;318;-70;-61.3;43.7;44.2;-23;-23.0;27.2;0.0;
21/02/2025 23:56:35;100;0;289.78;-4;-21.18;-21.75;21.3;19.30;77054;2835.678;-1759.540;1;318;-70;-59.7;43.7;44.3;-8;-8.1;27.2;0.0;
21/02/2025 23:56:55;100;0;296.39;-4;-23.53;-15.05;24.1;19.30;77058;2835.680;-1759.543;1;318;-70;-62.9;42.6;42.4;3;3.2;27.3;0.0;
21/02/2025 23:57:15;100;0;303.59;-4;-19.05;-9.62;26.7;19.30;77059;2835.682;-1759.546;1;318;-70;-59.7;42.6;42.4;12;12.2;27.2;0.0;
21/02/2025 23:57:35;100;0;304.39;-4;-19.81;-5.24;29.3;19.30;77059;2835.684;-1759.549;1;318;-70;-59.7;42.6;42.3;12;12.6;27.2;0.0;
21/02/2025 23:57:55;100;0;304.90;-4;-19.99;-5.22;31.9;19.30;77061;2835.686;-1759.552;1;318;-70;-61.3;42.6;42.3;12;12.6;27.2;0.0;
21/02/2025 23:58:15;100;0;306.42;-4;-19.05;-5.07;34.4;19.30;77073;2835.688;-1759.554;1;318;-70;-61.3;42.6;42.4;12;12.6;27.2;0.0;
21/02/2025 23:58:35;100;0;307.37;-4;-19.74;-5.16;37.0;19.30;77073;2835.690;-1759.557;1;318;-70;-59.7;42.6;42.4;14;14.4;27.2;0.0;
21/02/2025 23:58:55;100;0;308.33;-4;-20.34;-4.11;39.6;19.30;77086;2835.693;-1759.560;1;318;-70;-61.3;42.6;42.4;14;14.4;27.2;0.0;
21/02/2025 23:59:15;100;0;310.61;-4;-19.18;-4.21;42.4;19.30;77086;2835.695;-1759.563;1;318;-70;-61.3;42.6;42.3;14;14.4;27.2;0.0;
21/02/2025 23:59:35;100;0;311.87;-4;-19.77;-4.23;45.1;19.30;77094;2835.698;-1759.565;1;318;-70;-61.3;42.6;42.4;14;14.4;27.2;0.0;
21/02/2025 23:59:55;100;0;312.14;-4;-19.92;-4.11;47.9;19.30;77097;2835.700;-1759.568;1;318;-70;-61.3;42.6;42.4;14;14.4;27.2;0.0;
22/02/2025 00:00:15;100;0;310.54;-4;-19.23;-4.16;50.7;19.30;77100;2835.703;-1759.571;1;318;-70;-59.7;42.6;42.4;14;14.4;27.2;0.0;
22/02/2025 00:00:35;100;0;307.05;-4;-19.50;-4.15;53.5;19.30;77102;2835.705;-1759.574;1;318;-70;-59.7;42.6;42.3;14;14.9;27.2;0.0;
22/02/2025 00:00:55;100;0;304.32;-4;-19.84;-4.22;56.2;19.30;77100;2835.707;-1759.577;1;318;-70;-61.3;42.6;42.4;12;12.2;27.2;0.0;
22/02/2025 00:01:15;100;0;303.89;-4;-19.27;-5.73;59.0;19.30;77114;2835.709;-1759.580;1;318;-70;-61.3;42.6;42.4;12;11.7;27.2;0.0;
22/02/2025 00:01:35;100;0;303.36;-4;-19.09;-5.74;61.7;19.30;77114;2835.711;-1759.584;1;318;-70;-61.3;42.6;42.4;10;9.9;27.2;0.0;
22/02/2025 00:01:55;100;0;303.57;-4;-19.13;-6.88;64.3;19.40;77110;2835.714;-1759.587;1;318;-70;-61.3;42.6;42.4;10;9.9;27.2;0.0;
22/02/2025 00:02:15;100;0;305.78;-4;-19.45;-6.79;67.0;19.40;77113;2835.716;-1759.590;1;318;-70;-59.7;42.6;42.3;13;13.1;27.2;0.0;
22/02/2025 00:02:35;100;0;306.47;-4;-19.26;-4.66;69.6;19.30;77116;2835.718;-1759.592;1;318;-70;-61.3;42.6;42.4;13;13.5;27.2;0.0;
22/02/2025 00:02:55;100;0;306.18;-4;-19.24;-4.67;72.3;19.30;77124;2835.720;-1759.595;1;318;-70;-61.3;42.6;42.4;13;14.0;27.2;0.0;
22/02/2025 00:03:15;100;0;306.81;-4;-19.24;-4.68;75.0;19.40;77132;2835.722;-1759.598;1;318;-70;-61.3;42.6;42.4;13;14.0;27.2;0.0;
22/02/2025 00:03:35;100;0;307.60;-4;-19.29;-4.70;77.7;19.40;77135;2835.725;-1759.601;1;318;-70;-61.3;42.6;42.3;13;14.0;27.2;0.0;
22/02/2025 00:03:55;100;0;307.84;-4;-18.90;-4.69;80.3;19.40;77135;2835.727;-1759.604;1;318;-70;-61.3;43.0;43.2;13;14.0;27.2;0.0;
22/02/2025 00:04:15;100;0;307.74;-4;-20.39;-4.74;83.1;19.40;77135;2835.729;-1759.607;1;318;-70;-61.3;43.0;43.4;13;14.0;27.2;0.0;
22/02/2025 00:04:35;100;0;307.97;-4;-20.67;-4.68;85.9;19.40;77141;2835.732;-1759.610;1;318;-70;-61.3;43.0;43.4;13;14.0;27.2;0.0;
22/02/2025 00:04:55;100;0;308.14;-4;-20.77;-4.69;88.7;19.40;77146;2835.734;-1759.613;1;318;-70;-59.7;43.0;43.4;13;13.5;27.2;0.0;
22/02/2025 00:05:15;100;0;309.28;-4;-20.47;-4.64;91.5;19.40;77143;2835.736;-1759.616;1;318;-70;-59.7;43.0;43.4;13;14.0;27.2;0.0;
22/02/2025 00:05:35;100;0;306.33;-4;-19.96;-4.73;94.3;19.40;77132;2835.739;-1759.619;1;318;-70;-61.3;43.0;43.4;13;14.0;27.2;0.0;
22/02/2025 00:05:55;100;0;305.66;-4;-20.71;-4.73;97.0;19.40;77113;2835.741;-1759.621;1;318;-70;-61.3;43.0;43.4;13;13.5;27.2;0.0;
22/02/2025 00:06:15;100;0;307.88;-4;-20.74;-4.67;99.6;19.30;77093;2835.743;-1759.624;1;318;-70;-61.3;43.0;43.4;13;13.5;27.2;0.0;
22/02/2025 00:06:35;100;0;311.57;-4;-19.87;-4.75;102.2;19.30;77081;2835.745;-1759.627;1;318;-70;-61.3;43.0;43.6;13;14.0;27.2;0.0;
22/02/2025 00:06:55;100;0;314.18;-4;-20.12;-4.74;104.7;19.30;77075;2835.747;-1759.629;1;318;-70;-61.3;43.0;43.4;13;14.0;27.2;0.0;
22/02/2025 00:07:15;100;0;319.45;-4;-20.34;-4.65;107.2;19.30;77054;2835.750;-1759.631;1;318;-70;-61.3;43.0;43.4;15;15.3;27.2;0.0;
22/02/2025 00:07:35;100;0;321.51;-4;-20.75;-3.73;109.7;19.30;77032;2835.753;-1759.633;1;318;-70;-59.7;43.0;43.4;15;15.8;27.2;0.0;
22/02/2025 00:07:55;100;0;315.79;-4;-20.79;-3.69;112.3;19.20;77007;2835.755;-1759.635;1;318;-70;-61.3;43.0;43.4;15;15.8;27.2;0.0;
22/02/2025 00:08:15;100;0;313.92;-4;-20.65;-3.65;114.9;19.20;77001;2835.757;-1759.638;1;318;-70;-61.3;43.0;43.4;15;15.8;27.2;0.0;
22/02/2025 00:08:35;100;0;313.01;-4;-20.55;-3.61;117.6;19.20;76980;2835.760;-1759.640;1;318;-70;-61.3;43.0;43.4;15;15.8;27.2;0.0;
22/02/2025 00:08:55;100;0;312.14;-4;-20.15;-3.70;120.2;19.20;76958;2835.762;-1759.643;1;318;-70;-61.3;43.0;43.4;15;15.8;27.2;0.0;
22/02/2025 00:09:15;100;0;312.44;-4;-20.17;-3.73;122.6;19.10;76943;2835.764;-1759.645;1;318;-70;-61.3;43.0;43.4;15;15.8;27.2;0.0;
22/02/2025 00:09:35;100;0;309.98;-4;-20.26;-3.69;124.9;19.10;76936;2835.766;-1759.647;1;318;-70;-61.3;43.0;43.4;15;15.8;27.2;0.0;
22/02/2025 00:09:55;100;0;308.16;-4;-19.97;-3.76;127.3;19.10;76925;2835.768;-1759.650;1;318;-70;-61.3;43.0;43.4;13;13.1;27.2;0.0;
22/02/2025 00:10:15;100;0;308.54;-4;-20.20;-5.22;129.8;19.00;76905;2835.771;-1759.652;1;318;-70;-61.3;43.0;43.4;13;12.6;27.2;0.0;
22/02/2025 00:10:35;100;0;307.82;-4;-20.33;-5.21;132.4;19.00;76895;2835.773;-1759.655;1;318;-70;-61.3;43.0;43.4;13;12.6;27.2;0.0;
22/02/2025 00:10:55;100;0;303.32;-4;-20.17;-5.19;134.9;19.00;76888;2835.775;-1759.658;1;318;-70;-59.7;43.0;43.6;11;10.8;27.2;0.0;
22/02/2025 00:11:16;100;0;295.08;-4;-19.94;-6.48;137.5;18.90;76867;2835.776;-1759.661;1;318;-70;-61.3;43.0;43.4;0;0.0;27.2;0.0;
22/02/2025 00:11:36;100;0;296.50;-4;-19.42;-11.66;139.9;18.90;76855;2835.778;-1759.664;1;318;-70;-59.7;43.0;43.4;3;3.2;27.2;0.0;
22/02/2025 00:11:56;100;0;298.51;-4;-19.85;-9.79;142.5;18.90;76845;2835.779;-1759.667;1;318;-70;-61.3;43.0;43.4;5;5.0;27.2;0.0;
22/02/2025 00:12:16;100;0;300.57;-4;-19.55;-9.03;145.1;18.80;76827;2835.781;-1759.670;1;318;-70;-59.7;43.0;43.4;8;8.1;27.2;0.0;
22/02/2025 00:12:36;100;0;302.65;-4;-19.43;-7.23;147.6;18.80;76823;2835.783;-1759.673;1;318;-70;-59.7;43.0;43.6;10;10.4;27.2;0.0;
22/02/2025 00:12:56;100;0;303.08;-4;-19.82;-6.24;150.2;18.80;76808;2835.785;-1759.676;1;318;-70;-61.3;43.0;43.4;10;10.4;27.2;0.0;
22/02/2025 00:13:16;100;0;302.06;-4;-20.06;-6.23;152.7;18.70;76798;2835.787;-1759.678;1;318;-70;-61.3;43.0;43.6;10;10.4;27.2;0.0;
22/02/2025 00:13:36;100;0;300.47;-4;-20.06;-6.28;155.4;18.70;76794;2835.789;-1759.681;1;318;-70;-61.3;43.0;43.6;8;8.1;27.2;0.0;
22/02/2025 00:13:56;100;0;300.74;-4;-19.83;-7.79;158.0;18.70;76782;2835.791;-1759.684;1;318;-70;-61.3;43.0;43.4;8;7.7;27.2;0.0;
22/02/2025 00:14:16;100;0;305.30;-4;-19.67;-7.74;160.6;18.60;76775;2835.793;-1759.687;1;318;-70;-61.3;43.0;43.4;12;12.6;27.2;0.0;
22/02/2025 00:14:36;100;0;307.86;-4;-19.93;-5.04;163.2;18.60;76766;2835.795;-1759.690;1;318;-70;-61.3;43.0;43.4;12;13.1;27.2;0.0;
22/02/2025 00:14:56;100;0;309.75;-4;-19.97;-5.02;165.8;18.50;76765;2835.797;-1759.693;1;318;-70;-61.3;43.0;43.6;12;13.1;27.2;0.0;
22/02/2025 00:15:16;100;0;310.31;-4;-19.64;-5.16;168.5;18.50;76744;2835.800;-1759.695;1;318;-70;-61.3;43.0;43.6;12;13.1;27.2;0.0;
22/02/2025 00:15:36;100;0;309.32;-4;-19.78;-5.12;171.1;18.50;76742;2835.802;-1759.698;1;318;-70;-61.3;43.0;43.4;12;13.1;27.2;0.0;
22/02/2025 00:15:56;100;0;309.97;-4;-19.63;-5.00;173.8;18.40;76738;2835.804;-1759.701;1;318;-70;-64.5;43.0;43.4;12;13.1;27.2;0.0;
22/02/2025 00:16:16;100;0;312.36;-4;-19.70;-5.05;176.5;18.40;76738;2835.807;-1759.703;1;318;-70;-61.3;43.0;43.4;12;13.1;27.2;0.0;
22/02/2025 00:16:36;100;0;313.93;-4;-19.95;-5.07;179.1;18.30;76730;2835.809;-1759.706;1;318;-70;-61.3;43.0;43.6;12;12.6;27.2;0.0;
22/02/2025 00:16:56;100;0;315.62;-4;-19.87;-5.10;181.6;18.30;76737;2835.812;-1759.708;1;318;-70;-61.3;43.0;43.4;12;13.1;27.2;0.0;
22/02/2025 00:17:16;100;0;319.03;-4;-19.73;-5.08;184.3;18.30;76728;2835.814;-1759.710;1;318;-70;-59.7;43.0;43.4;14;14.0;27.3;0.0;
22/02/2025 00:17:36;100;0;321.60;-4;-19.66;-4.34;186.8;18.20;76708;2835.817;-1759.712;1;318;-70;-59.7;43.0;43.4;14;14.4;27.2;0.0;
22/02/2025 00:17:56;100;0;318.47;-4;-20.04;-4.36;189.6;18.20;76698;2835.820;-1759.715;1;318;-70;-59.7;43.0;43.6;14;14.4;27.2;0.0;
22/02/2025 00:18:16;100;0;316.31;-4;-20.01;-4.29;192.1;18.20;76695;2835.822;-1759.717;1;318;-70;-59.7;43.0;43.4;14;14.4;27.2;0.0;
22/02/2025 00:18:36;100;0;314.08;-4;-20.19;-4.15;194.8;18.10;76687;2835.825;-1759.719;1;318;-70;-61.3;43.0;43.4;14;14.4;27.2;0.0;
22/02/2025 00:18:56;100;0;312.28;-4;-19.88;-4.32;197.4;18.10;76678;2835.827;-1759.722;1;318;-70;-61.3;43.0;43.4;14;14.4;27.2;0.0;
22/02/2025 00:19:16;100;0;307.76;-4;-20.14;-4.33;200.1;18.00;76663;2835.829;-1759.725;1;318;-70;-61.3;43.0;43.4;14;14.4;27.2;0.0;
22/02/2025 00:19:36;100;0;302.46;-4;-20.17;-4.36;202.8;18.00;76661;2835.831;-1759.728;1;318;-70;-61.3;43.0;43.6;10;9.9;27.2;0.0;
22/02/2025 00:19:56;100;0;301.46;-4;-20.09;-6.86;205.4;18.00;76654;2835.833;-1759.731;1;318;-70;-61.3;43.0;43.4;10;9.5;27.2;0.0;
22/02/2025 00:20:16;100;0;305.75;-4;-19.56;-6.83;208.0;17.90;76637;2835.835;-1759.734;1;318;-70;-59.7;43.0;43.4;12;12.2;27.2;0.0;
22/02/2025 00:20:36;100;0;306.38;-4;-19.65;-5.33;210.6;17.90;76628;2835.837;-1759.736;1;318;-70;-62.9;43.0;43.6;12;12.6;27.2;0.0;
22/02/2025 00:20:56;100;0;309.62;-4;-19.97;-5.28;213.1;17.90;76613;2835.840;-1759.739;1;318;-70;-61.3;43.0;43.4;12;12.6;27.2;0.0;
22/02/2025 00:21:16;100;0;310.70;-4;-19.37;-5.31;215.8;17.80;76609;2835.842;-1759.742;1;318;-70;-61.3;43.0;43.4;12;12.6;27.2;0.0;
22/02/2025 00:21:36;100;0;308.48;-4;-19.85;-5.36;218.3;17.80;76597;2835.844;-1759.744;1;318;-70;-61.3;43.0;43.6;12;12.6;27.2;0.0;
22/02/2025 00:21:56;100;0;306.36;-4;-19.75;-5.32;220.8;17.70;76576;2835.846;-1759.747;1;318;-70;-59.7;43.0;43.4;12;12.6;27.2;0.0;
22/02/2025 00:22:16;100;0;302.25;-4;-19.66;-5.28;223.4;17.70;76584;2835.848;-1759.750;1;318;-70;-59.7;43.0;43.4;9;9.0;27.2;0.0;
22/02/2025 00:22:36;100;0;305.51;-4;-19.32;-7.30;225.9;17.70;76572;2835.850;-1759.753;1;318;-70;-61.3;43.0;43.6;12;12.2;27.2;0.0;
22/02/2025 00:22:56;100;0;308.87;-4;-19.59;-5.15;228.5;17.60;76557;2835.852;-1759.755;1;318;-70;-61.3;43.0;43.4;12;12.6;27.2;0.0;
22/02/2025 00:23:16;100;0;311.22;-4;-19.60;-5.23;231.1;17.60;76553;2835.855;-1759.758;1;318;-70;-61.3;43.0;43.6;12;12.6;27.2;0.0;
22/02/2025 00:23:36;100;0;313.95;-4;-19.43;-5.09;233.6;17.50;76546;2835.857;-1759.760;1;318;-70;-61.3;43.0;43.4;12;12.6;27.2;0.0;
22/02/2025 00:23:56;100;0;314.11;-4;-19.27;-5.20;236.1;17.50;76537;2835.860;-1759.763;1;318;-70;-61.3;43.0;43.6;12;12.6;27.2;0.0;
22/02/2025 00:24:16;100;0;314.30;-4;-19.54;-5.18;238.5;17.50;76527;2835.862;-1759.765;1;318;-70;-61.3;43.0;43.6;12;12.6;27.2;0.0;
22/02/2025 00:24:36;100;0;313.99;-4;-19.30;-5.18;241.0;17.40;76522;2835.864;-1759.767;1;318;-70;-61.3;43.0;43.4;12;12.6;27.2;0.0;
22/02/2025 00:24:56;100;0;311.25;-4;-19.54;-5.22;243.5;17.40;76520;2835.867;-1759.770;1;318;-70;-61.3;43.0;43.6;12;12.6;27.2;0.0;
22/02/2025 00:25:16;100;0;306.87;-4;-19.74;-5.18;246.1;17.40;76508;2835.869;-1759.773;1;318;-70;-61.3;43.0;43.6;12;12.6;27.2;0.0;
22/02/2025 00:25:36;100;0;304.35;-4;-19.75;-5.14;248.7;17.30;76492;2835.871;-1759.775;1;318;-70;-59.7;43.0;43.6;12;12.6;27.2;0.0;
22/02/2025 00:25:56;100;0;304.89;-4;-19.69;-5.15;251.3;17.30;76494;2835.873;-1759.778;1;318;-70;-61.3;43.0;43.4;12;12.6;27.2;0.0;
22/02/2025 00:26:16;100;0;303.38;-4;-19.63;-5.10;254.0;17.20;76481;2835.875;-1759.781;1;318;-70;-61.3;43.0;43.4;9;9.0;27.2;0.0;
22/02/2025 00:26:36;100;0;303.68;-4;-19.43;-7.11;256.5;17.20;76480;2835.877;-1759.784;1;318;-70;-61.3;43.0;43.6;9;9.0;27.2;0.0;
22/02/2025 00:26:56;100;0;304.32;-4;-19.26;-7.04;259.1;17.20;76477;2835.879;-1759.787;1;318;-70;-59.7;43.0;43.4;11;10.8;27.2;0.0;
22/02/2025 00:27:16;100;0;304.10;-4;-19.61;-6.04;261.8;17.10;76462;2835.881;-1759.790;1;318;-70;-64.5;43.0;43.4;11;10.8;27.2;0.0;
22/02/2025 00:27:36;100;0;303.12;-4;-19.51;-6.00;264.3;17.10;76469;2835.883;-1759.793;1;318;-70;-61.3;43.0;43.6;11;10.8;27.2;0.0;
22/02/2025 00:27:56;100;0;303.16;-4;-19.72;-6.02;267.0;17.10;76465;2835.885;-1759.796;1;318;-70;-59.7;43.0;43.6;11;10.8;27.2;0.0;
22/02/2025 00:28:16;100;0;300.95;-4;-19.80;-6.06;269.7;17.00;76464;2835.887;-1759.799;1;318;-70;-61.3;43.0;43.4;8;8.1;27.2;0.0;
22/02/2025 00:28:36;100;0;301.46;-4;-19.56;-7.68;272.4;17.00;76454;2835.889;-1759.802;1;318;-70;-61.3;43.0;43.4;8;7.7;27.2;0.0;
22/02/2025 00:28:56;100;0;303.79;-4;-19.23;-7.72;275.1;17.00;76436;2835.891;-1759.805;1;318;-70;-61.3;43.0;43.4;8;7.7;27.2;0.0;
22/02/2025 00:29:16;100;0;309.68;-4;-19.01;-7.75;277.8;16.90;76427;2835.893;-1759.808;1;318;-70;-59.7;43.0;43.4;12;12.2;27.2;0.0;
22/02/2025 00:29:36;100;0;312.50;-4;-19.26;-5.30;280.4;16.90;76420;2835.896;-1759.811;1;318;-70;-61.3;43.0;43.6;12;12.2;27.2;0.0;
22/02/2025 00:29:56;100;0;314.72;-4;-19.36;-5.22;283.0;16.80;76419;2835.898;-1759.813;1;318;-70;-61.3;43.0;43.4;12;12.2;27.2;0.0;
22/02/2025 00:30:16;100;0;317.11;-4;-19.31;-5.25;285.6;16.80;76415;2835.901;-1759.816;1;318;-70;-62.9;43.0;43.6;12;12.2;27.2;0.0;
22/02/2025 00:30:36;100;0;319.75;-4;-19.18;-5.26;288.2;16.80;76403;2835.904;-1759.818;1;318;-70;-61.3;43.0;43.6;14;14.0;27.2;0.0;
22/02/2025 00:30:56;100;0;320.75;-4;-19.23;-4.29;290.9;16.70;76396;2835.907;-1759.820;1;318;-70;-61.3;43.0;43.6;14;14.4;27.2;0.0;
22/02/2025 00:31:16;100;0;322.40;-4;-19.50;-4.37;293.5;16.70;76408;2835.909;-1759.822;1;318;-70;-59.7;43.0;43.6;14;14.9;27.2;0.0;
22/02/2025 00:31:36;100;0;323.78;-4;-19.29;-4.22;296.1;16.70;76393;2835.912;-1759.824;1;318;-70;-61.3;43.0;43.4;16;15.8;27.2;0.0;
22/02/2025 00:31:56;100;0;323.01;-4;-19.31;-3.58;298.8;16.60;76387;2835.915;-1759.826;1;318;-70;-61.3;43.0;43.4;16;15.8;27.2;0.0;
22/02/2025 00:32:16;100;0;324.63;-4;-19.44;-3.56;301.3;16.60;76383;2835.918;-1759.828;1;318;-70;-59.7;43.0;43.6;16;15.8;27.2;0.0;
22/02/2025 00:32:36;100;0;326.66;-4;-19.41;-3.59;304.0;16.60;76382;2835.921;-1759.830;1;318;-70;-61.3;43.0;43.4;19;19.4;27.2;0.0;
22/02/2025 00:32:56;100;0;326.91;-4;-19.43;-1.81;306.6;16.50;76375;2835.924;-1759.832;1;318;-70;-59.7;43.0;43.4;19;19.4;27.2;0.0;
22/02/2025 00:33:16;100;0;327.09;-4;-19.47;-1.85;309.1;16.50;76368;2835.927;-1759.834;1;318;-70;-59.7;43.0;43.6;19;19.4;27.2;0.0;
22/02/2025 00:33:36;100;0;326.57;-4;-19.80;-1.84;311.8;16.50;76365;2835.930;-1759.836;1;318;-70;-61.3;43.0;43.6;19;19.4;27.2;0.0;
22/02/2025 00:33:56;100;0;324.08;-4;-20.09;-1.80;314.5;16.40;76350;2835.933;-1759.838;1;318;-70;-61.3;43.0;43.6;17;17.1;27.2;0.0;
22/02/2025 00:34:16;100;0;321.56;-4;-19.95;-3.25;317.3;16.40;76351;2835.936;-1759.840;1;318;-70;-61.3;43.0;43.4;14;13.5;27.2;0.0;
22/02/2025 00:34:36;100;0;318.50;-4;-19.41;-4.94;320.1;16.40;76347;2835.939;-1759.842;1;318;-70;-61.3;43.0;43.4;14;13.5;27.2;0.0;
22/02/2025 00:34:56;100;0;314.57;-4;-19.30;-4.95;322.8;16.40;76334;2835.942;-1759.845;1;318;-70;-61.3;43.0;43.4;14;13.5;27.2;0.0;
22/02/2025 00:35:16;100;0;314.04;-4;-19.39;-5.00;325.3;16.30;76327;2835.944;-1759.848;1;318;-70;-61.3;43.0;43.4;14;13.5;27.2;0.0;
22/02/2025 00:35:36;100;0;313.54;-4;-19.44;-4.92;327.9;16.30;76318;2835.947;-1759.850;1;318;-70;-61.3;43.0;43.4;14;13.5;27.2;0.0;
22/02/2025 00:35:56;100;0;311.59;-4;-19.51;-4.94;330.6;16.30;76311;2835.949;-1759.853;1;318;-70;-59.7;43.0;43.4;14;13.5;27.2;0.0;
22/02/2025 00:36:16;100;0;310.22;-4;-19.48;-4.96;333.3;16.20;76304;2835.952;-1759.856;1;318;-70;-61.3;43.0;43.6;14;13.5;27.2;0.0;
22/02/2025 00:36:36;100;0;310.47;-4;-19.60;-4.93;335.9;16.20;76300;2835.954;-1759.858;1;318;-70;-61.3;43.0;43.4;14;13.5;27.2;0.0;
22/02/2025 00:36:56;100;0;309.05;-4;-19.43;-4.94;338.6;16.20;76292;2835.956;-1759.861;1;318;-70;-61.3;43.0;43.4;14;13.5;27.2;0.0;
22/02/2025 00:37:16;100;0;308.77;-4;-19.56;-4.99;341.3;16.10;76289;2835.959;-1759.864;1;318;-70;-61.3;43.0;43.4;12;12.2;27.2;0.0;
22/02/2025 00:37:36;100;0;307.60;-4;-19.19;-5.75;344.0;16.10;76284;2835.961;-1759.867;1;318;-70;-61.3;43.0;43.4;12;11.7;27.2;0.0;
22/02/2025 00:37:56;100;0;308.70;-4;-19.07;-5.71;346.6;16.10;76272;2835.963;-1759.870;1;318;-70;-59.7;43.0;43.4;12;11.7;27.2;0.0;
22/02/2025 00:38:16;100;0;309.55;-4;-18.81;-5.80;349.1;16.00;76276;2835.965;-1759.872;1;318;-70;-59.7;43.3;43.3;12;11.7;27.2;0.0;
22/02/2025 00:38:36;100;0;306.77;-4;-18.97;-5.78;351.6;16.00;76267;2835.968;-1759.875;1;318;-70;-61.3;43.6;43.6;12;11.7;27.2;0.0;
22/02/2025 00:38:56;100;0;306.19;-4;-19.33;-5.77;354.2;16.00;76255;2835.970;-1759.878;1;318;-70;-61.3;43.6;43.7;12;11.7;27.2;0.0;
22/02/2025 00:39:16;100;0;307.61;-4;-19.36;-5.70;356.7;15.90;76253;2835.972;-1759.881;1;318;-70;-61.3;43.6;43.7;12;11.7;27.2;0.0;
22/02/2025 00:39:36;100;0;309.04;-4;-19.60;-5.71;359.2;15.90;76243;2835.974;-1759.883;1;318;-70;-61.3;43.6;43.7;12;11.7;27.2;0.0;
22/02/2025 00:39:56;100;0;311.09;-4;-19.59;-5.75;361.9;15.90;76231;2835.976;-1759.886;1;318;-70;-61.3;43.6;43.7;12;11.7;27.2;0.0;
22/02/2025 00:40:16;100;0;315.20;-4;-19.39;-5.75;364.5;15.90;76231;2835.979;-1759.888;1;318;-70;-61.3;43.6;43.6;12;11.7;27.2;0.0;
22/02/2025 00:40:36;100;0;318.43;-4;-19.44;-5.71;367.0;15.80;76214;2835.982;-1759.891;1;318;-70;-61.3;43.6;43.7;12;11.7;27.2;0.0;
22/02/2025 00:40:56;100;0;320.75;-4;-19.34;-5.76;369.7;15.80;76212;2835.985;-1759.893;1;318;-70;-61.3;43.6;43.7;14;14.0;27.2;0.0;
22/02/2025 00:41:16;100;0;320.46;-4;-19.36;-4.43;372.2;15.80;76211;2835.987;-1759.895;1;318;-70;-59.7;43.6;43.7;14;14.4;27.2;0.0;
22/02/2025 00:41:36;100;0;321.61;-4;-19.23;-4.44;374.6;15.70;76192;2835.990;-1759.897;1;318;-70;-61.3;43.6;43.7;14;14.4;27.2;0.0;
22/02/2025 00:41:56;100;0;320.49;-4;-19.66;-4.42;377.0;15.70;76196;2835.992;-1759.899;1;318;-70;-61.3;43.6;43.7;14;14.4;27.2;0.0;
22/02/2025 00:42:16;100;0;319.40;-4;-19.73;-4.44;379.5;15.70;76190;2835.995;-1759.901;1;318;-70;-59.7;43.6;43.7;14;14.4;27.2;0.0;
22/02/2025 00:42:36;100;0;318.39;-4;-19.75;-4.43;382.0;15.60;76177;2835.997;-1759.903;1;318;-70;-61.3;43.6;43.7;14;14.4;27.2;0.0;
22/02/2025 00:42:56;100;0;319.89;-4;-19.85;-4.36;384.6;15.60;76171;2836.000;-1759.905;1;318;-70;-59.7;43.6;43.7;14;14.4;27.2;0.0;
22/02/2025 00:43:16;100;0;320.31;-4;-19.70;-4.41;387.1;15.60;76158;2836.003;-1759.907;1;318;-70;-61.3;43.6;43.7;14;14.4;27.2;0.0;
22/02/2025 00:43:36;100;0;320.93;-4;-19.47;-4.46;389.6;15.50;76165;2836.005;-1759.909;1;318;-70;-61.3;43.6;43.7;14;14.4;27.2;0.0;
22/02/2025 00:43:56;100;0;322.56;-4;-19.66;-4.33;392.1;15.50;76156;2836.008;-1759.911;1;318;-70;-59.7;43.6;43.7;16;15.8;27.2;0.0;
22/02/2025 00:44:16;100;0;322.27;-4;-19.73;-3.43;394.6;15.50;76151;2836.011;-1759.913;1;318;-70;-61.3;43.6;43.7;16;16.2;27.2;0.0;
22/02/2025 00:44:36;100;0;322.44;-4;-19.81;-3.45;397.1;15.40;76147;2836.014;-1759.915;1;318;-70;-59.7;43.6;43.7;16;16.2;27.2;0.0;
22/02/2025 00:44:56;100;0;323.74;-4;-19.53;-3.42;399.6;15.40;76145;2836.016;-1759.917;1;318;-70;-61.3;43.6;43.7;16;16.2;27.2;0.0;
22/02/2025 00:45:16;100;0;323.98;-4;-19.45;-3.47;402.1;15.40;76131;2836.019;-1759.919;1;318;-70;-61.3;43.6;43.7;16;16.2;27.2;0.0;
22/02/2025 00:45:36;100;0;324.48;-4;-19.33;-3.45;404.5;15.30;76130;2836.022;-1759.921;1;318;-70;-61.3;43.6;43.9;18;18.1;27.2;0.0;
22/02/2025 00:45:56;100;0;322.91;-4;-19.40;-2.50;406.9;15.30;76117;2836.024;-1759.923;1;318;-70;-59.7;43.6;43.7;16;15.8;27.2;0.0;
22/02/2025 00:46:16;100;0;322.49;-4;-19.47;-3.97;409.2;15.30;76119;2836.027;-1759.925;1;318;-70;-61.3;43.6;43.7;16;15.3;27.2;0.0;
22/02/2025 00:46:37;100;0;321.19;-4;-19.39;-4.00;411.6;15.30;76117;2836.030;-1759.927;1;318;-70;-61.3;43.6;43.9;16;15.3;27.2;0.0;
22/02/2025 00:46:57;100;0;320.40;-4;-19.42;-3.96;414.1;15.20;76107;2836.032;-1759.929;1;318;-70;-59.7;43.6;43.7;16;15.3;27.2;0.0;
22/02/2025 00:47:17;100;0;320.07;-4;-19.42;-3.97;416.5;15.20;76104;2836.035;-1759.931;1;318;-70;-61.3;43.6;43.7;16;15.3;27.2;0.0;
22/02/2025 00:47:37;100;0;320.05;-4;-19.39;-3.98;418.9;15.20;76096;2836.038;-1759.933;1;318;-70;-61.3;43.6;43.7;16;15.3;27.2;0.0;
22/02/2025 00:47:57;100;0;322.04;-4;-19.28;-3.94;421.3;15.10;76087;2836.040;-1759.935;1;318;-70;-59.7;43.6;43.9;16;15.3;27.2;0.0;
22/02/2025 00:48:17;100;0;319.27;-4;-19.48;-3.98;423.7;15.10;76085;2836.043;-1759.937;1;318;-70;-59.7;43.6;43.7;14;14.0;27.2;0.0;
22/02/2025 00:48:37;100;0;315.14;-4;-19.40;-4.79;426.1;15.10;76073;2836.045;-1759.939;1;318;-70;-61.3;43.6;43.7;14;14.0;27.2;0.0;
22/02/2025 00:48:57;100;0;315.78;-4;-19.80;-4.64;428.6;15.10;76074;2836.048;-1759.941;1;318;-70;-61.3;43.6;43.7;14;14.0;27.2;0.0;
22/02/2025 00:49:17;100;0;319.09;-4;-19.60;-4.67;431.2;15.00;76057;2836.050;-1759.943;1;318;-70;-61.3;43.6;43.7;14;14.0;27.2;0.0;
22/02/2025 00:49:37;100;0;322.04;-4;-19.52;-4.70;433.8;15.00;76054;2836.053;-1759.945;1;318;-70;-61.3;43.6;43.7;16;15.8;27.2;0.0;
22/02/2025 00:49:57;100;0;321.97;-4;-19.58;-3.38;436.4;15.00;76050;2836.056;-1759.948;1;318;-70;-61.3;43.6;43.7;16;16.2;27.2;0.0;
22/02/2025 00:50:17;100;0;320.47;-4;-19.80;-3.48;439.0;15.00;76041;2836.058;-1759.950;1;318;-70;-61.3;43.6;43.7;16;16.2;27.2;0.0;
22/02/2025 00:50:37;100;0;319.60;-4;-19.27;-3.31;441.7;14.90;76036;2836.061;-1759.952;1;318;-70;-61.3;43.6;43.7;14;14.0;27.2;0.0;
22/02/2025 00:50:57;100;0;318.52;-4;-19.53;-4.85;444.3;14.90;76035;2836.064;-1759.954;1;318;-70;-61.3;43.6;43.7;14;13.5;27.2;0.0;
22/02/2025 00:51:17;100;0;318.73;-4;-19.14;-4.84;446.9;14.90;76025;2836.067;-1759.957;1;318;-70;-62.9;43.6;43.7;14;13.5;27.2;0.0;
22/02/2025 00:51:37;100;0;318.10;-4;-19.45;-4.87;449.5;14.80;76026;2836.069;-1759.959;1;318;-70;-61.3;43.6;43.7;14;13.5;27.2;0.0;
22/02/2025 00:51:57;100;0;318.07;-4;-19.40;-4.82;452.2;14.80;76025;2836.072;-1759.961;1;318;-70;-61.3;43.6;43.7;14;13.5;27.2;0.0;
22/02/2025 00:52:17;100;0;318.07;-4;-19.45;-4.90;454.8;14.80;76015;2836.075;-1759.964;1;318;-70;-61.3;43.6;43.7;14;13.5;27.2;0.0;
22/02/2025 00:52:37;100;0;317.74;-4;-19.45;-4.85;457.4;14.80;76005;2836.078;-1759.966;1;318;-70;-61.3;43.6;43.7;14;13.5;27.2;0.0;
22/02/2025 00:52:57;100;0;317.42;-4;-19.36;-4.79;460.1;14.70;76009;2836.080;-1759.969;1;318;-70;-59.7;43.6;43.7;14;13.5;27.2;0.0;
22/02/2025 00:53:17;100;0;317.44;-4;-19.43;-4.86;462.7;14.70;76008;2836.083;-1759.971;1;318;-70;-61.3;43.6;43.7;14;13.5;27.2;0.0;
22/02/2025 00:53:37;100;0;317.22;-4;-19.47;-4.87;465.3;14.70;76009;2836.086;-1759.973;1;318;-70;-61.3;43.6;43.7;14;13.5;27.2;0.0;
22/02/2025 00:53:57;100;0;317.90;-4;-19.50;-4.82;468.0;14.60;75992;2836.088;-1759.976;1;318;-70;-61.3;43.6;43.7;14;13.5;27.2;0.0;
22/02/2025 00:54:17;100;0;320.10;-4;-19.38;-4.80;470.7;14.60;75988;2836.091;-1759.978;1;318;-70;-61.3;43.6;43.7;14;13.5;27.2;0.0;
22/02/2025 00:54:37;100;0;320.08;-4;-19.35;-4.85;473.4;14.60;75987;2836.094;-1759.980;1;318;-70;-61.3;43.6;43.7;14;13.5;27.2;0.0;
22/02/2025 00:54:57;100;0;321.01;-4;-19.26;-4.83;476.0;14.60;75977;2836.097;-1759.983;1;318;-70;-61.3;43.6;43.7;16;15.8;27.2;0.0;
22/02/2025 00:55:17;100;0;323.57;-4;-19.35;-3.32;478.7;14.50;75970;2836.100;-1759.985;1;318;-70;-59.7;43.6;43.7;18;18.1;27.2;0.0;
22/02/2025 00:55:37;100;0;322.32;-4;-19.34;-2.44;481.3;14.50;75974;2836.103;-1759.987;1;318;-70;-61.3;43.6;43.7;18;18.5;27.2;0.0;
22/02/2025 00:55:57;100;0;321.74;-4;-19.29;-2.39;483.9;14.50;75969;2836.106;-1759.989;1;318;-70;-61.3;43.6;43.7;16;15.8;27.2;0.0;
22/02/2025 00:56:17;100;0;321.25;-4;-19.07;-3.86;486.5;14.50;75965;2836.109;-1759.991;1;318;-70;-62.9;43.6;43.9;16;15.8;27.2;0.0;
22/02/2025 00:56:37;100;0;320.55;-4;-19.17;-3.89;489.0;14.50;75963;2836.111;-1759.993;1;318;-70;-59.7;43.6;43.9;16;15.8;27.2;0.0;
22/02/2025 00:56:57;100;0;319.17;-4;-19.10;-3.85;491.6;14.40;75957;2836.114;-1759.995;1;318;-70;-61.3;43.6;43.7;16;15.8;27.2;0.0;
22/02/2025 00:57:17;100;0;318.22;-4;-18.92;-3.90;494.1;14.40;75946;2836.117;-1759.998;1;318;-70;-61.3;43.9;43.9;16;15.8;27.2;0.0;
22/02/2025 00:57:37;100;0;318.03;-4;-19.65;-3.85;496.6;14.40;75945;2836.119;-1760.000;1;318;-70;-61.3;43.9;44.3;16;15.8;27.2;0.0;
22/02/2025 00:57:57;100;0;316.72;-4;-20.02;-3.87;499.1;14.30;75941;2836.122;-1800.002;1;318;-70;-59.7;43.9;44.2;14;14.0;27.2;0.0;
22/02/2025 00:58:17;100;0;315.07;-4;-19.80;-4.84;501.7;14.30;75925;2836.124;-1800.004;1;318;-70;-61.3;43.9;44.2;14;13.5;27.2;0.0;
22/02/2025 00:58:37;100;0;314.93;-4;-19.82;-4.90;504.2;14.30;75932;2836.126;-1800.007;1;318;-70;-59.7;43.9;44.2;14;13.5;27.2;0.0;
22/02/2025 00:58:57;100;0;314.14;-4;-19.77;-4.91;506.8;14.30;75926;2836.129;-1800.009;1;318;-70;-61.3;43.9;44.2;14;13.5;27.2;0.0;
22/02/2025 00:59:17;100;0;313.08;-4;-20.07;-4.88;509.4;14.30;75923;2836.131;-1800.012;1;318;-70;-61.3;43.9;44.2;14;13.5;27.2;0.0;
22/02/2025 00:59:37;100;0;311.59;-4;-20.01;-4.80;512.0;14.20;75910;2836.134;-1800.014;1;318;-70;-61.3;43.9;44.2;14;13.5;27.2;0.0;
22/02/2025 00:59:57;100;0;310.77;-4;-19.62;-5.04;514.5;14.20;75903;2836.136;-1800.017;1;318;-70;-61.3;43.9;44.2;14;13.5;27.2;0.0;
22/02/2025 01:00:17;100;0;310.89;-4;-19.75;-4.95;517.0;14.20;75909;2836.138;-1800.019;1;318;-70;-59.7;43.9;44.2;14;13.5;27.2;0.0;
22/02/2025 01:00:37;100;0;312.97;-4;-19.67;-4.69;519.5;14.20;75902;2836.140;-1800.022;1;318;-70;-61.3;43.9;44.2;14;13.5;27.2;0.0;
22/02/2025 01:00:57;100;0;312.27;-4;-19.76;-4.87;522.1;14.10;75895;2836.143;-1800.024;1;318;-70;-61.3;43.9;44.2;14;13.5;27.2;0.0;
22/02/2025 01:01:17;100;0;312.98;-4;-19.64;-4.86;524.6;14.10;75878;2836.145;-1800.026;1;318;-70;-62.9;43.9;44.2;14;13.5;27.2;0.0;
22/02/2025 01:01:37;100;0;312.38;-4;-19.84;-4.94;527.1;14.10;75887;2836.147;-1800.029;1;318;-70;-61.3;43.9;44.2;14;13.5;27.2;0.0;
22/02/2025 01:01:57;100;0;310.05;-4;-19.44;-4.90;529.8;14.10;75880;2836.150;-1800.032;1;318;-70;-61.3;43.9;44.3;14;13.5;27.3;0.0;
22/02/2025 01:02:17;100;0;310.11;-4;-19.77;-4.88;532.3;14.10;75875;2836.152;-1800.034;1;318;-70;-62.9;43.9;44.2;14;13.5;27.2;0.0;
22/02/2025 01:02:37;100;0;309.02;-4;-19.76;-4.89;535.0;14.00;75853;2836.154;-1800.037;1;318;-70;-61.3;43.9;44.2;14;13.5;27.2;0.0;
22/02/2025 01:02:57;100;0;307.31;-4;-19.76;-4.85;537.6;14.00;75853;2836.157;-1800.040;1;318;-70;-61.3;43.9;44.2;14;13.5;27.2;0.0;
22/02/2025 01:03:17;100;0;306.16;-4;-19.88;-4.91;540.3;14.00;75855;2836.159;-1800.043;1;318;-70;-59.7;43.9;44.2;14;13.5;27.2;0.0;
22/02/2025 01:03:37;100;0;304.55;-4;-19.91;-4.98;543.1;13.90;75848;2836.161;-1800.046;1;318;-70;-59.7;43.9;44.2;12;12.2;27.2;0.0;
22/02/2025 01:03:57;100;0;302.74;-4;-20.01;-5.74;545.9;13.90;75840;2836.163;-1800.049;1;318;-70;-61.3;43.9;44.2;10;9.9;27.2;0.0;
22/02/2025 01:04:17;100;0;302.72;-4;-19.67;-6.73;548.6;13.90;75835;2836.165;-1800.052;1;318;-70;-61.3;43.9;44.2;10;9.9;27.2;0.0;
22/02/2025 01:04:37;100;0;301.93;-4;-19.66;-6.74;551.4;13.90;75831;2836.167;-1800.055;1;318;-70;-61.3;43.9;44.2;10;9.9;27.2;0.0;
22/02/2025 01:04:57;100;0;299.53;-4;-19.61;-6.84;554.2;13.80;75825;2836.169;-1800.058;1;318;-70;-61.3;43.9;44.2;6;5.9;27.2;0.0;
22/02/2025 01:05:17;100;0;298.61;-4;-19.53;-8.79;556.9;13.80;75822;2836.171;-1800.061;1;318;-70;-61.3;43.9;44.2;6;5.9;27.2;0.0;
22/02/2025 01:05:37;100;0;298.02;-4;-19.34;-8.84;559.6;13.80;75818;2836.172;-1800.065;1;318;-70;-59.7;43.9;44.2;4;4.1;27.2;0.0;
22/02/2025 01:05:57;100;0;295.82;-4;-19.25;-9.82;562.3;13.80;75808;2836.174;-1800.068;1;318;-70;-61.3;43.9;44.2;0;0.0;27.2;0.0;
22/02/2025 01:06:17;100;0;298.11;-4;-19.20;-11.88;565.1;13.70;75813;2836.176;-1800.072;1;318;-70;-59.7;43.9;44.0;4;4.1;27.2;0.0;
22/02/2025 01:06:37;100;0;301.80;-4;-19.08;-9.43;567.8;13.70;75791;2836.178;-1800.075;1;318;-70;-61.3;43.9;44.2;9;9.0;27.2;0.0;
22/02/2025 01:06:57;100;0;306.66;-4;-19.37;-6.97;570.5;13.70;75783;2836.180;-1800.078;1;318;-70;-61.3;43.9;44.2;12;12.2;27.2;0.0;
22/02/2025 01:07:17;100;0;308.57;-4;-19.35;-5.28;573.2;13.70;75779;2836.183;-1800.081;1;318;-70;-61.3;43.9;44.2;12;12.6;27.2;0.0;
22/02/2025 01:07:37;100;0;310.72;-4;-19.37;-5.23;575.8;13.70;75771;2836.185;-1800.083;1;318;-70;-59.7;43.9;44.2;14;14.0;27.2;0.0;
22/02/2025 01:07:57;100;0;313.06;-4;-19.46;-4.35;578.5;13.60;75774;2836.188;-1800.086;1;318;-70;-59.7;43.9;44.2;14;14.4;27.2;0.0;
22/02/2025 01:08:17;100;0;317.69;-4;-19.43;-4.24;581.0;13.60;75766;2836.190;-1800.088;1;318;-70;-59.7;43.9;44.2;14;14.9;27.2;0.0;
22/02/2025 01:08:37;100;0;319.67;-4;-18.76;-4.23;583.7;13.60;75769;2836.193;-1800.091;1;318;-70;-59.7;44.3;44.3;14;14.9;27.2;0.0;
22/02/2025 01:08:57;100;0;322.69;-4;-18.55;-4.29;586.4;13.60;75760;2836.196;-1800.093;1;318;-70;-59.7;44.8;44.8;16;16.2;27.2;0.0;
22/02/2025 01:09:17;100;0;327.13;-4;-20.46;-3.61;589.0;13.50;75753;2836.199;-1800.095;1;318;-70;-61.3;44.8;44.9;21;21.2;27.2;0.0;
22/02/2025 01:09:37;100;0;328.09;-4;-21.71;-0.82;591.8;13.50;75747;2836.202;-1800.096;1;318;-70;-59.7;44.8;44.9;23;23.0;27.2;0.0;
22/02/2025 01:09:57;100;0;327.80;-4;-21.73;-0.08;594.6;13.50;75737;2836.205;-1800.098;1;318;-70;-61.3;44.8;44.9;23;23.5;27.2;0.0;
22/02/2025 01:10:17;100;0;327.30;-4;-21.13;0.17;597.4;13.50;75735;2836.208;-1800.100;1;318;-70;-61.3;44.8;44.9;23;23.5;27.2;0.0;
22/02/2025 01:10:37;100;0;325.19;-4;-21.51;0.14;600.2;13.40;75730;2836.211;-1800.102;1;318;-70;-59.7;44.8;45.1;19;19.0;27.2;0.0;
22/02/2025 01:10:57;100;0;325.92;-4;-21.09;-1.94;602.9;13.40;75735;2836.214;-1800.104;1;318;-70;-61.3;44.8;44.9;19;19.0;27.2;0.0;
22/02/2025 01:11:17;100;0;326.01;-4;-21.07;-2.02;605.7;13.40;75729;2836.217;-1800.106;1;318;-70;-59.7;44.8;44.9;19;19.4;27.2;0.0;
22/02/2025 01:11:37;100;0;327.38;-4;-21.37;-2.09;608.4;13.30;75720;2836.220;-1800.107;1;318;-70;-61.3;44.8;44.9;22;22.1;27.2;0.0;
22/02/2025 01:11:57;100;0;328.73;-4;-21.52;-0.41;611.2;13.30;75720;2836.223;-1800.109;1;318;-70;-61.3;44.8;44.9;24;23.9;27.2;0.0;
22/02/2025 01:12:17;100;0;329.21;-4;-21.37;0.51;614.0;13.30;75712;2836.226;-1800.111;1;318;-70;-59.7;44.8;44.9;24;24.4;27.2;0.0;
22/02/2025 01:12:37;100;0;321.58;-4;-21.73;0.45;616.6;13.30;75697;2836.228;-1800.113;1;318;-70;-61.3;44.8;44.9;16;15.8;27.2;0.0;
22/02/2025 01:12:57;100;0;318.77;-4;-21.69;-3.80;619.4;13.30;75689;2836.231;-1800.115;1;318;-70;-61.3;44.8;44.9;16;15.8;27.2;0.0;
22/02/2025 01:13:17;100;0;315.34;-4;-21.68;-3.82;622.3;13.30;75684;2836.234;-1800.117;1;318;-70;-61.3;44.8;44.9;14;14.0;27.2;0.0;
22/02/2025 01:13:37;100;0;313.27;-4;-21.53;-4.72;625.2;13.20;75678;2836.236;-1800.120;1;318;-70;-59.7;44.8;45.1;14;14.0;27.2;0.0;
22/02/2025 01:13:57;100;0;311.41;-4;-21.41;-4.77;628.1;13.20;75683;2836.239;-1800.123;1;318;-70;-61.3;44.8;45.1;14;13.5;27.2;0.0;
22/02/2025 01:14:17;100;0;309.87;-4;-21.81;-4.66;631.0;13.20;75673;2836.241;-1800.125;1;318;-70;-61.3;44.8;44.9;14;14.0;27.2;0.0;
22/02/2025 01:14:37;100;0;308.05;-4;-21.42;-4.73;634.0;13.10;75662;2836.243;-1800.129;1;318;-70;-61.3;44.8;44.9;14;13.5;27.2;0.0;
22/02/2025 01:14:57;100;0;305.81;-4;-21.78;-4.81;637.0;13.10;75663;2836.246;-1800.132;1;318;-70;-61.3;44.8;44.9;12;11.7;27.2;0.0;
22/02/2025 01:15:17;100;0;302.65;-4;-21.55;-5.81;639.9;13.10;75651;2836.248;-1800.135;1;318;-70;-59.7;44.8;45.1;12;11.7;27.2;0.0;
22/02/2025 01:15:37;100;0;298.95;-4;-21.59;-5.75;643.1;13.10;75652;2836.250;-1800.138;1;318;-70;-61.3;44.8;44.9;5;5.0;27.2;0.0;
22/02/2025 01:15:57;100;0;297.40;-4;-21.05;-9.41;646.1;13.00;75649;2836.251;-1800.142;1;318;-70;-61.3;44.8;45.1;3;3.2;27.2;0.0;
22/02/2025 01:16:17;100;0;298.45;-4;-21.40;-10.09;649.1;13.00;75636;2836.253;-1800.145;1;318;-70;-59.7;44.8;44.9;3;3.2;27.2;0.0;
22/02/2025 01:16:37;100;0;302.13;-4;-19.82;-10.10;652.1;13.00;75635;2836.255;-1800.148;1;318;-70;-61.3;44.8;44.9;9;9.0;27.2;0.0;
22/02/2025 01:16:57;100;0;307.73;-4;-20.72;-6.95;654.9;13.00;75622;2836.258;-1800.151;1;318;-70;-61.3;44.8;45.1;13;13.1;27.2;0.0;
22/02/2025 01:17:17;100;0;311.68;-4;-20.79;-4.98;657.7;13.00;75612;2836.260;-1800.154;1;318;-70;-61.3;44.8;44.9;13;13.1;27.2;0.0;
22/02/2025 01:17:37;100;0;313.43;-4;-20.89;-5.03;660.4;12.90;75597;2836.263;-1800.156;1;318;-70;-59.7;44.8;44.9;13;13.1;27.2;0.0;
22/02/2025 01:17:57;100;0;315.82;-4;-20.88;-4.98;663.2;12.90;75603;2836.265;-1800.159;1;318;-70;-59.7;44.8;45.1;13;13.1;27.2;0.0;
22/02/2025 01:18:17;100;0;318.62;-4;-21.16;-5.08;666.0;12.90;75599;2836.268;-1800.161;1;318;-70;-59.7;44.8;45.1;15;14.9;27.2;0.0;
22/02/2025 01:18:37;100;0;321.95;-4;-21.01;-3.85;668.7;12.90;75588;2836.271;-1800.163;1;318;-70;-61.3;44.8;44.9;15;15.3;27.2;0.0;
22/02/2025 01:18:57;100;0;324.36;-4;-21.00;-3.83;671.4;12.80;75580;2836.274;-1800.165;1;318;-70;-61.3;44.8;45.1;18;18.1;27.3;0.0;
22/02/2025 01:19:17;100;0;325.87;-4;-21.13;-2.50;674.2;12.80;75583;2836.277;-1800.167;1;318;-70;-61.3;44.8;44.9;20;20.3;27.2;0.0;
22/02/2025 01:19:37;100;0;325.79;-4;-21.29;-1.37;676.8;12.80;75573;2836.279;-1800.169;1;318;-70;-59.7;44.8;45.1;20;20.8;27.2;0.0;
22/02/2025 01:19:57;100;0;324.56;-4;-21.11;-1.31;679.6;12.70;75580;2836.282;-1800.171;1;318;-70;-59.7;44.8;44.9;20;20.8;27.2;0.0;
22/02/2025 01:20:17;100;0;322.89;-4;-21.03;-1.35;682.2;12.70;75563;2836.285;-1800.173;1;318;-70;-61.3;44.8;44.9;17;17.1;27.2;0.0;
22/02/2025 01:20:38;100;0;325.36;-4;-21.16;-3.25;684.8;12.70;75558;2836.288;-1800.175;1;318;-70;-61.3;44.8;44.9;20;19.9;27.2;0.0;
22/02/2025 01:20:58;100;0;327.88;-4;-21.07;-1.49;687.5;12.70;75551;2836.291;-1800.176;1;318;-70;-59.7;44.8;44.9;23;23.0;27.2;0.0;
22/02/2025 01:21:18;100;0;327.44;-4;-20.97;-0.21;690.1;12.60;75538;2836.294;-1800.178;1;318;-70;-61.3;44.8;45.1;23;23.5;27.2;0.0;
22/02/2025 01:21:38;100;0;321.43;-4;-20.83;-0.10;692.7;12.60;75526;2836.296;-1800.180;1;318;-70;-61.3;44.8;45.1;16;15.8;27.2;0.0;
22/02/2025 01:21:58;100;0;317.81;-4;-20.77;-4.11;695.3;12.60;75523;2836.299;-1800.182;1;318;-70;-61.3;44.8;45.1;16;15.3;27.2;0.0;
22/02/2025 01:22:18;100;0;316.91;-4;-20.88;-3.96;697.8;12.60;75524;2836.301;-1800.184;1;318;-70;-61.3;44.8;45.1;16;15.3;27.2;0.0;
22/02/2025 01:22:38;100;0;319.99;-4;-20.63;-4.03;700.6;12.50;75515;2836.304;-1800.186;1;318;-70;-59.7;44.8;45.1;16;15.3;27.2;0.0;
22/02/2025 01:22:58;100;0;319.40;-4;-22.21;-4.05;703.1;12.50;75510;2836.306;-1800.188;1;318;-70;-61.3;44.1;44.0;16;15.3;27.2;0.0;
22/02/2025 01:23:18;100;0;320.08;-4;-19.71;-3.78;705.8;12.50;75501;2836.309;-1800.191;1;318;-70;-59.7;44.1;44.0;16;15.3;27.2;0.0;
22/02/2025 01:23:38;100;0;324.84;-4;-19.39;-4.16;708.5;12.50;75496;2836.312;-1800.193;1;318;-70;-59.7;44.1;43.9;19;19.0;27.2;0.0;
22/02/2025 01:23:58;100;0;323.33;-4;-19.23;-2.03;711.0;12.40;75475;2836.315;-1800.195;1;318;-70;-61.3;44.1;43.9;19;19.4;27.2;0.0;
22/02/2025 01:24:18;100;0;323.37;-4;-19.92;-1.96;713.6;12.40;75484;2836.318;-1800.197;1;318;-70;-59.7;44.1;43.9;19;19.4;27.2;0.0;
22/02/2025 01:24:38;100;0;321.03;-4;-19.64;-2.09;716.1;12.40;75479;2836.320;-1800.199;1;318;-70;-61.3;44.1;43.9;16;15.8;27.2;0.0;
22/02/2025 01:24:58;100;0;318.85;-4;-19.12;-3.93;718.6;12.30;75468;2836.323;-1800.201;1;318;-70;-62.9;44.1;43.9;16;15.8;27.2;0.0;
22/02/2025 01:25:18;100;0;317.91;-4;-19.15;-3.99;721.0;12.30;75481;2836.326;-1800.203;1;318;-70;-61.3;44.1;44.0;16;15.8;27.2;0.0;
22/02/2025 01:25:38;100;0;317.22;-4;-19.16;-3.96;723.4;12.30;75469;2836.328;-1800.205;1;318;-70;-61.3;44.1;43.9;16;15.8;27.2;0.0;
22/02/2025 01:25:58;100;0;316.62;-4;-19.16;-3.89;725.8;12.30;75455;2836.330;-1800.207;1;318;-70;-61.3;44.1;43.9;16;15.8;27.2;0.0;
22/02/2025 01:26:18;100;0;317.42;-4;-19.24;-3.93;728.1;12.30;75455;2836.333;-1800.209;1;318;-70;-59.7;44.1;43.9;16;15.8;27.2;0.0;
22/02/2025 01:26:38;100;0;317.60;-4;-19.35;-3.90;730.5;12.30;75453;2836.335;-1800.212;1;318;-70;-59.7;44.1;43.9;16;15.8;27.2;0.0;
22/02/2025 01:26:58;100;0;317.24;-4;-19.19;-3.96;732.9;12.20;75453;2836.338;-1800.214;1;318;-70;-59.7;44.1;43.9;16;15.8;27.2;0.0;
22/02/2025 01:27:18;100;0;315.59;-4;-19.25;-3.92;735.4;12.20;75438;2836.340;-1800.216;1;318;-70;-61.3;44.1;43.9;16;15.8;27.2;0.0;
22/02/2025 01:27:38;100;0;318.36;-4;-19.04;-3.91;737.9;12.20;75433;2836.343;-1800.218;1;318;-70;-59.7;44.1;43.9;16;15.3;27.2;0.0;
22/02/2025 01:27:58;100;0;318.98;-4;-19.11;-3.95;740.2;12.10;75421;2836.345;-1800.220;1;318;-70;-61.3;44.1;43.9;16;15.8;27.2;0.0;
22/02/2025 01:28:18;100;0;315.39;-4;-19.23;-4.04;742.6;12.10;75419;2836.348;-1800.223;1;318;-70;-59.7;44.1;43.9;16;15.8;27.2;0.0;
22/02/2025 01:28:38;100;0;311.53;-4;-19.20;-3.95;744.9;12.10;75420;2836.350;-1800.225;1;318;-70;-59.7;44.1;43.9;16;15.3;27.2;0.0;
22/02/2025 01:28:58;100;0;310.67;-4;-19.16;-3.90;747.2;12.10;75399;2836.352;-1800.227;1;318;-70;-59.7;44.1;43.9;16;15.8;27.2;0.0;
22/02/2025 01:29:18;100;0;309.90;-4;-19.04;-3.95;749.5;12.00;75393;2836.354;-1800.230;1;318;-70;-59.7;44.1;43.9;16;15.8;27.2;0.0;
22/02/2025 01:29:38;100;0;308.68;-4;-19.31;-3.95;751.8;12.00;75391;2836.356;-1800.232;1;318;-70;-59.7;44.1;43.9;16;15.8;27.2;0.0;
22/02/2025 01:29:58;100;0;308.02;-4;-19.01;-3.98;754.1;12.00;75382;2836.358;-1800.235;1;318;-70;-61.3;44.1;43.9;14;14.0;27.2;0.0;
22/02/2025 01:30:18;100;0;307.68;-4;-18.93;-4.97;756.5;11.90;75370;2836.360;-1800.237;1;318;-70;-59.7;44.4;44.6;14;13.5;27.2;0.0;
22/02/2025 01:30:38;100;0;307.62;-4;-19.55;-4.92;758.7;11.90;75368;2836.362;-1800.239;1;318;-70;-59.7;44.4;44.8;14;13.5;27.2;0.0;
22/02/2025 01:30:58;100;0;308.56;-4;-19.71;-4.94;761.1;11.90;75366;2836.364;-1800.242;1;318;-70;-59.7;44.4;44.8;14;13.5;27.2;0.0;
22/02/2025 01:31:18;100;0;310.00;-4;-20.04;-4.97;763.4;11.90;75367;2836.366;-1800.244;1;318;-70;-61.3;44.4;44.8;14;13.5;27.2;0.0;
22/02/2025 01:31:38;100;0;311.34;-4;-20.10;-4.90;765.6;11.90;75360;2836.368;-1800.246;1;318;-70;-61.3;44.4;44.9;14;13.5;27.2;0.0;
22/02/2025 01:31:58;100;0;311.94;-4;-20.06;-4.90;767.9;11.80;75350;2836.370;-1800.248;1;318;-70;-61.3;44.4;44.8;14;13.5;27.2;0.0;
22/02/2025 01:32:18;100;0;314.06;-4;-20.05;-4.92;770.3;11.80;75354;2836.373;-1800.251;1;318;-70;-61.3;44.4;44.8;14;13.5;27.2;0.0;
22/02/2025 01:32:38;100;0;315.56;-4;-20.15;-4.95;772.5;11.80;75352;2836.375;-1800.253;1;318;-70;-59.7;44.4;44.9;14;13.5;27.2;0.0;
22/02/2025 01:32:58;100;0;316.74;-4;-20.17;-4.95;774.9;11.80;75337;2836.377;-1800.255;1;318;-70;-61.3;44.4;44.8;14;13.5;27.2;0.0;
22/02/2025 01:33:18;100;0;318.60;-4;-19.73;-4.96;777.2;11.80;75340;2836.380;-1800.257;1;318;-70;-59.7;44.4;44.9;14;13.5;27.2;0.0;
22/02/2025 01:33:38;100;0;317.99;-4;-20.40;-4.99;779.5;11.70;75347;2836.382;-1800.259;1;318;-70;-61.3;44.4;44.8;16;15.8;27.2;0.0;
22/02/2025 01:33:58;100;0;318.58;-4;-20.43;-3.50;781.9;11.70;75350;2836.384;-1800.261;1;318;-70;-61.3;44.4;44.9;16;16.2;27.2;0.0;
22/02/2025 01:34:18;100;0;318.11;-4;-20.49;-3.35;784.2;11.70;75334;2836.387;-1800.263;1;318;-70;-61.3;44.4;44.9;16;16.7;27.2;0.0;
22/02/2025 01:34:38;100;0;317.28;-4;-20.52;-3.42;786.5;11.70;75326;2836.389;-1800.265;1;318;-70;-59.7;44.4;44.9;16;16.7;27.2;0.0;
22/02/2025 01:34:58;100;0;317.03;-4;-20.27;-3.44;788.9;11.60;75318;2836.391;-1800.267;1;318;-70;-59.7;44.4;44.9;16;16.2;27.2;0.0;
22/02/2025 01:35:18;100;0;318.48;-4;-20.04;-3.50;791.0;11.60;75315;2836.393;-1800.268;1;318;-70;-61.3;44.4;44.8;16;16.2;27.2;0.0;
22/02/2025 01:35:38;100;0;319.95;-4;-20.29;-3.48;793.1;11.60;75310;2836.396;-1800.270;1;318;-70;-61.3;44.4;44.9;16;16.2;27.2;0.0;
22/02/2025 01:35:58;100;0;322.43;-4;-20.11;-3.42;795.4;11.60;75305;2836.398;-1800.272;1;318;-70;-61.3;44.4;44.8;18;18.1;27.2;0.0;
22/02/2025 01:36:18;100;0;322.55;-4;-20.10;-2.29;797.5;11.50;75296;2836.400;-1800.273;1;318;-70;-61.3;44.4;44.8;18;18.5;27.2;0.0;
22/02/2025 01:36:38;100;0;322.16;-4;-20.29;-2.39;799.5;11.50;75291;2836.402;-1800.275;1;318;-90;-95.2;44.4;44.9;18;18.5;27.2;0.0;
22/02/2025 01:36:58;100;0;322.53;-4;-19.36;-2.26;801.7;11.50;75363;2836.405;-1800.277;1;318;-90;-91.9;44.4;44.8;18;18.5;27.2;0.0;
22/02/2025 01:37:18;100;0;322.32;-4;-19.63;-2.24;804.0;11.50;75353;2836.407;-1800.278;1;318;-90;-95.2;44.4;44.8;18;18.5;27.2;0.0;
22/02/2025 01:37:38;100;0;322.58;-4;-20.07;-2.23;806.3;11.50;75361;2836.410;-1800.280;1;318;-90;-95.2;44.4;44.9;18;18.5;27.2;0.0;
22/02/2025 01:37:58;100;0;318.73;-4;-20.18;-2.20;808.8;11.40;75344;2836.412;-1800.282;1;318;-90;-100.0;44.4;44.8;16;15.8;27.2;0.0;
22/02/2025 01:38:18;100;0;316.55;-4;-20.07;-3.79;811.3;11.40;75355;2836.415;-1800.284;1;318;-90;-98.4;44.4;44.8;16;15.8;27.2;0.0;
22/02/2025 01:38:38;100;0;315.54;-4;-19.80;-3.83;813.6;11.40;75330;2836.417;-1800.287;1;318;-90;-100.0;44.4;44.8;16;15.3;27.2;0.0;
22/02/2025 01:38:58;100;0;315.23;-4;-20.00;-3.75;816.2;11.40;75325;2836.420;-1800.289;1;318;-90;-101.6;44.4;44.8;16;15.3;27.2;0.0;
22/02/2025 01:39:18;100;0;313.81;-4;-19.77;-3.82;818.5;11.30;75327;2836.422;-1800.291;1;318;-90;-98.4;44.4;44.8;16;15.8;27.2;0.0;
22/02/2025 01:39:38;100;0;312.83;-4;-19.93;-3.74;821.0;11.30;75306;2836.424;-1800.293;1;318;-90;-100.0;44.4;44.9;16;15.3;27.2;0.0;
22/02/2025 01:39:58;100;0;312.23;-4;-19.95;-3.75;823.3;11.30;75315;2836.426;-1800.296;1;318;-90;-100.0;44.4;44.8;16;15.8;27.2;0.0;
22/02/2025 01:40:18;100;0;310.98;-4;-19.98;-3.86;825.8;11.30;75311;2836.428;-1800.298;1;318;-90;-100.0;44.4;44.8;16;15.3;27.2;0.0;
22/02/2025 01:40:38;100;0;308.10;-4;-19.82;-3.78;828.2;11.20;75314;2836.430;-1800.301;1;318;-90;-100.0;44.4;44.8;16;15.3;27.2;0.0;
22/02/2025 01:40:58;100;0;306.19;-4;-19.75;-3.81;830.5;11.20;75309;2836.432;-1800.303;1;318;-90;-100.0;44.4;44.9;14;13.5;27.2;0.0;
22/02/2025 01:41:18;100;0;305.72;-4;-19.81;-4.73;833.0;11.20;75297;2836.434;-1800.306;1;318;-90;-100.0;44.4;44.8;14;13.5;27.2;0.0;
22/02/2025 01:41:38;100;0;305.30;-4;-19.83;-4.70;835.4;11.20;75307;2836.436;-1800.308;1;318;-90;-100.0;44.4;44.9;14;13.5;27.2;0.0;
22/02/2025 01:41:58;100;0;302.82;-4;-19.91;-4.79;837.8;11.10;75287;2836.438;-1800.311;1;318;-90;-101.6;44.4;44.8;12;12.2;27.2;0.0;
22/02/2025 01:42:18;100;0;302.33;-4;-19.89;-5.45;840.2;11.10;75288;2836.440;-1800.314;1;318;-90;-98.4;44.4;44.8;12;12.2;27.2;0.0;
22/02/2025 01:42:38;100;0;301.73;-4;-19.86;-5.60;842.7;11.10;75285;2836.442;-1800.316;1;318;-90;-100.0;44.4;44.9;12;12.2;27.2;0.0;
22/02/2025 01:42:58;100;0;300.59;-4;-19.87;-5.41;845.1;11.10;75273;2836.443;-1800.319;1;318;-90;-98.4;44.4;44.9;9;9.0;27.2;0.0;
22/02/2025 01:43:18;100;0;300.73;-4;-19.80;-6.93;847.5;11.00;75266;2836.445;-1800.322;1;318;-90;-100.0;44.4;44.8;9;9.0;27.2;0.0;
22/02/2025 01:43:38;100;0;302.30;-4;-19.83;-6.95;850.1;11.10;75271;2836.447;-1800.325;1;318;-90;-100.0;44.4;44.9;11;10.8;27.2;0.0;
22/02/2025 01:43:58;100;0;304.71;-4;-19.38;-5.84;852.5;11.00;75268;2836.449;-1800.327;1;318;-90;-101.6;44.4;44.8;13;13.5;27.2;0.0;
22/02/2025 01:44:18;100;0;305.82;-4;-19.82;-4.59;854.9;11.00;75266;2836.451;-1800.330;1;318;-90;-100.0;44.4;44.8;13;13.5;27.2;0.0;
22/02/2025 01:44:38;100;0;305.90;-4;-19.85;-4.64;857.3;11.00;75259;2836.453;-1800.333;1;318;-90;-98.4;44.4;44.8;13;14.0;27.2;0.0;
22/02/2025 01:44:58;100;0;305.84;-4;-19.89;-4.72;859.7;11.00;75258;2836.455;-1800.335;1;318;-90;-100.0;44.4;44.9;13;14.0;27.2;0.0;
22/02/2025 01:45:18;100;0;306.13;-4;-19.70;-4.62;862.1;10.90;75250;2836.457;-1800.338;1;318;-90;-100.0;44.4;44.9;13;14.0;27.2;0.0;
22/02/2025 01:45:38;100;0;303.87;-4;-19.78;-4.78;864.4;10.90;75236;2836.458;-1800.340;1;318;-90;-101.6;44.4;44.9;13;13.5;27.2;0.0;
22/02/2025 01:45:58;100;0;303.62;-4;-19.78;-4.66;866.7;10.90;75234;2836.460;-1800.343;1;318;-90;-100.0;44.4;44.8;13;13.5;27.2;0.0;
22/02/2025 01:46:18;100;0;304.32;-4;-19.87;-4.69;868.9;10.90;75230;2836.462;-1800.345;1;318;-90;-98.4;44.4;44.9;13;14.0;27.2;0.0;
22/02/2025 01:46:38;100;0;303.79;-4;-19.94;-4.55;871.1;10.80;75231;2836.464;-1800.347;1;318;-90;-100.0;44.4;44.8;13;13.5;27.2;0.0;
22/02/2025 01:46:58;100;0;301.92;-4;-21.28;-4.79;873.6;10.80;75223;2836.465;-1800.350;1;318;-90;-98.4;44.4;44.8;10;9.9;27.2;0.0;
22/02/2025 01:47:18;100;0;302.29;-4;-20.06;-6.35;876.0;10.80;75215;2836.467;-1800.353;1;318;-90;-100.0;44.4;44.9;10;10.4;27.2;0.0;
22/02/2025 01:47:38;100;0;303.21;-4;-19.91;-6.65;878.7;10.80;75215;2836.469;-1800.356;1;318;-90;-98.4;44.4;44.8;12;12.2;27.2;0.0;
22/02/2025 01:47:58;100;0;306.40;-4;-19.63;-5.31;881.1;10.80;75205;2836.471;-1800.358;1;318;-90;-100.0;44.4;44.9;14;14.0;27.2;0.0;
22/02/2025 01:48:18;100;0;306.71;-4;-19.97;-4.45;883.6;10.70;75202;2836.473;-1800.361;1;318;-90;-100.0;44.4;44.9;14;14.4;27.2;0.0;
22/02/2025 01:48:38;100;0;304.33;-4;-19.29;-4.00;886.1;10.70;75199;2836.475;-1800.364;1;318;-90;-100.0;44.4;44.9;12;12.2;27.2;0.0;
22/02/2025 01:48:58;100;0;304.24;-4;-18.52;-6.25;888.7;10.70;75206;2836.477;-1800.367;1;318;-90;-100.0;44.9;44.9;12;11.7;27.2;0.0;
22/02/2025 01:49:18;100;0;302.89;-4;-19.90;-5.89;890.9;10.70;75193;2836.479;-1800.369;1;318;-90;-100.0;44.9;44.8;12;11.7;27.2;0.0;
22/02/2025 01:49:38;100;0;308.75;-4;-19.64;-6.06;893.5;10.60;75187;2836.481;-1800.372;1;318;-90;-100.0;44.9;44.8;14;14.0;27.2;0.0;
22/02/2025 01:49:58;100;0;311.41;-4;-21.70;-4.69;896.0;10.60;75190;2836.483;-1800.374;1;318;-90;-100.0;44.9;44.9;14;14.4;27.2;0.0;
22/02/2025 01:50:18;100;0;303.86;-4;-17.06;-4.56;898.2;10.60;75188;2836.485;-1800.377;1;318;-90;-100.0;45.7;45.8;12;12.2;27.2;0.0;
22/02/2025 01:50:38;100;0;308.18;-4;-21.00;-5.65;900.1;10.60;75186;2836.487;-1800.379;1;318;-110;-109.7;45.7;45.9;14;14.0;27.2;0.0;
22/02/2025 01:50:58;100;0;306.96;-4;-22.56;-4.43;902.6;10.60;75210;2836.489;-1800.381;1;318;-110;-112.9;45.0;44.9;14;14.4;27.2;0.0;
22/02/2025 01:51:18;100;0;306.94;-4;-20.33;-4.31;905.2;10.60;75202;2836.491;-1800.384;1;318;-110;-112.9;45.0;44.6;14;14.4;27.2;0.0;
22/02/2025 01:51:38;100;0;305.81;-4;-20.47;-4.25;907.7;10.50;75211;2836.493;-1800.386;1;318;-110;-112.9;45.0;44.6;14;14.4;27.2;0.0;
22/02/2025 01:51:58;100;0;309.49;-4;-18.81;-4.22;910.4;10.50;75216;2836.495;-1800.389;1;318;-110;-112.9;45.3;45.4;14;14.4;27.2;0.0;
22/02/2025 01:52:18;100;0;308.28;-4;-21.85;-4.22;912.9;10.50;75202;2836.497;-1800.392;1;318;-110;-112.9;45.3;45.7;14;14.4;27.2;0.0;
22/02/2025 01:52:38;100;0;308.96;-4;-21.49;-4.34;915.8;10.50;75201;2836.500;-1800.395;1;318;-110;-114.5;45.3;45.5;14;14.4;27.2;0.0;
22/02/2025 01:52:58;100;0;311.89;-4;-20.53;-4.70;918.4;10.50;75201;2836.502;-1800.397;1;318;-110;-112.9;45.3;45.7;14;14.4;27.2;0.0;
22/02/2025 01:53:18;100;0;310.80;-4;-21.04;-4.36;921.4;10.40;75200;2836.504;-1800.400;1;318;-110;-112.9;45.3;45.5;14;14.4;27.2;0.0;
22/02/2025 01:53:38;100;0;313.03;-4;-20.59;-4.33;924.1;10.40;75198;2836.507;-1800.402;1;318;-110;-112.9;45.3;45.7;14;14.4;27.2;0.0;
22/02/2025 01:53:58;100;0;313.91;-4;-21.16;-4.18;926.7;10.40;75190;2836.509;-1800.405;1;318;-110;-112.9;45.3;45.7;14;14.4;27.2;0.0;
22/02/2025 01:54:18;100;0;312.69;-4;-20.56;-4.24;929.7;10.40;75192;2836.512;-1800.407;1;318;-110;-112.9;45.3;45.5;14;14.4;27.2;0.0;
22/02/2025 01:54:38;100;0;313.87;-4;-21.08;-4.31;932.5;10.40;75190;2836.514;-1800.410;1;318;-110;-112.9;45.3;45.7;14;14.4;27.2;0.0;
22/02/2025 01:54:58;100;0;314.54;-4;-20.94;-4.16;935.2;10.40;75185;2836.517;-1800.412;1;318;-110;-112.9;45.3;45.7;14;14.4;27.2;0.0;
22/02/2025 01:55:19;100;0;316.20;-4;-20.83;-4.24;938.3;10.40;75193;2836.520;-1800.415;1;318;-110;-111.3;45.3;45.5;14;14.4;27.2;0.0;
22/02/2025 01:55:39;100;0;315.95;-4;-21.18;-4.64;941.2;10.30;75192;2836.522;-1800.418;1;318;-110;-114.5;45.3;45.7;14;14.4;27.2;0.0;
22/02/2025 01:55:59;100;0;317.53;-4;-21.01;-4.49;944.2;10.30;75174;2836.525;-1800.420;1;318;-110;-112.9;45.3;45.7;14;14.4;27.2;0.0;
22/02/2025 01:56:19;100;0;317.96;-4;-21.14;-4.37;947.4;10.30;75185;2836.528;-1800.423;1;318;-110;-114.5;45.3;45.7;14;14.4;27.2;0.0;
22/02/2025 01:56:39;100;0;319.58;-4;-20.53;-4.26;950.6;10.30;75189;2836.531;-1800.426;1;318;-110;-114.5;45.3;45.7;14;14.4;27.2;0.0;
22/02/2025 01:56:59;100;0;319.60;-4;-20.72;-4.37;954.0;10.30;75184;2836.535;-1800.428;1;318;-110;-112.9;45.3;45.7;14;14.4;27.2;0.0;
22/02/2025 01:57:19;100;0;319.08;-4;-20.42;-4.32;957.2;10.30;75201;2836.538;-1800.431;1;318;-110;-112.9;45.3;45.5;14;14.4;27.2;0.0;
22/02/2025 01:57:39;100;0;320.57;-4;-21.03;-4.19;960.5;10.20;75191;2836.541;-1800.434;1;318;-110;-112.9;45.3;45.5;14;14.4;27.2;0.0;
22/02/2025 01:57:59;100;0;319.18;-4;-20.99;-4.16;963.8;10.20;75183;2836.545;-1800.437;1;318;-110;-114.5;45.3;45.5;14;14.4;27.2;0.0;
22/02/2025 01:58:19;100;0;319.56;-4;-21.06;-4.20;967.2;10.20;75187;2836.548;-1800.439;1;318;-110;-112.9;45.3;45.5;14;14.4;27.2;0.0;
22/02/2025 01:58:39;100;0;319.62;-4;-21.21;-4.32;970.7;10.20;75185;2836.551;-1800.442;1;318;-110;-112.9;45.3;45.7;14;14.4;27.2;0.0;
22/02/2025 01:58:59;100;0;319.00;-4;-21.12;-4.25;974.1;10.20;75174;2836.555;-1800.445;1;318;-110;-112.9;45.3;45.7;14;14.4;27.2;0.0;
22/02/2025 01:59:19;100;0;319.03;-4;-20.19;-4.21;977.4;10.20;75183;2836.558;-1800.448;1;318;-110;-112.9;45.3;45.7;14;14.4;27.2;0.0;
22/02/2025 01:59:39;100;0;320.33;-4;-20.93;-4.37;980.7;10.20;75183;2836.561;-1800.451;1;318;-110;-112.9;45.3;45.7;14;14.4;27.2;0.0;
22/02/2025 01:59:59;100;0;319.85;-4;-20.63;-4.31;983.9;10.10;75179;2836.564;-1800.453;1;318;-110;-114.5;45.3;45.5;14;14.4;27.2;0.0;
22/02/2025 02:00:19;100;0;322.57;-4;-21.04;-4.29;987.0;10.10;75159;2836.568;-1800.456;1;318;-110;-112.9;45.3;45.7;17;17.1;27.2;0.0;
22/02/2025 02:00:39;100;0;319.88;-4;-21.48;-2.75;990.2;10.10;75164;2836.571;-1800.458;1;318;-110;-112.9;45.3;45.7;15;14.9;27.2;0.0;
22/02/2025 02:00:59;100;0;320.62;-4;-21.39;-4.01;993.4;10.10;75166;2836.574;-1800.461;1;318;-110;-112.9;45.3;45.7;15;14.9;27.2;0.0;
22/02/2025 02:01:19;100;0;322.70;-4;-20.79;-4.07;996.7;10.10;75159;2836.577;-1800.463;1;318;-110;-112.9;45.3;45.7;17;17.1;27.2;0.0;
22/02/2025 02:01:33;118;0;322.46;-4;-20.94;-2.45;998.8;10.10;75148;2836.579;-1800.465;1;318;270;-109.7;26.0;25.9;7;7.2;27.2;0.0;
22/02/2025 02:01:43;118;0;54.37;-4;-8.23;-8.87;999.9;10.10;75139;2836.581;-1800.463;1;318;270;16.1;26.0;25.8;7;7.2;25.9;-1.0;
22/02/2025 02:01:53;118;0;44.27;-4;13.20;-8.66;1000.3;10.10;74865;2836.581;-1800.462;1;318;270;141.9;26.0;25.5;7;7.2;25.7;-1.0;
22/02/2025 02:02:03;118;0;39.05;-4;21.46;-9.12;1000.0;10.10;74609;2836.581;-1800.462;1;318;270;266.1;26.0;25.9;7;7.2;25.9;-1.0;
22/02/2025 02:02:13;118;0;37.89;-4;20.89;-8.88;999.1;10.10;74368;2836.582;-1800.461;1;318;270;272.6;26.0;26.1;7;7.2;26.0;-1.0;
22/02/2025 02:02:23;118;0;320.56;-4;19.39;-8.65;998.1;10.10;74375;2836.584;-1800.462;1;318;270;272.6;26.0;26.1;7;7.2;27.2;-1.0;
22/02/2025 02:02:43;117;0;315.68;-4;18.65;-8.60;996.2;10.10;74374;2836.585;-1800.464;1;318;270;272.6;26.0;26.1;7;7.2;27.2;-1.0;
22/02/2025 02:03:03;117;0;310.98;-4;18.30;-8.18;994.1;10.10;74361;2836.587;-1800.466;1;318;270;272.6;25.5;25.0;28;28.0;27.2;-1.0;
22/02/2025 02:03:23;117;0;311.93;-4;21.71;2.92;992.1;10.20;74368;2836.589;-1800.468;1;318;270;274.2;25.5;25.0;28;28.9;27.2;-1.0;
22/02/2025 02:03:43;117;0;310.79;-4;22.08;2.69;989.7;10.20;74370;2836.591;-1800.470;1;318;270;272.6;26.1;26.1;28;28.9;27.2;-1.0;
22/02/2025 02:04:03;117;0;311.10;-4;20.20;3.06;987.2;10.20;74365;2836.593;-1800.472;1;318;270;272.6;26.1;26.2;28;28.4;27.2;-1.0;
22/02/2025 02:04:23;117;0;311.10;-4;20.01;2.95;985.1;10.10;74357;2836.595;-1800.474;1;318;270;269.4;26.1;26.2;28;28.4;27.2;-1.0;
22/02/2025 02:04:43;117;0;311.11;-4;20.24;2.93;982.6;10.10;74347;2836.598;-1800.477;1;318;270;272.6;26.1;26.2;28;28.4;27.2;-1.0;
22/02/2025 02:05:03;117;0;312.23;-4;19.98;2.89;980.4;10.10;74356;2836.600;-1800.479;1;318;270;272.6;26.1;26.2;28;28.4;27.2;-1.0;
22/02/2025 02:05:23;117;0;312.44;-4;20.37;2.87;978.1;10.10;74359;2836.602;-1800.481;1;318;270;271.0;26.1;26.2;28;28.4;27.2;-1.0;
22/02/2025 02:05:43;117;0;312.23;-4;20.00;2.91;975.7;10.10;74354;2836.604;-1800.483;1;318;270;272.6;26.1;26.2;28;28.4;27.2;-1.0;
22/02/2025 02:06:03;117;0;311.40;-4;20.42;2.93;973.3;10.10;74355;2836.606;-1800.486;1;318;270;272.6;26.1;26.2;28;28.4;27.2;-1.0;
22/02/2025 02:06:23;117;0;311.98;-4;20.27;2.86;970.9;10.10;74350;2836.608;-1800.488;1;318;270;272.6;26.1;26.2;28;28.4;27.2;-1.0;
22/02/2025 02:06:43;117;0;310.72;-4;20.09;2.95;968.5;10.10;74351;2836.610;-1800.490;1;318;270;272.6;26.1;26.2;28;28.9;27.2;-1.0;
22/02/2025 02:07:03;117;0;311.11;-4;20.07;2.99;966.2;10.10;74351;2836.613;-1800.493;1;318;270;272.6;26.1;26.2;28;28.4;27.2;-1.0;
22/02/2025 02:07:23;117;0;311.34;-4;19.88;2.94;963.7;10.00;74352;2836.615;-1800.495;1;318;270;272.6;26.1;26.2;28;28.4;27.2;-1.0;
22/02/2025 02:07:43;117;0;313.02;-4;19.98;2.81;961.4;10.00;74342;2836.617;-1800.497;1;318;270;272.6;26.1;26.2;28;28.4;27.2;-1.0;
22/02/2025 02:08:03;117;0;313.63;-4;19.86;2.95;959.2;10.00;74345;2836.619;-1800.499;1;318;270;271.0;26.1;26.2;28;28.4;27.2;-1.0;
22/02/2025 02:08:23;117;0;313.74;-4;20.31;2.80;957.0;10.00;74337;2836.621;-1800.501;1;318;270;272.6;26.1;26.2;28;28.4;27.2;-1.0;
22/02/2025 02:08:43;117;0;313.36;-4;20.08;2.84;954.6;10.00;74336;2836.623;-1800.503;1;318;270;272.6;26.1;26.2;28;28.4;27.2;-1.0;
22/02/2025 02:09:03;117;0;313.20;-4;19.83;2.84;952.3;10.00;74336;2836.625;-1800.506;1;318;270;272.6;26.1;26.2;28;28.4;27.2;-1.0;
22/02/2025 02:09:23;117;0;312.76;-4;19.86;2.99;950.0;10.00;74330;2836.628;-1800.508;1;318;270;272.6;26.1;26.2;28;28.4;27.2;-1.0;
22/02/2025 02:09:43;117;0;312.67;-4;19.40;2.62;947.6;10.00;74328;2836.630;-1800.510;1;318;270;272.6;26.1;26.2;28;28.4;27.2;-1.0;
22/02/2025 02:10:03;117;0;313.65;-4;19.79;2.84;945.2;10.00;74329;2836.632;-1800.512;1;318;270;272.6;26.1;26.2;28;28.9;27.2;-1.0;
22/02/2025 02:10:23;117;0;314.01;-4;20.10;2.86;942.8;9.90;74324;2836.634;-1800.515;1;318;270;272.6;26.1;26.2;28;28.4;27.2;-1.0;
22/02/2025 02:10:43;117;0;314.36;-4;19.97;2.95;940.3;9.90;74313;2836.637;-1800.517;1;318;270;272.6;26.1;26.2;28;28.4;27.2;-1.0;
22/02/2025 02:11:03;117;0;314.11;-4;19.31;3.10;937.9;9.90;74308;2836.639;-1800.519;1;318;270;272.6;26.1;26.2;28;28.4;27.2;-1.0;
22/02/2025 02:11:23;117;0;313.63;-4;19.73;2.75;935.6;9.90;74317;2836.641;-1800.521;1;318;270;272.6;26.1;26.2;28;28.4;27.2;-1.0;
22/02/2025 02:11:43;117;0;311.76;-4;19.68;2.94;933.1;9.90;74312;2836.644;-1800.524;1;318;270;272.6;26.1;26.2;28;28.4;27.2;-1.0;
22/02/2025 02:12:03;117;0;311.41;-4;20.21;2.95;930.6;9.90;74307;2836.646;-1800.526;1;318;270;272.6;26.1;26.2;28;28.9;27.2;-1.0;
22/02/2025 02:12:23;117;0;311.73;-4;19.50;2.82;927.9;9.90;74300;2836.648;-1800.529;1;318;270;272.6;26.1;26.2;28;28.4;27.2;-1.0;
22/02/2025 02:12:43;117;0;311.56;-4;19.73;3.04;925.5;9.90;74301;2836.650;-1800.531;1;318;270;272.6;26.1;26.4;28;28.4;27.2;-1.0;
22/02/2025 02:13:03;117;0;312.09;-4;19.21;2.96;922.9;9.90;74301;2836.653;-1800.534;1;318;270;272.6;26.1;26.2;28;28.4;27.2;-1.0;
22/02/2025 02:13:23;117;0;310.52;-4;19.59;3.09;920.6;9.90;74296;2836.655;-1800.536;1;318;270;272.6;26.1;26.2;28;28.4;27.2;-1.0;
22/02/2025 02:13:43;117;0;310.40;-4;19.73;2.88;918.3;9.80;74281;2836.657;-1800.538;1;318;270;274.2;26.1;26.2;28;28.4;27.2;-1.0;
22/02/2025 02:14:03;117;0;309.76;-4;20.03;2.77;916.0;9.80;74281;2836.659;-1800.541;1;318;270;274.2;26.1;26.2;28;28.4;27.2;-1.0;
22/02/2025 02:14:23;117;0;310.64;-4;20.14;2.97;913.6;9.80;74287;2836.661;-1800.543;1;318;270;272.6;26.1;26.2;28;28.4;27.2;-1.0;
22/02/2025 02:14:43;117;0;310.36;-4;19.64;2.89;911.0;9.80;74279;2836.663;-1800.546;1;318;270;274.2;26.1;26.2;28;28.4;27.2;-1.0;
22/02/2025 02:15:03;117;0;310.88;-4;19.38;2.84;908.5;9.80;74275;2836.666;-1800.548;1;318;270;272.6;26.1;26.2;28;28.4;27.2;-1.0;
22/02/2025 02:15:23;117;0;311.32;-4;19.40;3.02;906.1;9.80;74272;2836.668;-1800.551;1;318;270;272.6;26.1;26.2;28;28.4;27.2;-1.0;
22/02/2025 02:15:43;117;0;310.27;-4;19.51;2.74;903.8;9.80;74274;2836.670;-1800.553;1;318;270;272.6;26.1;26.2;28;28.4;27.2;-1.0;
22/02/2025 02:16:03;117;0;312.57;-4;20.26;2.73;901.4;9.80;74262;2836.672;-1800.555;1;318;270;274.2;26.1;26.2;28;28.4;27.2;-1.0;
22/02/2025 02:16:23;117;0;312.70;-4;19.20;2.87;898.9;9.80;74268;2836.675;-1800.558;1;318;270;272.6;26.1;26.2;28;28.4;27.2;-1.0;
22/02/2025 02:16:43;117;0;315.23;-4;20.90;2.57;896.4;9.80;74274;2836.677;-1800.560;1;318;270;272.6;26.1;26.2;28;28.4;27.2;-1.0;
22/02/2025 02:17:03;117;0;311.04;-4;19.34;3.25;893.5;9.80;74274;2836.680;-1800.563;1;318;270;271.0;26.1;26.2;28;28.4;27.2;-1.0;
22/02/2025 02:17:23;117;0;313.73;-4;19.14;3.01;890.8;9.70;74263;2836.682;-1800.566;1;318;270;269.4;26.1;26.2;28;28.4;27.2;-1.0;
22/02/2025 02:17:43;117;0;311.53;-4;19.68;2.65;887.9;9.70;74261;2836.685;-1800.569;1;318;270;272.6;26.1;26.2;28;28.4;27.2;-1.0;
22/02/2025 02:18:03;117;0;310.68;-4;19.72;2.86;885.2;9.70;74251;2836.687;-1800.571;1;318;270;272.6;26.1;26.4;28;28.4;27.2;-1.0;
22/02/2025 02:18:23;117;0;312.40;-4;19.73;2.84;882.4;9.70;74257;2836.690;-1800.574;1;318;270;272.6;26.1;26.2;28;28.4;27.2;-1.0;
22/02/2025 02:18:43;117;0;313.16;-4;19.55;2.78;879.5;9.70;74252;2836.692;-1800.577;1;318;270;274.2;26.1;26.2;28;28.4;27.2;-1.0;
22/02/2025 02:19:03;117;0;313.25;-4;19.81;3.04;876.9;9.70;74252;2836.695;-1800.579;1;318;270;274.2;26.1;26.2;28;28.9;27.2;-1.0;
22/02/2025 02:19:23;117;0;315.33;-4;19.49;2.78;874.2;9.70;74252;2836.698;-1800.582;1;318;270;272.6;26.1;26.4;28;28.4;27.2;-1.0;
22/02/2025 02:19:43;117;0;315.94;-4;20.00;3.04;871.5;9.70;74248;2836.700;-1800.584;1;318;270;272.6;26.1;26.2;28;28.4;27.2;-1.0;
22/02/2025 02:20:03;117;0;316.70;-4;19.71;2.89;868.9;9.70;74242;2836.703;-1800.587;1;318;270;272.6;26.1;26.2;28;28.4;27.2;-1.0;
22/02/2025 02:20:23;117;0;316.35;-4;19.43;2.86;866.2;9.70;74256;2836.705;-1800.589;1;318;270;272.6;26.1;26.2;28;28.4;27.2;-1.0;
22/02/2025 02:20:43;117;0;316.30;-4;19.61;2.89;863.7;9.70;74243;2836.708;-1800.591;1;318;270;272.6;26.1;26.2;28;28.4;27.2;-1.0;
22/02/2025 02:21:03;117;0;316.02;-4;19.52;2.89;861.1;9.70;74249;2836.710;-1800.594;1;318;270;272.6;26.1;26.2;28;28.9;27.2;-1.0;
22/02/2025 02:21:23;117;0;316.10;-4;19.64;2.88;858.6;9.70;74243;2836.713;-1800.596;1;318;270;272.6;26.1;26.2;28;28.4;27.2;-1.0;
22/02/2025 02:21:43;117;0;316.37;-4;19.52;3.06;856.1;9.70;74251;2836.715;-1800.598;1;318;270;272.6;26.1;26.2;28;28.4;27.2;-1.0;
22/02/2025 02:22:03;117;0;316.79;-4;19.58;2.83;853.6;9.60;74241;2836.718;-1800.600;1;318;270;272.6;26.1;26.2;28;28.4;27.2;-1.0;
