Timestamp;NavState;SecurityLevel;Heading;Declination;Pitch;Roll;Depth;Temperature;Pa;Lat;Lon;DeadReckoning;DesiredH;BallastCmd;BallastPos;LinCmd;LinPos;AngCmd;AngPos;Voltage;Altitude;
16/02/2025 14:02:52;119;0;276.95;-4;-58.05;-11.25;-0.3;19.60;76496;2838.931;-1801.660;0;168;500;508.1;100.0;100.9;0;-0.9;28.4;-1.0;
16/02/2025 14:03:02;116;0;290.03;-4;-45.93;-0.36;-0.3;19.60;76503;2838.933;-1801.660;0;168;500;508.1;100.0;100.7;0;-0.5;28.4;-1.0;
16/02/2025 14:03:29;116;0;299.38;-4;-50.14;-18.03;-0.1;19.70;76517;2838.935;-1801.661;0;169;500;509.7;100.0;100.7;0;-0.5;28.4;-1.0;
16/02/2025 14:03:46;116;0;286.91;-4;-57.93;-14.22;-0.2;19.80;76522;2838.935;-1801.660;0;168;500;509.7;100.0;100.9;0;-0.5;28.4;-1.0;
16/02/2025 14:04:06;116;0;306.13;-4;-58.93;-16.56;-0.1;19.80;76535;2838.938;-1801.661;0;169;500;509.7;100.0;100.7;0;-0.5;28.4;-1.0;
16/02/2025 14:04:17;116;0;294.79;-4;-54.98;-10.51;0.2;19.80;76535;2838.940;-1801.662;0;168;500;509.7;100.0;100.9;0;-0.5;28.4;-1.0;
16/02/2025 14:05:15;116;0;296.21;-4;-56.60;-12.85;0.2;19.90;76556;2838.947;-1801.663;0;168;500;509.7;100.0;100.9;0;-0.5;28.4;-1.0;
16/02/2025 14:06:03;116;0;315.40;-4;-52.27;-18.30;0.2;20.10;76572;2838.952;-1801.663;0;169;500;508.1;100.0;100.9;0;-0.9;28.4;-1.0;
16/02/2025 14:07:01;116;0;298.30;-4;-54.59;-15.65;0.0;20.30;76588;2838.958;-1801.662;0;169;500;508.1;100.0;100.7;0;-0.5;28.4;-1.0;
16/02/2025 14:07:12;116;0;297.28;-4;-59.72;-18.21;0.1;20.30;76588;2838.959;-1801.662;0;169;500;508.1;100.0;100.7;0;-0.5;28.4;-1.0;
16/02/2025 14:07:32;110;0;293.30;-4;-50.82;-22.41;-0.1;20.40;76604;2838.959;-1801.662;0;169;-50;393.5;100.0;99.9;-13;-13.1;28.4;-1.0;
16/02/2025 14:07:42;110;0;291.63;-4;-50.15;-25.61;0.3;20.40;76955;2838.961;-1801.663;1;169;-50;237.1;100.0;99.9;-13;-13.5;28.3;-1.0;
16/02/2025 14:07:52;110;0;284.34;-4;-62.23;-14.23;0.6;20.50;77209;2838.962;-1801.663;1;169;-50;80.6;100.0;99.9;-13;-13.5;28.4;-1.0;
16/02/2025 14:08:02;110;0;293.44;-4;-58.29;-21.19;0.7;20.50;77539;2838.963;-1801.664;1;169;-50;-51.6;100.0;99.9;-13;-13.5;28.4;-1.0;
16/02/2025 14:08:12;110;0;308.41;-4;-66.41;-22.24;1.2;20.50;77794;2838.965;-1801.664;1;169;-50;-51.6;48.4;48.3;-13;-13.5;28.4;-1.0;
16/02/2025 14:08:32;100;0;321.89;-4;-38.16;-18.93;4.8;20.60;77760;2838.969;-1801.666;1;169;-50;-48.4;48.4;48.0;-13;-13.5;28.4;-1.0;
16/02/2025 14:08:52;100;0;333.06;-4;-32.16;-18.07;8.7;20.60;77763;2838.975;-1801.669;1;169;-50;-48.4;47.8;47.6;70;69.9;28.4;-1.0;
16/02/2025 14:09:12;100;0;330.77;-4;-33.22;23.22;12.6;20.70;77767;2838.980;-1801.671;1;168;-50;-46.8;46.8;46.8;70;70.4;28.4;-1.0;
16/02/2025 14:09:32;100;0;319.57;-4;-32.63;23.38;16.6;20.70;77769;2838.985;-1801.674;1;168;-50;-46.8;46.0;46.1;70;70.4;28.4;0.0;
16/02/2025 14:09:52;100;0;307.86;-4;-31.95;23.96;20.6;20.70;77765;2838.990;-1801.677;1;168;-50;-46.8;46.0;45.8;70;70.4;28.4;0.0;
16/02/2025 14:10:12;100;0;297.60;-4;-30.25;23.69;24.6;20.70;77759;2838.994;-1801.682;1;168;-50;-46.8;46.0;45.9;70;70.4;28.4;0.0;
16/02/2025 14:10:32;100;0;285.54;-4;-30.00;23.57;28.4;20.70;77765;2838.998;-1801.686;1;168;-50;-46.8;46.0;45.8;70;70.4;28.4;0.0;
16/02/2025 14:10:52;100;0;272.30;-4;-29.09;23.56;32.2;20.70;77762;2839.001;-1801.691;1;168;-50;-46.8;46.0;45.9;70;70.4;28.4;0.0;
16/02/2025 14:11:12;100;0;259.62;-4;-29.89;22.87;35.7;20.70;77762;2839.003;-1801.695;1;168;-50;-46.8;46.0;45.8;70;70.4;28.4;0.0;
16/02/2025 14:11:32;100;0;249.15;-4;-29.67;23.15;39.3;20.70;77765;2839.004;-1801.699;1;168;-50;-46.8;46.0;45.8;70;70.4;28.4;0.0;
16/02/2025 14:11:52;100;0;241.42;-4;-29.97;23.75;42.9;20.70;77762;2839.006;-1801.702;1;168;-50;-46.8;46.0;45.8;70;70.4;28.4;0.0;
16/02/2025 14:12:12;100;0;231.05;-4;-31.39;23.34;46.6;20.70;77759;2839.006;-1801.706;1;168;-50;-46.8;46.0;45.8;70;70.4;28.4;0.0;
16/02/2025 14:12:32;100;0;220.03;-4;-30.58;23.79;50.3;20.70;77754;2839.006;-1801.709;1;167;-50;-46.8;46.0;45.9;70;70.4;28.4;0.0;
16/02/2025 14:12:52;100;0;207.63;-4;-30.42;23.73;54.3;20.70;77757;2839.006;-1801.711;1;167;-50;-46.8;46.0;45.8;56;56.0;28.4;0.0;
16/02/2025 14:13:12;100;0;197.61;-4;-29.36;15.66;58.1;20.70;77749;2839.005;-1801.713;1;167;-50;-46.8;46.0;45.8;42;42.0;28.4;0.0;
16/02/2025 14:13:32;100;0;188.61;-4;-28.08;8.59;61.7;20.70;77757;2839.005;-1801.714;1;167;-50;-46.8;46.6;47.0;26;25.7;28.4;0.0;
16/02/2025 14:13:52;100;0;185.54;-4;-28.44;0.89;65.3;20.70;77752;2839.004;-1801.715;1;167;-50;-46.8;47.1;47.4;21;20.8;28.4;0.0;
16/02/2025 14:14:12;100;0;183.30;-4;-29.40;-1.50;69.0;20.70;77746;2839.003;-1801.716;1;167;-50;-46.8;47.1;47.4;18;18.1;28.4;0.0;
16/02/2025 14:14:32;100;0;181.53;-4;-29.63;-2.85;72.8;20.70;77746;2839.002;-1801.716;1;167;-50;-45.2;47.1;47.4;16;15.8;28.4;0.0;
16/02/2025 14:14:52;100;0;178.34;-4;-28.77;-4.01;76.7;20.70;77738;2839.002;-1801.717;1;167;-50;-46.8;47.5;47.4;13;12.6;28.4;0.0;
16/02/2025 14:15:12;100;0;175.92;-4;-28.45;-5.49;80.4;20.70;77734;2839.001;-1801.717;1;167;-50;-45.2;47.9;47.9;13;12.6;28.4;0.0;
16/02/2025 14:15:32;100;0;173.41;-4;-29.39;-5.45;84.3;20.70;77734;2839.000;-1801.717;1;167;-50;-46.8;47.9;48.0;11;10.4;28.4;0.0;
16/02/2025 14:15:52;100;0;171.78;-4;-29.33;-6.59;88.2;20.70;77730;2838.999;-1801.717;1;167;-50;-46.8;47.9;48.0;11;9.9;28.4;0.0;
16/02/2025 14:16:12;100;0;166.06;-4;-29.15;-6.77;92.0;20.70;77716;2838.998;-1801.717;1;167;-50;-45.2;47.9;48.0;11;10.4;28.4;0.0;
16/02/2025 14:16:32;100;0;166.10;-4;-29.54;-6.67;95.8;20.60;77695;2838.998;-1801.717;1;167;-50;-46.8;47.9;48.2;11;10.4;28.4;0.0;
16/02/2025 14:16:52;100;0;166.50;-4;-30.15;-6.59;99.6;20.70;77687;2838.997;-1801.716;1;167;-50;-45.2;47.9;48.0;11;9.9;28.4;0.0;
16/02/2025 14:17:12;100;0;166.93;-4;-29.69;-6.52;103.6;20.60;77683;2838.996;-1801.716;1;167;-50;-46.8;47.9;48.0;11;9.9;28.4;0.0;
16/02/2025 14:17:32;100;0;170.46;-4;-29.39;-6.62;107.5;20.60;77659;2838.995;-1801.716;1;167;-50;-46.8;47.9;48.0;11;10.4;28.4;0.0;
16/02/2025 14:17:52;100;0;174.73;-4;-28.98;-6.63;111.4;20.60;77629;2838.995;-1801.716;1;167;-50;-46.8;48.2;48.5;11;9.9;28.4;0.0;
16/02/2025 14:18:12;100;0;178.07;-4;-29.14;-6.63;115.1;20.60;77604;2838.994;-1801.717;1;167;-50;-46.8;48.2;48.6;13;13.1;28.4;0.0;
16/02/2025 14:18:32;100;0;174.87;-4;-29.98;-5.03;118.8;20.50;77583;2838.993;-1801.717;1;167;-50;-46.8;48.2;48.7;11;10.8;28.4;0.0;
16/02/2025 14:18:52;100;0;166.67;-4;-30.03;-6.50;122.5;20.50;77564;2838.993;-1801.717;1;167;-50;-45.2;48.2;48.6;11;10.4;28.4;0.0;
16/02/2025 14:19:12;100;0;159.92;-4;-29.97;-6.39;126.3;20.50;77541;2838.992;-1801.716;1;167;-50;-45.2;48.2;48.7;8;8.1;28.4;0.0;
16/02/2025 14:19:32;100;0;155.35;-4;-29.38;-7.86;129.9;20.40;77533;2838.992;-1801.715;1;167;-50;-46.8;48.2;48.6;3;3.2;28.4;0.0;
16/02/2025 14:19:52;100;0;160.34;-4;-30.04;-10.31;133.5;20.40;77513;2838.992;-1801.714;1;167;-50;-46.8;48.2;48.6;8;8.1;28.4;0.0;
16/02/2025 14:20:12;100;0;157.04;-4;-30.05;-7.37;137.2;20.40;77490;2838.991;-1801.713;1;167;-50;-45.2;48.2;48.6;5;5.0;28.4;0.0;
16/02/2025 14:20:32;100;0;157.42;-4;-29.80;-9.34;140.8;20.30;77467;2838.991;-1801.713;1;167;-50;-46.8;48.2;48.6;5;4.5;28.4;0.0;
16/02/2025 14:20:52;100;0;158.82;-4;-29.64;-9.41;144.5;20.30;77465;2838.991;-1801.712;1;167;-50;-46.8;48.2;48.7;7;7.2;28.4;0.0;
16/02/2025 14:21:12;100;0;164.83;-4;-30.60;-8.01;148.0;20.20;77447;2838.990;-1801.712;1;167;-50;-46.8;48.2;48.6;10;10.4;28.4;0.0;
16/02/2025 14:21:32;100;0;169.93;-4;-30.21;-6.32;151.8;20.20;77434;2838.990;-1801.712;1;167;-50;-46.8;48.2;48.6;10;10.4;28.4;0.0;
16/02/2025 14:21:52;100;0;172.56;-4;-30.34;-6.35;155.5;20.20;77419;2838.989;-1801.712;1;167;-50;-46.8;48.2;48.6;10;10.4;28.4;0.0;
16/02/2025 14:22:12;100;0;168.47;-4;-30.69;-6.32;159.2;20.10;77399;2838.989;-1801.712;1;167;-50;-46.8;48.2;48.7;10;10.8;28.4;0.0;
16/02/2025 14:22:32;100;0;165.87;-4;-29.89;-6.42;162.9;20.10;77392;2838.988;-1801.711;1;167;-50;-46.8;48.2;48.7;10;10.8;28.4;0.0;
16/02/2025 14:22:52;100;0;159.39;-4;-29.49;-6.57;166.5;20.00;77381;2838.988;-1801.710;1;167;-50;-45.2;48.2;48.7;7;7.2;28.4;0.0;
16/02/2025 14:23:12;100;0;155.03;-4;-29.49;-8.17;170.1;20.00;77368;2838.987;-1801.709;1;167;-50;-46.8;48.2;48.6;3;3.2;28.4;0.0;
16/02/2025 14:23:32;100;0;157.59;-4;-29.22;-10.42;173.5;19.90;77343;2838.987;-1801.709;1;167;-50;-46.8;48.2;48.6;6;5.9;28.4;0.0;
16/02/2025 14:23:52;100;0;159.82;-4;-29.49;-8.66;177.1;19.90;77327;2838.987;-1801.708;1;167;-50;-45.2;48.2;48.6;8;8.1;28.4;0.0;
16/02/2025 14:24:12;100;0;160.74;-4;-29.57;-7.40;180.5;19.80;77315;2838.987;-1801.707;1;167;-50;-45.2;48.2;48.7;8;8.6;28.4;0.0;
16/02/2025 14:24:32;100;0;165.41;-4;-30.04;-7.34;184.1;19.80;77295;2838.986;-1801.707;1;167;-50;-46.8;48.2;48.7;10;9.9;28.4;0.0;
16/02/2025 14:24:52;100;0;168.25;-4;-29.82;-6.56;187.8;19.70;77280;2838.986;-1801.707;1;167;-50;-46.8;48.2;48.6;10;10.4;28.4;0.0;
16/02/2025 14:25:12;100;0;169.20;-4;-30.21;-6.46;191.5;19.70;77263;2838.985;-1801.707;1;167;-50;-46.8;48.2;48.6;10;10.4;28.4;0.0;
16/02/2025 14:25:32;100;0;163.35;-4;-30.23;-6.56;195.2;19.70;77258;2838.985;-1801.706;1;167;-50;-46.8;48.2;48.7;10;10.4;28.4;0.0;
16/02/2025 14:25:52;100;0;162.15;-4;-30.17;-6.55;199.1;19.60;77234;2838.984;-1801.706;1;167;-50;-46.8;48.2;48.7;10;10.4;28.4;0.0;
16/02/2025 14:25:55;118;0;161.93;-4;-30.25;-6.59;199.6;19.60;77235;2838.984;-1801.706;1;167;170;-40.3;22.5;22.5;13;13.5;28.4;0.0;
16/02/2025 14:26:05;118;0;141.11;-4;-17.30;-5.59;201.0;19.60;77213;2838.983;-1801.704;1;167;170;88.7;22.5;22.2;13;13.5;28.0;-1.0;
16/02/2025 14:26:15;118;0;136.70;-4;9.11;-5.35;201.6;19.50;76929;2838.984;-1801.704;1;167;170;172.6;22.5;22.5;13;13.5;28.0;-1.0;
16/02/2025 14:26:25;118;0;162.51;-4;21.52;-5.63;201.0;19.50;76765;2838.985;-1801.704;1;167;170;172.6;22.5;22.7;13;13.5;28.4;-1.0;
16/02/2025 14:26:45;117;0;161.50;-4;26.82;-5.68;199.1;19.50;76766;2838.986;-1801.704;1;167;170;174.2;22.5;22.7;13;13.5;28.4;-1.0;
16/02/2025 14:27:05;117;0;158.32;-4;27.20;-5.61;197.0;19.40;76753;2838.987;-1801.704;1;167;170;174.2;21.7;21.5;41;41.1;28.4;-1.0;
16/02/2025 14:27:25;117;0;160.39;-4;31.37;9.46;195.0;19.40;76744;2838.988;-1801.704;1;167;170;174.2;21.7;21.5;41;41.5;28.4;-1.0;
16/02/2025 14:27:45;117;0;162.92;-4;31.56;9.50;192.8;19.30;76744;2838.989;-1801.704;1;167;170;174.2;21.7;21.5;38;37.5;28.4;-1.0;
16/02/2025 14:28:05;117;0;168.81;-4;31.34;7.25;190.7;19.20;76722;2838.989;-1801.704;1;167;170;174.2;21.7;21.4;38;37.5;28.4;-1.0;
16/02/2025 14:28:25;117;0;168.33;-4;31.53;7.12;188.5;19.20;76730;2838.990;-1801.704;1;167;170;172.6;21.7;21.5;38;37.5;28.4;-1.0;
16/02/2025 14:28:45;117;0;164.77;-4;31.81;7.21;186.4;19.10;76718;2838.991;-1801.704;1;167;170;174.2;21.7;21.4;38;37.5;28.4;-1.0;
16/02/2025 14:29:05;117;0;163.06;-4;31.42;7.17;184.3;19.10;76720;2838.992;-1801.704;1;167;170;174.2;21.7;21.5;38;37.5;28.4;-1.0;
16/02/2025 14:29:25;117;0;160.22;-4;31.34;7.24;182.2;19.10;76714;2838.993;-1801.704;1;168;170;174.2;21.7;21.4;40;40.2;28.4;-1.0;
16/02/2025 14:29:45;117;0;159.60;-4;32.04;9.03;180.1;19.00;76722;2838.994;-1801.704;1;168;170;174.2;22.3;22.5;40;40.6;28.4;-1.0;
16/02/2025 14:30:05;117;0;159.18;-4;30.51;9.08;178.1;19.00;76721;2838.995;-1801.704;1;168;170;174.2;22.3;22.7;40;40.6;28.4;-1.0;
16/02/2025 14:30:25;117;0;158.99;-4;30.15;9.02;176.1;19.00;76720;2838.996;-1801.704;1;168;190;193.5;22.3;22.7;40;40.6;28.4;-1.0;
16/02/2025 14:30:45;117;0;161.24;-4;29.46;9.02;174.0;18.90;76679;2838.997;-1801.704;1;168;190;195.2;22.3;22.7;40;40.6;28.4;-1.0;
16/02/2025 14:31:05;117;0;161.94;-4;29.45;9.00;172.0;18.90;76677;2838.998;-1801.703;1;168;210;212.9;22.3;22.7;38;37.5;28.4;-1.0;
16/02/2025 14:31:25;117;0;162.41;-4;29.18;7.23;169.9;18.90;76641;2838.999;-1801.703;1;168;210;212.9;22.3;22.7;38;37.5;28.4;-1.0;
16/02/2025 14:31:45;117;0;168.35;-4;28.84;7.29;167.8;18.80;76651;2839.000;-1801.704;1;168;210;211.3;22.0;21.9;38;37.5;28.4;-1.0;
16/02/2025 14:32:05;117;0;169.04;-4;30.26;7.19;165.4;18.80;76649;2839.000;-1801.704;1;168;210;212.9;22.0;21.6;38;37.5;28.4;-1.0;
16/02/2025 14:32:25;117;0;170.10;-4;30.58;7.17;163.1;18.80;76659;2839.001;-1801.704;1;168;210;212.9;22.0;21.6;38;37.5;28.4;-1.0;
16/02/2025 14:32:45;117;0;170.98;-4;30.09;7.14;160.7;18.80;76652;2839.002;-1801.704;1;168;210;212.9;22.0;21.6;38;37.5;28.4;-1.0;
16/02/2025 14:33:05;117;0;173.56;-4;29.81;7.07;158.5;18.70;76660;2839.002;-1801.704;1;168;210;212.9;22.0;21.6;38;37.5;28.4;-1.0;
16/02/2025 14:33:25;117;0;173.34;-4;30.34;7.20;156.3;18.70;76661;2839.003;-1801.705;1;168;210;214.5;22.0;21.6;38;37.5;28.4;-1.0;
16/02/2025 14:33:45;117;0;170.16;-4;30.26;7.29;154.0;18.70;76664;2839.004;-1801.705;1;168;210;214.5;22.0;21.8;38;37.5;28.4;-1.0;
16/02/2025 14:34:05;117;0;166.65;-4;30.01;7.23;151.8;18.70;76668;2839.005;-1801.705;1;168;210;212.9;22.0;21.6;38;37.5;28.4;-1.0;
16/02/2025 14:34:25;117;0;164.03;-4;30.27;7.20;149.6;18.70;76677;2839.005;-1801.705;1;168;210;212.9;22.0;21.6;38;37.5;28.4;-1.0;
16/02/2025 14:34:45;117;0;163.97;-4;30.26;7.20;147.3;18.60;76673;2839.006;-1801.705;1;168;210;211.3;22.0;21.6;38;37.5;28.4;-1.0;
16/02/2025 14:35:05;117;0;164.77;-4;29.99;7.15;145.0;18.60;76684;2839.007;-1801.705;1;168;210;214.5;22.0;21.6;38;37.5;28.4;-1.0;
16/02/2025 14:35:25;117;0;163.00;-4;29.67;7.20;142.8;18.60;76696;2839.008;-1801.705;1;168;210;212.9;22.0;21.6;38;37.0;28.4;-1.0;
16/02/2025 14:35:45;117;0;164.55;-4;30.13;7.24;140.7;18.60;76696;2839.009;-1801.705;1;168;210;214.5;22.0;21.6;38;37.5;28.4;-1.0;
16/02/2025 14:36:05;117;0;166.82;-4;29.93;7.06;138.4;18.60;76703;2839.009;-1801.705;1;168;210;212.9;22.0;21.6;38;37.5;28.4;-1.0;
16/02/2025 14:36:25;117;0;166.67;-4;30.06;7.17;136.2;18.60;76710;2839.010;-1801.705;1;168;210;212.9;22.0;21.6;38;37.0;28.4;-1.0;
16/02/2025 14:36:45;117;0;169.28;-4;29.81;7.04;133.9;18.60;76718;2839.011;-1801.705;1;168;210;212.9;22.0;21.6;38;37.5;28.4;-1.0;
16/02/2025 14:37:05;117;0;173.27;-4;29.90;7.19;131.7;18.60;76724;2839.011;-1801.706;1;168;210;214.5;22.0;21.6;38;37.5;28.4;-1.0;
16/02/2025 14:37:25;117;0;176.98;-4;29.94;7.18;129.5;18.60;76733;2839.012;-1801.706;1;168;210;214.5;22.0;21.6;35;35.2;28.4;-1.0;
16/02/2025 14:37:45;117;0;183.33;-4;29.87;5.76;127.2;18.60;76733;2839.013;-1801.707;1;168;210;214.5;22.0;21.6;29;28.9;28.4;-1.0;
16/02/2025 14:38:05;117;0;186.87;-4;29.42;2.31;125.0;18.60;76738;2839.013;-1801.708;1;168;210;214.5;22.0;21.6;24;23.9;28.4;-1.0;
16/02/2025 14:38:25;117;0;187.52;-4;29.35;-0.44;122.6;18.60;76741;2839.014;-1801.709;1;168;210;214.5;22.0;21.6;24;23.5;28.4;-1.0;
16/02/2025 14:38:45;117;0;188.26;-4;29.08;-0.57;120.3;18.60;76753;2839.015;-1801.709;1;167;210;214.5;22.0;21.6;24;23.5;28.4;-1.0;
16/02/2025 14:39:05;117;0;181.49;-4;28.99;-0.27;118.0;18.60;76765;2839.015;-1801.710;1;167;210;212.9;21.7;21.6;32;32.0;28.4;-1.0;
16/02/2025 14:39:25;117;0;175.21;-4;29.59;4.49;115.7;18.60;76780;2839.016;-1801.711;1;167;210;212.9;21.7;21.6;36;36.1;28.4;-1.0;
16/02/2025 14:39:45;117;0;171.45;-4;30.04;6.87;113.3;18.60;76791;2839.016;-1801.711;1;167;210;214.5;21.7;21.8;36;36.6;28.4;-1.0;
16/02/2025 14:40:05;117;0;164.03;-4;29.13;6.84;110.8;18.60;76817;2839.017;-1801.711;1;167;210;212.9;21.7;21.6;36;36.6;28.4;-1.0;
16/02/2025 14:40:25;117;0;164.82;-4;29.31;6.73;108.6;18.60;76830;2839.017;-1801.711;1;167;210;214.5;21.7;21.8;36;36.6;28.4;-1.0;
16/02/2025 14:40:45;117;0;167.48;-4;29.41;6.73;106.3;18.60;76841;2839.018;-1801.711;1;167;210;214.5;21.7;21.6;36;36.6;28.4;-1.0;
16/02/2025 14:41:06;117;0;166.26;-4;29.70;6.84;104.3;18.60;76851;2839.019;-1801.711;1;167;210;211.3;21.7;21.6;36;36.1;28.4;-1.0;
16/02/2025 14:41:26;117;0;165.99;-4;29.69;6.67;102.0;18.60;76866;2839.020;-1801.711;1;167;210;211.3;21.7;21.6;36;36.6;28.4;-1.0;
16/02/2025 14:41:46;117;0;162.45;-4;29.45;6.84;100.0;18.70;76880;2839.021;-1801.711;1;168;210;214.5;21.7;21.6;38;37.9;28.4;-1.0;
16/02/2025 14:42:06;117;0;161.32;-4;29.50;7.92;97.8;18.70;76886;2839.021;-1801.711;1;168;210;214.5;21.7;21.6;38;38.8;28.4;-1.0;
16/02/2025 14:42:26;117;0;162.85;-4;29.67;7.82;95.6;18.70;76888;2839.022;-1801.711;1;168;210;214.5;21.7;21.6;38;38.4;28.4;-1.0;
16/02/2025 14:42:46;117;0;165.33;-4;29.90;7.92;93.5;18.70;76896;2839.023;-1801.711;1;168;210;214.5;21.7;21.6;38;38.4;28.4;-1.0;
16/02/2025 14:43:06;117;0;169.29;-4;30.06;8.08;91.3;18.70;76909;2839.024;-1801.711;1;168;210;214.5;21.7;21.6;38;38.4;28.4;-1.0;
16/02/2025 14:43:26;117;0;172.95;-4;29.47;7.91;88.8;18.80;76917;2839.024;-1801.711;1;168;210;214.5;21.7;21.6;38;38.8;28.4;-1.0;
16/02/2025 14:43:46;117;0;176.84;-4;29.98;7.98;86.5;18.80;76941;2839.025;-1801.712;1;168;210;214.5;21.7;21.6;35;34.7;28.4;-1.0;
16/02/2025 14:44:06;117;0;177.18;-4;29.71;6.09;84.0;18.80;76957;2839.025;-1801.712;1;168;210;216.1;21.7;21.6;35;35.2;28.4;-1.0;
16/02/2025 14:44:26;117;0;176.26;-4;29.81;6.06;81.5;18.80;76971;2839.026;-1801.712;1;167;210;214.5;21.7;21.6;35;35.2;28.4;-1.0;
16/02/2025 14:44:46;117;0;175.68;-4;29.66;6.02;78.9;18.80;76981;2839.026;-1801.713;1;167;210;214.5;21.7;21.6;35;35.2;28.4;-1.0;
16/02/2025 14:45:06;117;0;176.18;-4;29.49;5.98;76.4;18.90;76990;2839.027;-1801.713;1;167;210;212.9;21.7;21.6;35;35.2;28.4;-1.0;
16/02/2025 14:45:26;117;0;176.01;-4;29.33;6.04;74.0;18.90;76984;2839.027;-1801.714;1;167;210;214.5;21.7;21.6;35;35.2;28.4;-1.0;
16/02/2025 14:45:46;117;0;176.46;-4;29.25;6.05;71.4;18.90;76998;2839.027;-1801.714;1;167;210;216.1;21.7;21.6;35;35.2;28.4;-1.0;
16/02/2025 14:46:06;117;0;176.79;-4;29.32;5.96;69.0;18.90;77015;2839.028;-1801.715;1;167;210;214.5;21.7;21.8;35;35.2;28.4;-1.0;
16/02/2025 14:46:26;117;0;176.62;-4;29.49;6.07;66.4;19.00;77016;2839.028;-1801.715;1;167;210;214.5;21.7;21.6;35;35.2;28.4;-1.0;
16/02/2025 14:46:46;117;0;175.77;-4;29.17;6.02;63.9;19.00;77024;2839.028;-1801.715;1;167;210;214.5;21.7;21.6;35;35.2;28.4;-1.0;
16/02/2025 14:47:06;117;0;175.19;-4;29.22;6.06;61.4;19.00;77036;2839.029;-1801.716;1;167;210;214.5;21.7;21.8;35;35.2;28.4;-1.0;
16/02/2025 14:47:26;117;0;173.88;-4;29.47;6.12;58.9;19.00;77036;2839.029;-1801.716;1;167;210;214.5;21.7;21.6;35;35.2;28.4;-1.0;
16/02/2025 14:47:46;117;0;173.73;-4;29.65;6.01;56.3;19.00;77041;2839.030;-1801.716;1;167;210;214.5;21.7;21.6;35;35.2;28.4;-1.0;
16/02/2025 14:48:06;117;0;172.78;-4;29.32;6.01;53.8;19.10;77044;2839.030;-1801.717;1;167;210;214.5;21.7;21.6;35;35.2;28.4;-1.0;
16/02/2025 14:48:26;117;0;172.29;-4;29.37;6.02;51.1;19.10;77052;2839.030;-1801.717;1;167;210;214.5;21.7;21.6;37;37.0;28.4;-1.0;
16/02/2025 14:48:46;117;0;173.34;-4;29.43;7.34;48.5;19.10;77054;2839.031;-1801.717;1;167;210;214.5;21.7;21.6;37;37.5;28.4;-1.0;
16/02/2025 14:49:06;117;0;173.40;-4;29.33;7.15;46.0;19.10;77047;2839.031;-1801.717;1;167;210;214.5;21.7;21.6;37;37.5;28.4;-1.0;
16/02/2025 14:49:26;117;0;173.98;-4;29.50;7.41;43.3;19.20;77063;2839.031;-1801.718;1;167;210;214.5;21.7;21.6;37;37.5;28.4;-1.0;
16/02/2025 14:49:46;117;0;174.62;-4;29.49;7.38;40.7;19.20;77063;2839.031;-1801.718;1;167;210;214.5;21.7;21.6;37;37.5;28.4;-1.0;
16/02/2025 14:50:06;117;0;174.43;-4;29.04;7.30;38.2;19.20;77073;2839.032;-1801.718;1;167;210;214.5;21.7;21.6;37;37.5;28.4;-1.0;
16/02/2025 14:50:26;117;0;171.91;-4;29.35;7.38;35.7;19.20;77069;2839.032;-1801.719;1;167;210;214.5;21.7;21.6;37;37.5;28.4;-1.0;
16/02/2025 14:50:46;117;0;170.28;-4;29.69;7.30;33.1;19.30;77078;2839.033;-1801.719;1;167;210;212.9;21.7;21.6;37;37.5;28.4;-1.0;
16/02/2025 14:51:06;117;0;168.86;-4;29.42;7.23;30.7;19.30;77084;2839.033;-1801.719;1;167;210;214.5;21.7;21.6;37;37.5;28.4;-1.0;
16/02/2025 14:51:26;117;0;167.79;-4;29.94;7.41;28.2;19.30;77093;2839.034;-1801.719;1;167;210;212.9;21.7;21.6;37;37.5;28.4;-1.0;
16/02/2025 14:51:46;117;0;167.57;-4;29.86;7.46;25.6;19.30;77107;2839.034;-1801.719;1;167;210;214.5;21.7;21.6;37;37.5;28.4;-1.0;
16/02/2025 14:52:06;117;0;168.16;-4;30.00;7.49;23.1;19.30;77103;2839.035;-1801.719;1;167;210;214.5;21.7;21.6;37;37.5;28.4;-1.0;
16/02/2025 14:52:26;117;0;168.29;-4;29.11;7.36;20.6;19.40;77107;2839.035;-1801.719;1;167;210;214.5;21.7;21.6;37;37.5;28.4;-1.0;
16/02/2025 14:52:46;117;0;168.62;-4;29.99;7.47;18.0;19.40;77106;2839.035;-1801.719;1;167;210;214.5;21.7;21.6;37;37.5;28.4;-1.0;
16/02/2025 14:53:06;117;0;168.96;-4;28.78;7.38;15.4;19.40;77113;2839.036;-1801.719;1;167;210;212.9;21.3;21.2;37;37.5;28.4;-1.0;
16/02/2025 14:53:26;117;0;170.53;-4;30.45;7.38;12.7;19.40;77115;2839.036;-1801.719;1;167;210;214.5;21.3;21.1;37;37.5;28.4;-1.0;
16/02/2025 14:53:46;117;0;172.61;-4;30.75;7.41;9.9;19.40;77125;2839.036;-1801.720;1;167;210;214.5;21.3;21.1;37;37.5;28.4;-1.0;
16/02/2025 14:54:06;117;0;172.70;-4;29.36;7.11;7.3;19.50;77123;2839.037;-1801.720;1;167;210;214.5;21.3;21.1;37;37.5;28.4;-1.0;
16/02/2025 14:54:26;117;0;173.68;-4;30.49;7.70;4.5;19.50;77128;2839.037;-1801.720;1;167;210;214.5;21.3;20.9;37;37.5;28.4;-1.0;
16/02/2025 14:54:37;115;0;175.15;-4;30.66;7.95;3.0;19.50;77128;2839.037;-1801.720;1;167;500;219.4;100.0;62.9;0;-0.9;28.4;-1.0;
16/02/2025 14:54:47;115;0;155.62;-4;13.56;-12.62;1.9;19.50;77111;2839.037;-1801.720;1;167;500;337.1;100.0;100.0;0;-0.5;28.2;-1.0;
16/02/2025 14:54:57;115;0;151.45;-4;-52.91;-14.82;2.6;19.50;76851;2839.038;-1801.720;1;167;500;453.2;100.0;100.6;0;-0.5;28.2;-1.0;
16/02/2025 14:55:07;115;0;135.44;-4;-70.16;-14.47;2.6;19.50;76591;2839.039;-1801.720;1;167;500;506.5;100.0;100.7;0;-0.5;28.2;-1.0;
16/02/2025 14:55:17;115;0;121.05;-4;-55.83;-4.50;-0.8;19.60;76491;2839.039;-1801.719;1;167;500;506.5;100.0;100.7;0;-0.5;28.4;-1.0;
16/02/2025 14:55:37;119;0;185.78;-4;-60.94;2.58;-0.3;19.60;76512;2839.039;-1801.719;1;167;500;509.7;100.0;100.7;0;-0.5;28.4;-1.0;
16/02/2025 14:55:47;119;0;223.75;-4;-56.22;-16.54;-0.4;19.60;76514;2838.884;-1801.768;0;167;500;509.7;100.0;100.6;0;-0.5;28.4;-1.0;
