Timestamp;NavState;SecurityLevel;Heading;Declination;Pitch;Roll;Depth;Temperature;Pa;Lat;Lon;DeadReckoning;DesiredH;BallastCmd;BallastPos;LinCmd;LinPos;AngCmd;AngPos;Voltage;Altitude;
04/03/2025 06:47:47;119;0;338.80;-4;-33.30;-5.68;0.2;16.30;75507;2837.093;-1759.667;0;146;500;506.5;100.0;100.3;0;-0.5;25.0;-1.0;
04/03/2025 06:47:56;116;0;343.37;-4;-50.07;-12.72;0.2;16.30;75497;2837.092;-1759.673;0;146;500;506.5;100.0;100.4;0;-0.5;25.0;-1.0;
04/03/2025 06:48:21;116;0;344.81;-4;-38.26;-27.74;0.2;16.40;75516;2837.089;-1759.675;0;146;500;506.5;100.0;100.3;0;-0.5;25.0;-1.0;
04/03/2025 06:48:44;116;0;333.38;-4;-50.82;-13.35;0.1;16.50;75519;2837.089;-1759.675;0;148;500;506.5;100.0;100.4;0;-0.5;25.0;-1.0;
04/03/2025 06:49:07;116;0;346.33;-4;-46.76;-5.86;0.2;16.60;75518;2837.089;-1759.677;0;148;500;506.5;100.0;100.4;0;-0.5;25.0;-1.0;
04/03/2025 06:49:28;116;0;337.48;-4;-48.86;-15.86;0.0;16.60;75543;2837.088;-1759.678;0;148;500;506.5;100.0;100.4;0;-0.5;25.0;-1.0;
04/03/2025 06:49:48;116;0;342.14;-4;-45.04;-14.98;0.1;16.70;75549;2837.087;-1759.681;0;148;500;506.5;100.0;100.4;0;-0.5;25.0;-1.0;
04/03/2025 06:50:50;116;0;346.72;-4;-39.45;-12.36;0.1;16.90;75574;2837.099;-1759.689;0;148;500;508.1;100.0;100.4;0;-0.5;25.0;-1.0;
04/03/2025 06:51:42;116;0;357.89;-4;-45.80;-7.79;0.1;17.20;75599;2837.099;-1759.692;0;148;500;506.5;100.0;100.3;0;-0.5;25.0;-1.0;
04/03/2025 06:51:55;116;0;340.56;-4;-44.65;-10.40;0.0;17.20;75600;2837.100;-1759.693;0;148;500;506.5;100.0;100.4;0;-0.5;25.0;-1.0;
04/03/2025 06:52:15;110;0;346.75;-4;-42.68;-17.84;0.1;17.30;75602;2837.100;-1759.693;0;148;-110;385.5;100.0;100.3;-7;-7.2;25.0;-1.0;
04/03/2025 06:52:26;110;0;339.89;-4;-45.84;-15.45;0.2;17.40;75952;2837.100;-1759.693;1;148;-110;246.8;100.0;100.4;-7;-7.2;24.9;-1.0;
04/03/2025 06:52:36;110;0;341.53;-4;-57.02;-17.10;0.4;17.40;76184;2837.100;-1759.693;1;148;-110;103.2;100.0;100.4;-7;-7.2;24.9;-1.0;
04/03/2025 06:52:46;110;0;355.26;-4;-59.78;-13.17;0.8;17.50;76483;2837.101;-1759.693;1;148;-110;-56.5;100.0;100.4;-7;-7.2;24.9;-1.0;
04/03/2025 06:52:56;110;0;24.20;-4;-71.29;-36.29;1.4;17.50;76825;2837.102;-1759.693;1;148;-110;-109.7;43.4;54.2;-7;-7.2;24.9;-1.0;
04/03/2025 06:53:06;110;0;346.43;-4;-54.72;-15.48;2.6;17.60;76888;2837.103;-1759.693;1;148;-110;-109.7;43.4;43.4;-7;-7.2;24.9;-1.0;
04/03/2025 06:53:26;100;0;352.59;-4;-28.39;-15.81;6.4;17.60;76885;2837.107;-1759.693;1;148;-110;-106.5;43.4;43.0;-7;-7.2;25.0;-1.0;
04/03/2025 06:53:46;100;0;356.54;-4;-20.25;-15.14;10.1;17.70;76896;2837.113;-1759.693;1;148;-110;-103.2;43.4;43.6;-70;-69.9;25.0;-1.0;
04/03/2025 06:54:06;100;0;2.65;-4;-21.68;-45.29;13.4;17.70;76898;2837.117;-1759.693;1;148;-110;-104.8;43.4;43.6;-70;-70.4;25.0;0.0;
04/03/2025 06:54:26;100;0;18.91;-4;-20.71;-46.33;16.9;17.80;76918;2837.122;-1759.691;1;148;-110;-101.6;43.4;43.7;-70;-70.4;25.0;0.0;
04/03/2025 06:54:46;100;0;30.25;-4;-21.04;-45.86;20.3;17.80;76930;2837.127;-1759.689;1;148;-110;-101.6;43.4;43.7;-70;-69.9;25.0;0.0;
04/03/2025 06:55:06;100;0;44.48;-4;-20.69;-45.23;23.5;17.90;76937;2837.130;-1759.686;1;148;-110;-100.0;43.4;43.7;-70;-70.4;25.0;0.0;
04/03/2025 06:55:26;100;0;53.66;-4;-21.92;-45.14;26.7;17.90;76946;2837.133;-1759.682;1;148;-110;-101.6;43.4;43.7;-70;-69.9;25.0;0.0;
04/03/2025 06:55:46;100;0;64.29;-4;-18.20;-44.54;29.9;18.00;76950;2837.136;-1759.677;1;148;-110;-101.6;44.0;44.0;-70;-70.4;25.0;0.0;
04/03/2025 06:56:06;100;0;76.42;-4;-21.83;-45.38;32.8;18.00;76954;2837.138;-1759.673;1;148;-110;-101.6;44.0;44.2;-70;-70.4;25.0;0.0;
04/03/2025 06:56:26;100;0;83.97;-4;-23.05;-45.00;36.0;18.00;76964;2837.139;-1759.669;1;148;-110;-100.0;43.1;43.0;-70;-70.4;25.0;0.0;
04/03/2025 06:56:46;100;0;98.04;-4;-18.76;-45.63;39.1;18.00;76971;2837.139;-1759.664;1;148;-110;-100.0;43.4;43.9;-55;-55.1;25.0;0.0;
04/03/2025 06:57:06;100;0;111.61;-4;-19.61;-37.03;41.8;18.10;76975;2837.139;-1759.660;1;148;-110;-100.0;43.4;43.9;-41;-41.1;25.0;0.0;
04/03/2025 06:57:26;100;0;117.26;-4;-21.71;-30.73;44.6;18.10;76988;2837.138;-1759.657;1;148;-110;-100.0;43.4;43.9;-34;-33.8;25.0;0.0;
04/03/2025 06:57:46;100;0;126.30;-4;-20.32;-27.63;47.3;18.10;76985;2837.137;-1759.654;1;148;-110;-101.6;43.4;43.9;-20;-19.9;25.0;0.0;
04/03/2025 06:58:06;100;0;134.15;-4;-21.06;-20.31;50.1;18.10;76993;2837.135;-1759.651;1;148;-110;-100.0;43.4;43.9;-8;-8.1;24.9;0.0;
04/03/2025 06:58:26;100;0;138.18;-4;-22.24;-14.40;52.8;18.20;76989;2837.133;-1759.648;1;148;-110;-101.6;42.8;42.6;-2;-1.8;25.0;0.0;
04/03/2025 06:58:46;100;0;138.39;-4;-20.16;-12.12;55.4;18.20;76991;2837.132;-1759.645;1;148;-110;-101.6;42.8;42.6;-2;-1.4;25.0;0.0;
04/03/2025 06:59:06;100;0;140.50;-4;-19.87;-12.05;57.8;18.20;77002;2837.130;-1759.643;1;148;-110;-100.0;42.8;42.6;1;0.9;25.0;0.0;
04/03/2025 06:59:26;100;0;143.48;-4;-19.99;-10.67;60.1;18.20;77018;2837.128;-1759.641;1;148;-110;-103.2;42.8;42.6;5;5.0;25.0;0.0;
04/03/2025 06:59:46;100;0;149.14;-4;-19.41;-8.90;62.4;18.20;77015;2837.127;-1759.639;1;148;-110;-100.0;42.8;42.6;11;11.3;25.0;0.0;
04/03/2025 07:00:06;100;0;152.19;-4;-20.34;-5.80;64.7;18.20;77011;2837.125;-1759.637;1;148;-110;-100.0;42.8;42.6;11;11.3;25.0;0.0;
04/03/2025 07:00:26;100;0;155.58;-4;-20.05;-5.95;67.0;18.20;77020;2837.123;-1759.636;1;148;-110;-100.0;42.8;42.7;13;13.1;25.0;0.0;
04/03/2025 07:00:46;100;0;156.83;-4;-19.98;-4.87;69.3;18.30;77027;2837.121;-1759.634;1;148;-110;-100.0;42.8;42.6;13;13.5;25.0;0.0;
04/03/2025 07:01:06;100;0;157.09;-4;-20.08;-4.89;71.5;18.30;77024;2837.119;-1759.633;1;148;-110;-100.0;42.8;42.6;13;13.1;25.0;0.0;
04/03/2025 07:01:26;100;0;157.59;-4;-20.16;-4.85;73.7;18.30;77015;2837.117;-1759.632;1;148;-110;-100.0;42.8;42.6;13;13.5;25.0;0.0;
04/03/2025 07:01:46;100;0;159.47;-4;-20.22;-4.85;76.0;18.30;77014;2837.115;-1759.630;1;148;-110;-100.0;42.8;42.6;13;13.5;25.0;0.0;
04/03/2025 07:02:06;100;0;161.95;-4;-20.12;-4.84;78.1;18.30;77010;2837.114;-1759.629;1;148;-110;-101.6;42.8;42.6;13;13.1;24.9;0.0;
04/03/2025 07:02:26;100;0;160.50;-4;-19.73;-4.83;80.3;18.30;77009;2837.112;-1759.628;1;148;-110;-100.0;42.8;42.6;13;13.1;25.0;0.0;
04/03/2025 07:02:46;100;0;161.95;-4;-19.78;-4.93;82.4;18.30;77011;2837.110;-1759.627;1;148;-110;-100.0;42.8;42.6;13;13.5;25.0;0.0;
04/03/2025 07:03:06;100;0;164.41;-4;-19.82;-4.90;84.5;18.30;77001;2837.108;-1759.626;1;148;-110;-101.6;42.8;42.6;13;13.5;25.0;0.0;
04/03/2025 07:03:26;100;0;169.83;-4;-20.20;-4.80;86.9;18.30;76978;2837.106;-1759.625;1;148;-110;-100.0;42.8;42.6;18;18.1;25.0;0.0;
04/03/2025 07:03:46;100;0;167.69;-4;-20.46;-2.33;89.2;18.30;76975;2837.104;-1759.625;1;148;-110;-101.6;42.8;42.6;16;15.8;25.0;0.0;
04/03/2025 07:04:06;100;0;165.47;-4;-20.65;-3.85;91.7;18.30;76966;2837.102;-1759.624;1;148;-110;-100.0;42.8;42.6;16;15.3;25.0;0.0;
04/03/2025 07:04:26;100;0;163.09;-4;-20.53;-3.86;94.4;18.30;76958;2837.099;-1759.622;1;148;-110;-100.0;42.8;42.6;14;14.0;25.0;0.0;
04/03/2025 07:04:46;100;0;161.48;-4;-20.39;-4.86;96.9;18.30;76961;2837.097;-1759.621;1;148;-110;-100.0;42.8;42.6;14;13.5;25.0;0.0;
04/03/2025 07:05:06;100;0;160.04;-4;-20.32;-4.86;99.5;18.30;76961;2837.095;-1759.620;1;148;-110;-100.0;42.8;42.6;14;13.5;24.9;0.0;
04/03/2025 07:05:26;100;0;160.39;-4;-20.09;-4.84;102.1;18.30;76947;2837.092;-1759.618;1;148;-110;-101.6;42.8;42.6;14;13.5;25.0;0.0;
04/03/2025 07:05:46;100;0;159.61;-4;-20.13;-4.86;104.5;18.30;76944;2837.090;-1759.617;1;148;-110;-100.0;42.8;42.6;14;13.5;25.0;0.0;
04/03/2025 07:06:06;100;0;158.99;-4;-19.65;-4.88;106.8;18.30;76934;2837.088;-1759.616;1;148;-110;-100.0;42.8;42.6;14;13.5;25.0;0.0;
04/03/2025 07:06:26;100;0;161.60;-4;-19.55;-4.92;109.1;18.30;76922;2837.086;-1759.614;1;148;-110;-100.0;42.8;42.6;14;13.5;25.0;0.0;
04/03/2025 07:06:46;100;0;163.46;-4;-19.48;-4.79;111.2;18.30;76917;2837.084;-1759.613;1;148;-110;-101.6;42.8;42.6;14;13.5;25.0;0.0;
04/03/2025 07:07:06;100;0;163.85;-4;-19.90;-4.89;113.3;18.30;76916;2837.083;-1759.612;1;148;-110;-101.6;42.8;42.6;14;13.5;25.0;0.0;
04/03/2025 07:07:26;100;0;163.21;-4;-19.77;-4.87;115.4;18.20;76904;2837.081;-1759.611;1;148;-110;-101.6;42.8;42.4;14;13.5;25.0;0.0;
04/03/2025 07:07:46;100;0;162.59;-4;-19.60;-4.93;117.3;18.20;76908;2837.079;-1759.610;1;148;-130;-132.3;42.8;42.6;14;13.5;25.0;0.0;
04/03/2025 07:08:06;100;0;160.67;-4;-18.82;-4.83;119.5;18.20;76972;2837.077;-1759.609;1;148;-130;-133.9;43.1;43.2;14;13.5;25.0;0.0;
04/03/2025 07:08:26;100;0;159.86;-4;-19.99;-4.79;121.7;18.20;76958;2837.075;-1759.608;1;148;-130;-133.9;43.1;43.4;14;13.5;25.0;0.0;
04/03/2025 07:08:46;100;0;158.53;-4;-19.95;-4.75;124.1;18.20;76945;2837.073;-1759.606;1;148;-130;-130.6;43.1;43.4;14;13.5;25.0;0.0;
04/03/2025 07:09:06;100;0;157.63;-4;-20.12;-4.71;126.5;18.20;76936;2837.071;-1759.605;1;148;-130;-133.9;43.1;43.4;14;13.5;25.0;0.0;
04/03/2025 07:09:26;100;0;155.32;-4;-19.92;-4.85;128.7;18.20;76932;2837.069;-1759.604;1;148;-130;-132.3;43.1;43.3;14;13.5;25.0;0.0;
04/03/2025 07:09:46;100;0;156.91;-4;-19.88;-4.67;131.1;18.10;76918;2837.067;-1759.602;1;148;-130;-137.1;43.1;43.4;14;13.5;25.0;0.0;
04/03/2025 07:10:06;100;0;159.00;-4;-20.24;-4.66;133.5;18.10;76900;2837.065;-1759.601;1;148;-130;-133.9;43.1;43.4;14;13.5;25.0;0.0;
04/03/2025 07:10:26;100;0;162.43;-4;-19.80;-4.70;136.1;18.10;76889;2837.063;-1759.599;1;148;-130;-133.9;43.1;43.3;14;13.5;25.0;0.0;
04/03/2025 07:10:46;100;0;164.44;-4;-19.83;-4.74;138.5;18.10;76877;2837.061;-1759.598;1;148;-130;-133.9;43.1;43.4;14;13.5;25.0;0.0;
04/03/2025 07:11:06;100;0;166.25;-4;-20.10;-4.70;141.0;18.00;76855;2837.058;-1759.597;1;148;-130;-133.9;43.1;43.3;16;15.8;25.0;0.0;
04/03/2025 07:11:26;100;0;169.34;-4;-19.95;-3.27;143.4;18.00;76839;2837.056;-1759.597;1;148;-130;-133.9;43.1;43.3;18;18.1;25.0;0.0;
04/03/2025 07:11:46;100;0;166.22;-4;-19.66;-2.15;145.7;18.00;76821;2837.054;-1759.596;1;148;-130;-133.9;43.1;43.4;15;14.9;25.0;0.0;
04/03/2025 07:12:06;100;0;163.92;-4;-19.59;-4.36;147.8;18.00;76800;2837.052;-1759.595;1;148;-130;-132.3;43.1;43.4;15;14.4;25.0;0.0;
04/03/2025 07:12:26;100;0;161.41;-4;-19.58;-4.30;149.9;17.90;76790;2837.051;-1759.594;1;148;-130;-133.9;43.1;43.4;15;14.4;25.0;0.0;
04/03/2025 07:12:46;100;0;160.38;-4;-19.74;-4.30;152.1;17.90;76780;2837.049;-1759.592;1;148;-130;-133.9;43.1;43.4;15;14.4;25.0;0.0;
04/03/2025 07:13:06;100;0;159.49;-4;-19.85;-4.26;154.5;17.90;76768;2837.047;-1759.591;1;148;-130;-132.3;43.1;43.4;15;14.4;25.0;0.0;
04/03/2025 07:13:26;100;0;158.64;-4;-19.99;-4.31;156.8;17.80;76753;2837.045;-1759.590;1;148;-130;-132.3;43.1;43.4;15;14.4;25.0;0.0;
04/03/2025 07:13:46;100;0;157.85;-4;-20.00;-4.28;159.0;17.80;76759;2837.043;-1759.588;1;148;-130;-133.9;43.1;43.4;15;14.0;25.0;0.0;
04/03/2025 07:14:06;100;0;156.53;-4;-19.88;-4.23;161.3;17.80;76743;2837.041;-1759.587;1;148;-130;-133.9;43.1;43.4;15;14.4;24.9;0.0;
04/03/2025 07:14:26;100;0;155.21;-4;-19.78;-4.28;163.8;17.70;76744;2837.039;-1759.585;1;148;-130;-135.5;43.1;43.3;15;14.4;25.0;0.0;
04/03/2025 07:14:46;100;0;155.35;-4;-19.77;-4.28;166.2;17.70;76733;2837.037;-1759.584;1;148;-130;-133.9;43.1;43.4;15;14.4;25.0;0.0;
04/03/2025 07:15:06;100;0;156.44;-4;-19.81;-4.37;168.5;17.70;76717;2837.035;-1759.582;1;148;-130;-133.9;43.1;43.4;15;14.4;25.0;0.0;
04/03/2025 07:15:26;100;0;157.14;-4;-19.63;-4.47;171.0;17.60;76724;2837.033;-1759.581;1;148;-130;-132.3;43.1;43.4;15;14.4;25.0;0.0;
04/03/2025 07:15:46;100;0;158.00;-4;-19.78;-4.34;173.4;17.60;76725;2837.031;-1759.579;1;148;-130;-133.9;43.1;43.4;15;14.4;25.0;0.0;
04/03/2025 07:16:06;100;0;156.37;-4;-20.00;-4.31;175.9;17.60;76699;2837.028;-1759.578;1;148;-130;-132.3;43.1;43.4;15;14.4;25.0;0.0;
04/03/2025 07:16:26;100;0;151.95;-4;-19.90;-4.27;178.6;17.50;76703;2837.026;-1759.576;1;148;-130;-133.9;43.1;43.4;13;13.1;25.0;0.0;
04/03/2025 07:16:46;100;0;150.51;-4;-19.78;-4.96;181.1;17.50;76687;2837.024;-1759.574;1;148;-130;-133.9;43.1;43.4;13;13.1;25.0;0.0;
04/03/2025 07:17:06;100;0;149.16;-4;-19.72;-5.03;183.7;17.50;76675;2837.022;-1759.572;1;148;-130;-133.9;43.1;43.3;13;13.1;25.0;0.0;
04/03/2025 07:17:26;100;0;149.12;-4;-19.90;-4.92;186.4;17.40;76671;2837.020;-1759.569;1;148;-130;-133.9;43.1;43.4;13;12.6;25.0;0.0;
04/03/2025 07:17:46;100;0;151.02;-4;-19.97;-4.88;188.8;17.40;76650;2837.018;-1759.568;1;148;-130;-133.9;43.1;43.4;13;13.1;25.0;0.0;
04/03/2025 07:18:06;100;0;154.51;-4;-20.09;-4.93;191.7;17.40;76649;2837.015;-1759.566;1;148;-130;-133.9;43.1;43.4;13;13.1;25.0;0.0;
04/03/2025 07:18:26;100;0;155.88;-4;-19.92;-5.04;194.6;17.30;76642;2837.013;-1759.564;1;148;-130;-133.9;43.1;43.4;13;13.1;25.0;0.0;
04/03/2025 07:18:46;100;0;158.11;-4;-19.92;-4.95;197.2;17.30;76646;2837.011;-1759.562;1;148;-130;-133.9;43.1;43.4;13;13.1;25.0;0.0;
04/03/2025 07:19:06;100;0;156.92;-4;-20.05;-4.98;200.0;17.30;76623;2837.008;-1759.561;1;148;-130;-133.9;43.1;43.4;13;12.6;25.0;0.0;
04/03/2025 07:19:26;100;0;157.73;-4;-19.98;-4.92;203.1;17.20;76625;2837.005;-1759.559;1;148;-130;-133.9;43.1;43.3;13;13.1;25.0;0.0;
04/03/2025 07:19:46;100;0;158.18;-4;-19.85;-4.96;206.0;17.20;76618;2837.002;-1759.557;1;148;-130;-133.9;43.1;43.4;13;12.6;25.0;0.0;
04/03/2025 07:20:06;100;0;159.15;-4;-20.04;-4.92;208.9;17.20;76615;2837.000;-1759.555;1;148;-130;-133.9;43.1;43.4;13;13.1;25.0;0.0;
04/03/2025 07:20:26;100;0;160.46;-4;-20.01;-4.95;211.8;17.10;76608;2836.997;-1759.554;1;148;-130;-133.9;43.1;43.4;13;12.6;25.0;0.0;
04/03/2025 07:20:46;100;0;161.45;-4;-20.12;-4.95;214.5;17.10;76600;2836.995;-1759.552;1;148;-130;-133.9;43.1;43.4;13;13.1;25.0;0.0;
04/03/2025 07:21:06;100;0;163.57;-4;-20.00;-4.83;217.5;17.10;76607;2836.992;-1759.551;1;148;-130;-133.9;43.1;43.4;15;14.9;25.0;0.0;
04/03/2025 07:21:26;100;0;163.94;-4;-19.99;-3.69;220.3;17.00;76598;2836.989;-1759.550;1;148;-130;-135.5;43.1;43.4;15;15.3;25.0;0.0;
04/03/2025 07:21:46;100;0;166.57;-4;-20.59;-3.71;223.4;17.00;76591;2836.986;-1759.549;1;148;-130;-133.9;43.1;43.3;17;17.1;25.0;0.0;
04/03/2025 07:22:06;100;0;170.95;-4;-19.93;-2.91;226.2;17.00;76595;2836.983;-1759.548;1;148;-130;-133.9;43.1;43.4;22;22.1;25.0;0.0;
04/03/2025 07:22:26;100;0;169.35;-4;-20.25;-0.24;229.3;16.90;76583;2836.980;-1759.547;1;148;-130;-133.9;43.1;43.4;22;22.1;25.0;0.0;
04/03/2025 07:22:46;100;0;166.21;-4;-20.22;-0.33;232.5;16.90;76574;2836.977;-1759.546;1;148;-130;-133.9;43.1;43.4;18;18.1;25.0;0.0;
04/03/2025 07:23:06;100;0;162.77;-4;-20.47;-2.57;235.4;16.90;76567;2836.974;-1759.544;1;148;-130;-133.9;43.1;43.4;15;14.9;25.0;0.0;
04/03/2025 07:23:26;100;0;161.61;-4;-20.02;-4.31;238.3;16.80;76555;2836.971;-1759.543;1;148;-130;-133.9;43.1;43.4;15;14.4;25.0;0.0;
04/03/2025 07:23:46;100;0;162.23;-4;-20.80;-4.16;241.2;16.80;76553;2836.969;-1759.541;1;148;-130;-133.9;43.1;43.4;15;14.4;25.0;0.0;
04/03/2025 07:24:06;100;0;159.03;-4;-20.03;-4.55;244.5;16.80;76546;2836.966;-1759.540;1;148;-130;-133.9;43.1;43.3;15;14.4;25.0;0.0;
04/03/2025 07:24:26;100;0;159.20;-4;-18.84;-3.95;247.2;16.80;76556;2836.963;-1759.538;1;148;-130;-133.9;43.5;43.4;15;14.4;25.0;0.0;
04/03/2025 07:24:46;100;0;159.42;-4;-20.04;-4.19;250.0;16.70;76543;2836.961;-1759.537;1;148;-130;-133.9;43.5;43.4;15;14.4;25.0;0.0;
04/03/2025 07:25:06;100;0;154.82;-4;-21.34;-4.09;252.7;16.70;76541;2836.958;-1759.535;1;148;-130;-133.9;43.5;43.4;15;14.4;25.0;0.0;
04/03/2025 07:25:26;100;0;152.90;-4;-20.46;-4.32;255.5;16.70;76551;2836.956;-1759.533;1;148;-130;-133.9;43.5;43.4;15;14.0;25.0;0.0;
04/03/2025 07:25:46;100;0;150.43;-4;-20.16;-4.26;258.2;16.60;76532;2836.954;-1759.531;1;148;-130;-135.5;43.5;43.4;13;13.1;25.0;0.0;
04/03/2025 07:26:06;100;0;150.64;-4;-19.95;-4.93;261.0;16.60;76524;2836.951;-1759.529;1;148;-130;-133.9;43.5;43.4;13;12.6;25.0;0.0;
04/03/2025 07:26:26;100;0;149.61;-4;-19.70;-5.09;263.8;16.60;76522;2836.949;-1759.526;1;148;-130;-133.9;43.5;43.4;13;12.6;25.0;0.0;
04/03/2025 07:26:46;100;0;150.36;-4;-19.50;-5.05;266.4;16.50;76515;2836.947;-1759.524;1;148;-130;-133.9;43.5;43.4;13;12.6;25.0;0.0;
04/03/2025 07:27:07;100;0;150.39;-4;-19.12;-5.14;268.8;16.50;76502;2836.945;-1759.522;1;148;-130;-133.9;43.5;43.4;13;12.6;25.0;0.0;
04/03/2025 07:27:27;100;0;152.09;-4;-19.75;-5.35;271.2;16.50;76495;2836.943;-1759.521;1;148;-130;-133.9;43.5;43.4;13;13.1;25.0;0.0;
04/03/2025 07:27:47;100;0;153.68;-4;-19.33;-5.18;273.9;16.40;76485;2836.941;-1759.519;1;148;-130;-133.9;43.5;43.4;13;13.1;25.0;0.0;
04/03/2025 07:28:07;100;0;156.53;-4;-19.44;-5.14;276.3;16.40;76484;2836.938;-1759.517;1;148;-130;-133.9;43.5;43.4;13;12.6;25.0;0.0;
04/03/2025 07:28:27;100;0;158.24;-4;-19.34;-4.99;279.1;16.40;76471;2836.936;-1759.515;1;148;-130;-133.9;43.5;43.4;13;13.1;25.0;0.0;
04/03/2025 07:28:47;100;0;157.91;-4;-19.25;-5.13;281.8;16.40;76461;2836.933;-1759.514;1;148;-130;-133.9;43.5;43.4;13;13.1;25.0;0.0;
04/03/2025 07:29:07;100;0;158.87;-4;-19.44;-5.17;284.3;16.30;76460;2836.931;-1759.512;1;148;-130;-133.9;43.5;43.3;13;12.6;25.0;0.0;
04/03/2025 07:29:27;100;0;159.90;-4;-19.53;-4.94;287.1;16.30;76453;2836.928;-1759.511;1;148;-130;-133.9;43.5;43.3;13;13.1;25.0;0.0;
04/03/2025 07:29:47;100;0;159.95;-4;-19.54;-5.01;289.7;16.30;76438;2836.926;-1759.509;1;148;-130;-133.9;43.5;43.4;13;13.1;25.0;0.0;
04/03/2025 07:30:07;100;0;158.61;-4;-19.59;-5.11;292.1;16.20;76430;2836.924;-1759.508;1;148;-130;-135.5;43.5;43.4;13;12.6;25.0;0.0;
04/03/2025 07:30:27;100;0;158.88;-4;-19.75;-5.07;294.8;16.20;76432;2836.921;-1759.506;1;148;-130;-133.9;43.5;43.3;13;13.1;25.0;0.0;
04/03/2025 07:30:47;100;0;157.89;-4;-19.76;-5.09;297.5;16.20;76428;2836.919;-1759.505;1;148;-130;-132.3;43.5;43.4;13;12.6;24.9;0.0;
04/03/2025 07:31:07;100;0;156.99;-4;-19.73;-5.03;300.1;16.10;76421;2836.917;-1759.503;1;148;-130;-133.9;43.5;43.4;13;12.6;25.0;0.0;
04/03/2025 07:31:27;100;0;156.01;-4;-19.87;-4.98;302.9;16.10;76406;2836.914;-1759.501;1;148;-130;-135.5;43.5;43.3;13;12.6;25.0;0.0;
04/03/2025 07:31:47;100;0;154.18;-4;-19.89;-5.03;305.7;16.10;76421;2836.912;-1759.500;1;148;-130;-135.5;43.5;43.4;13;12.6;25.0;0.0;
04/03/2025 07:32:07;100;0;153.24;-4;-19.77;-5.06;308.5;16.10;76411;2836.909;-1759.498;1;148;-130;-133.9;43.5;43.4;13;12.6;25.0;0.0;
04/03/2025 07:32:27;100;0;151.12;-4;-19.93;-5.00;311.4;16.00;76408;2836.907;-1759.495;1;148;-130;-133.9;43.5;43.4;13;12.6;25.0;0.0;
04/03/2025 07:32:47;100;0;150.53;-4;-19.18;-5.01;314.2;16.00;76395;2836.905;-1759.493;1;148;-130;-133.9;43.5;43.4;13;12.6;25.0;0.0;
04/03/2025 07:33:07;100;0;148.52;-4;-19.68;-5.10;317.0;16.00;76395;2836.902;-1759.491;1;148;-130;-137.1;43.5;43.4;13;12.6;25.0;0.0;
04/03/2025 07:33:27;100;0;149.93;-4;-19.78;-5.07;319.8;15.90;76376;2836.900;-1759.489;1;148;-130;-133.9;43.5;43.4;13;13.1;25.0;0.0;
04/03/2025 07:33:47;100;0;155.15;-4;-19.64;-4.95;323.0;15.90;76363;2836.897;-1759.487;1;148;-130;-137.1;43.5;43.4;13;13.1;25.0;0.0;
04/03/2025 07:34:07;100;0;157.42;-4;-19.71;-5.01;326.1;15.90;76351;2836.894;-1759.485;1;148;-130;-133.9;43.5;43.4;13;13.1;25.0;0.0;
04/03/2025 07:34:27;100;0;159.96;-4;-19.60;-5.06;329.2;15.90;76343;2836.891;-1759.483;1;148;-130;-133.9;43.5;43.4;13;12.6;25.0;0.0;
04/03/2025 07:34:47;100;0;162.24;-4;-19.77;-5.00;332.4;15.80;76340;2836.888;-1759.482;1;148;-130;-133.9;43.5;43.4;15;14.9;25.0;0.0;
04/03/2025 07:35:07;100;0;160.82;-4;-19.50;-4.06;335.5;15.80;76333;2836.885;-1759.480;1;148;-130;-133.9;43.5;43.4;15;15.3;25.0;0.0;
04/03/2025 07:35:27;100;0;159.93;-4;-20.06;-3.90;338.7;15.70;76321;2836.882;-1759.478;1;148;-130;-133.9;43.5;43.4;15;14.9;25.0;0.0;
04/03/2025 07:35:47;100;0;158.76;-4;-19.57;-3.88;341.9;15.70;76315;2836.879;-1759.476;1;148;-130;-133.9;43.5;43.4;15;15.3;25.0;0.0;
04/03/2025 07:36:07;100;0;158.09;-4;-19.93;-3.82;345.1;15.70;76322;2836.876;-1759.474;1;148;-130;-133.9;43.5;43.4;15;15.3;25.0;0.0;
04/03/2025 07:36:27;100;0;156.58;-4;-19.57;-3.77;348.6;15.60;76317;2836.873;-1759.472;1;148;-130;-133.9;43.5;43.4;15;15.3;25.0;0.0;
04/03/2025 07:36:47;100;0;156.04;-4;-19.97;-3.82;351.5;15.60;76316;2836.870;-1759.471;1;148;-130;-135.5;43.5;43.4;15;14.9;25.0;0.0;
04/03/2025 07:37:07;100;0;155.14;-4;-20.07;-4.02;355.1;15.60;76306;2836.867;-1759.468;1;148;-130;-132.3;43.5;43.3;15;14.9;25.0;0.0;
04/03/2025 07:37:27;100;0;155.19;-4;-19.58;-3.94;358.5;15.60;76308;2836.863;-1759.466;1;148;-130;-133.9;43.5;43.4;15;15.3;25.0;0.0;
04/03/2025 07:37:47;100;0;153.56;-4;-20.07;-3.84;362.0;15.50;76298;2836.860;-1759.464;1;148;-130;-133.9;43.5;43.4;15;14.9;24.9;0.0;
04/03/2025 07:38:07;100;0;151.93;-4;-20.14;-3.81;365.5;15.50;76291;2836.857;-1759.461;1;148;-130;-133.9;43.5;43.4;15;15.3;25.0;0.0;
04/03/2025 07:38:27;100;0;150.25;-4;-19.66;-3.86;369.0;15.50;76290;2836.854;-1759.458;1;148;-130;-133.9;43.5;43.4;15;14.9;25.0;0.0;
04/03/2025 07:38:47;100;0;148.69;-4;-19.73;-3.84;372.5;15.40;76269;2836.851;-1759.456;1;148;-130;-133.9;43.5;43.4;13;13.1;25.0;0.0;
04/03/2025 07:39:07;100;0;148.32;-4;-19.45;-5.17;375.8;15.40;76281;2836.848;-1759.453;1;148;-130;-133.9;43.5;43.4;13;12.6;25.0;0.0;
04/03/2025 07:39:27;100;0;147.91;-4;-19.59;-5.06;379.3;15.40;76274;2836.845;-1759.450;1;148;-130;-133.9;43.5;43.4;13;12.6;25.0;0.0;
04/03/2025 07:39:47;100;0;147.96;-4;-19.64;-5.12;382.8;15.30;76275;2836.842;-1759.447;1;148;-130;-132.3;43.5;43.4;13;12.6;25.0;0.0;
04/03/2025 07:40:07;100;0;148.56;-4;-19.28;-5.16;386.3;15.30;76269;2836.839;-1759.444;1;148;-130;-132.3;43.5;43.4;13;12.6;25.0;0.0;
04/03/2025 07:40:27;100;0;149.27;-4;-19.34;-5.18;389.7;15.30;76251;2836.836;-1759.442;1;148;-130;-137.1;43.5;43.4;13;12.6;25.0;0.0;
04/03/2025 07:40:47;100;0;149.55;-4;-19.21;-5.13;393.0;15.30;76260;2836.833;-1759.439;1;148;-130;-135.5;43.5;43.4;13;12.6;25.0;0.0;
04/03/2025 07:41:07;100;0;151.09;-4;-18.62;-5.11;396.3;15.20;76253;2836.830;-1759.436;1;148;-130;-133.9;43.9;43.9;13;12.6;25.0;0.0;
04/03/2025 07:41:27;100;0;153.43;-4;-19.93;-5.20;399.4;15.20;76242;2836.827;-1759.434;1;148;-130;-133.9;43.9;44.0;13;12.6;25.0;0.0;
04/03/2025 07:41:47;100;0;154.67;-4;-20.37;-5.23;402.7;15.20;76232;2836.824;-1759.432;1;148;-130;-133.9;43.9;44.2;13;12.6;25.0;0.0;
04/03/2025 07:42:07;100;0;156.15;-4;-20.26;-5.48;406.0;15.10;76220;2836.821;-1759.430;1;148;-130;-133.9;43.9;44.2;13;12.6;25.0;0.0;
04/03/2025 07:42:27;100;0;155.39;-4;-19.81;-5.20;409.2;15.10;76227;2836.818;-1759.428;1;148;-130;-133.9;43.9;44.0;13;12.6;25.0;0.0;
04/03/2025 07:42:47;100;0;155.39;-4;-20.22;-5.27;412.5;15.10;76219;2836.815;-1759.426;1;148;-130;-133.9;43.9;44.0;13;12.6;25.0;0.0;
04/03/2025 07:43:07;100;0;157.29;-4;-20.66;-5.18;415.5;15.10;76210;2836.812;-1759.424;1;148;-130;-133.9;43.9;44.0;13;12.6;25.0;0.0;
04/03/2025 07:43:27;100;0;159.45;-4;-20.72;-5.08;418.8;15.00;76206;2836.809;-1759.422;1;148;-130;-135.5;43.9;44.2;13;12.6;25.0;0.0;
04/03/2025 07:43:47;100;0;161.15;-4;-20.88;-5.12;422.0;15.00;76204;2836.806;-1759.421;1;148;-130;-133.9;43.9;44.0;13;12.6;25.0;0.0;
04/03/2025 07:44:07;100;0;163.34;-4;-21.08;-5.07;425.1;15.00;76186;2836.803;-1759.419;1;148;-130;-133.9;43.9;44.2;15;14.9;25.0;0.0;
04/03/2025 07:44:27;100;0;164.60;-4;-20.83;-3.80;428.5;15.00;76189;2836.800;-1759.418;1;148;-130;-133.9;43.9;44.2;15;15.3;25.0;0.0;
04/03/2025 07:44:47;100;0;165.84;-4;-20.61;-3.81;431.6;14.90;76173;2836.797;-1759.417;1;148;-130;-133.9;43.9;44.2;18;18.1;25.0;0.0;
04/03/2025 07:45:07;100;0;166.06;-4;-20.88;-2.27;434.5;14.90;76173;2836.794;-1759.416;1;148;-130;-133.9;43.9;44.2;18;18.1;25.0;0.0;
04/03/2025 07:45:27;100;0;164.39;-4;-20.66;-2.29;437.3;14.90;76163;2836.792;-1759.414;1;148;-130;-133.9;43.9;44.2;15;14.9;25.0;0.0;
04/03/2025 07:45:47;100;0;164.12;-4;-20.59;-4.24;440.1;14.80;76155;2836.789;-1759.413;1;148;-130;-133.9;43.9;44.2;15;14.4;25.0;0.0;
04/03/2025 07:46:07;100;0;163.67;-4;-20.76;-4.21;442.9;14.80;76150;2836.787;-1759.412;1;148;-130;-133.9;43.9;44.2;15;14.4;25.0;0.0;
04/03/2025 07:46:27;100;0;163.45;-4;-20.49;-4.37;445.6;14.80;76153;2836.784;-1759.411;1;148;-130;-133.9;43.9;44.2;15;14.4;25.0;0.0;
04/03/2025 07:46:47;100;0;162.88;-4;-20.59;-4.26;448.4;14.80;76147;2836.782;-1759.409;1;148;-130;-135.5;43.9;44.2;15;14.4;25.0;0.0;
04/03/2025 07:47:07;100;0;162.92;-4;-20.70;-4.25;451.1;14.70;76145;2836.779;-1759.408;1;148;-130;-133.9;43.9;44.2;15;14.0;24.9;0.0;
04/03/2025 07:47:27;100;0;162.27;-4;-20.55;-4.26;453.7;14.70;76146;2836.777;-1759.407;1;148;-130;-137.1;43.9;44.2;15;14.4;25.0;0.0;
04/03/2025 07:47:47;100;0;161.49;-4;-20.58;-4.27;456.2;14.70;76137;2836.775;-1759.406;1;148;-130;-133.9;43.9;44.2;15;14.4;25.0;0.0;
04/03/2025 07:48:07;100;0;160.65;-4;-20.65;-4.25;458.8;14.60;76143;2836.773;-1759.404;1;148;-130;-133.9;43.9;44.2;15;14.4;25.0;0.0;
04/03/2025 07:48:27;100;0;160.01;-4;-20.59;-4.28;461.2;14.60;76140;2836.771;-1759.403;1;148;-130;-135.5;43.9;44.2;15;14.4;25.0;0.0;
04/03/2025 07:48:47;100;0;159.96;-4;-20.35;-4.37;463.6;14.60;76131;2836.769;-1759.402;1;148;-130;-133.9;43.9;44.2;15;14.4;25.0;0.0;
04/03/2025 07:49:07;100;0;163.02;-4;-21.95;-4.31;465.9;14.60;76123;2836.767;-1759.401;1;148;-130;-133.9;43.9;44.2;15;14.4;25.0;0.0;
04/03/2025 07:49:27;100;0;164.31;-4;-22.00;-4.23;468.7;14.50;76113;2836.764;-1759.400;1;148;-130;-135.5;43.3;43.3;15;14.0;25.0;0.0;
04/03/2025 07:49:47;100;0;160.83;-4;-19.47;-4.66;471.7;14.50;76103;2836.761;-1759.398;1;148;-130;-133.9;43.3;43.2;15;14.4;25.0;0.0;
04/03/2025 07:50:07;100;0;167.95;-4;-21.65;-4.61;474.3;14.50;76098;2836.759;-1759.397;1;148;-130;-133.9;43.3;43.0;18;18.1;25.0;0.0;
04/03/2025 07:50:27;100;0;171.05;-4;-20.10;-2.45;477.4;14.50;76086;2836.756;-1759.396;1;148;-130;-133.9;43.3;43.2;25;24.8;25.0;0.0;
04/03/2025 07:50:47;100;0;169.19;-4;-20.13;1.17;480.1;14.40;76080;2836.753;-1759.395;1;148;-130;-133.9;43.3;43.0;21;20.8;25.0;0.0;
04/03/2025 07:51:07;100;0;165.42;-4;-19.12;-1.32;482.7;14.40;76075;2836.751;-1759.394;1;148;-130;-133.9;43.3;43.0;16;15.8;25.0;0.0;
04/03/2025 07:51:27;100;0;167.18;-4;-19.82;-3.58;485.0;14.40;76072;2836.749;-1759.393;1;148;-130;-133.9;43.3;43.0;16;15.3;25.0;0.0;
04/03/2025 07:51:47;100;0;165.99;-4;-19.72;-3.76;487.8;14.30;76067;2836.746;-1759.392;1;148;-130;-135.5;43.3;43.0;16;15.3;25.0;0.0;
04/03/2025 07:52:07;100;0;164.58;-4;-18.98;-3.84;490.6;14.30;76062;2836.743;-1759.391;1;148;-130;-133.9;43.6;43.6;16;15.3;25.0;0.0;
04/03/2025 07:52:27;100;0;161.71;-4;-19.95;-3.87;493.1;14.30;76056;2836.741;-1759.390;1;148;-130;-133.9;43.6;43.9;16;15.3;25.0;0.0;
04/03/2025 07:52:47;100;0;160.21;-4;-19.75;-3.89;495.8;14.30;76052;2836.738;-1759.388;1;148;-130;-133.9;43.6;43.9;14;14.0;25.0;0.0;
04/03/2025 07:53:07;100;0;159.75;-4;-20.22;-4.55;498.3;14.20;76044;2836.736;-1759.387;1;148;-130;-133.9;43.6;43.9;14;14.0;25.0;0.0;
04/03/2025 07:53:27;100;0;161.03;-4;-19.86;-4.67;501.1;14.20;76034;2836.734;-1759.385;1;148;-130;-133.9;43.6;43.9;14;14.0;25.0;0.0;
04/03/2025 07:53:47;100;0;160.47;-4;-19.43;-4.60;503.8;14.20;76030;2836.731;-1759.384;1;148;-130;-133.9;43.6;43.9;14;13.5;25.0;0.0;
04/03/2025 07:54:07;100;0;160.86;-4;-19.64;-4.50;506.6;14.10;76021;2836.728;-1759.382;1;148;-130;-133.9;43.6;43.9;14;14.0;25.0;0.0;
04/03/2025 07:54:27;100;0;159.00;-4;-19.71;-4.58;509.3;14.10;76029;2836.726;-1759.381;1;148;-130;-133.9;43.6;43.9;14;14.0;25.0;0.0;
04/03/2025 07:54:47;100;0;157.21;-4;-19.71;-4.59;512.1;14.10;76012;2836.723;-1759.379;1;148;-130;-137.1;43.6;43.9;14;14.0;25.0;0.0;
04/03/2025 07:55:07;100;0;155.39;-4;-19.88;-4.53;514.9;14.10;76014;2836.721;-1759.377;1;148;-130;-133.9;43.6;43.9;14;13.5;25.0;0.0;
04/03/2025 07:55:27;100;0;154.96;-4;-20.53;-4.56;518.0;14.10;76011;2836.718;-1759.375;1;148;-130;-135.5;43.6;43.9;14;14.0;25.0;0.0;
04/03/2025 07:55:47;100;0;155.93;-4;-20.33;-4.54;521.0;14.00;75999;2836.716;-1759.374;1;148;-130;-135.5;43.6;43.9;14;14.0;25.0;0.0;
04/03/2025 07:56:07;100;0;156.86;-4;-20.49;-4.59;524.2;14.00;76003;2836.713;-1759.372;1;148;-130;-133.9;43.6;43.9;14;14.0;25.0;0.0;
04/03/2025 07:56:27;100;0;156.66;-4;-20.52;-4.54;527.5;14.00;75996;2836.710;-1759.370;1;148;-130;-135.5;43.6;43.9;14;14.0;25.0;0.0;
04/03/2025 07:56:47;100;0;155.33;-4;-20.23;-4.48;530.8;14.00;75992;2836.707;-1759.367;1;148;-130;-133.9;43.6;43.9;14;14.0;25.0;0.0;
04/03/2025 07:57:07;100;0;155.45;-4;-20.70;-4.53;534.3;13.90;75986;2836.703;-1759.365;1;148;-130;-133.9;43.6;43.9;14;13.5;25.0;0.0;
04/03/2025 07:57:27;100;0;153.86;-4;-20.53;-4.35;537.8;13.90;75984;2836.700;-1759.363;1;148;-130;-132.3;43.6;43.9;14;14.0;25.0;0.0;
04/03/2025 07:57:47;100;0;152.82;-4;-20.87;-4.53;541.5;13.90;75974;2836.697;-1759.361;1;148;-130;-133.9;43.6;43.9;14;14.0;25.0;0.0;
04/03/2025 07:58:07;100;0;153.14;-4;-19.89;-4.57;544.8;13.80;75962;2836.694;-1759.358;1;148;-130;-135.5;43.6;43.9;14;14.0;25.0;0.0;
04/03/2025 07:58:27;100;0;155.98;-4;-19.68;-4.44;548.3;13.80;75965;2836.691;-1759.356;1;148;-130;-133.9;43.6;43.9;14;14.0;25.0;0.0;
04/03/2025 07:58:47;100;0;157.50;-4;-19.59;-4.52;551.8;13.80;75955;2836.687;-1759.354;1;148;-130;-133.9;43.6;43.9;14;13.5;25.0;0.0;
04/03/2025 07:59:07;100;0;159.66;-4;-19.59;-4.57;554.8;13.80;75953;2836.685;-1759.352;1;148;-130;-133.9;43.6;43.9;14;13.5;25.0;0.0;
04/03/2025 07:59:27;100;0;160.26;-4;-19.52;-4.59;558.1;13.80;75947;2836.681;-1759.350;1;148;-130;-133.9;43.6;44.0;14;14.0;25.0;0.0;
04/03/2025 07:59:47;100;0;159.75;-4;-19.64;-4.61;561.2;13.70;75951;2836.678;-1759.349;1;148;-130;-137.1;43.6;43.9;14;13.5;25.0;0.0;
04/03/2025 08:00:07;100;0;158.54;-4;-19.63;-4.60;564.6;13.70;75952;2836.675;-1759.347;1;148;-130;-133.9;43.6;43.9;14;14.0;25.0;0.0;
04/03/2025 08:00:27;100;0;159.63;-4;-19.47;-4.57;567.9;13.70;75945;2836.672;-1759.345;1;148;-130;-133.9;43.6;43.9;14;14.0;25.0;0.0;
04/03/2025 08:00:47;100;0;160.79;-4;-19.69;-4.60;571.0;13.70;75935;2836.669;-1759.343;1;148;-130;-133.9;43.6;43.9;14;13.5;25.0;0.0;
04/03/2025 08:01:07;100;0;160.71;-4;-19.50;-4.59;574.3;13.60;75930;2836.666;-1759.342;1;148;-130;-133.9;43.6;43.9;14;14.0;25.0;0.0;
04/03/2025 08:01:27;100;0;162.26;-4;-19.35;-4.61;577.7;13.60;75927;2836.662;-1759.340;1;148;-130;-133.9;43.6;43.9;17;17.1;25.0;0.0;
04/03/2025 08:01:47;100;0;161.79;-4;-19.83;-2.78;580.8;13.60;75935;2836.659;-1759.338;1;148;-130;-133.9;43.6;43.9;17;17.1;25.0;0.0;
04/03/2025 08:02:07;100;0;160.21;-4;-19.65;-2.78;584.0;13.60;75920;2836.656;-1759.337;1;148;-130;-133.9;43.6;43.9;15;14.9;25.0;0.0;
04/03/2025 08:02:28;100;0;159.19;-4;-19.49;-4.29;587.3;13.50;75924;2836.653;-1759.335;1;148;-130;-135.5;43.6;43.9;15;14.4;24.9;0.0;
04/03/2025 08:02:48;100;0;158.30;-4;-19.46;-4.30;590.5;13.50;75907;2836.649;-1759.333;1;148;-130;-132.3;43.6;43.9;15;14.4;24.9;0.0;
04/03/2025 08:03:08;100;0;159.06;-4;-19.63;-4.25;593.8;13.50;75910;2836.646;-1759.331;1;148;-130;-132.3;43.6;44.0;15;14.4;25.0;0.0;
04/03/2025 08:03:28;100;0;159.77;-4;-19.67;-4.25;597.0;13.50;75904;2836.643;-1759.329;1;148;-130;-133.9;43.6;43.9;15;14.4;25.0;0.0;
04/03/2025 08:03:48;100;0;163.44;-4;-19.05;-4.22;600.4;13.40;75898;2836.640;-1759.328;1;148;-130;-135.5;43.6;43.9;17;17.1;25.0;0.0;
04/03/2025 08:04:08;100;0;162.89;-4;-19.50;-2.83;603.4;13.40;75905;2836.637;-1759.326;1;148;-130;-133.9;43.6;43.9;17;17.6;25.0;0.0;
04/03/2025 08:04:28;100;0;164.02;-4;-19.75;-2.73;606.6;13.40;75900;2836.634;-1759.325;1;148;-130;-133.9;43.6;43.9;17;17.6;25.0;0.0;
04/03/2025 08:04:48;100;0;163.54;-4;-20.15;-2.78;609.9;13.40;75893;2836.630;-1759.323;1;148;-130;-133.9;43.6;43.9;17;17.6;25.0;0.0;
04/03/2025 08:05:08;100;0;163.60;-4;-20.07;-2.73;613.3;13.30;75879;2836.627;-1759.322;1;148;-130;-133.9;43.6;43.9;17;17.6;25.0;0.0;
04/03/2025 08:05:28;100;0;163.26;-4;-19.90;-2.72;616.7;13.30;75885;2836.623;-1759.320;1;148;-130;-135.5;43.6;43.9;17;17.6;25.0;0.0;
04/03/2025 08:05:48;100;0;162.88;-4;-19.98;-2.68;620.1;13.30;75874;2836.620;-1759.319;1;148;-130;-133.9;43.6;43.9;17;17.6;25.0;0.0;
04/03/2025 08:06:08;100;0;161.56;-4;-19.79;-2.68;623.5;13.30;75863;2836.617;-1759.317;1;148;-130;-137.1;43.6;43.9;17;17.6;25.0;0.0;
04/03/2025 08:06:28;100;0;162.48;-4;-19.74;-2.65;626.8;13.30;75873;2836.614;-1759.315;1;148;-130;-133.9;43.6;43.9;17;17.6;25.0;0.0;
04/03/2025 08:06:48;100;0;161.83;-4;-19.94;-2.67;630.1;13.20;75865;2836.610;-1759.314;1;148;-130;-133.9;43.6;43.9;17;17.6;25.0;0.0;
04/03/2025 08:07:08;100;0;160.71;-4;-19.58;-2.66;633.5;13.20;75860;2836.607;-1759.312;1;148;-130;-133.9;43.6;44.0;17;17.1;25.0;0.0;
04/03/2025 08:07:28;100;0;160.56;-4;-19.86;-2.74;636.8;13.20;75853;2836.604;-1759.310;1;148;-130;-133.9;43.6;43.9;17;17.6;25.0;0.0;
04/03/2025 08:07:48;100;0;160.46;-4;-19.76;-2.73;640.1;13.20;75860;2836.601;-1759.309;1;148;-130;-133.9;43.6;43.9;17;17.6;24.9;0.0;
04/03/2025 08:08:08;100;0;160.32;-4;-19.99;-2.62;643.5;13.20;75861;2836.597;-1759.307;1;148;-130;-133.9;43.6;43.9;17;17.1;25.0;0.0;
04/03/2025 08:08:28;100;0;159.70;-4;-19.98;-2.75;646.9;13.10;75848;2836.594;-1759.305;1;148;-130;-133.9;43.6;43.9;17;17.6;25.0;0.0;
04/03/2025 08:08:48;100;0;158.88;-4;-19.87;-2.67;650.3;13.10;75851;2836.591;-1759.303;1;148;-130;-135.5;43.6;44.0;15;14.9;25.0;0.0;
04/03/2025 08:09:08;100;0;156.64;-4;-18.60;-4.24;653.4;13.10;75839;2836.588;-1759.301;1;148;-130;-133.9;44.0;44.0;15;14.4;25.0;0.0;
04/03/2025 08:09:28;100;0;154.16;-4;-19.75;-4.39;656.5;13.10;75837;2836.585;-1759.299;1;148;-130;-133.9;44.0;44.3;15;14.4;25.0;0.0;
04/03/2025 08:09:48;100;0;152.12;-4;-19.06;-4.23;659.5;13.10;75815;2836.582;-1759.297;1;148;-130;-133.9;44.0;44.2;15;14.4;25.0;0.0;
04/03/2025 08:10:08;100;0;155.80;-4;-19.76;-4.35;662.7;13.00;75816;2836.579;-1759.295;1;148;-130;-133.9;44.0;44.3;15;14.9;25.0;0.0;
04/03/2025 08:10:28;100;0;157.91;-4;-19.22;-4.28;665.8;13.00;75803;2836.576;-1759.293;1;148;-130;-133.9;44.0;44.3;15;14.4;25.0;0.0;
04/03/2025 08:10:48;100;0;158.53;-4;-19.73;-4.33;668.6;13.00;75799;2836.574;-1759.291;1;148;-130;-135.5;44.0;44.3;15;14.4;25.0;0.0;
04/03/2025 08:11:08;100;0;157.38;-4;-19.69;-4.36;671.6;13.00;75798;2836.571;-1759.289;1;148;-130;-133.9;44.0;44.3;15;14.4;24.9;0.0;
04/03/2025 08:11:28;100;0;155.72;-4;-19.80;-4.37;674.6;12.90;75791;2836.568;-1759.287;1;148;-130;-132.3;44.0;44.3;15;14.4;25.0;0.0;
04/03/2025 08:11:48;100;0;156.81;-4;-19.56;-4.41;677.6;12.90;75791;2836.565;-1759.285;1;148;-130;-133.9;44.0;44.3;15;14.4;25.0;0.0;
04/03/2025 08:12:08;100;0;157.85;-4;-19.84;-4.20;680.6;12.90;75785;2836.563;-1759.284;1;148;-130;-133.9;44.0;44.3;15;14.4;25.0;0.0;
04/03/2025 08:12:28;100;0;158.92;-4;-19.84;-4.30;683.6;12.90;75780;2836.560;-1759.282;1;148;-130;-133.9;44.0;44.3;15;14.4;25.0;0.0;
04/03/2025 08:12:48;100;0;158.13;-4;-20.21;-4.27;686.6;12.80;75771;2836.557;-1759.280;1;148;-130;-133.9;44.0;44.3;15;14.4;25.0;0.0;
04/03/2025 08:13:08;100;0;158.45;-4;-20.25;-4.23;689.9;12.80;75771;2836.554;-1759.278;1;148;-130;-133.9;44.0;44.2;15;14.4;25.0;0.0;
04/03/2025 08:13:28;100;0;158.57;-4;-20.09;-4.21;693.1;12.80;75758;2836.551;-1759.277;1;148;-130;-133.9;44.0;44.2;15;14.4;25.0;0.0;
04/03/2025 08:13:48;100;0;158.77;-4;-20.05;-4.22;696.2;12.80;75749;2836.548;-1759.275;1;148;-130;-133.9;44.0;44.2;15;14.4;25.0;0.0;
04/03/2025 08:14:08;100;0;159.48;-4;-20.20;-4.15;699.4;12.70;75740;2836.545;-1759.273;1;148;-130;-133.9;44.0;44.3;15;14.4;25.0;0.0;
04/03/2025 08:14:28;100;0;162.68;-4;-20.17;-4.11;702.6;12.70;75737;2836.542;-1759.271;1;148;-130;-133.9;44.0;44.3;17;17.1;25.0;0.0;
04/03/2025 08:14:48;100;0;164.39;-4;-19.96;-2.76;705.6;12.70;75728;2836.539;-1759.270;1;148;-130;-135.5;44.0;44.2;17;17.1;24.9;0.0;
04/03/2025 08:15:08;100;0;164.77;-4;-19.95;-2.86;708.6;12.70;75713;2836.536;-1759.269;1;148;-130;-133.9;44.0;44.3;17;17.1;25.0;0.0;
04/03/2025 08:15:28;100;0;164.43;-4;-20.28;-3.01;711.5;12.60;75712;2836.533;-1759.268;1;148;-130;-133.9;44.0;44.3;17;17.6;25.0;0.0;
04/03/2025 08:15:48;100;0;163.54;-4;-19.51;-2.89;714.5;12.60;75710;2836.530;-1759.266;1;148;-130;-133.9;44.0;44.3;17;17.1;25.0;0.0;
04/03/2025 08:16:08;100;0;164.90;-4;-19.37;-2.71;717.3;12.60;75703;2836.527;-1759.265;1;148;-130;-133.9;44.0;44.3;17;17.1;25.0;0.0;
04/03/2025 08:16:28;100;0;163.95;-4;-20.03;-2.79;720.1;12.60;75699;2836.525;-1759.264;1;148;-130;-133.9;44.0;44.3;17;17.1;25.0;0.0;
04/03/2025 08:16:48;100;0;162.22;-4;-19.92;-2.82;723.0;12.50;75703;2836.522;-1759.262;1;148;-130;-133.9;44.0;44.3;17;17.1;25.0;0.0;
04/03/2025 08:17:08;100;0;162.75;-4;-20.43;-3.07;726.0;12.50;75692;2836.519;-1759.261;1;148;-130;-133.9;44.0;44.3;17;17.1;25.0;0.0;
04/03/2025 08:17:28;100;0;158.78;-4;-19.65;-2.93;729.0;12.50;75682;2836.516;-1759.259;1;148;-130;-133.9;44.0;44.3;17;17.1;25.0;0.0;
04/03/2025 08:17:48;100;0;151.99;-4;-18.83;-3.33;732.0;12.50;75682;2836.514;-1759.257;1;148;-130;-133.9;44.4;44.3;15;14.9;25.0;0.0;
04/03/2025 08:18:08;100;0;152.38;-4;-20.22;-4.20;734.7;12.50;75674;2836.511;-1759.255;1;148;-130;-133.9;44.4;44.3;15;14.4;25.0;0.0;
04/03/2025 08:18:28;100;0;151.08;-4;-19.90;-4.18;737.5;12.40;75673;2836.509;-1759.253;1;148;-130;-133.9;44.4;44.2;15;14.4;25.0;0.0;
04/03/2025 08:18:48;100;0;153.76;-4;-20.62;-4.40;740.4;12.40;75658;2836.507;-1759.251;1;148;-130;-138.7;44.4;44.3;15;14.4;25.0;0.0;
04/03/2025 08:19:08;100;0;154.19;-4;-19.31;-4.25;743.4;12.40;75651;2836.504;-1759.249;1;148;-130;-133.9;44.4;44.3;15;14.4;25.0;0.0;
04/03/2025 08:19:28;100;0;153.48;-4;-20.35;-4.17;746.5;12.30;75649;2836.501;-1759.247;1;148;-130;-133.9;44.4;44.3;15;14.4;25.0;0.0;
04/03/2025 08:19:48;100;0;155.67;-4;-19.84;-4.34;749.6;12.30;75642;2836.498;-1759.245;1;148;-130;-135.5;44.4;44.3;15;14.4;25.0;0.0;
04/03/2025 08:20:08;100;0;151.07;-4;-18.20;-4.75;752.6;12.30;75636;2836.495;-1759.242;1;148;-130;-132.3;44.9;44.9;15;14.4;25.0;0.0;
04/03/2025 08:20:28;100;0;151.25;-4;-21.94;-4.27;755.4;12.30;75625;2836.493;-1759.240;1;148;-130;-133.9;44.9;45.2;15;14.4;25.0;0.0;
04/03/2025 08:20:48;100;0;151.50;-4;-20.32;-3.81;758.6;12.30;75635;2836.490;-1759.238;1;148;-130;-133.9;44.9;45.2;15;14.4;25.0;0.0;
04/03/2025 08:21:08;100;0;152.77;-4;-21.27;-3.88;761.5;12.20;75616;2836.488;-1759.236;1;148;-130;-133.9;44.9;45.2;15;14.4;25.0;0.0;
04/03/2025 08:21:28;100;0;153.41;-4;-21.42;-4.30;764.6;12.20;75621;2836.485;-1759.234;1;148;-130;-133.9;44.9;45.1;15;14.4;25.0;0.0;
04/03/2025 08:21:48;100;0;154.29;-4;-21.78;-4.44;767.7;12.20;75614;2836.483;-1759.232;1;148;-130;-133.9;44.9;45.1;15;14.4;25.0;0.0;
04/03/2025 08:22:08;100;0;156.77;-4;-20.72;-4.23;770.6;12.10;75604;2836.480;-1759.230;1;148;-130;-137.1;44.9;45.2;15;14.4;25.0;0.0;
04/03/2025 08:22:28;100;0;156.53;-4;-21.91;-4.19;773.6;12.10;75599;2836.478;-1759.229;1;148;-130;-133.9;44.9;45.2;15;14.4;25.0;0.0;
04/03/2025 08:22:48;100;0;157.98;-4;-21.06;-4.20;776.5;12.10;75603;2836.475;-1759.227;1;148;-130;-133.9;44.9;45.2;15;14.4;24.9;0.0;
04/03/2025 08:23:08;100;0;159.57;-4;-21.60;-4.18;779.3;12.10;75599;2836.473;-1759.225;1;148;-130;-132.3;44.9;45.1;15;14.4;25.0;0.0;
04/03/2025 08:23:28;100;0;157.52;-4;-21.37;-4.27;782.2;12.10;75581;2836.470;-1759.224;1;148;-130;-133.9;44.9;45.2;15;14.4;24.9;0.0;
04/03/2025 08:23:48;100;0;157.71;-4;-21.06;-4.40;784.9;12.00;75568;2836.468;-1759.222;1;148;-130;-133.9;44.9;45.2;15;14.4;24.9;0.0;
04/03/2025 08:24:08;100;0;157.43;-4;-21.13;-4.29;787.6;12.00;75574;2836.466;-1759.221;1;148;-130;-133.9;44.9;45.2;15;14.4;25.0;0.0;
04/03/2025 08:24:28;100;0;155.47;-4;-21.40;-4.23;790.3;12.00;75548;2836.464;-1759.219;1;148;-130;-133.9;44.9;45.1;15;14.4;25.0;0.0;
04/03/2025 08:24:48;100;0;154.93;-4;-22.05;-4.28;793.1;12.00;75557;2836.461;-1759.217;1;148;-130;-133.9;44.3;44.3;15;14.4;25.0;0.0;
04/03/2025 08:25:08;100;0;154.41;-4;-20.48;-4.33;795.8;11.90;75543;2836.459;-1759.215;1;148;-130;-135.5;44.3;44.2;15;14.4;25.0;0.0;
04/03/2025 08:25:28;100;0;154.68;-4;-20.31;-4.26;798.5;11.90;75543;2836.457;-1759.214;1;148;-130;-133.9;44.3;44.2;15;14.4;25.0;0.0;
04/03/2025 08:25:48;100;0;158.96;-4;-20.71;-4.23;801.2;11.90;75529;2836.454;-1759.212;1;148;-130;-135.5;44.3;44.2;15;14.4;25.0;0.0;
04/03/2025 08:26:08;100;0;158.85;-4;-19.18;-4.35;803.9;11.80;75524;2836.452;-1759.210;1;148;-130;-135.5;44.3;44.2;15;14.4;25.0;0.0;
04/03/2025 08:26:28;100;0;158.04;-4;-20.07;-4.57;806.1;11.80;75511;2836.450;-1759.209;1;148;-130;-133.9;44.3;44.2;15;14.4;25.0;0.0;
04/03/2025 08:26:48;100;0;158.37;-4;-21.28;-4.66;808.7;11.80;75523;2836.448;-1759.208;1;148;-130;-133.9;44.3;44.2;15;14.4;25.0;0.0;
04/03/2025 08:27:08;100;0;158.84;-4;-22.00;-3.98;811.3;11.80;75507;2836.446;-1759.206;1;148;-130;-133.9;44.3;44.2;15;14.4;25.0;0.0;
04/03/2025 08:27:28;100;0;158.48;-4;-20.35;-4.16;814.1;11.70;75500;2836.443;-1759.205;1;148;-130;-135.5;44.3;44.2;15;14.4;25.0;0.0;
04/03/2025 08:27:48;100;0;161.14;-4;-20.73;-4.30;816.5;11.70;75498;2836.441;-1759.203;1;148;-130;-133.9;44.3;44.2;15;14.4;25.0;0.0;
04/03/2025 08:28:08;100;0;163.04;-4;-19.94;-4.22;819.2;11.70;75481;2836.439;-1759.202;1;148;-130;-133.9;44.3;44.2;15;14.4;25.0;0.0;
04/03/2025 08:28:28;100;0;163.53;-4;-19.68;-4.18;821.7;11.70;75493;2836.436;-1759.201;1;148;-130;-133.9;44.3;44.0;17;17.1;25.0;0.0;
04/03/2025 08:28:48;100;0;165.81;-4;-20.28;-2.79;824.0;11.70;75485;2836.434;-1759.200;1;148;-130;-137.1;44.3;44.2;17;17.6;25.0;0.0;
04/03/2025 08:29:08;100;0;167.61;-4;-20.07;-2.84;826.3;11.60;75476;2836.432;-1759.199;1;148;-130;-133.9;44.3;44.2;19;19.0;25.0;0.0;
04/03/2025 08:29:28;100;0;167.76;-4;-20.47;-1.96;828.5;11.60;75485;2836.430;-1759.198;1;148;-130;-133.9;44.3;44.2;19;19.4;25.0;0.0;
04/03/2025 08:29:48;100;0;168.96;-4;-20.75;-1.76;830.8;11.60;75467;2836.428;-1759.198;1;148;-130;-133.9;44.3;44.2;19;19.4;25.0;0.0;
04/03/2025 08:30:08;100;0;164.91;-4;-20.58;-1.87;833.3;11.60;75446;2836.426;-1759.197;1;148;-130;-137.1;44.3;44.2;17;17.1;25.0;0.0;
04/03/2025 08:30:28;100;0;165.79;-4;-20.20;-3.51;835.7;11.50;75445;2836.424;-1759.196;1;148;-130;-133.9;44.3;44.2;17;17.1;25.0;0.0;
04/03/2025 08:30:48;100;0;160.52;-4;-19.15;-3.16;838.1;11.50;75433;2836.421;-1759.194;1;148;-130;-133.9;44.3;44.0;17;17.1;25.0;0.0;
04/03/2025 08:31:08;100;0;160.79;-4;-18.44;-3.56;840.2;11.50;75428;2836.420;-1759.193;1;148;-130;-133.9;44.7;44.8;17;17.1;25.0;0.0;
04/03/2025 08:31:28;100;0;162.92;-4;-21.59;-3.09;842.0;11.50;75429;2836.418;-1759.192;1;148;-150;-151.6;44.7;44.9;17;17.1;25.0;0.0;
04/03/2025 08:31:48;100;0;160.34;-4;-19.78;-2.70;844.0;11.40;75454;2836.417;-1759.191;1;148;-170;-169.4;44.7;45.1;17;17.1;25.0;0.0;
04/03/2025 08:32:08;100;0;159.38;-4;-18.40;-3.10;846.0;11.40;75494;2836.415;-1759.190;1;148;-170;-171.0;45.2;45.2;17;17.1;25.0;0.0;
04/03/2025 08:32:28;100;0;160.39;-4;-20.65;-2.88;847.8;11.40;75492;2836.414;-1759.189;1;148;-190;-191.9;45.2;45.4;17;17.1;24.9;0.0;
04/03/2025 08:32:48;100;0;158.84;-4;-20.66;-3.12;850.0;11.30;75516;2836.412;-1759.188;1;148;-190;-193.5;45.2;45.5;17;17.1;25.0;0.0;
04/03/2025 08:33:08;100;0;155.36;-4;-21.62;-2.86;852.3;11.30;75527;2836.410;-1759.186;1;148;-190;-191.9;45.2;45.5;17;17.1;25.0;0.0;
04/03/2025 08:33:28;100;0;153.42;-4;-21.40;-2.73;855.4;11.30;75509;2836.408;-1759.184;1;148;-190;-193.5;45.2;45.5;17;17.1;25.0;0.0;
04/03/2025 08:33:48;100;0;151.99;-4;-21.12;-2.82;858.3;11.20;75504;2836.405;-1759.182;1;148;-190;-191.9;45.2;45.5;17;17.1;25.0;0.0;
04/03/2025 08:34:08;100;0;146.72;-4;-22.30;-2.72;861.8;11.20;75498;2836.402;-1759.179;1;148;-190;-193.5;44.5;44.5;14;14.0;25.0;0.0;
04/03/2025 08:34:28;100;0;144.89;-4;-20.65;-4.31;865.0;11.20;75486;2836.400;-1759.177;1;148;-190;-193.5;44.5;44.3;14;14.0;24.9;0.0;
04/03/2025 08:34:48;100;0;144.76;-4;-20.41;-4.30;868.6;11.20;75488;2836.397;-1759.173;1;148;-190;-193.5;44.5;44.3;12;12.2;24.9;0.0;
04/03/2025 08:35:08;100;0;142.61;-4;-19.47;-5.36;872.0;11.20;75476;2836.394;-1759.170;1;148;-190;-191.9;44.5;44.3;12;12.2;25.0;0.0;
04/03/2025 08:35:28;100;0;142.82;-4;-19.47;-5.31;875.6;11.10;75464;2836.391;-1759.167;1;148;-190;-193.5;44.5;44.3;12;12.2;25.0;0.0;
04/03/2025 08:35:48;100;0;143.52;-4;-19.48;-5.43;879.1;11.10;75465;2836.388;-1759.163;1;148;-190;-193.5;44.5;44.3;12;12.2;25.0;0.0;
04/03/2025 08:36:08;100;0;143.14;-4;-19.48;-5.50;883.1;11.10;75460;2836.385;-1759.160;1;148;-190;-193.5;44.5;44.3;12;12.2;25.0;0.0;
04/03/2025 08:36:28;100;0;144.25;-4;-19.18;-5.13;886.9;11.10;75462;2836.382;-1759.156;1;148;-190;-193.5;44.5;44.3;12;12.2;25.0;0.0;
04/03/2025 08:36:48;100;0;145.45;-4;-18.89;-5.33;890.6;11.00;75462;2836.378;-1759.153;1;148;-190;-193.5;44.9;44.9;14;14.0;25.0;0.0;
04/03/2025 08:37:08;100;0;147.55;-4;-20.13;-4.24;894.4;11.00;75453;2836.375;-1759.150;1;148;-190;-191.9;44.9;45.1;14;14.0;25.0;0.0;
04/03/2025 08:37:28;100;0;147.90;-4;-20.25;-4.09;898.4;11.00;75460;2836.371;-1759.147;1;148;-190;-193.5;44.9;45.1;14;14.0;24.9;0.0;
04/03/2025 08:37:49;100;0;148.10;-4;-19.76;-4.25;902.3;11.00;75452;2836.368;-1759.144;1;148;-190;-193.5;44.9;45.1;14;14.0;25.0;0.0;
04/03/2025 08:38:09;100;0;147.88;-4;-20.72;-3.91;906.1;11.00;75452;2836.365;-1759.141;1;148;-190;-193.5;44.9;45.1;14;14.0;25.0;0.0;
04/03/2025 08:38:29;100;0;145.66;-4;-20.17;-3.94;909.8;10.90;75454;2836.362;-1759.137;1;148;-190;-191.9;44.9;45.1;14;14.0;25.0;0.0;
04/03/2025 08:38:49;100;0;143.29;-4;-19.91;-4.20;913.4;10.90;75448;2836.359;-1759.134;1;148;-190;-193.5;44.9;45.1;12;12.2;24.9;0.0;
04/03/2025 08:39:09;100;0;143.17;-4;-20.78;-5.23;916.8;10.90;75435;2836.356;-1759.131;1;148;-190;-193.5;44.9;45.1;10;9.9;25.0;0.0;
04/03/2025 08:39:29;100;0;146.20;-4;-20.35;-6.27;920.2;10.90;75431;2836.353;-1759.128;1;148;-190;-193.5;44.9;45.2;13;13.1;24.9;0.0;
04/03/2025 08:39:49;100;0;144.26;-4;-21.25;-4.50;923.5;10.80;75423;2836.351;-1759.125;1;148;-190;-191.9;44.9;45.2;11;10.8;25.0;0.0;
04/03/2025 08:40:09;100;0;147.67;-4;-20.40;-5.72;926.8;10.80;75421;2836.348;-1759.123;1;148;-190;-193.5;44.9;45.2;14;14.0;25.0;0.0;
04/03/2025 08:40:29;100;0;147.30;-4;-20.59;-4.24;930.0;10.80;75426;2836.345;-1759.120;1;148;-190;-195.2;44.9;45.1;14;14.0;25.0;0.0;
04/03/2025 08:40:49;100;0;145.73;-4;-21.22;-4.70;933.4;10.80;75405;2836.343;-1759.117;1;148;-190;-191.9;44.9;45.1;14;14.0;25.0;0.0;
04/03/2025 08:41:09;100;0;143.71;-4;-21.03;-4.22;937.0;10.80;75414;2836.340;-1759.114;1;148;-190;-193.5;44.9;45.2;11;10.8;25.0;0.0;
04/03/2025 08:41:29;100;0;140.65;-4;-20.14;-5.75;940.6;10.70;75416;2836.337;-1759.111;1;148;-190;-193.5;44.9;45.2;8;8.1;25.0;0.0;
04/03/2025 08:41:49;100;0;139.03;-4;-19.99;-7.34;944.0;10.70;75403;2836.335;-1759.107;1;148;-190;-193.5;44.9;45.2;5;5.0;25.0;0.0;
04/03/2025 08:42:09;100;0;141.37;-4;-19.58;-9.00;947.2;10.70;75399;2836.332;-1759.104;1;148;-190;-195.2;44.9;45.2;8;8.1;25.0;0.0;
04/03/2025 08:42:29;100;0;143.27;-4;-20.25;-7.13;950.4;10.60;75393;2836.330;-1759.101;1;148;-190;-191.9;44.9;45.2;10;9.9;24.9;0.0;
04/03/2025 08:42:49;100;0;142.88;-4;-20.49;-6.15;953.7;10.60;75393;2836.327;-1759.098;1;148;-190;-193.5;44.9;45.2;10;10.4;25.0;0.0;
04/03/2025 08:43:09;100;0;142.70;-4;-20.24;-6.02;957.0;10.60;75378;2836.324;-1759.095;1;148;-190;-191.9;44.9;45.2;10;10.4;25.0;0.0;
04/03/2025 08:43:29;100;0;143.06;-4;-19.67;-5.87;960.3;10.60;75384;2836.322;-1759.092;1;148;-190;-193.5;44.9;45.2;10;10.4;25.0;0.0;
04/03/2025 08:43:49;100;0;145.47;-4;-19.94;-6.05;963.5;10.60;75383;2836.319;-1759.089;1;148;-190;-191.9;44.9;45.2;12;12.2;25.0;0.0;
04/03/2025 08:44:09;100;0;140.06;-4;-20.45;-5.37;966.7;10.50;75366;2836.317;-1759.086;1;148;-190;-191.9;44.9;45.2;6;5.9;25.0;0.0;
04/03/2025 08:44:29;100;0;140.30;-4;-19.98;-8.33;969.9;10.50;75368;2836.315;-1759.083;1;148;-190;-193.5;44.9;45.2;6;5.9;25.0;0.0;
04/03/2025 08:44:49;100;0;143.95;-4;-19.62;-8.34;973.2;10.50;75361;2836.312;-1759.080;1;148;-190;-193.5;44.9;45.2;11;11.3;24.9;0.0;
04/03/2025 08:45:09;100;0;144.53;-4;-19.40;-5.53;976.5;10.50;75365;2836.309;-1759.077;1;148;-190;-193.5;44.9;45.2;11;11.3;25.0;0.0;
04/03/2025 08:45:29;100;0;140.61;-4;-19.25;-4.90;979.5;10.50;75360;2836.307;-1759.074;1;148;-190;-191.9;44.9;45.1;7;7.2;24.9;0.0;
04/03/2025 08:45:49;100;0;142.06;-4;-20.19;-7.70;982.5;10.40;75347;2836.305;-1759.071;1;148;-190;-193.5;44.9;45.1;7;7.2;25.0;0.0;
04/03/2025 08:46:09;100;0;145.06;-4;-19.25;-7.86;985.6;10.40;75351;2836.302;-1759.069;1;148;-190;-193.5;44.9;45.1;11;10.8;25.0;0.0;
04/03/2025 08:46:29;100;0;144.74;-4;-19.48;-5.57;988.3;10.40;75345;2836.300;-1759.066;1;148;-190;-193.5;44.9;45.2;11;10.8;24.9;0.0;
04/03/2025 08:46:49;100;0;154.15;-4;-20.48;-6.47;991.6;10.40;75351;2836.297;-1759.064;1;148;-190;-193.5;44.9;45.1;14;14.0;25.0;0.0;
04/03/2025 08:47:09;100;0;151.23;-4;-20.49;-4.35;994.8;10.40;75346;2836.294;-1759.062;1;148;-190;-193.5;44.9;45.2;14;14.4;25.0;0.0;
04/03/2025 08:47:29;100;0;152.62;-4;-19.35;-4.15;997.9;10.30;75358;2836.291;-1759.059;1;148;-190;-191.9;44.9;45.2;14;14.4;25.0;0.0;
04/03/2025 08:47:36;118;0;152.21;-4;-20.47;-4.07;998.9;10.30;75339;2836.290;-1759.059;1;148;450;-188.7;21.1;21.1;7;6.8;25.0;0.0;
04/03/2025 08:47:46;118;0;118.32;-4;-7.05;-8.50;1000.0;10.30;75331;2836.290;-1759.057;1;148;450;-62.9;21.1;20.8;7;6.8;23.2;-1.0;
04/03/2025 08:47:56;118;0;101.46;-4;19.53;-8.91;1000.0;10.30;75061;2836.290;-1759.056;1;148;450;61.3;21.1;21.1;7;6.8;23.3;-1.0;
04/03/2025 08:48:06;118;0;94.22;-4;31.17;-9.25;999.1;10.30;74796;2836.290;-1759.056;1;148;450;185.5;21.1;21.1;7;6.8;23.4;-1.0;
04/03/2025 08:48:16;118;0;93.81;-4;30.95;-9.22;997.8;10.30;74553;2836.291;-1759.054;1;148;450;308.1;21.1;21.1;7;6.8;23.5;-1.0;
04/03/2025 08:48:26;118;0;95.29;-4;28.09;-8.72;996.3;10.30;74302;2836.291;-1759.053;1;148;450;425.8;21.1;21.1;7;6.8;23.2;-1.0;
04/03/2025 08:48:36;118;0;95.46;-4;27.30;-8.20;994.5;10.40;74073;2836.291;-1759.050;1;148;450;453.2;21.1;21.1;7;6.8;23.5;-1.0;
04/03/2025 08:48:46;118;0;147.99;-4;24.34;-7.68;992.2;10.40;74011;2836.290;-1759.049;1;148;450;453.2;21.1;21.1;7;6.8;24.9;-1.0;
04/03/2025 08:49:06;117;0;139.65;-4;21.40;-8.09;988.1;10.40;74019;2836.286;-1759.045;1;148;450;453.2;21.1;21.1;7;6.8;24.9;-1.0;
04/03/2025 08:49:26;117;0;132.42;-4;20.76;-7.58;983.9;10.50;74017;2836.284;-1759.040;1;148;450;453.2;21.1;21.2;48;47.8;24.9;-1.0;
04/03/2025 08:49:46;117;0;138.95;-4;22.55;13.73;980.2;10.50;74013;2836.281;-1759.037;1;148;450;453.2;21.8;21.9;39;38.8;24.9;-1.0;
04/03/2025 08:50:06;117;0;144.91;-4;21.81;8.64;975.9;10.50;73999;2836.278;-1759.034;1;148;450;453.2;21.8;22.1;31;31.1;24.9;-1.0;
04/03/2025 08:50:26;117;0;147.30;-4;22.43;4.40;971.8;10.50;74008;2836.275;-1759.031;1;148;450;451.6;22.6;22.7;29;28.9;25.0;-1.0;
04/03/2025 08:50:46;117;0;146.66;-4;21.27;3.62;967.8;10.50;74013;2836.271;-1759.027;1;148;450;451.6;22.6;22.5;29;28.9;25.0;-1.0;
04/03/2025 08:51:06;117;0;147.74;-4;20.56;3.42;963.9;10.50;74010;2836.268;-1759.024;1;148;450;451.6;22.6;22.5;29;28.9;25.0;-1.0;
04/03/2025 08:51:26;117;0;147.42;-4;19.28;3.29;960.4;10.50;74003;2836.265;-1759.021;1;148;450;451.6;22.6;22.5;29;28.4;25.0;-1.0;
04/03/2025 08:51:46;117;0;148.68;-4;20.32;3.40;957.0;10.50;73990;2836.262;-1759.019;1;148;450;453.2;22.6;22.7;29;28.4;25.0;-1.0;
04/03/2025 08:52:06;117;0;149.79;-4;20.39;3.36;953.5;10.50;73997;2836.259;-1759.016;1;148;450;451.6;22.6;22.7;29;28.4;25.0;-1.0;
04/03/2025 08:52:26;117;0;151.56;-4;20.44;3.34;950.0;10.50;73989;2836.256;-1759.013;1;148;450;451.6;22.6;22.7;29;28.4;24.9;-1.0;
04/03/2025 08:52:46;117;0;153.59;-4;20.58;3.48;946.4;10.40;73986;2836.253;-1759.011;1;148;450;451.6;22.6;22.5;29;28.4;25.0;-1.0;
04/03/2025 08:53:06;117;0;155.75;-4;20.15;3.56;942.9;10.40;73978;2836.249;-1759.009;1;148;450;451.6;22.6;22.5;29;28.4;25.0;-1.0;
04/03/2025 08:53:26;117;0;157.11;-4;20.26;3.30;939.4;10.40;73977;2836.246;-1759.007;1;148;450;451.6;22.6;22.7;29;28.4;25.0;-1.0;
04/03/2025 08:53:46;117;0;157.67;-4;19.95;3.23;936.1;10.40;73978;2836.243;-1759.005;1;148;450;451.6;22.6;22.5;29;28.4;24.9;-1.0;
04/03/2025 08:54:06;117;0;158.28;-4;20.30;3.44;932.9;10.40;73976;2836.240;-1759.003;1;148;450;451.6;22.6;22.7;29;28.4;25.0;-1.0;
04/03/2025 08:54:26;117;0;159.33;-4;20.07;3.22;929.8;10.30;73965;2836.237;-1759.001;1;148;450;451.6;22.6;22.5;29;28.4;25.0;-1.0;
04/03/2025 08:54:46;117;0;160.22;-4;20.18;3.40;926.7;10.30;73966;2836.234;-1758.999;1;148;450;451.6;22.6;22.7;29;28.4;25.0;-1.0;
04/03/2025 08:55:06;117;0;160.95;-4;20.25;3.28;923.5;10.30;73962;2836.231;-1758.998;1;148;450;451.6;22.6;22.5;29;28.9;25.0;-1.0;
04/03/2025 08:55:26;117;0;161.88;-4;20.49;3.27;920.2;10.30;73965;2836.228;-1758.996;1;148;450;451.6;22.6;22.7;27;27.1;24.9;-1.0;
04/03/2025 08:55:46;117;0;161.77;-4;20.25;2.47;916.9;10.30;73961;2836.224;-1758.995;1;148;450;450.0;22.6;22.7;27;26.6;25.0;-1.0;
04/03/2025 08:56:06;117;0;162.07;-4;20.15;2.37;913.7;10.30;73961;2836.221;-1758.993;1;148;450;450.0;22.6;22.7;27;26.6;25.0;-1.0;
04/03/2025 08:56:26;117;0;161.55;-4;19.82;2.39;910.2;10.20;73963;2836.218;-1758.991;1;148;450;451.6;22.6;22.7;27;26.6;24.9;-1.0;
04/03/2025 08:56:46;117;0;161.88;-4;19.85;2.52;907.1;10.20;73958;2836.215;-1758.990;1;148;450;450.0;22.6;22.5;27;26.6;24.9;-1.0;
04/03/2025 08:57:06;117;0;161.84;-4;19.90;2.35;904.0;10.20;73958;2836.212;-1758.988;1;148;450;453.2;22.6;22.5;27;26.6;25.0;-1.0;
04/03/2025 08:57:26;117;0;162.18;-4;19.92;2.42;900.9;10.20;73946;2836.209;-1758.987;1;148;450;451.6;22.6;22.7;27;26.6;25.0;-1.0;
04/03/2025 08:57:46;117;0;162.39;-4;20.01;2.39;897.7;10.20;73957;2836.206;-1758.985;1;148;450;451.6;22.6;22.5;27;26.6;25.0;-1.0;
04/03/2025 08:58:06;117;0;163.27;-4;20.02;2.54;894.5;10.20;73949;2836.203;-1758.984;1;148;450;453.2;22.6;22.7;27;26.6;24.9;-1.0;
04/03/2025 08:58:26;117;0;163.30;-4;20.09;2.50;891.2;10.20;73941;2836.199;-1758.982;1;148;450;451.6;22.6;22.7;27;26.6;25.0;-1.0;
04/03/2025 08:58:46;117;0;162.55;-4;20.09;2.34;888.0;10.10;73939;2836.196;-1758.981;1;148;450;451.6;22.6;22.7;27;26.6;24.9;-1.0;
04/03/2025 08:59:06;117;0;161.31;-4;20.13;2.41;884.9;10.10;73929;2836.193;-1758.979;1;148;450;453.2;22.6;22.5;27;26.6;25.0;-1.0;
04/03/2025 08:59:26;117;0;161.70;-4;20.17;2.43;881.5;10.10;73944;2836.190;-1758.977;1;148;450;453.2;22.6;22.7;27;26.6;25.0;-1.0;
04/03/2025 08:59:46;117;0;162.31;-4;19.97;2.46;878.3;10.10;73948;2836.187;-1758.976;1;148;450;451.6;22.6;22.7;27;26.6;25.0;-1.0;
04/03/2025 09:00:06;117;0;162.51;-4;19.83;2.50;875.0;10.10;73928;2836.183;-1758.974;1;148;450;454.8;22.6;22.7;27;26.6;25.0;-1.0;
04/03/2025 09:00:26;117;0;161.91;-4;20.02;2.36;871.8;10.10;73931;2836.180;-1758.973;1;148;450;453.2;22.6;22.5;27;26.6;25.0;-1.0;
04/03/2025 09:00:46;117;0;161.41;-4;19.87;2.48;868.5;10.10;73935;2836.177;-1758.971;1;148;450;453.2;22.6;22.7;27;26.6;25.0;-1.0;
04/03/2025 09:01:06;117;0;160.88;-4;19.85;2.53;865.4;10.10;73935;2836.174;-1758.969;1;148;450;453.2;22.6;22.7;27;26.6;24.9;-1.0;
04/03/2025 09:01:26;117;0;161.68;-4;20.37;2.54;862.2;10.10;73930;2836.171;-1758.968;1;148;450;453.2;22.6;22.7;27;26.6;25.0;-1.0;
04/03/2025 09:01:46;117;0;161.21;-4;19.70;2.45;858.9;10.10;73933;2836.168;-1758.966;1;148;450;453.2;22.6;22.5;27;26.6;25.0;-1.0;
04/03/2025 09:02:06;117;0;161.25;-4;20.09;2.54;855.6;10.00;73915;2836.165;-1758.964;1;148;450;453.2;22.6;22.5;27;26.6;25.0;-1.0;
04/03/2025 09:02:26;117;0;161.64;-4;19.71;2.59;852.5;10.00;73923;2836.162;-1758.963;1;148;450;453.2;22.6;22.5;27;26.6;25.0;-1.0;
04/03/2025 09:02:46;117;0;161.07;-4;19.93;2.30;849.5;10.00;73930;2836.159;-1758.961;1;148;450;451.6;22.6;22.5;27;26.6;25.0;-1.0;
04/03/2025 09:03:06;117;0;161.37;-4;19.66;2.09;846.3;10.00;73919;2836.156;-1758.960;1;148;450;453.2;22.6;22.7;27;26.6;25.0;-1.0;
04/03/2025 09:03:26;117;0;160.19;-4;18.85;2.74;843.3;10.00;73931;2836.153;-1758.958;1;148;450;453.2;22.2;22.2;27;26.6;24.9;-1.0;
04/03/2025 09:03:46;117;0;159.30;-4;18.76;1.42;840.5;10.00;73909;2836.150;-1758.956;1;148;450;454.8;21.8;21.8;27;26.6;25.0;-1.0;
04/03/2025 09:04:06;117;0;158.20;-4;20.76;2.41;837.6;10.00;73926;2836.147;-1758.955;1;148;450;453.2;21.8;21.4;27;26.6;25.0;-1.0;
04/03/2025 09:04:26;117;0;156.15;-4;21.86;2.36;834.5;10.00;73926;2836.145;-1758.953;1;148;450;453.2;21.8;21.2;27;26.6;25.0;-1.0;
04/03/2025 09:04:46;117;0;153.15;-4;22.67;2.37;830.8;10.00;73930;2836.142;-1758.951;1;148;450;453.2;22.6;22.7;27;26.6;25.0;-1.0;
04/03/2025 09:05:06;117;0;153.93;-4;20.01;2.28;827.3;10.00;73941;2836.139;-1758.948;1;148;450;451.6;22.6;23.0;27;26.6;24.9;-1.0;
04/03/2025 09:05:26;117;0;152.60;-4;18.51;2.80;823.9;10.00;73935;2836.135;-1758.946;1;148;450;453.2;22.2;22.1;27;26.6;24.9;-1.0;
04/03/2025 09:05:46;117;0;154.50;-4;20.32;2.12;821.2;10.00;73945;2836.133;-1758.944;1;148;450;453.2;22.2;21.5;27;26.6;24.9;-1.0;
04/03/2025 09:06:06;117;0;154.28;-4;21.00;2.11;818.6;10.00;73953;2836.131;-1758.942;1;148;450;453.2;22.2;21.5;27;26.6;25.0;-1.0;
04/03/2025 09:06:26;117;0;151.57;-4;22.03;2.46;815.5;10.00;73959;2836.129;-1758.940;1;148;450;453.2;22.8;22.8;27;27.1;24.9;-1.0;
04/03/2025 09:06:46;117;0;151.79;-4;20.06;1.99;812.2;10.00;73972;2836.126;-1758.938;1;148;450;453.2;22.8;23.0;27;26.6;25.0;-1.0;
04/03/2025 09:07:06;117;0;149.80;-4;18.90;2.57;809.4;10.00;73976;2836.123;-1758.935;1;148;450;453.2;22.5;22.5;29;28.9;25.0;-1.0;
04/03/2025 09:07:26;117;0;150.48;-4;19.28;3.40;806.7;10.00;73967;2836.121;-1758.933;1;148;450;453.2;22.5;22.4;29;28.9;25.0;-1.0;
04/03/2025 09:07:46;117;0;152.41;-4;18.68;3.59;803.6;10.00;73962;2836.118;-1758.931;1;148;450;450.0;22.1;22.1;29;28.9;25.0;-1.0;
04/03/2025 09:08:06;117;0;152.32;-4;20.81;3.63;800.7;10.00;73967;2836.116;-1758.929;1;148;450;453.2;22.1;21.5;29;28.9;24.9;-1.0;
04/03/2025 09:08:26;117;0;152.01;-4;21.01;3.33;797.5;10.00;73967;2836.113;-1758.927;1;148;450;453.2;22.1;21.5;29;28.9;25.0;-1.0;
04/03/2025 09:08:46;117;0;153.24;-4;20.88;3.43;794.2;10.00;73965;2836.110;-1758.925;1;148;450;453.2;22.1;21.5;29;28.9;25.0;-1.0;
04/03/2025 09:09:06;117;0;153.64;-4;21.20;3.49;790.8;10.00;73969;2836.107;-1758.922;1;148;450;453.2;22.1;21.5;29;28.9;25.0;-1.0;
04/03/2025 09:09:26;117;0;151.56;-4;21.23;3.72;787.4;10.00;73962;2836.104;-1758.920;1;148;450;453.2;22.1;21.5;29;28.9;25.0;-1.0;
04/03/2025 09:09:46;117;0;152.41;-4;21.17;3.66;783.8;10.00;73962;2836.101;-1758.917;1;148;450;453.2;22.1;21.5;29;28.9;25.0;-1.0;
04/03/2025 09:10:06;117;0;153.62;-4;20.87;3.59;780.3;10.00;73965;2836.098;-1758.915;1;148;450;453.2;22.1;21.5;29;28.9;25.0;-1.0;
04/03/2025 09:10:26;117;0;154.81;-4;21.07;3.61;776.9;10.00;73958;2836.095;-1758.913;1;148;450;451.6;22.1;21.5;29;28.9;25.0;-1.0;
04/03/2025 09:10:47;117;0;155.32;-4;21.25;3.56;773.5;10.00;73956;2836.092;-1758.911;1;148;450;453.2;22.1;21.5;29;28.9;24.9;-1.0;
04/03/2025 09:11:07;117;0;154.62;-4;21.02;3.65;770.0;10.00;73962;2836.089;-1758.909;1;148;450;451.6;22.1;21.5;29;28.9;25.0;-1.0;
04/03/2025 09:11:27;117;0;154.80;-4;21.06;3.60;766.7;10.00;73967;2836.086;-1758.906;1;148;450;453.2;22.1;21.5;29;28.9;25.0;-1.0;
04/03/2025 09:11:47;117;0;154.98;-4;20.80;3.60;763.3;10.00;73975;2836.083;-1758.904;1;148;450;453.2;22.1;21.5;29;28.9;25.0;-1.0;
04/03/2025 09:12:07;117;0;155.32;-4;21.12;3.49;759.8;10.00;73983;2836.080;-1758.902;1;148;450;453.2;22.1;21.5;29;28.9;25.0;-1.0;
04/03/2025 09:12:27;117;0;155.07;-4;20.67;3.57;756.6;10.00;73986;2836.077;-1758.900;1;148;450;453.2;22.1;21.6;29;28.9;25.0;-1.0;
04/03/2025 09:12:47;117;0;155.46;-4;20.83;3.43;753.3;10.00;73988;2836.074;-1758.898;1;148;450;454.8;22.1;21.6;29;28.9;25.0;-1.0;
04/03/2025 09:13:07;117;0;154.89;-4;21.03;3.72;750.1;10.00;73991;2836.071;-1758.896;1;148;450;453.2;22.1;21.5;29;28.9;25.0;-1.0;
04/03/2025 09:13:27;117;0;156.66;-4;20.77;3.95;746.9;10.00;74004;2836.068;-1758.894;1;148;450;453.2;22.1;21.5;29;28.9;25.0;-1.0;
04/03/2025 09:13:47;117;0;156.42;-4;21.77;3.53;743.7;10.00;74001;2836.066;-1758.892;1;148;450;453.2;22.1;21.5;29;28.9;25.0;-1.0;
04/03/2025 09:14:07;117;0;156.97;-4;20.83;3.70;740.4;10.00;74003;2836.063;-1758.890;1;148;450;453.2;22.1;21.5;29;28.9;25.0;-1.0;
04/03/2025 09:14:27;117;0;157.22;-4;20.73;3.58;737.3;10.00;74000;2836.060;-1758.888;1;148;450;453.2;22.1;21.5;29;28.9;25.0;-1.0;
04/03/2025 09:14:47;117;0;157.65;-4;20.82;3.71;734.1;10.00;73999;2836.057;-1758.887;1;148;450;453.2;22.1;21.5;29;28.9;25.0;-1.0;
04/03/2025 09:15:07;117;0;158.15;-4;20.94;3.49;731.1;10.00;74005;2836.054;-1758.885;1;148;450;453.2;22.1;21.5;29;28.9;24.9;-1.0;
04/03/2025 09:15:27;117;0;159.23;-4;21.05;3.47;728.0;10.00;74005;2836.052;-1758.883;1;148;450;453.2;22.1;21.5;29;28.9;24.9;-1.0;
04/03/2025 09:15:47;117;0;160.77;-4;20.85;3.52;725.1;10.10;74012;2836.049;-1758.882;1;148;450;454.8;22.1;22.1;27;26.6;24.9;-1.0;
04/03/2025 09:16:07;117;0;160.94;-4;20.36;2.07;722.0;10.10;74021;2836.046;-1758.880;1;148;450;453.2;22.1;22.2;27;26.6;24.9;-1.0;
04/03/2025 09:16:27;117;0;159.56;-4;19.96;2.22;719.1;10.10;74023;2836.043;-1758.879;1;148;450;451.6;22.1;22.2;27;26.6;24.9;-1.0;
04/03/2025 09:16:47;117;0;157.45;-4;19.84;2.43;716.3;10.10;74023;2836.041;-1758.877;1;148;450;453.2;22.1;22.2;27;26.6;25.0;-1.0;
04/03/2025 09:17:07;117;0;156.75;-4;19.95;2.31;713.7;10.10;74025;2836.038;-1758.875;1;148;450;454.8;22.1;22.2;27;26.6;25.0;-1.0;
04/03/2025 09:17:27;117;0;156.32;-4;19.91;2.33;710.9;10.10;74039;2836.036;-1758.874;1;148;450;454.8;22.1;22.2;27;26.6;25.0;-1.0;
04/03/2025 09:17:47;117;0;156.35;-4;19.98;2.39;708.3;10.10;74044;2836.034;-1758.872;1;148;450;454.8;22.1;22.2;27;26.6;25.0;-1.0;
04/03/2025 09:18:07;117;0;156.00;-4;19.91;2.31;705.7;10.10;74038;2836.031;-1758.870;1;148;450;453.2;22.1;22.2;27;26.6;25.0;-1.0;
