Timestamp;NavState;SecurityLevel;Heading;Declination;Pitch;Roll;Depth;Temperature;Pa;Lat;Lon;DeadReckoning;DesiredH;BallastCmd;BallastPos;LinCmd;LinPos;AngCmd;AngPos;Voltage;Altitude;
04/03/2025 22:27:08;119;0;345.42;-4;-39.52;-21.50;0.3;17.00;75606;2837.363;-1802.171;0;134;500;506.5;100.0;100.4;0;-0.5;24.8;-1.0;
04/03/2025 22:27:18;116;0;347.17;-4;-55.66;-10.65;0.3;17.10;75604;2837.361;-1802.177;0;134;500;503.2;100.0;100.4;0;-0.5;24.8;-1.0;
04/03/2025 22:27:43;116;0;355.46;-4;-51.24;-10.17;0.2;17.10;75604;2837.359;-1802.182;0;134;500;506.5;100.0;100.4;0;-0.5;24.8;-1.0;
04/03/2025 22:28:06;116;0;357.25;-4;-36.79;-13.96;0.0;17.20;75622;2837.359;-1802.182;0;134;500;506.5;100.0;100.4;0;-0.5;24.8;-1.0;
04/03/2025 22:28:26;116;0;9.59;-4;-40.21;-16.00;0.3;17.20;75634;2837.358;-1802.187;0;134;500;506.5;100.0;100.4;0;-0.5;24.8;-1.0;
04/03/2025 22:28:49;116;0;349.96;-4;-51.35;-7.92;0.2;17.30;75632;2837.358;-1802.192;0;134;500;506.5;100.0;100.4;0;-0.5;24.8;-1.0;
04/03/2025 22:29:09;116;0;357.36;-4;-46.58;-10.73;0.2;17.40;75643;2837.357;-1802.196;0;134;500;506.5;100.0;100.4;0;-0.5;24.8;-1.0;
04/03/2025 22:29:29;116;0;358.83;-4;-45.01;-18.64;0.1;17.40;75632;2837.357;-1802.200;0;134;500;506.5;100.0;100.6;0;-0.5;24.8;-1.0;
04/03/2025 22:29:49;116;0;6.98;-4;-50.18;-19.86;0.2;17.50;75645;2837.356;-1802.205;0;134;500;506.5;100.0;100.6;0;-0.5;24.8;-1.0;
04/03/2025 22:30:09;116;0;358.18;-4;-42.28;-12.54;0.1;17.50;75658;2837.355;-1802.214;0;134;500;506.5;100.0;100.6;0;-0.5;24.8;-1.0;
04/03/2025 22:30:32;116;0;5.78;-4;-44.97;-12.87;0.2;17.60;75657;2837.355;-1802.214;0;94;500;506.5;100.0;100.4;0;-0.5;24.8;-1.0;
04/03/2025 22:30:48;116;0;7.76;-4;-60.36;-16.15;0.1;17.70;75663;2837.353;-1802.218;0;94;500;506.5;100.0;100.4;0;-0.5;24.8;-1.0;
04/03/2025 22:31:51;116;0;352.94;-4;-46.11;-8.25;0.2;17.90;75684;2837.350;-1802.233;0;94;500;506.5;100.0;100.4;0;-0.5;24.8;-1.0;
04/03/2025 22:33:03;116;0;359.57;-4;-40.92;-13.24;-0.0;18.10;75707;2837.347;-1802.249;0;94;500;506.5;100.0;100.4;0;-0.5;24.8;-1.0;
04/03/2025 22:34:06;116;0;348.25;-4;-44.40;-19.22;0.2;18.40;75726;2837.341;-1802.266;0;94;500;506.5;100.0;100.6;0;-0.5;24.8;-1.0;
04/03/2025 22:34:42;116;0;340.94;-4;-49.62;-12.33;0.2;18.50;75730;2837.341;-1802.274;0;94;500;506.5;100.0;100.4;0;-0.5;24.8;-1.0;
04/03/2025 22:34:53;116;0;347.16;-4;-36.53;-16.23;0.2;18.50;75746;2837.340;-1802.276;0;94;500;506.5;100.0;100.4;0;-0.5;24.8;-1.0;
04/03/2025 22:35:13;110;0;347.74;-4;-52.09;-9.07;-0.1;18.60;75748;2837.340;-1802.276;0;94;-110;383.9;100.0;100.4;-7;-7.7;24.8;-1.0;
04/03/2025 22:35:23;110;0;3.27;-4;-55.49;-17.99;-0.0;18.60;76102;2837.340;-1802.276;1;94;-110;240.3;100.0;100.4;-7;-7.7;24.8;-1.0;
04/03/2025 22:35:33;110;0;15.48;-4;-58.37;-9.56;0.2;18.70;76328;2837.340;-1802.276;1;94;-110;90.3;100.0;100.4;-7;-7.7;24.8;-1.0;
04/03/2025 22:35:43;110;0;10.38;-4;-65.32;-20.35;0.7;18.70;76647;2837.340;-1802.276;1;94;-110;-69.4;100.0;100.6;-7;-7.7;24.8;-1.0;
04/03/2025 22:35:53;110;0;351.38;-4;-70.31;-17.95;1.0;18.80;76991;2837.340;-1802.276;1;94;-110;-109.7;43.8;56.1;-7;-7.7;24.8;-1.0;
04/03/2025 22:36:03;110;0;349.58;-4;-53.42;-17.50;2.2;18.80;77032;2837.341;-1802.277;1;94;-110;-111.3;43.8;43.7;-7;-7.7;24.8;-1.0;
04/03/2025 22:36:23;100;0;4.32;-4;-20.99;-14.83;5.5;18.80;77048;2837.344;-1802.277;1;94;-110;-106.5;43.8;43.3;-7;-7.7;24.8;-1.0;
04/03/2025 22:36:43;100;0;11.48;-4;-21.20;-16.06;8.1;18.90;77036;2837.347;-1802.277;1;94;-110;-106.5;43.8;43.2;-70;-69.9;24.8;-1.0;
04/03/2025 22:37:03;100;0;20.90;-4;-22.18;-45.33;10.8;18.90;77042;2837.350;-1802.276;1;94;-110;-104.8;43.1;43.2;-70;-69.9;24.8;-1.0;
04/03/2025 22:37:23;100;0;31.67;-4;-21.64;-45.98;13.2;19.00;77054;2837.352;-1802.274;1;94;-110;-103.2;43.1;43.3;-55;-55.1;24.8;0.0;
04/03/2025 22:37:43;100;0;41.78;-4;-20.48;-37.64;16.2;19.00;77053;2837.355;-1802.272;1;94;-110;-103.2;43.1;43.2;-44;-44.2;24.8;0.0;
04/03/2025 22:38:03;100;0;55.74;-4;-19.91;-32.42;18.8;19.00;77061;2837.357;-1802.269;1;94;-110;-104.8;43.1;43.3;-26;-26.2;24.8;0.0;
04/03/2025 22:38:23;100;0;64.36;-4;-21.12;-23.39;21.5;19.10;77064;2837.358;-1802.266;1;94;-110;-103.2;43.1;43.2;-12;-12.2;24.8;0.0;
04/03/2025 22:38:43;100;0;73.05;-4;-20.63;-16.82;24.4;19.10;77084;2837.359;-1802.263;1;94;-110;-103.2;43.1;43.3;2;1.8;24.8;0.0;
04/03/2025 22:39:03;100;0;75.85;-4;-21.10;-10.48;27.2;19.10;77087;2837.359;-1802.259;1;94;-110;-103.2;43.1;43.3;7;7.2;24.8;0.0;
04/03/2025 22:39:23;100;0;83.68;-4;-20.60;-7.98;30.4;19.10;77087;2837.360;-1802.255;1;94;-110;-103.2;43.1;43.3;13;13.1;24.8;0.0;
04/03/2025 22:39:43;100;0;81.82;-4;-20.45;-5.32;33.0;19.10;77101;2837.360;-1802.252;1;94;-110;-103.2;43.1;43.3;13;13.5;24.8;0.0;
04/03/2025 22:40:03;100;0;82.17;-4;-22.21;-5.03;35.5;19.10;77096;2837.360;-1802.249;1;94;-110;-104.8;42.5;42.4;13;13.1;24.8;0.0;
04/03/2025 22:40:23;100;0;78.62;-4;-21.02;-4.92;38.0;19.10;77096;2837.360;-1802.246;1;94;-110;-103.2;42.5;42.3;11;10.8;24.8;0.0;
04/03/2025 22:40:43;100;0;79.07;-4;-20.83;-6.38;40.3;19.10;77110;2837.361;-1802.243;1;94;-110;-103.2;42.5;42.3;11;10.4;24.8;0.0;
04/03/2025 22:41:03;100;0;80.86;-4;-19.45;-6.85;42.7;19.10;77110;2837.361;-1802.240;1;94;-110;-103.2;42.5;42.3;11;10.4;24.8;0.0;
04/03/2025 22:41:23;100;0;81.60;-4;-18.85;-6.98;45.0;19.10;77115;2837.361;-1802.237;1;94;-110;-103.2;42.8;43.0;13;13.1;24.8;0.0;
04/03/2025 22:41:43;100;0;86.41;-4;-19.76;-5.02;47.3;19.10;77118;2837.361;-1802.234;1;94;-110;-103.2;42.8;43.0;13;13.5;24.8;0.0;
04/03/2025 22:42:03;100;0;76.80;-4;-21.95;-4.38;49.4;19.10;77137;2837.362;-1802.232;1;94;-110;-103.2;42.8;43.0;10;9.9;24.8;0.0;
04/03/2025 22:42:23;100;0;74.71;-4;-17.76;-6.59;52.3;19.10;77137;2837.362;-1802.228;1;94;-110;-103.2;43.5;43.7;5;5.0;24.8;0.0;
04/03/2025 22:42:43;100;0;75.71;-4;-23.15;-9.29;54.4;19.10;77131;2837.363;-1802.226;1;94;-110;-103.2;42.5;42.4;8;9.0;24.8;0.0;
04/03/2025 22:43:03;100;0;78.11;-4;-19.99;-7.00;57.1;19.10;77131;2837.363;-1802.222;1;94;-110;-104.8;42.5;42.3;8;9.0;24.8;0.0;
04/03/2025 22:43:23;100;0;78.37;-4;-20.04;-7.45;59.7;19.10;77139;2837.364;-1802.219;1;94;-110;-103.2;42.5;42.3;8;8.6;24.8;0.0;
04/03/2025 22:43:43;100;0;82.45;-4;-21.25;-7.25;62.4;19.10;77147;2837.364;-1802.216;1;94;-110;-103.2;42.5;42.3;12;12.2;24.8;0.0;
04/03/2025 22:44:03;100;0;82.01;-4;-17.84;-5.68;64.9;19.10;77156;2837.364;-1802.212;1;94;-110;-103.2;43.2;43.2;12;12.6;24.8;0.0;
04/03/2025 22:44:23;100;0;88.99;-4;-20.87;-5.21;66.9;19.10;77156;2837.364;-1802.210;1;94;-110;-103.2;43.2;43.3;14;14.0;24.8;0.0;
04/03/2025 22:44:43;100;0;89.97;-4;-22.12;-4.56;69.4;19.10;77157;2837.364;-1802.207;1;94;-110;-103.2;42.6;42.6;14;14.4;24.8;0.0;
04/03/2025 22:45:03;100;0;89.33;-4;-22.29;-4.61;72.3;19.10;77162;2837.364;-1802.203;1;94;-110;-103.2;41.9;41.8;14;14.4;24.8;0.0;
04/03/2025 22:45:23;100;0;89.34;-4;-17.68;-4.71;74.8;19.10;77165;2837.363;-1802.200;1;94;-110;-103.2;42.6;42.6;14;14.4;24.8;0.0;
04/03/2025 22:45:43;100;0;90.79;-4;-21.21;-4.16;77.2;19.10;77167;2837.363;-1802.197;1;94;-110;-103.2;42.6;42.7;14;14.4;24.8;0.0;
04/03/2025 22:46:03;100;0;92.32;-4;-21.58;-4.37;79.8;19.10;77173;2837.363;-1802.194;1;94;-110;-103.2;42.6;42.9;14;14.4;24.8;0.0;
04/03/2025 22:46:23;100;0;91.54;-4;-19.18;-4.05;82.5;19.10;77170;2837.362;-1802.190;1;94;-110;-103.2;42.6;42.7;14;14.4;24.8;0.0;
04/03/2025 22:46:43;100;0;90.38;-4;-19.74;-4.33;84.8;19.10;77179;2837.362;-1802.187;1;94;-110;-103.2;42.6;42.7;14;14.4;24.8;0.0;
04/03/2025 22:47:03;100;0;84.82;-4;-20.15;-4.40;87.0;19.10;77178;2837.362;-1802.185;1;94;-110;-103.2;42.6;42.9;14;14.4;24.8;0.0;
04/03/2025 22:47:23;100;0;81.90;-4;-19.37;-4.48;89.5;19.10;77178;2837.363;-1802.181;1;94;-110;-103.2;42.6;42.9;12;12.2;24.8;0.0;
04/03/2025 22:47:43;100;0;80.13;-4;-19.67;-5.79;91.9;19.10;77164;2837.363;-1802.178;1;94;-110;-103.2;42.6;42.9;12;11.7;24.8;0.0;
04/03/2025 22:48:03;100;0;76.56;-4;-19.57;-5.84;94.4;19.10;77159;2837.363;-1802.175;1;94;-110;-103.2;42.6;42.9;7;7.2;24.8;0.0;
04/03/2025 22:48:23;100;0;72.78;-4;-19.75;-8.22;96.9;19.10;77147;2837.364;-1802.172;1;94;-110;-104.8;42.6;42.9;1;0.9;24.8;0.0;
04/03/2025 22:48:43;100;0;73.31;-4;-19.41;-11.16;99.8;19.10;77124;2837.365;-1802.168;1;94;-110;-103.2;42.6;42.9;1;0.9;24.8;0.0;
04/03/2025 22:49:03;100;0;80.65;-4;-19.26;-11.13;102.4;19.10;77112;2837.365;-1802.165;1;94;-110;-103.2;42.6;42.7;11;10.8;24.8;0.0;
04/03/2025 22:49:23;100;0;84.13;-4;-19.66;-5.96;105.1;19.10;77090;2837.365;-1802.161;1;94;-110;-104.8;42.6;42.9;13;13.1;24.8;0.0;
04/03/2025 22:49:43;100;0;87.93;-4;-19.81;-4.81;107.7;19.10;77090;2837.365;-1802.158;1;94;-110;-103.2;42.6;42.9;13;13.1;24.8;0.0;
04/03/2025 22:50:03;100;0;91.90;-4;-19.76;-4.81;110.4;19.00;77076;2837.365;-1802.155;1;94;-110;-103.2;42.6;42.9;13;13.5;24.8;0.0;
04/03/2025 22:50:23;100;0;94.02;-4;-20.35;-5.09;112.8;19.00;77079;2837.365;-1802.151;1;94;-110;-103.2;42.6;42.9;13;13.5;24.8;0.0;
04/03/2025 22:50:43;100;0;96.31;-4;-19.65;-4.97;115.4;19.00;77065;2837.364;-1802.148;1;94;-110;-103.2;42.6;43.0;13;13.5;24.8;0.0;
04/03/2025 22:51:03;100;0;100.93;-4;-19.84;-4.61;117.8;19.00;77057;2837.363;-1802.145;1;94;-110;-103.2;42.6;42.9;18;18.1;24.8;0.0;
04/03/2025 22:51:23;100;0;102.32;-4;-20.13;-2.29;120.0;19.00;77053;2837.362;-1802.142;1;94;-110;-106.5;42.6;42.9;20;19.9;24.8;0.0;
04/03/2025 22:51:43;100;0;105.55;-4;-20.28;-1.44;122.5;18.90;77052;2837.361;-1802.139;1;94;-110;-103.2;42.6;42.9;23;23.0;24.8;0.0;
04/03/2025 22:52:03;100;0;106.01;-4;-20.55;0.18;124.8;18.90;77039;2837.360;-1802.137;1;94;-110;-103.2;42.6;42.9;26;26.2;24.8;0.0;
04/03/2025 22:52:24;100;0;99.48;-4;-20.08;1.65;127.3;18.90;77025;2837.360;-1802.134;1;94;-110;-103.2;42.6;42.9;17;17.1;24.8;0.0;
04/03/2025 22:52:44;100;0;94.64;-4;-19.91;-3.20;129.7;18.90;77020;2837.359;-1802.130;1;94;-110;-103.2;42.6;42.9;14;14.0;24.8;0.0;
04/03/2025 22:53:04;100;0;91.50;-4;-19.75;-4.74;132.1;18.80;77009;2837.359;-1802.127;1;94;-110;-103.2;42.6;42.9;14;14.0;24.8;0.0;
04/03/2025 22:53:24;100;0;90.67;-4;-19.50;-4.67;134.2;18.80;76999;2837.359;-1802.125;1;94;-110;-101.6;42.6;42.9;14;14.0;24.8;0.0;
04/03/2025 22:53:44;100;0;88.65;-4;-19.65;-4.74;136.4;18.80;76999;2837.358;-1802.122;1;94;-110;-104.8;42.6;42.9;14;14.0;24.8;0.0;
04/03/2025 22:54:04;100;0;87.38;-4;-19.45;-4.69;138.8;18.80;76978;2837.358;-1802.119;1;94;-110;-103.2;42.6;42.9;14;14.0;24.8;0.0;
04/03/2025 22:54:24;100;0;97.99;-4;-19.26;-4.76;140.9;18.70;76969;2837.358;-1802.116;1;94;-110;-103.2;42.6;43.0;16;15.8;24.8;0.0;
04/03/2025 22:54:44;100;0;99.01;-4;-19.90;-3.59;143.0;18.70;76957;2837.357;-1802.113;1;94;-110;-104.8;42.6;42.9;16;16.2;24.8;0.0;
04/03/2025 22:55:04;100;0;102.26;-4;-19.77;-3.38;145.5;18.70;76944;2837.356;-1802.110;1;94;-110;-103.2;42.6;42.9;19;19.0;24.8;0.0;
04/03/2025 22:55:24;100;0;111.24;-4;-19.78;-2.39;147.7;18.70;76938;2837.355;-1802.108;1;94;-110;-103.2;42.6;42.9;35;35.2;24.8;0.0;
04/03/2025 22:55:44;100;0;110.99;-4;-20.00;6.16;150.0;18.60;76931;2837.354;-1802.105;1;94;-110;-103.2;42.6;42.9;35;35.6;24.8;0.0;
04/03/2025 22:56:04;100;0;105.13;-4;-21.11;6.33;152.5;18.60;76923;2837.353;-1802.102;1;94;-110;-103.2;42.6;42.9;24;23.9;24.8;0.0;
04/03/2025 22:56:24;100;0;103.47;-4;-20.37;-0.17;154.8;18.50;76911;2837.352;-1802.099;1;94;-110;-103.2;42.6;42.9;22;22.1;24.8;0.0;
04/03/2025 22:56:44;100;0;112.51;-4;-20.45;-1.46;157.0;18.50;76915;2837.350;-1802.097;1;94;-110;-103.2;42.6;42.9;37;37.0;24.8;0.0;
04/03/2025 22:57:04;100;0;114.15;-4;-21.58;6.99;159.4;18.50;76911;2837.349;-1802.094;1;94;-110;-103.2;42.6;42.9;40;40.2;24.8;0.0;
04/03/2025 22:57:24;100;0;109.86;-4;-20.32;8.85;161.8;18.50;76893;2837.348;-1802.091;1;94;-110;-103.2;42.6;42.9;31;31.1;24.8;0.0;
04/03/2025 22:57:44;100;0;110.24;-4;-20.44;4.00;164.2;18.40;76892;2837.346;-1802.088;1;94;-110;-103.2;42.6;42.9;33;32.9;24.8;0.0;
04/03/2025 22:58:04;100;0;104.07;-4;-19.88;5.13;166.8;18.40;76887;2837.345;-1802.085;1;94;-110;-103.2;42.6;42.9;22;22.1;24.8;0.0;
04/03/2025 22:58:24;100;0;98.06;-4;-19.47;-0.78;169.3;18.40;76875;2837.345;-1802.082;1;94;-110;-101.6;42.6;42.9;16;15.8;24.8;0.0;
04/03/2025 22:58:44;100;0;95.08;-4;-19.53;-3.90;171.8;18.30;76863;2837.344;-1802.079;1;94;-110;-101.6;42.6;43.0;16;15.8;24.8;0.0;
04/03/2025 22:59:04;100;0;92.38;-4;-19.68;-3.89;174.2;18.30;76861;2837.344;-1802.076;1;94;-110;-103.2;42.6;42.9;14;14.0;24.8;0.0;
04/03/2025 22:59:24;100;0;91.14;-4;-19.53;-4.89;176.9;18.30;76849;2837.344;-1802.072;1;94;-110;-103.2;42.6;42.9;14;13.5;24.8;0.0;
04/03/2025 22:59:44;100;0;90.83;-4;-19.68;-4.92;179.5;18.20;76840;2837.343;-1802.069;1;94;-110;-101.6;42.6;42.9;14;13.5;24.8;0.0;
04/03/2025 23:00:04;100;0;86.88;-4;-19.65;-4.99;181.8;18.20;76830;2837.343;-1802.066;1;94;-110;-103.2;42.6;43.0;14;13.5;24.8;0.0;
04/03/2025 23:00:24;100;0;85.41;-4;-19.56;-4.90;184.4;18.20;76830;2837.343;-1802.063;1;94;-110;-103.2;42.6;42.9;14;13.5;24.8;0.0;
04/03/2025 23:00:44;100;0;83.90;-4;-19.62;-4.90;187.2;18.20;76827;2837.343;-1802.059;1;94;-110;-104.8;42.6;42.9;14;13.5;24.8;0.0;
04/03/2025 23:01:04;100;0;80.10;-4;-19.18;-4.96;189.7;18.10;76819;2837.344;-1802.056;1;94;-110;-103.2;42.6;42.9;11;10.8;24.8;0.0;
04/03/2025 23:01:24;100;0;82.86;-4;-19.21;-6.40;192.5;18.10;76813;2837.344;-1802.052;1;94;-110;-103.2;42.6;42.9;13;13.1;24.8;0.0;
04/03/2025 23:01:44;100;0;85.30;-4;-19.04;-4.95;194.9;18.10;76799;2837.344;-1802.049;1;94;-110;-103.2;42.6;42.9;13;13.5;24.8;0.0;
04/03/2025 23:02:04;100;0;87.26;-4;-19.27;-4.93;197.7;18.00;76798;2837.344;-1802.045;1;94;-110;-103.2;42.6;42.9;13;13.1;24.8;0.0;
04/03/2025 23:02:24;100;0;86.29;-4;-19.62;-4.98;200.3;18.00;76794;2837.344;-1802.042;1;94;-110;-103.2;42.6;42.9;13;13.5;24.8;0.0;
04/03/2025 23:02:44;100;0;86.86;-4;-19.45;-4.93;203.1;18.00;76786;2837.344;-1802.038;1;94;-110;-104.8;42.6;42.9;13;13.1;24.8;0.0;
04/03/2025 23:03:04;100;0;87.19;-4;-19.26;-4.97;205.8;18.00;76780;2837.344;-1802.034;1;94;-110;-103.2;42.6;42.9;13;13.1;24.8;0.0;
04/03/2025 23:03:24;100;0;85.00;-4;-19.37;-5.05;208.7;17.90;76771;2837.344;-1802.030;1;94;-110;-103.2;42.6;42.9;13;13.1;24.8;0.0;
04/03/2025 23:03:44;100;0;84.71;-4;-19.37;-4.95;211.2;17.90;76772;2837.344;-1802.027;1;94;-110;-103.2;42.6;42.9;13;13.5;24.8;0.0;
04/03/2025 23:04:04;100;0;85.56;-4;-19.33;-4.95;213.9;17.90;76767;2837.344;-1802.023;1;94;-110;-103.2;42.6;42.9;13;13.5;24.8;0.0;
04/03/2025 23:04:24;100;0;86.24;-4;-19.24;-4.94;216.5;17.80;76758;2837.344;-1802.020;1;94;-110;-103.2;42.6;42.9;13;13.5;24.8;0.0;
04/03/2025 23:04:44;100;0;87.15;-4;-19.27;-4.93;219.2;17.80;76753;2837.344;-1802.016;1;94;-110;-104.8;42.6;42.9;13;13.5;24.8;0.0;
04/03/2025 23:05:04;100;0;87.15;-4;-18.96;-4.95;221.6;17.80;76745;2837.344;-1802.013;1;94;-110;-103.2;42.9;42.9;13;13.1;24.8;0.0;
04/03/2025 23:05:24;100;0;86.47;-4;-18.93;-4.86;224.1;17.70;76752;2837.344;-1802.010;1;94;-110;-103.2;43.2;43.2;13;13.1;24.8;0.0;
04/03/2025 23:05:44;100;0;84.83;-4;-20.12;-4.95;226.5;17.70;76735;2837.344;-1802.006;1;94;-110;-103.2;43.2;43.4;13;13.5;24.8;0.0;
04/03/2025 23:06:04;100;0;85.98;-4;-20.41;-4.93;228.8;17.70;76736;2837.344;-1802.003;1;94;-110;-103.2;43.2;43.4;13;13.1;24.8;0.0;
04/03/2025 23:06:24;100;0;86.25;-4;-20.37;-4.98;231.3;17.60;76723;2837.344;-1802.000;1;94;-110;-103.2;43.2;43.3;13;13.5;24.8;0.0;
04/03/2025 23:06:44;100;0;86.12;-4;-20.32;-4.89;233.7;17.60;76716;2837.344;-1801.997;1;94;-110;-104.8;43.2;43.4;13;13.5;24.8;0.0;
04/03/2025 23:07:04;100;0;86.08;-4;-20.16;-5.01;236.1;17.60;76717;2837.344;-1801.994;1;94;-110;-104.8;43.2;43.4;13;13.1;24.8;0.0;
04/03/2025 23:07:24;100;0;88.38;-4;-20.28;-4.96;238.3;17.50;76705;2837.344;-1801.991;1;94;-110;-103.2;43.2;43.4;13;13.1;24.8;0.0;
04/03/2025 23:07:44;100;0;90.33;-4;-20.41;-4.87;240.6;17.50;76698;2837.344;-1801.988;1;94;-110;-103.2;43.2;43.4;13;13.5;24.8;0.0;
04/03/2025 23:08:04;100;0;89.39;-4;-20.41;-4.93;243.1;17.50;76705;2837.344;-1801.985;1;94;-110;-103.2;43.2;43.4;13;13.1;24.8;0.0;
04/03/2025 23:08:24;100;0;86.99;-4;-20.43;-4.94;245.2;17.50;76700;2837.343;-1801.983;1;94;-110;-104.8;43.2;43.4;13;13.1;24.8;0.0;
04/03/2025 23:08:44;100;0;86.33;-4;-20.41;-4.91;247.4;17.40;76689;2837.343;-1801.980;1;94;-110;-101.6;43.2;43.4;13;13.1;24.8;0.0;
04/03/2025 23:09:04;100;0;85.82;-4;-20.36;-4.93;249.4;17.40;76693;2837.343;-1801.977;1;94;-110;-103.2;43.2;43.4;13;13.1;24.8;0.0;
04/03/2025 23:09:24;100;0;86.18;-4;-20.66;-4.94;251.7;17.40;76674;2837.343;-1801.975;1;94;-110;-101.6;43.2;43.4;13;13.1;24.8;0.0;
04/03/2025 23:09:44;100;0;86.67;-4;-20.87;-4.86;254.0;17.40;76672;2837.343;-1801.972;1;94;-110;-103.2;43.2;43.4;13;13.1;24.8;0.0;
04/03/2025 23:10:04;100;0;88.40;-4;-20.47;-4.91;256.3;17.30;76663;2837.343;-1801.969;1;94;-110;-103.2;43.2;43.4;13;13.5;24.8;0.0;
04/03/2025 23:10:24;100;0;89.63;-4;-20.40;-4.92;258.3;17.30;76664;2837.343;-1801.966;1;94;-110;-103.2;43.2;43.4;13;13.5;24.8;0.0;
04/03/2025 23:10:44;100;0;93.20;-4;-20.26;-4.94;260.5;17.30;76648;2837.343;-1801.964;1;94;-110;-103.2;43.2;43.4;13;13.5;24.8;0.0;
04/03/2025 23:11:04;100;0;96.26;-4;-20.38;-4.96;262.6;17.20;76641;2837.342;-1801.961;1;94;-110;-104.8;43.2;43.4;15;14.9;24.8;0.0;
04/03/2025 23:11:24;100;0;98.55;-4;-20.42;-4.01;264.6;17.20;76640;2837.342;-1801.959;1;94;-110;-103.2;43.2;43.4;17;17.1;24.8;0.0;
04/03/2025 23:11:44;100;0;99.13;-4;-20.37;-2.78;266.8;17.20;76628;2837.341;-1801.956;1;94;-110;-103.2;43.2;43.4;17;17.1;24.8;0.0;
04/03/2025 23:12:04;100;0;99.82;-4;-20.52;-2.96;268.9;17.10;76617;2837.340;-1801.953;1;94;-110;-101.6;43.2;43.4;19;19.0;24.8;0.0;
04/03/2025 23:12:24;100;0;100.00;-4;-20.70;-2.05;271.0;17.10;76620;2837.340;-1801.951;1;94;-110;-103.2;43.2;43.4;19;19.0;24.8;0.0;
04/03/2025 23:12:44;100;0;100.63;-4;-20.50;-2.06;273.1;17.10;76606;2837.339;-1801.948;1;94;-110;-103.2;43.2;43.4;19;19.0;24.8;0.0;
04/03/2025 23:13:04;100;0;100.89;-4;-20.35;-2.10;275.3;17.10;76612;2837.338;-1801.946;1;94;-110;-103.2;43.2;43.4;19;19.0;24.8;0.0;
04/03/2025 23:13:24;100;0;100.85;-4;-20.22;-2.09;277.5;17.00;76602;2837.337;-1801.943;1;94;-110;-103.2;43.2;43.4;19;19.0;24.8;0.0;
04/03/2025 23:13:44;100;0;103.80;-4;-20.30;-2.13;279.2;17.00;76595;2837.337;-1801.941;1;94;-130;-130.6;43.2;43.3;24;23.9;24.8;0.0;
04/03/2025 23:14:04;100;0;103.61;-4;-20.29;0.49;281.6;17.00;76664;2837.336;-1801.938;1;94;-130;-132.3;43.2;43.4;22;22.1;24.8;0.0;
04/03/2025 23:14:24;100;0;103.16;-4;-20.10;-0.68;283.9;16.90;76656;2837.335;-1801.935;1;94;-130;-132.3;43.2;43.3;22;21.7;24.8;0.0;
04/03/2025 23:14:44;100;0;101.46;-4;-20.25;-0.68;286.3;16.90;76650;2837.334;-1801.932;1;94;-130;-133.9;43.2;43.4;19;18.5;24.8;0.0;
04/03/2025 23:15:04;100;0;103.31;-4;-20.46;-2.30;288.7;16.90;76641;2837.333;-1801.929;1;94;-130;-132.3;43.2;43.4;22;22.1;24.8;0.0;
04/03/2025 23:15:24;100;0;103.48;-4;-20.65;-0.34;291.4;16.80;76647;2837.332;-1801.926;1;94;-130;-132.3;43.2;43.4;22;22.1;24.8;0.0;
04/03/2025 23:15:44;100;0;98.97;-4;-20.92;-0.29;293.9;16.80;76621;2837.331;-1801.923;1;94;-130;-132.3;43.2;43.4;17;17.1;24.8;0.0;
04/03/2025 23:16:04;100;0;94.28;-4;-20.31;-3.09;296.7;16.80;76603;2837.331;-1801.919;1;94;-130;-132.3;43.2;43.4;15;14.9;24.8;0.0;
04/03/2025 23:16:24;100;0;91.26;-4;-20.20;-4.13;299.2;16.70;76602;2837.331;-1801.916;1;94;-130;-135.5;43.2;43.4;15;14.9;24.8;0.0;
04/03/2025 23:16:44;100;0;88.11;-4;-20.00;-4.07;301.6;16.70;76603;2837.330;-1801.913;1;94;-130;-132.3;43.2;43.4;15;14.9;24.9;0.0;
04/03/2025 23:17:04;100;0;86.18;-4;-20.09;-4.06;304.0;16.70;76593;2837.330;-1801.910;1;94;-130;-133.9;43.2;43.4;15;14.9;24.8;0.0;
04/03/2025 23:17:24;100;0;83.00;-4;-19.95;-4.19;306.6;16.60;76573;2837.331;-1801.907;1;94;-130;-132.3;43.2;43.4;13;13.1;24.8;0.0;
04/03/2025 23:17:44;100;0;81.43;-4;-19.79;-4.90;309.0;16.60;76583;2837.331;-1801.904;1;94;-130;-133.9;43.2;43.4;13;12.6;24.8;0.0;
04/03/2025 23:18:04;100;0;80.19;-4;-20.16;-4.88;311.7;16.60;76572;2837.331;-1801.900;1;94;-130;-135.5;43.2;43.4;11;10.4;24.8;0.0;
04/03/2025 23:18:24;100;0;79.18;-4;-19.59;-6.34;314.0;16.60;76563;2837.331;-1801.897;1;94;-130;-132.3;43.2;43.3;11;10.4;24.8;0.0;
04/03/2025 23:18:44;100;0;79.20;-4;-19.32;-6.26;316.7;16.50;76561;2837.332;-1801.894;1;94;-130;-132.3;43.2;43.4;11;10.4;24.8;0.0;
04/03/2025 23:19:04;100;0;79.84;-4;-19.16;-6.28;318.8;16.50;76550;2837.332;-1801.891;1;94;-130;-132.3;43.2;43.4;11;10.4;24.8;0.0;
04/03/2025 23:19:24;100;0;81.47;-4;-19.51;-6.40;321.1;16.50;76550;2837.332;-1801.888;1;94;-130;-132.3;43.2;43.4;13;13.1;24.8;0.0;
04/03/2025 23:19:44;100;0;82.24;-4;-19.60;-4.63;323.5;16.50;76557;2837.333;-1801.885;1;94;-130;-132.3;43.2;43.4;13;13.5;24.8;0.0;
04/03/2025 23:20:04;100;0;80.65;-4;-19.31;-4.71;325.8;16.40;76547;2837.333;-1801.882;1;94;-130;-132.3;43.2;43.4;13;13.5;24.8;0.0;
04/03/2025 23:20:24;100;0;80.57;-4;-19.55;-4.71;328.2;16.40;76532;2837.333;-1801.879;1;94;-130;-130.6;43.2;43.4;13;13.5;24.8;0.0;
04/03/2025 23:20:44;100;0;83.74;-4;-19.67;-4.66;330.6;16.40;76530;2837.333;-1801.876;1;94;-130;-133.9;43.2;43.4;13;13.5;24.8;0.0;
04/03/2025 23:21:04;100;0;82.36;-4;-19.35;-4.74;333.1;16.30;76517;2837.334;-1801.873;1;94;-130;-132.3;43.2;43.4;13;13.5;24.8;0.0;
04/03/2025 23:21:24;100;0;81.36;-4;-19.61;-4.65;335.6;16.30;76514;2837.334;-1801.869;1;94;-130;-132.3;43.2;43.4;13;13.5;24.8;0.0;
04/03/2025 23:21:44;100;0;80.05;-4;-19.49;-4.76;338.2;16.30;76508;2837.334;-1801.866;1;94;-130;-132.3;43.2;43.4;11;10.8;24.8;0.0;
04/03/2025 23:22:04;100;0;78.43;-4;-19.31;-6.30;340.5;16.30;76510;2837.335;-1801.863;1;94;-130;-133.9;43.2;43.4;11;10.8;24.8;0.0;
04/03/2025 23:22:24;100;0;77.69;-4;-19.15;-6.28;343.1;16.20;76492;2837.335;-1801.860;1;94;-130;-132.3;43.2;43.4;8;8.1;24.8;0.0;
04/03/2025 23:22:44;100;0;76.75;-4;-19.40;-7.62;345.4;16.20;76493;2837.336;-1801.857;1;94;-130;-133.9;43.2;43.4;8;7.7;24.8;0.0;
04/03/2025 23:23:04;100;0;76.16;-4;-19.37;-7.62;348.2;16.10;76486;2837.336;-1801.853;1;94;-130;-132.3;43.2;43.4;6;5.9;24.8;0.0;
04/03/2025 23:23:24;100;0;77.86;-4;-19.03;-8.77;350.7;16.10;76471;2837.337;-1801.850;1;94;-130;-132.3;43.2;43.4;8;8.1;24.8;0.0;
04/03/2025 23:23:44;100;0;77.27;-4;-19.24;-7.24;353.3;16.10;76469;2837.337;-1801.846;1;94;-130;-135.5;43.2;43.4;8;8.6;24.8;0.0;
04/03/2025 23:24:04;100;0;79.49;-4;-19.20;-7.20;356.2;16.10;76465;2837.338;-1801.842;1;94;-130;-132.3;43.2;43.4;10;9.9;24.8;0.0;
04/03/2025 23:24:24;100;0;82.81;-4;-19.19;-6.39;358.8;16.00;76460;2837.338;-1801.839;1;94;-130;-133.9;43.2;43.4;12;12.2;24.8;0.0;
04/03/2025 23:24:44;100;0;87.26;-4;-19.04;-5.21;361.3;16.00;76436;2837.338;-1801.836;1;94;-130;-132.3;43.2;43.4;12;12.6;24.8;0.0;
04/03/2025 23:25:04;100;0;89.48;-4;-19.14;-5.22;364.0;16.00;76425;2837.338;-1801.832;1;94;-130;-132.3;43.2;43.4;14;14.0;24.8;0.0;
04/03/2025 23:25:24;100;0;93.13;-4;-19.28;-4.37;366.7;16.00;76427;2837.337;-1801.828;1;94;-130;-133.9;43.2;43.4;14;14.4;24.8;0.0;
04/03/2025 23:25:44;100;0;96.81;-4;-19.23;-4.33;369.5;15.90;76410;2837.337;-1801.825;1;94;-130;-132.3;43.2;43.4;14;14.4;24.8;0.0;
04/03/2025 23:26:04;100;0;98.85;-4;-19.73;-4.33;372.0;15.90;76397;2837.336;-1801.821;1;94;-130;-133.9;43.2;43.4;16;15.8;24.8;0.0;
04/03/2025 23:26:25;100;0;99.26;-4;-19.44;-3.49;374.9;15.90;76385;2837.335;-1801.817;1;94;-130;-132.3;43.2;43.4;16;16.2;24.8;0.0;
04/03/2025 23:26:45;100;0;101.26;-4;-19.35;-3.58;377.5;15.80;76377;2837.334;-1801.814;1;94;-130;-132.3;43.2;43.3;18;18.1;24.8;0.0;
04/03/2025 23:27:05;100;0;100.95;-4;-19.62;-2.06;379.9;15.80;76380;2837.333;-1801.811;1;94;-130;-132.3;43.2;43.4;18;18.5;24.8;0.0;
04/03/2025 23:27:25;100;0;101.57;-4;-19.38;-2.11;382.4;15.70;76357;2837.332;-1801.808;1;94;-130;-132.3;43.2;43.4;18;18.5;24.8;0.0;
04/03/2025 23:27:45;100;0;100.46;-4;-19.52;-2.18;384.9;15.70;76362;2837.332;-1801.805;1;94;-130;-132.3;43.2;43.4;18;18.5;24.8;0.0;
04/03/2025 23:28:05;100;0;100.47;-4;-19.55;-2.16;387.4;15.70;76344;2837.331;-1801.801;1;94;-130;-132.3;43.2;43.4;18;18.5;24.8;0.0;
04/03/2025 23:28:25;100;0;99.47;-4;-19.56;-2.22;390.1;15.60;76351;2837.330;-1801.798;1;94;-130;-132.3;43.2;43.4;18;19.0;24.8;0.0;
04/03/2025 23:28:45;100;0;98.27;-4;-19.61;-2.13;392.5;15.60;76341;2837.329;-1801.795;1;94;-130;-132.3;43.2;43.4;16;15.8;24.8;0.0;
04/03/2025 23:29:05;100;0;97.52;-4;-19.47;-3.66;395.1;15.60;76345;2837.329;-1801.792;1;94;-130;-132.3;43.2;43.4;16;15.8;24.8;0.0;
04/03/2025 23:29:25;100;0;97.49;-4;-19.53;-3.67;397.4;15.50;76334;2837.328;-1801.789;1;94;-130;-132.3;43.2;43.4;16;15.8;24.8;0.0;
04/03/2025 23:29:45;100;0;97.86;-4;-19.40;-3.69;400.0;15.50;76327;2837.327;-1801.785;1;94;-130;-132.3;43.2;43.4;16;15.8;24.8;0.0;
04/03/2025 23:30:05;100;0;97.66;-4;-19.42;-3.72;402.2;15.50;76317;2837.327;-1801.782;1;94;-130;-133.9;43.2;43.4;16;15.8;24.8;0.0;
04/03/2025 23:30:25;100;0;97.05;-4;-19.15;-3.70;404.8;15.50;76329;2837.326;-1801.779;1;94;-130;-133.9;43.2;43.4;16;15.8;24.8;0.0;
04/03/2025 23:30:45;100;0;97.03;-4;-19.17;-3.77;407.3;15.40;76313;2837.326;-1801.775;1;94;-130;-132.3;43.2;43.4;16;15.8;24.8;0.0;
04/03/2025 23:31:05;100;0;96.76;-4;-19.46;-3.65;409.7;15.40;76309;2837.325;-1801.772;1;94;-130;-132.3;43.2;43.4;16;15.8;24.8;0.0;
04/03/2025 23:31:25;100;0;97.43;-4;-19.23;-3.61;412.0;15.40;76311;2837.324;-1801.769;1;94;-130;-130.6;43.2;43.4;16;15.8;24.8;0.0;
04/03/2025 23:31:45;100;0;100.01;-4;-19.34;-3.62;414.3;15.30;76315;2837.324;-1801.766;1;94;-130;-132.3;43.2;43.4;18;18.1;24.8;0.0;
04/03/2025 23:32:05;100;0;102.90;-4;-19.41;-2.32;416.9;15.30;76308;2837.323;-1801.763;1;94;-130;-132.3;43.2;43.4;20;19.9;24.8;0.0;
04/03/2025 23:32:25;100;0;102.35;-4;-19.65;-1.48;419.3;15.30;76288;2837.322;-1801.760;1;94;-130;-135.5;43.2;43.4;20;19.9;24.8;0.0;
04/03/2025 23:32:45;100;0;101.52;-4;-19.66;-1.43;421.7;15.30;76299;2837.321;-1801.757;1;94;-130;-132.3;43.2;43.4;20;19.9;24.8;0.0;
04/03/2025 23:33:05;100;0;98.08;-4;-19.54;-1.47;424.0;15.20;76278;2837.320;-1801.754;1;94;-130;-132.3;43.2;43.3;17;17.1;24.8;0.0;
04/03/2025 23:33:25;100;0;96.88;-4;-19.34;-3.02;426.3;15.20;76283;2837.320;-1801.751;1;94;-130;-132.3;43.2;43.4;17;17.1;24.8;0.0;
04/03/2025 23:33:45;100;0;95.74;-4;-19.35;-3.03;428.9;15.20;76283;2837.319;-1801.748;1;94;-130;-133.9;43.2;43.4;15;14.9;24.8;0.0;
04/03/2025 23:34:05;100;0;96.05;-4;-19.35;-4.21;431.1;15.10;76275;2837.319;-1801.745;1;94;-130;-132.3;43.2;43.4;15;14.4;24.8;0.0;
04/03/2025 23:34:25;100;0;95.77;-4;-19.32;-4.20;433.5;15.10;76262;2837.318;-1801.741;1;94;-130;-132.3;43.2;43.4;15;14.4;24.8;0.0;
04/03/2025 23:34:45;100;0;92.50;-4;-19.24;-4.24;435.9;15.10;76271;2837.318;-1801.738;1;94;-130;-133.9;43.2;43.4;15;14.4;24.8;0.0;
04/03/2025 23:35:05;100;0;93.95;-4;-19.17;-4.22;438.4;15.10;76259;2837.317;-1801.735;1;94;-130;-133.9;43.2;43.4;15;14.4;24.8;0.0;
04/03/2025 23:35:25;100;0;94.46;-4;-19.18;-4.23;440.9;15.00;76257;2837.317;-1801.732;1;94;-130;-132.3;43.2;43.4;15;14.4;24.8;0.0;
04/03/2025 23:35:45;100;0;92.62;-4;-19.27;-4.37;443.3;15.00;76238;2837.316;-1801.728;1;94;-130;-132.3;43.2;43.4;15;14.4;24.8;0.0;
04/03/2025 23:36:05;100;0;91.41;-4;-19.43;-4.22;445.8;15.00;76231;2837.316;-1801.725;1;94;-130;-132.3;43.2;43.4;15;14.4;24.8;0.0;
04/03/2025 23:36:25;100;0;90.90;-4;-19.44;-4.17;448.4;15.00;76233;2837.316;-1801.721;1;94;-130;-132.3;43.2;43.6;15;14.4;24.8;0.0;
04/03/2025 23:36:45;100;0;90.99;-4;-19.40;-4.18;451.0;14.90;76227;2837.316;-1801.718;1;94;-130;-132.3;43.2;43.4;15;14.4;24.8;0.0;
04/03/2025 23:37:05;100;0;88.45;-4;-19.37;-4.20;453.4;14.90;76220;2837.315;-1801.715;1;94;-130;-132.3;43.2;43.4;15;14.4;24.8;0.0;
04/03/2025 23:37:25;100;0;84.81;-4;-19.47;-4.23;456.0;14.90;76210;2837.316;-1801.711;1;94;-130;-132.3;43.2;43.4;15;14.4;24.8;0.0;
04/03/2025 23:37:45;100;0;80.83;-4;-18.82;-4.28;458.6;14.90;76206;2837.316;-1801.708;1;94;-130;-132.3;43.6;44.0;12;11.7;24.8;0.0;
04/03/2025 23:38:05;100;0;80.60;-4;-19.57;-5.65;461.0;14.80;76205;2837.316;-1801.705;1;94;-130;-133.9;43.6;43.9;12;11.7;24.8;0.0;
04/03/2025 23:38:25;100;0;80.10;-4;-19.66;-5.69;463.5;14.80;76204;2837.316;-1801.702;1;94;-130;-132.3;43.6;44.0;12;11.7;24.8;0.0;
04/03/2025 23:38:45;100;0;83.60;-4;-19.68;-5.67;466.1;14.80;76185;2837.317;-1801.698;1;94;-130;-133.9;43.6;44.0;14;14.0;24.8;0.0;
04/03/2025 23:39:05;100;0;83.62;-4;-19.74;-4.36;468.5;14.70;76184;2837.317;-1801.695;1;94;-130;-132.3;43.6;43.9;14;14.4;24.8;0.0;
04/03/2025 23:39:25;100;0;82.94;-4;-19.52;-4.23;471.0;14.70;76176;2837.317;-1801.692;1;94;-130;-133.9;43.6;44.0;14;14.4;24.8;0.0;
04/03/2025 23:39:45;100;0;85.66;-4;-19.77;-4.26;473.4;14.70;76167;2837.317;-1801.689;1;94;-130;-132.3;43.6;43.9;14;14.4;24.8;0.0;
04/03/2025 23:40:05;100;0;88.20;-4;-19.79;-4.15;476.0;14.60;76154;2837.317;-1801.686;1;94;-130;-133.9;43.6;44.0;14;14.4;24.8;0.0;
04/03/2025 23:40:25;100;0;91.67;-4;-20.25;-4.27;478.6;14.60;76144;2837.317;-1801.682;1;94;-130;-130.6;43.6;44.0;14;14.4;24.8;0.0;
04/03/2025 23:40:45;100;0;93.54;-4;-20.57;-4.12;481.2;14.60;76151;2837.316;-1801.679;1;94;-130;-133.9;43.6;43.9;14;14.4;24.8;0.0;
04/03/2025 23:41:05;100;0;94.59;-4;-20.51;-4.30;483.9;14.60;76134;2837.316;-1801.676;1;94;-130;-133.9;43.6;43.9;14;14.4;24.8;0.0;
04/03/2025 23:41:25;100;0;95.81;-4;-20.58;-4.26;486.7;14.60;76139;2837.315;-1801.672;1;94;-130;-133.9;43.6;44.0;14;14.4;24.8;0.0;
04/03/2025 23:41:45;100;0;94.50;-4;-20.10;-4.08;489.6;14.50;76121;2837.315;-1801.669;1;94;-130;-133.9;43.6;44.0;14;14.4;24.8;0.0;
04/03/2025 23:42:05;100;0;93.28;-4;-19.93;-4.29;492.3;14.50;76130;2837.314;-1801.665;1;94;-130;-132.3;43.6;43.9;14;14.4;24.8;0.0;
04/03/2025 23:42:25;100;0;94.36;-4;-20.01;-4.23;494.9;14.50;76112;2837.314;-1801.662;1;94;-130;-132.3;43.6;43.9;14;14.4;24.8;0.0;
04/03/2025 23:42:45;100;0;92.03;-4;-19.39;-4.34;497.7;14.40;76127;2837.313;-1801.658;1;94;-130;-132.3;43.6;44.0;14;14.4;24.8;0.0;
04/03/2025 23:42:54;118;0;90.80;-4;-19.96;-4.21;498.7;14.40;76113;2837.313;-1801.657;1;94;450;-130.6;22.0;22.1;7;7.2;24.8;0.0;
04/03/2025 23:43:04;118;0;94.36;-4;-8.15;-8.89;499.7;14.40;76089;2837.313;-1801.655;1;94;450;-3.2;22.0;21.8;7;6.8;24.0;-1.0;
04/03/2025 23:43:14;118;0;84.15;-4;16.71;-8.71;499.9;14.40;75808;2837.313;-1801.655;1;94;450;122.6;22.0;22.1;7;6.8;23.7;-1.0;
04/03/2025 23:43:24;118;0;80.53;-4;26.40;-9.22;499.1;14.40;75557;2837.313;-1801.654;1;94;450;245.2;22.0;22.2;7;6.8;23.8;-1.0;
04/03/2025 23:43:34;118;0;79.57;-4;25.59;-8.69;498.1;14.40;75302;2837.313;-1801.653;1;94;450;369.4;22.0;22.2;7;6.8;23.9;-1.0;
04/03/2025 23:43:44;118;0;79.05;-4;24.25;-8.62;496.8;14.40;75055;2837.313;-1801.652;1;94;450;454.8;22.0;22.2;7;6.8;23.6;-1.0;
04/03/2025 23:43:54;118;0;80.25;-4;21.15;-8.21;495.2;14.40;74863;2837.313;-1801.650;1;94;450;453.2;22.0;22.2;7;6.8;24.8;-1.0;
04/03/2025 23:44:14;117;0;73.60;-4;17.65;-7.78;492.1;14.40;74880;2837.314;-1801.645;1;94;450;453.2;22.0;22.1;7;6.8;24.8;-1.0;
04/03/2025 23:44:34;117;0;67.09;-4;17.66;-7.88;489.0;14.40;74877;2837.316;-1801.641;1;94;450;451.6;21.3;21.1;51;51.0;24.8;-1.0;
04/03/2025 23:44:54;117;0;73.83;-4;20.48;14.87;486.0;14.40;74875;2837.317;-1801.638;1;94;450;453.2;21.3;20.8;40;40.2;24.8;-1.0;
04/03/2025 23:45:14;117;0;80.29;-4;22.25;9.18;482.4;14.40;74867;2837.317;-1801.633;1;94;450;453.2;22.0;22.1;33;32.9;24.8;-1.0;
04/03/2025 23:45:34;117;0;79.70;-4;20.46;5.30;478.9;14.30;74863;2837.318;-1801.629;1;94;450;454.8;22.0;22.1;33;32.5;24.8;-1.0;
04/03/2025 23:45:54;117;0;79.05;-4;20.00;5.31;475.6;14.30;74854;2837.318;-1801.624;1;94;450;453.2;22.0;22.1;33;32.5;24.8;-1.0;
04/03/2025 23:46:14;117;0;77.95;-4;19.98;5.52;472.2;14.30;74867;2837.319;-1801.620;1;94;450;451.6;22.0;22.2;35;35.2;24.8;-1.0;
04/03/2025 23:46:34;117;0;81.82;-4;19.70;7.04;469.0;14.30;74853;2837.319;-1801.616;1;94;450;451.6;22.0;22.1;32;32.0;24.8;-1.0;
04/03/2025 23:46:54;117;0;82.69;-4;19.66;4.96;465.6;14.20;74869;2837.320;-1801.611;1;94;450;453.2;22.0;22.1;32;31.6;24.8;-1.0;
04/03/2025 23:47:14;117;0;85.05;-4;19.49;4.90;462.4;14.20;74859;2837.320;-1801.607;1;94;450;453.2;22.0;22.1;30;29.8;24.8;-1.0;
04/03/2025 23:47:34;117;0;87.16;-4;19.49;3.78;459.0;14.20;74868;2837.320;-1801.602;1;94;450;453.2;22.0;22.1;30;29.8;24.8;-1.0;
04/03/2025 23:47:54;117;0;89.87;-4;19.39;3.77;456.0;14.20;74871;2837.320;-1801.598;1;94;450;453.2;22.0;22.1;30;29.8;24.8;-1.0;
04/03/2025 23:48:14;117;0;91.88;-4;19.66;3.70;452.6;14.20;74880;2837.319;-1801.594;1;94;450;453.2;22.0;22.1;30;29.8;24.8;-1.0;
04/03/2025 23:48:34;117;0;93.44;-4;19.78;3.86;449.5;14.20;74875;2837.319;-1801.589;1;94;450;453.2;22.0;22.1;30;29.8;24.8;-1.0;
04/03/2025 23:48:54;117;0;93.66;-4;19.67;3.95;446.2;14.10;74870;2837.318;-1801.585;1;94;450;453.2;22.0;22.1;30;29.8;24.8;-1.0;
04/03/2025 23:49:14;117;0;94.54;-4;19.54;3.83;443.1;14.10;74885;2837.318;-1801.581;1;94;450;453.2;22.0;22.1;30;29.8;24.8;-1.0;
04/03/2025 23:49:34;117;0;95.35;-4;19.60;3.82;439.9;14.10;74880;2837.317;-1801.577;1;94;450;453.2;22.0;22.1;30;29.8;24.8;-1.0;
04/03/2025 23:49:54;117;0;96.13;-4;19.81;3.89;436.6;14.10;74872;2837.316;-1801.572;1;94;450;451.6;22.0;22.1;30;29.8;24.8;-1.0;
04/03/2025 23:50:14;117;0;96.96;-4;19.75;3.82;433.3;14.10;74878;2837.316;-1801.568;1;94;450;453.2;22.0;22.1;28;28.0;24.8;-1.0;
04/03/2025 23:50:34;117;0;96.82;-4;19.66;2.79;429.9;14.10;74887;2837.315;-1801.564;1;94;450;453.2;22.0;22.1;28;27.5;24.8;-1.0;
04/03/2025 23:50:54;117;0;96.30;-4;19.66;2.86;426.7;14.10;74882;2837.314;-1801.559;1;94;450;451.6;22.0;22.1;28;27.5;24.8;-1.0;
04/03/2025 23:51:14;117;0;96.63;-4;19.32;2.87;423.2;14.10;74885;2837.314;-1801.555;1;94;450;453.2;22.0;22.1;28;27.5;24.8;-1.0;
04/03/2025 23:51:34;117;0;97.37;-4;19.31;2.77;419.9;14.10;74869;2837.313;-1801.550;1;94;450;453.2;22.0;22.1;28;27.5;24.8;-1.0;
04/03/2025 23:51:54;117;0;96.85;-4;19.33;2.95;416.4;14.00;74870;2837.312;-1801.545;1;94;450;453.2;22.0;22.1;28;27.5;24.8;-1.0;
04/03/2025 23:52:14;117;0;96.48;-4;19.32;2.89;413.0;14.00;74868;2837.311;-1801.541;1;94;450;453.2;22.0;22.1;28;27.5;24.8;-1.0;
04/03/2025 23:52:34;117;0;96.20;-4;19.44;2.75;409.5;14.00;74880;2837.311;-1801.536;1;94;450;454.8;22.0;22.1;28;28.0;24.8;-1.0;
04/03/2025 23:52:54;117;0;95.58;-4;19.47;2.89;406.2;14.00;74875;2837.310;-1801.531;1;94;450;453.2;22.0;22.1;28;27.5;24.8;-1.0;
04/03/2025 23:53:14;117;0;94.12;-4;19.41;2.83;402.6;14.00;74873;2837.309;-1801.526;1;94;450;453.2;22.0;22.1;28;28.0;24.8;-1.0;
04/03/2025 23:53:34;117;0;93.24;-4;19.42;2.80;399.2;14.00;74875;2837.309;-1801.521;1;94;450;453.2;22.0;22.1;28;27.5;24.8;-1.0;
04/03/2025 23:53:54;117;0;90.68;-4;19.41;2.96;395.8;14.00;74884;2837.309;-1801.517;1;94;450;450.0;22.0;22.1;28;27.5;24.8;-1.0;
04/03/2025 23:54:14;117;0;89.41;-4;19.31;2.92;392.2;14.00;74884;2837.308;-1801.512;1;94;450;453.2;22.0;22.1;28;27.5;24.8;-1.0;
04/03/2025 23:54:34;117;0;88.60;-4;19.24;2.80;388.8;14.00;74890;2837.308;-1801.507;1;94;450;453.2;22.0;22.2;28;27.5;24.8;-1.0;
04/03/2025 23:54:54;117;0;87.62;-4;19.25;2.83;385.3;14.00;74887;2837.308;-1801.502;1;94;450;453.2;22.0;22.1;28;28.0;24.8;-1.0;
04/03/2025 23:55:14;117;0;87.39;-4;19.02;2.83;382.0;14.00;74884;2837.308;-1801.498;1;94;450;453.2;22.0;22.1;28;27.5;24.8;-1.0;
04/03/2025 23:55:34;117;0;86.86;-4;19.09;2.91;378.6;14.00;74879;2837.308;-1801.493;1;94;450;453.2;22.0;22.1;28;27.5;24.8;-1.0;
04/03/2025 23:55:54;117;0;85.18;-4;18.99;2.89;375.4;14.00;74882;2837.308;-1801.489;1;94;450;453.2;21.7;21.6;30;29.8;24.8;-1.0;
04/03/2025 23:56:14;117;0;86.13;-4;19.40;4.12;372.0;14.00;74874;2837.309;-1801.484;1;94;450;453.2;21.7;21.5;30;29.8;24.8;-1.0;
04/03/2025 23:56:34;117;0;86.25;-4;19.53;4.06;368.8;14.00;74880;2837.309;-1801.480;1;94;450;453.2;21.7;21.5;30;29.8;24.8;-1.0;
04/03/2025 23:56:54;117;0;86.66;-4;19.68;4.07;365.3;14.00;74875;2837.309;-1801.475;1;94;450;453.2;21.7;21.6;30;29.8;24.8;-1.0;
04/03/2025 23:57:14;117;0;85.75;-4;19.77;4.16;362.1;14.00;74877;2837.309;-1801.471;1;94;450;453.2;21.7;21.5;30;30.2;24.8;-1.0;
04/03/2025 23:57:34;117;0;84.96;-4;19.94;4.12;358.6;14.00;74872;2837.309;-1801.466;1;94;450;453.2;21.7;21.6;30;30.2;24.8;-1.0;
04/03/2025 23:57:54;117;0;83.79;-4;19.86;4.10;355.3;14.00;74889;2837.309;-1801.462;1;94;450;453.2;21.7;21.5;30;29.8;24.8;-1.0;
04/03/2025 23:58:14;117;0;81.60;-4;19.75;4.14;352.0;14.00;74897;2837.310;-1801.457;1;94;450;453.2;21.7;21.5;32;32.0;24.8;-1.0;
04/03/2025 23:58:34;117;0;80.77;-4;19.80;5.40;348.7;14.00;74900;2837.310;-1801.453;1;94;450;453.2;21.7;21.6;32;32.5;24.8;-1.0;
04/03/2025 23:58:54;117;0;81.31;-4;19.76;5.43;345.5;14.00;74919;2837.310;-1801.449;1;94;450;453.2;21.7;21.5;32;32.9;24.8;-1.0;
04/03/2025 23:59:14;117;0;83.02;-4;19.76;5.39;342.1;14.00;74932;2837.311;-1801.444;1;94;450;450.0;21.7;21.5;32;32.5;24.8;-1.0;
04/03/2025 23:59:34;117;0;86.08;-4;19.72;5.29;339.0;14.00;74932;2837.311;-1801.440;1;94;450;454.8;21.7;21.5;30;29.8;24.8;-1.0;
04/03/2025 23:59:54;117;0;88.08;-4;19.83;3.69;335.9;14.00;74940;2837.311;-1801.436;1;94;450;454.8;21.7;21.5;30;29.8;24.8;-1.0;
05/03/2025 00:00:14;117;0;89.77;-4;19.76;3.68;332.7;14.00;74957;2837.310;-1801.432;1;94;450;454.8;21.7;21.5;30;29.8;24.8;-1.0;
05/03/2025 00:00:35;117;0;91.66;-4;19.76;3.60;329.9;14.00;74951;2837.310;-1801.428;1;94;450;453.2;21.7;21.5;30;29.3;24.8;-1.0;
05/03/2025 00:00:55;117;0;93.00;-4;19.74;3.70;326.9;14.00;74961;2837.310;-1801.424;1;94;450;453.2;21.7;21.5;30;29.8;24.8;-1.0;
05/03/2025 00:01:15;117;0;93.49;-4;19.70;3.77;323.8;14.00;74958;2837.309;-1801.420;1;94;450;453.2;21.7;21.5;30;29.3;24.8;-1.0;
05/03/2025 00:01:35;117;0;93.58;-4;19.76;3.80;320.8;14.00;74981;2837.309;-1801.416;1;94;450;454.8;21.7;21.5;30;29.3;24.8;-1.0;
05/03/2025 00:01:55;117;0;94.48;-4;19.76;3.76;317.9;14.10;74995;2837.308;-1801.412;1;94;450;453.2;21.7;21.5;30;29.8;24.8;-1.0;
05/03/2025 00:02:15;117;0;96.22;-4;19.67;3.76;314.9;14.10;74994;2837.308;-1801.409;1;94;450;454.8;21.7;21.5;28;28.0;24.8;-1.0;
05/03/2025 00:02:35;117;0;96.38;-4;19.61;2.65;312.0;14.10;74997;2837.307;-1801.405;1;94;450;454.8;21.7;21.5;28;27.5;24.8;-1.0;
05/03/2025 00:02:55;117;0;97.37;-4;19.48;2.68;309.1;14.10;75007;2837.306;-1801.401;1;94;450;456.5;21.7;21.5;28;27.5;24.8;-1.0;
05/03/2025 00:03:15;117;0;98.16;-4;19.62;2.65;306.4;14.10;75009;2837.306;-1801.397;1;94;450;454.8;21.7;21.5;28;27.5;24.8;-1.0;
05/03/2025 00:03:35;117;0;98.78;-4;19.63;2.64;303.5;14.10;75017;2837.305;-1801.394;1;94;450;454.8;21.7;21.5;28;27.5;24.8;-1.0;
05/03/2025 00:03:55;117;0;99.91;-4;19.73;2.62;300.7;14.10;75024;2837.304;-1801.390;1;94;450;454.8;21.7;21.5;26;26.2;24.8;-1.0;
05/03/2025 00:04:15;117;0;100.16;-4;19.49;1.94;297.9;14.20;75030;2837.303;-1801.386;1;94;450;454.8;21.7;21.4;26;26.2;24.8;-1.0;
05/03/2025 00:04:35;117;0;100.65;-4;19.53;1.91;295.1;14.20;75033;2837.302;-1801.383;1;94;450;454.8;21.7;21.4;26;26.2;24.8;-1.0;
05/03/2025 00:04:55;117;0;99.40;-4;19.27;1.92;292.4;14.20;75049;2837.301;-1801.379;1;94;450;450.0;21.7;21.5;26;26.2;24.8;-1.0;
05/03/2025 00:05:15;117;0;95.43;-4;19.55;2.07;289.9;14.20;75051;2837.301;-1801.376;1;94;450;454.8;21.7;21.5;28;28.0;24.8;-1.0;
05/03/2025 00:05:35;117;0;94.93;-4;19.44;3.34;286.9;14.20;75065;2837.300;-1801.372;1;94;450;454.8;21.7;21.4;28;28.4;24.8;-1.0;
05/03/2025 00:05:55;117;0;94.58;-4;19.97;3.33;284.3;14.20;75077;2837.300;-1801.369;1;94;450;454.8;21.7;21.4;28;28.4;24.8;-1.0;
05/03/2025 00:06:15;117;0;93.22;-4;19.68;3.35;281.4;14.30;75085;2837.299;-1801.365;1;94;450;453.2;21.7;21.5;28;28.4;24.8;-1.0;
05/03/2025 00:06:35;117;0;93.75;-4;19.14;3.39;278.2;14.30;75086;2837.299;-1801.360;1;94;450;454.8;21.7;21.5;28;28.9;24.8;-1.0;
05/03/2025 00:06:55;117;0;92.21;-4;19.79;2.77;275.5;14.30;75110;2837.299;-1801.357;1;94;450;454.8;21.7;21.4;28;28.9;24.8;-1.0;
05/03/2025 00:07:15;117;0;90.94;-4;19.45;3.23;272.8;14.30;75109;2837.298;-1801.353;1;94;450;454.8;21.7;21.5;28;28.4;24.8;-1.0;
05/03/2025 00:07:35;117;0;89.97;-4;19.54;3.46;269.8;14.30;75101;2837.298;-1801.349;1;94;450;454.8;21.7;21.5;28;28.4;24.8;-1.0;
05/03/2025 00:07:55;117;0;87.86;-4;19.86;3.50;267.0;14.40;75121;2837.298;-1801.346;1;94;450;451.6;21.7;21.5;28;28.9;24.8;-1.0;
05/03/2025 00:08:15;117;0;87.62;-4;19.68;3.40;264.1;14.40;75121;2837.298;-1801.342;1;94;450;453.2;21.7;21.4;28;28.4;24.8;-1.0;
05/03/2025 00:08:35;117;0;87.93;-4;19.49;3.35;261.1;14.40;75125;2837.298;-1801.338;1;94;450;453.2;21.7;21.5;28;28.4;24.8;-1.0;
05/03/2025 00:08:55;117;0;87.05;-4;19.53;3.34;258.2;14.40;75135;2837.298;-1801.334;1;94;450;454.8;21.7;21.5;28;28.9;24.8;-1.0;
05/03/2025 00:09:15;117;0;86.45;-4;19.73;3.16;255.2;14.50;75147;2837.298;-1801.330;1;94;450;454.8;21.7;21.5;28;28.4;24.8;-1.0;
05/03/2025 00:09:35;117;0;85.96;-4;19.64;3.33;252.2;14.50;75159;2837.298;-1801.326;1;94;450;456.5;21.7;21.5;28;28.9;24.8;-1.0;
05/03/2025 00:09:55;117;0;84.17;-4;19.52;3.47;249.0;14.50;75156;2837.298;-1801.322;1;94;450;454.8;21.7;21.6;30;29.8;24.8;-1.0;
05/03/2025 00:10:15;117;0;84.41;-4;19.65;4.28;245.8;14.50;75174;2837.298;-1801.318;1;94;450;454.8;21.7;21.5;30;30.2;24.8;-1.0;
05/03/2025 00:10:35;117;0;84.74;-4;19.55;4.23;242.8;14.50;75177;2837.298;-1801.314;1;94;450;454.8;21.7;21.5;30;30.2;24.8;-1.0;
05/03/2025 00:10:55;117;0;85.49;-4;19.59;4.19;239.6;14.60;75186;2837.299;-1801.309;1;94;450;454.8;21.7;21.5;30;30.2;24.8;-1.0;
05/03/2025 00:11:15;117;0;84.31;-4;19.50;4.32;236.4;14.60;75187;2837.299;-1801.305;1;94;450;456.5;21.7;21.5;30;30.2;24.8;-1.0;
05/03/2025 00:11:35;117;0;86.08;-4;19.62;4.22;233.2;14.60;75192;2837.299;-1801.301;1;94;450;454.8;21.7;21.5;30;30.2;24.8;-1.0;
05/03/2025 00:11:55;117;0;86.80;-4;19.47;4.19;230.0;14.60;75202;2837.299;-1801.297;1;94;450;454.8;21.7;21.5;30;30.2;24.8;-1.0;
05/03/2025 00:12:15;117;0;88.05;-4;19.53;4.16;226.6;14.70;75214;2837.299;-1801.292;1;94;450;454.8;21.7;21.6;30;30.2;24.8;-1.0;
05/03/2025 00:12:35;117;0;89.34;-4;19.58;4.20;223.4;14.70;75232;2837.299;-1801.288;1;94;450;454.8;21.7;21.5;30;30.2;24.8;-1.0;
05/03/2025 00:12:55;117;0;90.87;-4;19.66;4.25;220.1;14.70;75225;2837.298;-1801.283;1;94;450;453.2;21.7;21.5;30;30.2;24.8;-1.0;
05/03/2025 00:13:15;117;0;91.79;-4;19.69;4.16;216.8;14.70;75224;2837.298;-1801.279;1;94;450;454.8;21.7;21.6;30;30.2;24.8;-1.0;
05/03/2025 00:13:35;117;0;92.93;-4;19.61;4.25;213.3;14.70;75227;2837.297;-1801.274;1;94;450;454.8;21.7;21.5;30;30.2;24.8;-1.0;
05/03/2025 00:13:55;117;0;93.84;-4;19.36;4.15;209.9;14.80;75232;2837.297;-1801.270;1;94;450;454.8;21.7;21.5;30;30.2;24.8;-1.0;
05/03/2025 00:14:15;117;0;94.35;-4;19.46;4.24;206.5;14.80;75243;2837.296;-1801.265;1;94;450;454.8;21.7;21.5;30;30.2;24.8;-1.0;
05/03/2025 00:14:35;117;0;93.87;-4;19.45;4.19;203.1;14.80;75249;2837.296;-1801.260;1;94;450;454.8;21.7;21.5;30;30.2;24.8;-1.0;
05/03/2025 00:14:55;117;0;94.74;-4;19.00;4.13;199.7;14.90;75254;2837.295;-1801.256;1;94;450;454.8;21.7;21.5;30;30.2;24.8;-1.0;
05/03/2025 00:15:15;117;0;95.15;-4;19.74;3.99;196.5;14.90;75256;2837.295;-1801.251;1;94;450;454.8;21.7;21.5;30;30.2;24.8;-1.0;
05/03/2025 00:15:35;117;0;97.48;-4;19.99;4.24;192.8;14.90;75267;2837.294;-1801.246;1;94;450;454.8;21.7;21.5;28;28.0;24.8;-1.0;
05/03/2025 00:15:55;117;0;97.48;-4;19.61;2.96;189.4;14.90;75261;2837.293;-1801.242;1;94;450;454.8;21.7;21.4;28;28.0;24.8;-1.0;
05/03/2025 00:16:15;117;0;97.90;-4;19.39;2.93;185.8;15.00;75273;2837.292;-1801.237;1;94;450;453.2;21.7;21.5;28;28.0;24.8;-1.0;
05/03/2025 00:16:35;117;0;99.52;-4;19.15;2.84;182.6;15.00;75275;2837.291;-1801.233;1;94;450;454.8;21.7;21.4;28;28.0;24.8;-1.0;
05/03/2025 00:16:55;117;0;101.37;-4;19.29;2.97;179.1;15.00;75290;2837.290;-1801.228;1;94;450;454.8;21.7;21.5;25;24.8;24.8;-1.0;
05/03/2025 00:17:15;117;0;101.86;-4;19.19;1.07;176.0;15.00;75298;2837.289;-1801.224;1;94;450;454.8;21.7;21.4;25;24.4;24.8;-1.0;
05/03/2025 00:17:35;117;0;100.76;-4;19.39;1.00;172.5;15.10;75305;2837.288;-1801.219;1;94;450;456.5;21.7;21.4;25;24.4;24.8;-1.0;
05/03/2025 00:17:55;117;0;100.02;-4;19.28;1.06;169.1;15.10;75314;2837.287;-1801.214;1;94;450;454.8;21.7;21.5;25;24.4;24.8;-1.0;
05/03/2025 00:18:15;117;0;97.26;-4;18.96;0.99;165.6;15.10;75333;2837.286;-1801.210;1;94;450;454.8;21.4;21.4;28;28.4;24.8;-1.0;
05/03/2025 00:18:35;117;0;95.29;-4;19.52;3.52;162.4;15.10;75332;2837.286;-1801.205;1;94;450;454.8;21.4;21.4;28;28.9;24.8;-1.0;
05/03/2025 00:18:55;117;0;92.44;-4;19.38;3.51;159.0;15.20;75343;2837.285;-1801.201;1;94;450;456.5;21.4;21.4;28;28.9;24.8;-1.0;
05/03/2025 00:19:15;117;0;90.70;-4;19.69;3.55;155.5;15.20;75356;2837.285;-1801.196;1;94;450;456.5;21.4;21.4;28;28.9;24.8;-1.0;
05/03/2025 00:19:35;117;0;90.08;-4;19.25;3.37;151.9;15.20;75364;2837.285;-1801.191;1;94;450;453.2;21.4;21.4;28;28.9;24.8;-1.0;
05/03/2025 00:19:55;117;0;88.13;-4;19.56;3.41;148.6;15.30;75371;2837.285;-1801.187;1;94;450;454.8;21.4;21.2;28;28.9;24.8;-1.0;
05/03/2025 00:20:15;117;0;85.88;-4;19.38;3.50;145.2;15.30;75369;2837.285;-1801.182;1;94;450;456.5;21.4;21.4;28;28.9;24.8;-1.0;
05/03/2025 00:20:35;117;0;84.82;-4;19.51;3.48;141.8;15.30;75394;2837.285;-1801.177;1;94;450;453.2;21.4;21.2;30;29.8;24.8;-1.0;
05/03/2025 00:20:55;117;0;80.85;-4;19.53;4.35;138.1;15.40;75407;2837.285;-1801.173;1;94;450;456.5;21.4;21.4;32;32.0;24.8;-1.0;
05/03/2025 00:21:15;117;0;81.35;-4;19.59;5.28;134.6;15.40;75414;2837.286;-1801.168;1;94;450;454.8;21.4;21.4;32;32.5;24.8;-1.0;
05/03/2025 00:21:35;117;0;80.99;-4;19.71;5.37;131.0;15.40;75434;2837.286;-1801.163;1;94;450;454.8;21.4;21.4;32;32.5;24.8;-1.0;
05/03/2025 00:21:55;117;0;81.88;-4;19.53;5.25;127.4;15.50;75452;2837.287;-1801.158;1;94;450;454.8;21.4;21.4;32;32.5;24.8;-1.0;
05/03/2025 00:22:15;117;0;84.69;-4;19.77;5.21;123.9;15.50;75462;2837.287;-1801.154;1;94;450;456.5;21.4;21.2;30;29.8;24.8;-1.0;
05/03/2025 00:22:35;117;0;86.45;-4;19.68;3.64;120.6;15.60;75479;2837.287;-1801.149;1;94;450;453.2;21.4;21.4;30;29.3;24.8;-1.0;
05/03/2025 00:22:55;117;0;87.60;-4;19.52;3.78;117.1;15.60;75488;2837.287;-1801.145;1;94;450;456.5;21.4;21.2;30;29.3;24.8;-1.0;
05/03/2025 00:23:15;117;0;89.97;-4;19.64;3.68;113.7;15.60;75505;2837.287;-1801.140;1;94;450;453.2;21.4;21.4;30;29.8;24.8;-1.0;
05/03/2025 00:23:35;117;0;89.62;-4;19.42;3.78;110.2;15.70;75525;2837.287;-1801.135;1;94;450;456.5;21.4;21.4;30;29.8;24.8;-1.0;
05/03/2025 00:23:55;117;0;90.01;-4;18.92;4.11;107.0;15.70;75539;2837.286;-1801.131;1;94;450;454.8;21.1;20.9;30;29.8;24.8;-1.0;
05/03/2025 00:24:15;117;0;88.95;-4;20.30;3.24;103.8;15.80;75546;2837.286;-1801.127;1;94;450;456.5;21.1;20.5;30;29.8;24.8;-1.0;
05/03/2025 00:24:35;117;0;86.90;-4;21.08;3.75;100.4;15.80;75542;2837.286;-1801.122;1;94;450;454.8;21.1;20.3;30;29.8;24.8;-1.0;
05/03/2025 00:24:55;117;0;82.33;-4;21.48;3.89;97.0;15.80;75565;2837.287;-1801.118;1;94;450;454.8;21.1;20.5;30;29.3;24.8;-1.0;
05/03/2025 00:25:15;117;0;82.08;-4;21.74;3.82;93.4;15.90;75592;2837.287;-1801.114;1;94;450;456.5;21.1;20.5;30;29.8;24.8;-1.0;
05/03/2025 00:25:35;117;0;82.40;-4;21.64;3.80;89.7;15.90;75622;2837.287;-1801.109;1;94;450;454.8;21.1;20.5;30;29.8;24.8;-1.0;
05/03/2025 00:25:55;117;0;83.39;-4;21.45;3.80;86.1;16.00;75642;2837.288;-1801.104;1;94;450;456.5;21.1;20.5;30;29.8;24.8;-1.0;
05/03/2025 00:26:15;117;0;83.48;-4;21.57;3.88;82.5;16.00;75646;2837.288;-1801.100;1;94;450;456.5;21.1;20.5;30;29.3;24.8;-1.0;
05/03/2025 00:26:35;117;0;85.63;-4;21.67;3.91;78.9;16.10;75669;2837.288;-1801.096;1;94;450;454.8;21.1;20.5;30;29.3;24.8;-1.0;
05/03/2025 00:26:55;117;0;89.52;-4;21.33;3.78;75.3;16.10;75672;2837.288;-1801.091;1;94;450;456.5;21.1;20.5;30;29.8;24.8;-1.0;
05/03/2025 00:27:15;117;0;91.54;-4;21.55;3.74;71.9;16.20;75710;2837.287;-1801.087;1;94;450;456.5;21.1;20.5;30;29.3;24.8;-1.0;
05/03/2025 00:27:35;117;0;90.54;-4;21.35;3.83;68.6;16.20;75727;2837.287;-1801.083;1;94;450;456.5;21.1;20.3;30;29.3;24.8;-1.0;
05/03/2025 00:27:55;117;0;89.68;-4;21.12;3.85;65.3;16.30;75754;2837.287;-1801.078;1;94;450;456.5;21.1;20.5;30;29.8;24.8;-1.0;
05/03/2025 00:28:15;117;0;87.42;-4;21.39;3.97;62.1;16.30;75765;2837.287;-1801.074;1;94;450;454.8;21.1;20.5;30;29.8;24.8;-1.0;
05/03/2025 00:28:35;117;0;87.38;-4;21.82;3.84;58.7;16.40;75778;2837.287;-1801.070;1;94;450;454.8;21.1;20.5;30;29.8;24.8;-1.0;
05/03/2025 00:28:55;117;0;86.47;-4;21.26;3.84;55.2;16.50;75801;2837.287;-1801.066;1;94;450;456.5;21.1;20.5;30;29.3;24.8;-1.0;
05/03/2025 00:29:15;117;0;86.79;-4;21.73;3.46;51.8;16.50;75813;2837.287;-1801.061;1;94;450;456.5;21.1;20.3;30;29.3;24.8;-1.0;
05/03/2025 00:29:35;117;0;85.73;-4;22.09;3.55;48.2;16.60;75813;2837.287;-1801.057;1;94;450;456.5;21.7;21.6;30;29.3;24.8;-1.0;
05/03/2025 00:29:55;117;0;87.25;-4;20.33;4.08;44.6;16.60;75817;2837.287;-1801.052;1;94;450;456.5;21.7;21.8;30;29.8;24.8;-1.0;
05/03/2025 00:30:15;117;0;87.47;-4;19.17;3.88;41.4;16.70;75843;2837.287;-1801.048;1;94;450;454.8;21.7;21.9;30;29.3;24.8;-1.0;
05/03/2025 00:30:35;117;0;87.93;-4;19.55;3.80;38.3;16.70;75836;2837.287;-1801.044;1;94;450;456.5;21.7;21.8;30;29.3;24.8;-1.0;
05/03/2025 00:30:55;117;0;89.67;-4;17.65;3.41;35.4;16.80;75856;2837.287;-1801.039;1;94;450;456.5;21.0;20.8;30;29.3;24.8;-1.0;
05/03/2025 00:31:15;117;0;86.07;-4;20.67;3.17;32.3;16.80;75856;2837.287;-1801.036;1;94;450;456.5;21.0;20.3;30;29.3;24.8;-1.0;
05/03/2025 00:31:35;117;0;84.17;-4;21.02;4.14;28.9;16.90;75863;2837.287;-1801.031;1;94;450;454.8;21.0;20.3;30;29.3;24.8;-1.0;
05/03/2025 00:31:55;117;0;83.87;-4;21.98;3.60;25.4;16.90;75865;2837.287;-1801.027;1;94;450;456.5;21.0;20.3;30;29.3;24.8;-1.0;
05/03/2025 00:32:15;117;0;85.47;-4;21.74;3.89;22.1;17.00;75879;2837.287;-1801.023;1;94;450;456.5;21.0;20.3;30;29.3;24.8;-1.0;
05/03/2025 00:32:35;117;0;85.78;-4;21.88;3.84;18.8;17.00;75890;2837.287;-1801.019;1;94;450;456.5;21.0;20.5;30;29.3;24.8;-1.0;
05/03/2025 00:32:55;117;0;86.12;-4;22.30;3.78;15.2;17.10;75887;2837.287;-1801.015;1;94;450;456.5;21.7;21.6;30;29.3;24.8;-1.0;
05/03/2025 00:33:15;117;0;83.98;-4;19.03;4.01;11.8;17.10;75895;2837.288;-1801.010;1;94;450;456.5;21.7;21.6;30;29.3;24.8;-1.0;
05/03/2025 00:33:35;117;0;84.74;-4;19.64;3.49;8.8;17.20;75898;2837.288;-1801.006;1;94;450;456.5;21.7;21.8;30;29.3;24.8;-1.0;
05/03/2025 00:33:55;117;0;83.31;-4;19.04;3.47;5.6;17.20;75909;2837.288;-1801.002;1;94;450;456.5;21.7;21.8;30;29.3;24.8;-1.0;
05/03/2025 00:34:10;115;0;83.26;-4;18.98;3.44;3.3;17.20;75910;2837.288;-1800.998;1;94;500;459.7;100.0;60.7;0;-0.5;24.8;-1.0;
05/03/2025 00:34:20;115;0;83.18;-4;4.70;-10.82;2.4;17.30;75882;2837.288;-1800.997;1;94;500;504.8;100.0;100.1;0;0.0;24.5;-1.0;
05/03/2025 00:34:30;115;0;71.47;-4;-64.93;-19.66;2.5;17.30;75805;2837.288;-1800.997;1;94;500;504.8;100.0;100.6;0;-0.5;24.8;-1.0;
05/03/2025 00:34:50;119;0;65.49;-4;-39.70;-2.87;0.0;17.40;75817;2837.288;-1800.997;1;94;500;503.2;100.0;100.4;0;-0.5;24.8;-1.0;
05/03/2025 00:35:00;119;0;53.37;-4;-61.58;-29.31;0.1;17.40;75816;2837.544;-1801.669;0;94;500;506.5;100.0;100.6;0;-0.5;24.8;-1.0;
