Timestamp;NavState;SecurityLevel;Heading;Declination;Pitch;Roll;Depth;Temperature;Pa;Lat;Lon;DeadReckoning;DesiredH;BallastCmd;BallastPos;LinCmd;LinPos;AngCmd;AngPos;Voltage;Altitude;
22/02/2025 13:21:05;119;0;210.42;-4;-55.36;-5.06;-0.1;17.40;75679;2834.714;-1758.736;0;135;500;509.7;100.0;100.6;0;-0.5;27.1;-1.0;
22/02/2025 13:21:15;116;0;222.33;-4;-55.90;-19.32;-0.1;17.40;75683;2834.721;-1758.728;0;135;500;509.7;100.0;100.6;0;-0.5;27.1;-1.0;
22/02/2025 13:21:40;116;0;218.77;-4;-48.97;-14.04;0.1;17.50;75712;2834.725;-1758.732;0;135;500;508.1;100.0;100.6;0;-0.5;27.1;-1.0;
22/02/2025 13:22:08;116;0;204.08;-4;-49.73;-4.51;-0.2;17.60;75700;2834.726;-1758.732;0;319;500;508.1;100.0;100.6;0;-0.5;27.1;-1.0;
22/02/2025 13:22:29;116;0;209.07;-4;-51.96;-13.36;-0.1;17.70;75717;2834.731;-1758.735;0;319;500;508.1;100.0;100.6;0;-0.5;27.1;-1.0;
22/02/2025 13:22:49;116;0;230.77;-4;-52.25;-15.02;-0.1;17.70;75723;2834.736;-1758.735;0;319;500;509.7;100.0;100.6;0;-0.5;27.1;-1.0;
22/02/2025 13:23:51;116;0;192.85;-4;-50.36;-10.01;-0.1;17.90;75750;2834.749;-1758.742;0;319;500;508.1;100.0;100.6;0;-0.5;27.1;-1.0;
22/02/2025 13:24:56;116;0;229.62;-4;-58.00;-12.12;-0.0;18.20;75774;2834.759;-1758.744;0;319;500;509.7;100.0;100.6;0;-0.5;27.1;-1.0;
22/02/2025 13:25:59;116;0;231.16;-4;-57.22;0.66;-0.1;18.50;75799;2834.770;-1758.750;0;319;500;509.7;100.0;100.6;0;-0.5;27.1;-1.0;
22/02/2025 13:27:36;116;0;206.28;-4;-52.23;-17.62;-0.1;18.90;75833;2834.786;-1758.757;0;319;500;509.7;100.0;100.6;0;-0.5;27.1;-1.0;
22/02/2025 13:27:56;110;0;234.93;-4;-56.90;-6.21;0.1;19.00;75842;2834.786;-1758.757;0;319;-70;396.8;100.0;100.6;-7;-7.2;27.1;-1.0;
22/02/2025 13:28:06;110;0;233.09;-4;-51.98;-9.37;0.2;19.00;76177;2834.786;-1758.757;1;319;-70;248.4;100.0;100.6;-7;-7.2;27.1;-1.0;
22/02/2025 13:28:16;110;0;218.53;-4;-51.21;-21.12;0.6;19.10;76432;2834.785;-1758.758;1;319;-70;88.7;100.0;100.6;-7;-7.2;27.1;-1.0;
22/02/2025 13:28:26;110;0;208.88;-4;-69.79;-18.99;1.0;19.10;76761;2834.785;-1758.758;1;319;-70;-67.7;100.0;100.6;-7;-7.2;27.1;-1.0;
22/02/2025 13:28:36;110;0;212.64;-4;-67.98;-15.56;1.5;19.20;77077;2834.785;-1758.758;1;319;-70;-67.7;43.0;43.0;-7;-7.2;27.1;-1.0;
22/02/2025 13:28:56;100;0;235.86;-4;-31.32;-15.60;5.0;19.20;77041;2834.783;-1758.762;1;319;-70;-64.5;43.0;42.7;-7;-7.2;27.1;-1.0;
22/02/2025 13:29:16;100;0;246.55;-4;-20.57;-15.63;8.4;19.30;77040;2834.782;-1758.766;1;319;-70;-62.9;43.0;42.4;-70;-69.9;27.1;-1.0;
22/02/2025 13:29:36;100;0;256.41;-4;-18.83;-46.20;11.1;19.40;77036;2834.781;-1758.771;1;319;-70;-61.3;43.3;43.6;-64;-64.1;27.1;-1.0;
22/02/2025 13:29:56;100;0;268.93;-4;-19.42;-41.71;13.8;19.40;77047;2834.781;-1758.775;1;319;-70;-59.7;43.3;43.6;-49;-48.7;27.1;0.0;
22/02/2025 13:30:16;100;0;282.86;-4;-19.90;-34.73;16.4;19.50;77042;2834.782;-1758.780;1;319;-70;-59.7;43.3;43.6;-32;-32.0;27.1;0.0;
22/02/2025 13:30:36;100;0;296.20;-4;-19.40;-26.20;19.1;19.50;77042;2834.783;-1758.784;1;319;-70;-59.7;43.3;43.6;-12;-11.7;27.1;0.0;
22/02/2025 13:30:56;100;0;305.44;-4;-21.27;-16.33;21.9;19.50;77053;2834.785;-1758.787;1;319;-70;-61.3;43.3;43.7;3;3.2;27.1;0.0;
22/02/2025 13:31:16;100;0;310.84;-4;-20.85;-9.50;24.9;19.50;77053;2834.788;-1758.791;1;319;-70;-62.9;43.3;43.7;11;11.3;27.1;0.0;
22/02/2025 13:31:36;100;0;311.52;-4;-22.05;-5.55;27.8;19.50;77053;2834.790;-1758.794;1;319;-70;-61.3;42.7;42.7;11;11.7;27.1;0.0;
22/02/2025 13:31:56;100;0;309.06;-4;-20.64;-5.61;30.9;19.50;77055;2834.793;-1758.798;1;319;-70;-61.3;42.7;42.6;8;8.1;27.1;0.0;
22/02/2025 13:32:16;100;0;309.53;-4;-18.81;-7.65;33.7;19.50;77061;2834.795;-1758.802;1;319;-70;-59.7;43.1;43.0;8;7.7;27.1;0.0;
22/02/2025 13:32:36;100;0;310.13;-4;-20.52;-7.66;36.6;19.50;77061;2834.797;-1758.805;1;319;-70;-59.7;43.1;43.2;10;9.9;27.1;0.0;
22/02/2025 13:32:56;100;0;310.03;-4;-20.89;-6.31;39.5;19.50;77064;2834.800;-1758.809;1;319;-70;-62.9;43.1;43.2;10;10.4;27.1;0.0;
22/02/2025 13:33:16;100;0;311.37;-4;-20.23;-6.31;42.3;19.50;77060;2834.802;-1758.812;1;319;-70;-59.7;43.1;43.3;10;10.4;27.1;0.0;
22/02/2025 13:33:36;100;0;313.05;-4;-20.02;-6.27;45.3;19.50;77078;2834.805;-1758.816;1;319;-70;-59.7;43.1;43.3;13;13.1;27.1;0.0;
22/02/2025 13:33:56;100;0;313.22;-4;-20.37;-4.75;48.2;19.50;77078;2834.808;-1758.820;1;319;-70;-59.7;43.1;43.3;13;13.5;27.1;0.0;
22/02/2025 13:34:16;100;0;313.10;-4;-20.78;-4.72;51.2;19.50;77077;2834.810;-1758.823;1;319;-70;-61.3;43.1;43.3;13;13.5;27.1;0.0;
22/02/2025 13:34:36;100;0;313.37;-4;-20.10;-4.76;54.2;19.50;77087;2834.813;-1758.827;1;319;-70;-64.5;43.1;43.2;13;13.5;27.1;0.0;
22/02/2025 13:34:56;100;0;312.40;-4;-20.46;-4.75;57.2;19.50;77080;2834.815;-1758.830;1;319;-70;-59.7;43.1;43.3;13;13.5;27.1;0.0;
22/02/2025 13:35:16;100;0;311.37;-4;-20.07;-4.80;60.1;19.50;77090;2834.818;-1758.834;1;319;-70;-59.7;43.1;43.3;11;10.8;27.1;0.0;
22/02/2025 13:35:36;100;0;310.86;-4;-20.12;-6.34;63.1;19.50;77094;2834.820;-1758.838;1;319;-70;-59.7;43.1;43.3;11;10.4;27.1;0.0;
22/02/2025 13:35:56;100;0;310.83;-4;-20.37;-6.26;66.2;19.50;77107;2834.823;-1758.842;1;319;-70;-61.3;43.1;43.3;11;10.4;27.1;0.0;
22/02/2025 13:36:16;100;0;311.11;-4;-20.42;-6.32;69.2;19.50;77107;2834.826;-1758.845;1;319;-70;-59.7;43.1;43.3;11;10.4;27.1;0.0;
22/02/2025 13:36:36;100;0;311.64;-4;-19.98;-6.28;72.2;19.50;77107;2834.828;-1758.849;1;319;-70;-59.7;43.1;43.2;11;10.4;27.1;0.0;
22/02/2025 13:36:56;100;0;312.15;-4;-19.84;-6.34;75.3;19.50;77123;2834.831;-1758.853;1;319;-70;-61.3;43.1;43.3;11;10.8;27.1;0.0;
22/02/2025 13:37:16;100;0;311.26;-4;-20.33;-6.38;78.2;19.50;77111;2834.833;-1758.856;1;319;-70;-59.7;43.1;43.2;11;10.4;27.1;0.0;
22/02/2025 13:37:36;100;0;312.27;-4;-20.19;-6.27;81.3;19.50;77114;2834.836;-1758.860;1;319;-70;-61.3;43.1;43.3;11;10.4;27.1;0.0;
22/02/2025 13:37:56;100;0;311.57;-4;-19.87;-6.24;84.4;19.50;77129;2834.839;-1758.864;1;319;-70;-59.7;43.1;43.3;11;10.4;27.1;0.0;
22/02/2025 13:38:16;100;0;311.35;-4;-20.07;-6.32;87.3;19.50;77122;2834.841;-1758.868;1;319;-70;-61.3;43.1;43.2;11;10.4;27.1;0.0;
22/02/2025 13:38:36;100;0;312.75;-4;-19.85;-6.27;90.2;19.50;77122;2834.844;-1758.871;1;319;-70;-59.7;43.1;43.2;11;10.4;27.2;0.0;
22/02/2025 13:38:56;100;0;316.18;-4;-20.34;-6.24;93.2;19.50;77125;2834.847;-1758.875;1;319;-70;-61.3;43.1;43.3;14;14.0;27.1;0.0;
22/02/2025 13:39:16;100;0;314.29;-4;-20.23;-4.28;96.3;19.50;77114;2834.849;-1758.878;1;319;-70;-59.7;43.1;43.2;14;14.4;27.1;0.0;
22/02/2025 13:39:36;100;0;313.18;-4;-19.75;-4.35;99.2;19.40;77075;2834.852;-1758.882;1;319;-70;-61.3;43.1;43.3;12;12.2;27.1;0.0;
22/02/2025 13:39:56;100;0;315.52;-4;-19.71;-5.60;101.9;19.40;77078;2834.855;-1758.885;1;319;-70;-59.7;43.1;43.3;14;14.0;27.1;0.0;
22/02/2025 13:40:16;100;0;313.58;-4;-19.74;-4.52;104.7;19.40;77058;2834.857;-1758.888;1;319;-70;-61.3;43.1;43.3;12;12.2;27.2;0.0;
22/02/2025 13:40:36;100;0;313.68;-4;-19.66;-5.64;107.3;19.40;77034;2834.859;-1758.892;1;319;-70;-59.7;43.1;43.2;12;11.7;27.1;0.0;
22/02/2025 13:40:56;100;0;313.29;-4;-20.16;-5.64;110.0;19.40;77021;2834.862;-1758.895;1;319;-70;-62.9;43.1;43.3;12;11.7;27.1;0.0;
22/02/2025 13:41:16;100;0;311.99;-4;-19.84;-5.65;112.7;19.30;77004;2834.864;-1758.898;1;319;-70;-61.3;43.1;43.3;12;11.7;27.1;0.0;
22/02/2025 13:41:36;100;0;313.74;-4;-18.96;-5.53;115.0;19.30;76986;2834.866;-1758.901;1;319;-70;-59.7;43.4;43.3;12;11.7;27.1;0.0;
22/02/2025 13:41:56;100;0;310.98;-4;-19.09;-5.88;117.4;19.30;76975;2834.868;-1758.904;1;319;-70;-61.3;43.4;43.4;8;8.1;27.1;0.0;
22/02/2025 13:42:16;100;0;312.63;-4;-19.51;-7.71;119.6;19.30;76960;2834.870;-1758.907;1;319;-70;-61.3;43.4;43.4;10;9.9;27.1;0.0;
22/02/2025 13:42:36;100;0;314.67;-4;-19.70;-6.51;121.9;19.20;76960;2834.873;-1758.910;1;319;-70;-59.7;43.4;43.4;12;12.2;27.1;0.0;
22/02/2025 13:42:56;100;0;318.52;-4;-19.65;-5.26;124.2;19.20;76951;2834.875;-1758.913;1;319;-70;-59.7;43.4;43.4;14;14.0;27.1;0.0;
22/02/2025 13:43:16;100;0;311.84;-4;-19.62;-4.24;126.5;19.20;76949;2834.877;-1758.915;1;319;-70;-61.3;43.4;43.4;9;9.0;27.1;0.0;
22/02/2025 13:43:37;100;0;308.25;-4;-19.80;-7.16;128.6;19.20;76933;2834.878;-1758.918;1;319;-70;-61.3;43.4;43.4;5;4.5;27.1;0.0;
22/02/2025 13:43:57;100;0;315.00;-4;-19.24;-9.35;130.9;19.10;76904;2834.881;-1758.921;1;319;-70;-59.7;43.4;43.4;12;12.6;27.1;0.0;
22/02/2025 13:44:17;100;0;320.26;-4;-19.84;-5.14;133.0;19.10;76899;2834.883;-1758.924;1;319;-70;-59.7;43.4;43.4;14;14.0;27.1;0.0;
22/02/2025 13:44:37;100;0;318.35;-4;-20.30;-4.47;135.4;19.10;76883;2834.885;-1758.926;1;319;-70;-59.7;43.4;43.4;14;14.0;27.1;0.0;
22/02/2025 13:44:57;100;0;317.90;-4;-19.84;-4.47;137.7;19.00;76867;2834.887;-1758.929;1;319;-70;-61.3;43.4;43.4;14;14.0;27.1;0.0;
22/02/2025 13:45:17;100;0;316.54;-4;-19.89;-4.46;139.8;19.00;76857;2834.889;-1758.932;1;319;-70;-59.7;43.4;43.4;14;14.0;27.1;0.0;
22/02/2025 13:45:37;100;0;315.18;-4;-20.08;-4.33;142.1;18.90;76828;2834.891;-1758.934;1;319;-70;-59.7;43.4;43.4;12;12.2;27.1;0.0;
22/02/2025 13:45:57;100;0;316.11;-4;-19.75;-5.63;144.4;18.90;76815;2834.894;-1758.937;1;319;-70;-59.7;43.4;43.6;12;11.7;27.2;0.0;
22/02/2025 13:46:17;100;0;317.03;-4;-19.79;-5.65;146.6;18.90;76819;2834.896;-1758.940;1;319;-70;-59.7;43.4;43.4;12;11.7;27.1;0.0;
22/02/2025 13:46:37;100;0;318.79;-4;-19.89;-5.54;149.1;18.80;76813;2834.898;-1758.943;1;319;-70;-61.3;43.4;43.4;14;14.0;27.1;0.0;
22/02/2025 13:46:57;100;0;320.59;-4;-19.94;-4.11;151.5;18.80;76814;2834.901;-1758.945;1;319;-70;-61.3;43.4;43.4;14;14.4;27.1;0.0;
22/02/2025 13:47:17;100;0;322.35;-4;-19.86;-4.19;154.1;18.80;76807;2834.903;-1758.948;1;319;-70;-61.3;43.4;43.4;14;14.4;27.1;0.0;
22/02/2025 13:47:37;100;0;323.76;-4;-20.17;-4.29;156.6;18.70;76804;2834.906;-1758.951;1;319;-70;-59.7;43.4;43.4;14;14.4;27.1;0.0;
22/02/2025 13:47:57;100;0;325.93;-4;-19.99;-4.21;159.2;18.70;76789;2834.909;-1758.953;1;319;-70;-59.7;43.4;43.4;14;14.4;27.1;0.0;
22/02/2025 13:48:17;100;0;328.23;-4;-19.81;-4.23;161.8;18.70;76784;2834.912;-1758.956;1;319;-70;-59.7;43.4;43.4;14;14.4;27.1;0.0;
22/02/2025 13:48:37;100;0;324.03;-4;-19.46;-4.38;164.3;18.60;76788;2834.914;-1758.958;1;319;-70;-59.7;43.4;43.4;14;14.4;27.1;0.0;
22/02/2025 13:48:57;100;0;322.93;-4;-19.69;-4.40;166.9;18.60;76775;2834.917;-1758.961;1;319;-70;-59.7;43.4;43.4;14;14.4;27.1;0.0;
22/02/2025 13:49:17;100;0;319.90;-4;-19.51;-4.30;169.5;18.50;76767;2834.920;-1758.964;1;319;-70;-61.3;43.4;43.4;14;14.4;27.1;0.0;
22/02/2025 13:49:37;100;0;316.48;-4;-19.65;-4.38;172.2;18.50;76759;2834.922;-1758.967;1;319;-70;-62.9;43.4;43.4;14;14.4;27.1;0.0;
22/02/2025 13:49:57;100;0;317.31;-4;-19.87;-4.31;174.9;18.50;76759;2834.925;-1758.970;1;319;-70;-59.7;43.4;43.4;14;14.4;27.1;0.0;
22/02/2025 13:50:17;100;0;318.24;-4;-19.75;-4.36;177.8;18.50;76751;2834.928;-1758.973;1;319;-70;-61.3;43.4;43.4;14;14.4;27.1;0.0;
22/02/2025 13:50:37;100;0;316.88;-4;-19.68;-4.22;180.7;18.40;76749;2834.930;-1758.977;1;319;-70;-61.3;43.4;43.4;14;14.4;27.1;0.0;
22/02/2025 13:50:57;100;0;311.84;-4;-19.59;-4.26;183.7;18.40;76718;2834.933;-1758.980;1;319;-70;-59.7;43.4;43.4;10;9.5;27.2;0.0;
22/02/2025 13:51:17;100;0;312.30;-4;-19.08;-6.89;186.5;18.30;76719;2834.935;-1758.984;1;319;-70;-59.7;43.4;43.4;10;9.5;27.1;0.0;
22/02/2025 13:51:37;100;0;315.02;-4;-19.49;-6.93;189.4;18.30;76704;2834.938;-1758.987;1;319;-70;-59.7;43.4;43.4;12;12.6;27.1;0.0;
22/02/2025 13:51:57;100;0;315.75;-4;-19.74;-4.99;192.4;18.30;76702;2834.941;-1758.991;1;319;-70;-61.3;43.4;43.4;12;13.1;27.1;0.0;
22/02/2025 13:52:17;100;0;317.43;-4;-19.59;-4.97;195.4;18.20;76702;2834.944;-1758.994;1;319;-70;-61.3;43.4;43.4;12;13.1;27.1;0.0;
22/02/2025 13:52:37;100;0;318.80;-4;-19.55;-4.94;198.4;18.20;76681;2834.947;-1758.998;1;319;-70;-61.3;43.4;43.4;14;14.0;27.1;0.0;
22/02/2025 13:52:57;100;0;324.65;-4;-19.58;-4.23;201.4;18.20;76683;2834.950;-1759.001;1;319;-70;-59.7;43.4;43.4;14;14.4;27.1;0.0;
22/02/2025 13:53:17;100;0;326.96;-4;-19.66;-4.14;204.5;18.10;76654;2834.953;-1759.004;1;319;-70;-59.7;43.4;43.4;14;14.4;27.1;0.0;
22/02/2025 13:53:37;100;0;328.32;-4;-19.58;-4.25;207.4;18.10;76664;2834.957;-1759.006;1;319;-70;-59.7;43.4;43.6;14;14.4;27.1;0.0;
22/02/2025 13:53:57;100;0;330.24;-4;-19.43;-4.30;210.4;18.00;76640;2834.960;-1759.009;1;319;-70;-59.7;43.4;43.4;14;14.4;27.1;0.0;
22/02/2025 13:54:17;100;0;329.79;-4;-19.27;-4.26;213.3;18.00;76640;2834.963;-1759.011;1;319;-70;-61.3;43.4;43.4;14;14.4;27.1;0.0;
22/02/2025 13:54:37;100;0;331.09;-4;-19.35;-4.27;216.1;18.00;76633;2834.967;-1759.014;1;319;-70;-59.7;43.4;43.4;16;15.8;27.1;0.0;
22/02/2025 13:54:57;100;0;331.87;-4;-19.42;-3.55;218.9;17.90;76618;2834.970;-1759.016;1;319;-70;-59.7;43.4;43.4;16;16.2;27.2;0.0;
22/02/2025 13:55:17;100;0;331.90;-4;-19.37;-3.54;221.8;17.90;76620;2834.973;-1759.019;1;319;-70;-59.7;43.4;43.6;16;16.2;27.1;0.0;
22/02/2025 13:55:37;100;0;329.67;-4;-19.74;-3.58;224.6;17.90;76619;2834.977;-1759.021;1;319;-70;-59.7;43.4;43.6;16;16.2;27.1;0.0;
22/02/2025 13:55:57;100;0;326.58;-4;-19.65;-3.52;227.5;17.80;76609;2834.980;-1759.024;1;319;-70;-61.3;43.4;43.4;14;14.0;27.2;0.0;
22/02/2025 13:56:17;100;0;326.76;-4;-19.21;-4.69;230.4;17.80;76603;2834.983;-1759.027;1;319;-70;-59.7;43.4;43.4;14;13.5;27.1;0.0;
22/02/2025 13:56:37;100;0;326.84;-4;-19.16;-4.73;233.0;17.70;76596;2834.986;-1759.030;1;319;-70;-59.7;43.4;43.4;14;13.5;27.1;0.0;
22/02/2025 13:56:57;100;0;323.60;-4;-19.54;-4.81;235.7;17.70;76587;2834.989;-1759.032;1;319;-70;-59.7;43.4;43.4;14;13.5;27.1;0.0;
22/02/2025 13:57:17;100;0;320.71;-4;-19.38;-4.72;238.4;17.70;76577;2834.992;-1759.035;1;319;-70;-61.3;43.4;43.4;14;13.5;27.1;0.0;
22/02/2025 13:57:37;100;0;321.47;-4;-19.29;-4.72;241.2;17.60;76565;2834.995;-1759.038;1;319;-70;-61.3;43.4;43.4;14;13.5;27.1;0.0;
22/02/2025 13:57:57;100;0;317.22;-4;-19.57;-4.67;243.8;17.60;76554;2834.997;-1759.041;1;319;-70;-61.3;43.4;43.4;14;13.5;27.1;0.0;
22/02/2025 13:58:17;100;0;314.25;-4;-19.52;-4.74;246.6;17.60;76540;2835.000;-1759.045;1;319;-70;-61.3;43.4;43.4;12;11.7;27.1;0.0;
22/02/2025 13:58:37;100;0;311.22;-4;-19.63;-5.83;249.4;17.50;76536;2835.002;-1759.048;1;319;-70;-61.3;43.4;43.4;9;9.0;27.1;0.0;
22/02/2025 13:58:57;100;0;312.82;-4;-19.03;-7.11;252.3;17.50;76526;2835.005;-1759.052;1;319;-70;-61.3;43.4;43.4;11;10.8;27.1;0.0;
22/02/2025 13:59:17;100;0;317.31;-4;-18.76;-5.74;255.0;17.40;76507;2835.007;-1759.055;1;319;-70;-61.3;43.7;44.0;13;13.1;27.1;0.0;
22/02/2025 13:59:37;100;0;319.71;-4;-19.72;-4.82;257.7;17.40;76496;2835.010;-1759.058;1;319;-70;-59.7;43.7;44.0;13;13.5;27.1;0.0;
22/02/2025 13:59:57;100;0;322.02;-4;-20.12;-4.83;260.3;17.40;76483;2835.013;-1759.061;1;319;-70;-59.7;43.7;44.0;13;13.5;27.1;0.0;
22/02/2025 14:00:17;100;0;316.88;-4;-20.36;-4.86;263.1;17.30;76474;2835.015;-1759.064;1;319;-70;-61.3;43.7;44.0;13;13.5;27.1;0.0;
22/02/2025 14:00:37;100;0;308.82;-4;-20.12;-4.90;265.9;17.30;76457;2835.018;-1759.068;1;319;-70;-59.7;43.7;44.0;6;5.4;27.1;0.0;
22/02/2025 14:00:57;100;0;307.95;-4;-19.96;-8.93;268.7;17.20;76452;2835.020;-1759.071;1;319;-70;-59.7;43.7;44.0;6;5.4;27.2;0.0;
22/02/2025 14:01:17;100;0;308.99;-4;-19.98;-8.91;271.6;17.20;76445;2835.022;-1759.075;1;319;-70;-61.3;43.7;44.0;6;5.0;27.1;0.0;
22/02/2025 14:01:37;100;0;311.50;-4;-20.03;-8.94;274.6;17.10;76432;2835.025;-1759.079;1;319;-70;-59.7;43.7;44.0;9;9.0;27.1;0.0;
22/02/2025 14:01:57;100;0;314.68;-4;-20.21;-6.81;277.6;17.10;76425;2835.028;-1759.082;1;319;-70;-59.7;43.7;44.0;12;12.6;27.1;0.0;
22/02/2025 14:02:17;100;0;318.15;-4;-20.51;-5.11;280.7;17.10;76410;2835.030;-1759.086;1;319;-70;-61.3;43.7;44.0;12;12.6;27.1;0.0;
22/02/2025 14:02:37;100;0;319.71;-4;-20.62;-5.02;283.9;17.00;76412;2835.033;-1759.089;1;319;-70;-59.7;43.7;44.0;14;14.0;27.1;0.0;
22/02/2025 14:02:57;100;0;317.55;-4;-20.67;-4.35;287.0;17.00;76414;2835.036;-1759.092;1;319;-70;-61.3;43.7;44.0;14;14.4;27.1;0.0;
22/02/2025 14:03:17;100;0;315.65;-4;-20.61;-4.34;290.2;16.90;76405;2835.039;-1759.096;1;319;-70;-61.3;43.7;44.0;12;11.7;27.1;0.0;
22/02/2025 14:03:37;100;0;313.98;-4;-20.62;-5.78;293.5;16.90;76396;2835.042;-1759.100;1;319;-70;-59.7;43.7;44.0;12;11.3;27.1;0.0;
22/02/2025 14:03:57;100;0;312.85;-4;-20.54;-5.77;296.7;16.90;76395;2835.045;-1759.103;1;319;-70;-59.7;43.7;44.0;10;9.5;27.1;0.0;
22/02/2025 14:04:17;100;0;312.08;-4;-20.35;-6.84;299.9;16.80;76382;2835.048;-1759.107;1;319;-70;-61.3;43.7;44.0;10;9.5;27.1;0.0;
22/02/2025 14:04:37;100;0;309.93;-4;-20.40;-6.87;303.1;16.80;76381;2835.050;-1759.111;1;319;-70;-61.3;43.7;44.0;7;7.2;27.1;0.0;
22/02/2025 14:04:57;100;0;310.75;-4;-19.92;-8.16;306.3;16.80;76365;2835.053;-1759.115;1;319;-70;-61.3;43.7;44.0;7;6.8;27.1;0.0;
22/02/2025 14:05:17;100;0;312.64;-4;-19.81;-8.28;309.5;16.70;76374;2835.056;-1759.119;1;319;-70;-61.3;43.7;44.0;10;9.9;27.1;0.0;
22/02/2025 14:05:37;100;0;314.32;-4;-19.97;-6.29;312.5;16.70;76367;2835.059;-1759.123;1;319;-70;-61.3;43.7;44.0;10;10.4;27.1;0.0;
22/02/2025 14:05:57;100;0;315.84;-4;-20.26;-6.35;315.7;16.60;76357;2835.062;-1759.127;1;319;-70;-59.7;43.7;44.0;12;12.2;27.1;0.0;
22/02/2025 14:06:17;100;0;319.38;-4;-20.37;-5.30;318.9;16.60;76349;2835.065;-1759.130;1;319;-70;-61.3;43.7;44.0;12;12.2;27.1;0.0;
22/02/2025 14:06:37;100;0;325.24;-4;-19.83;-5.43;322.0;16.60;76348;2835.068;-1759.133;1;319;-70;-61.3;43.7;44.0;14;14.4;27.1;0.0;
22/02/2025 14:06:57;100;0;324.26;-4;-20.77;-4.15;325.0;16.50;76330;2835.071;-1759.136;1;319;-70;-59.7;43.7;44.0;14;14.9;27.1;0.0;
22/02/2025 14:07:17;100;0;325.91;-4;-20.72;-4.09;328.3;16.50;76323;2835.074;-1759.139;1;319;-70;-59.7;43.7;44.0;14;14.9;27.1;0.0;
22/02/2025 14:07:37;100;0;328.21;-4;-20.53;-4.11;331.5;16.50;76325;2835.078;-1759.142;1;319;-70;-59.7;43.7;44.0;14;14.9;27.1;0.0;
22/02/2025 14:07:57;100;0;329.44;-4;-20.04;-4.07;334.7;16.50;76320;2835.081;-1759.145;1;319;-70;-59.7;43.7;44.0;14;14.9;27.1;0.0;
22/02/2025 14:08:17;100;0;328.37;-4;-20.16;-4.12;337.8;16.40;76308;2835.085;-1759.147;1;319;-70;-59.7;43.7;44.0;14;14.9;27.1;0.0;
22/02/2025 14:08:37;100;0;329.37;-4;-19.97;-4.14;340.8;16.40;76297;2835.088;-1759.150;1;319;-70;-61.3;43.7;44.0;14;14.9;27.1;0.0;
22/02/2025 14:08:57;100;0;328.78;-4;-20.13;-4.19;343.9;16.30;76295;2835.092;-1759.153;1;319;-70;-61.3;43.7;44.0;14;14.9;27.1;0.0;
22/02/2025 14:09:17;100;0;329.37;-4;-19.91;-4.17;346.9;16.30;76291;2835.095;-1759.155;1;319;-70;-61.3;43.7;44.0;14;14.9;27.1;0.0;
22/02/2025 14:09:37;100;0;332.45;-4;-20.01;-4.19;349.9;16.30;76283;2835.098;-1759.158;1;319;-70;-61.3;43.7;44.0;16;15.8;27.1;0.0;
22/02/2025 14:09:57;100;0;335.23;-4;-20.32;-3.39;352.9;16.20;76270;2835.102;-1759.160;1;319;-70;-59.7;43.7;44.0;19;19.0;27.1;0.0;
22/02/2025 14:10:17;100;0;332.95;-4;-20.50;-1.97;356.0;16.20;76249;2835.105;-1759.163;1;319;-70;-59.7;43.7;44.0;17;17.1;27.1;0.0;
22/02/2025 14:10:37;100;0;330.12;-4;-20.32;-3.22;359.0;16.20;76258;2835.109;-1759.165;1;319;-70;-59.7;43.7;44.0;15;14.9;27.1;0.0;
22/02/2025 14:10:57;100;0;327.90;-4;-20.26;-4.35;362.1;16.10;76241;2835.112;-1759.168;1;319;-70;-59.7;43.7;44.2;15;14.9;27.1;0.0;
22/02/2025 14:11:17;100;0;325.74;-4;-20.10;-4.23;365.1;16.10;76231;2835.116;-1759.171;1;319;-70;-61.3;43.7;44.0;15;14.9;27.1;0.0;
22/02/2025 14:11:37;100;0;321.35;-4;-20.19;-4.26;368.1;16.00;76227;2835.119;-1759.174;1;319;-70;-59.7;43.7;44.0;15;14.4;27.1;0.0;
22/02/2025 14:11:57;100;0;318.44;-4;-20.20;-4.28;371.1;16.00;76224;2835.121;-1759.177;1;319;-70;-61.3;43.7;44.0;13;12.6;27.1;0.0;
22/02/2025 14:12:17;100;0;320.17;-4;-19.89;-5.30;374.0;16.00;76211;2835.124;-1759.181;1;319;-70;-62.9;43.7;44.0;13;12.6;27.1;0.0;
22/02/2025 14:12:37;100;0;322.60;-4;-19.82;-5.32;376.9;15.90;76212;2835.127;-1759.184;1;319;-70;-59.7;43.7;44.0;13;12.6;27.1;0.0;
22/02/2025 14:12:57;100;0;323.38;-4;-19.79;-5.35;379.6;15.90;76192;2835.130;-1759.186;1;319;-70;-59.7;43.7;44.2;13;12.6;27.1;0.0;
22/02/2025 14:13:17;100;0;322.38;-4;-19.82;-5.32;382.3;15.90;76194;2835.133;-1759.189;1;319;-70;-61.3;43.7;44.0;13;12.6;27.1;0.0;
22/02/2025 14:13:37;100;0;324.73;-4;-19.71;-5.33;385.0;15.80;76179;2835.136;-1759.192;1;319;-70;-59.7;43.7;44.0;13;12.6;27.1;0.0;
22/02/2025 14:13:57;100;0;325.41;-4;-19.64;-5.35;387.6;15.80;76175;2835.139;-1759.195;1;319;-70;-59.7;43.7;44.0;13;12.6;27.1;0.0;
22/02/2025 14:14:17;100;0;324.88;-4;-19.85;-5.33;390.3;15.80;76162;2835.141;-1759.197;1;319;-70;-61.3;43.7;44.0;13;12.6;27.1;0.0;
22/02/2025 14:14:37;100;0;324.82;-4;-19.98;-5.26;393.0;15.70;76173;2835.144;-1759.200;1;319;-70;-61.3;43.7;44.0;13;12.6;27.1;0.0;
22/02/2025 14:14:57;100;0;324.65;-4;-19.73;-5.35;395.7;15.70;76163;2835.147;-1759.203;1;319;-70;-59.7;43.7;44.0;13;12.6;27.1;0.0;
22/02/2025 14:15:17;100;0;324.17;-4;-19.75;-5.30;398.4;15.70;76153;2835.150;-1759.205;1;319;-70;-59.7;43.7;44.0;13;12.6;27.1;0.0;
22/02/2025 14:15:37;100;0;326.28;-4;-19.95;-5.25;401.0;15.60;76146;2835.153;-1759.208;1;319;-70;-59.7;43.7;44.0;13;12.6;27.1;0.0;
22/02/2025 14:15:57;100;0;323.93;-4;-19.95;-5.31;403.6;15.60;76132;2835.156;-1759.211;1;319;-70;-59.7;43.7;44.0;13;12.6;27.1;0.0;
22/02/2025 14:16:17;100;0;321.67;-4;-19.81;-5.37;406.3;15.60;76131;2835.158;-1759.213;1;319;-70;-62.9;43.7;44.0;13;12.6;27.1;0.0;
22/02/2025 14:16:37;100;0;319.83;-4;-20.00;-5.29;408.9;15.50;76123;2835.161;-1759.216;1;319;-70;-61.3;43.7;44.0;13;12.6;27.1;0.0;
22/02/2025 14:16:57;100;0;316.66;-4;-19.94;-5.36;411.5;15.50;76118;2835.163;-1759.219;1;319;-70;-61.3;43.7;44.0;13;12.6;27.1;0.0;
22/02/2025 14:17:17;100;0;315.51;-4;-20.00;-5.20;414.2;15.40;76117;2835.166;-1759.223;1;319;-70;-62.9;43.7;44.0;13;12.6;27.1;0.0;
22/02/2025 14:17:37;100;0;314.47;-4;-20.31;-5.26;416.8;15.40;76110;2835.168;-1759.226;1;319;-70;-61.3;43.7;44.0;13;12.6;27.1;0.0;
22/02/2025 14:17:57;100;0;312.39;-4;-20.11;-5.17;419.5;15.40;76102;2835.171;-1759.229;1;319;-70;-61.3;43.7;44.0;10;9.9;27.1;0.0;
22/02/2025 14:18:17;100;0;310.83;-4;-20.04;-6.75;422.1;15.40;76090;2835.173;-1759.232;1;319;-70;-61.3;43.7;44.0;8;8.1;27.1;0.0;
22/02/2025 14:18:38;100;0;313.96;-4;-19.47;-7.62;424.7;15.30;76087;2835.175;-1759.236;1;319;-70;-61.3;43.7;44.0;11;11.3;27.1;0.0;
22/02/2025 14:18:58;100;0;315.33;-4;-19.65;-5.75;427.1;15.30;76085;2835.178;-1759.239;1;319;-70;-62.9;43.7;44.0;11;11.3;27.1;0.0;
22/02/2025 14:19:18;100;0;316.64;-4;-19.57;-5.83;429.5;15.20;76070;2835.180;-1759.241;1;319;-70;-59.7;43.7;44.0;11;11.3;27.1;0.0;
22/02/2025 14:19:38;100;0;317.28;-4;-19.64;-5.85;431.9;15.20;76063;2835.182;-1759.244;1;319;-70;-61.3;43.7;44.0;11;11.3;27.1;0.0;
22/02/2025 14:19:58;100;0;319.89;-4;-19.52;-5.87;434.3;15.20;76051;2835.185;-1759.247;1;319;-70;-59.7;43.7;44.0;13;13.1;27.1;0.0;
22/02/2025 14:20:18;100;0;319.46;-4;-19.66;-4.64;436.6;15.20;76032;2835.187;-1759.249;1;319;-70;-59.7;43.7;44.0;13;14.0;27.1;0.0;
22/02/2025 14:20:38;100;0;318.80;-4;-19.71;-4.68;439.0;15.10;76037;2835.189;-1759.252;1;319;-70;-61.3;43.7;44.2;13;14.0;27.1;0.0;
22/02/2025 14:20:58;100;0;318.91;-4;-19.72;-4.65;441.4;15.10;76022;2835.192;-1759.255;1;319;-70;-59.7;43.7;44.0;13;14.0;27.1;0.0;
22/02/2025 14:21:18;100;0;318.72;-4;-19.48;-4.64;443.8;15.10;76027;2835.194;-1759.258;1;319;-70;-61.3;43.7;44.0;13;14.0;27.1;0.0;
22/02/2025 14:21:38;100;0;319.92;-4;-19.74;-4.64;446.2;15.00;76014;2835.196;-1759.260;1;319;-70;-62.9;43.7;44.2;13;14.0;27.1;0.0;
22/02/2025 14:21:58;100;0;321.08;-4;-19.70;-4.65;448.6;15.00;76021;2835.199;-1759.263;1;319;-70;-61.3;43.7;44.0;13;14.0;27.1;0.0;
22/02/2025 14:22:18;100;0;321.42;-4;-19.62;-4.43;450.9;15.00;76009;2835.201;-1759.266;1;319;-70;-61.3;43.7;44.0;13;14.0;27.1;0.0;
22/02/2025 14:22:38;100;0;321.27;-4;-19.62;-4.64;453.1;14.90;76001;2835.203;-1759.268;1;319;-70;-61.3;43.7;44.0;13;14.0;27.1;0.0;
22/02/2025 14:22:58;100;0;321.87;-4;-19.79;-4.60;455.4;14.90;75993;2835.206;-1759.271;1;319;-70;-61.3;43.7;44.0;13;14.0;27.1;0.0;
22/02/2025 14:23:18;100;0;322.16;-4;-19.55;-4.62;457.6;14.90;75994;2835.208;-1759.273;1;319;-70;-59.7;43.7;44.0;13;14.0;27.1;0.0;
22/02/2025 14:23:38;100;0;323.23;-4;-19.93;-4.62;459.9;14.80;75991;2835.210;-1759.275;1;319;-70;-59.7;43.7;44.0;13;14.0;27.1;0.0;
22/02/2025 14:23:58;100;0;323.52;-4;-19.93;-4.59;462.2;14.80;75977;2835.213;-1759.278;1;319;-70;-61.3;43.7;44.0;13;14.0;27.1;0.0;
22/02/2025 14:24:18;100;0;322.60;-4;-20.34;-4.54;464.6;14.80;75975;2835.215;-1759.280;1;319;-70;-62.9;43.7;44.0;13;14.0;27.1;0.0;
22/02/2025 14:24:38;100;0;319.13;-4;-20.16;-4.52;466.9;14.70;75962;2835.218;-1759.283;1;319;-70;-59.7;43.7;44.0;13;14.0;27.1;0.0;
22/02/2025 14:24:58;100;0;318.42;-4;-20.05;-4.49;469.4;14.70;75958;2835.220;-1759.286;1;319;-70;-59.7;43.7;44.0;13;14.0;27.1;0.0;
22/02/2025 14:25:18;100;0;317.44;-4;-19.97;-4.60;471.7;14.70;75953;2835.222;-1759.289;1;319;-70;-59.7;43.7;44.0;13;14.0;27.1;0.0;
22/02/2025 14:25:38;100;0;317.55;-4;-19.95;-4.59;474.1;14.60;75939;2835.224;-1759.291;1;319;-70;-59.7;43.7;44.0;13;14.0;27.1;0.0;
22/02/2025 14:25:58;100;0;317.49;-4;-19.69;-4.59;476.3;14.60;75931;2835.227;-1759.294;1;319;-70;-59.7;43.7;44.0;13;14.0;27.1;0.0;
22/02/2025 14:26:18;100;0;319.19;-4;-19.60;-4.69;478.6;14.60;75927;2835.229;-1759.297;1;319;-70;-59.7;43.7;44.0;13;14.0;27.1;0.0;
22/02/2025 14:26:38;100;0;323.45;-4;-19.78;-4.54;480.9;14.60;75934;2835.231;-1759.299;1;319;-70;-61.3;43.7;44.0;13;14.0;27.1;0.0;
22/02/2025 14:26:58;100;0;325.26;-4;-19.64;-4.59;483.2;14.50;75920;2835.234;-1759.301;1;319;-70;-59.7;43.7;44.0;13;14.0;27.1;0.0;
22/02/2025 14:27:18;100;0;328.97;-4;-19.60;-4.60;485.5;14.50;75915;2835.236;-1759.304;1;319;-70;-59.7;43.7;44.0;13;14.0;27.1;0.0;
22/02/2025 14:27:38;100;0;327.87;-4;-19.75;-4.64;487.8;14.50;75906;2835.239;-1759.306;1;319;-70;-59.7;43.7;44.0;13;13.5;27.1;0.0;
22/02/2025 14:27:58;100;0;327.85;-4;-19.61;-4.61;490.2;14.40;75907;2835.241;-1759.308;1;319;-70;-59.7;43.7;44.0;13;14.0;27.1;0.0;
22/02/2025 14:28:18;100;0;329.36;-4;-19.55;-4.58;492.5;14.40;75892;2835.244;-1759.310;1;319;-70;-59.7;43.7;44.0;13;14.0;27.1;0.0;
22/02/2025 14:28:38;100;0;330.97;-4;-19.65;-4.70;494.9;14.40;75886;2835.247;-1759.312;1;319;-70;-59.7;43.7;44.2;13;14.0;27.1;0.0;
22/02/2025 14:28:58;100;0;331.68;-4;-19.32;-4.63;497.2;14.40;75889;2835.250;-1759.314;1;319;-70;-59.7;43.7;44.0;15;15.3;27.1;0.0;
22/02/2025 14:29:18;100;0;332.83;-4;-19.68;-3.70;499.6;14.30;75889;2835.252;-1759.316;1;319;-70;-61.3;43.7;44.0;15;15.8;27.1;0.0;
22/02/2025 14:29:38;100;0;333.22;-4;-19.61;-3.66;502.0;14.30;75877;2835.255;-1759.318;1;319;-70;-59.7;43.7;44.0;15;15.8;27.1;0.0;
22/02/2025 14:29:58;100;0;333.57;-4;-19.57;-3.64;504.4;14.30;75876;2835.258;-1759.320;1;319;-70;-61.3;43.7;44.0;15;15.8;27.1;0.0;
22/02/2025 14:30:18;100;0;334.37;-4;-19.49;-3.68;506.7;14.30;75876;2835.261;-1759.322;1;319;-70;-58.1;43.7;44.0;17;17.1;27.1;0.0;
22/02/2025 14:30:38;100;0;333.82;-4;-19.39;-2.77;509.1;14.20;75869;2835.264;-1759.324;1;319;-70;-61.3;43.7;44.0;17;17.6;27.1;0.0;
22/02/2025 14:30:58;100;0;331.33;-4;-19.68;-2.78;511.5;14.20;75868;2835.266;-1759.326;1;319;-70;-61.3;43.7;44.0;15;14.4;27.1;0.0;
22/02/2025 14:31:18;100;0;330.78;-4;-19.38;-4.44;513.9;14.20;75853;2835.269;-1759.329;1;319;-70;-59.7;43.7;44.0;15;14.4;27.1;0.0;
22/02/2025 14:31:38;100;0;330.57;-4;-19.63;-4.44;516.3;14.20;75859;2835.272;-1759.331;1;319;-70;-59.7;43.7;44.0;15;14.4;27.1;0.0;
22/02/2025 14:31:58;100;0;331.17;-4;-19.79;-4.43;518.9;14.10;75849;2835.275;-1759.333;1;319;-70;-61.3;43.7;44.0;15;14.4;27.1;0.0;
22/02/2025 14:32:18;100;0;330.69;-4;-19.41;-4.38;521.4;14.10;75853;2835.278;-1759.335;1;319;-70;-61.3;43.7;44.0;15;14.4;27.1;0.0;
22/02/2025 14:32:38;100;0;329.87;-4;-19.60;-4.45;524.1;14.10;75846;2835.281;-1759.338;1;319;-70;-61.3;43.7;44.0;15;14.4;27.1;0.0;
22/02/2025 14:32:58;100;0;331.11;-4;-19.59;-4.41;526.6;14.00;75823;2835.284;-1759.340;1;319;-70;-59.7;43.7;44.0;15;14.4;27.1;0.0;
22/02/2025 14:33:18;100;0;331.21;-4;-19.37;-4.44;529.3;14.00;75822;2835.287;-1759.342;1;319;-70;-59.7;43.7;44.0;15;14.4;27.1;0.0;
22/02/2025 14:33:38;100;0;330.01;-4;-19.70;-4.44;531.8;14.00;75828;2835.290;-1759.345;1;319;-70;-61.3;43.7;44.2;15;14.4;27.1;0.0;
22/02/2025 14:33:58;100;0;328.77;-4;-19.49;-4.44;534.4;14.00;75818;2835.293;-1759.347;1;319;-70;-58.1;43.7;44.0;15;14.4;27.1;0.0;
22/02/2025 14:34:18;100;0;328.37;-4;-19.46;-4.42;537.1;13.90;75820;2835.296;-1759.350;1;319;-70;-59.7;43.7;44.0;15;14.4;27.1;0.0;
22/02/2025 14:34:38;100;0;325.17;-4;-19.28;-4.46;539.7;13.90;75806;2835.299;-1759.352;1;319;-70;-59.7;43.7;44.0;15;14.4;27.1;0.0;
22/02/2025 14:34:58;100;0;325.68;-4;-19.01;-4.47;542.3;13.90;75814;2835.301;-1759.355;1;319;-70;-59.7;43.7;44.0;15;14.4;27.1;0.0;
22/02/2025 14:35:18;100;0;328.35;-4;-19.13;-4.39;544.9;13.90;75795;2835.304;-1759.357;1;319;-70;-59.7;43.7;44.0;15;14.4;27.1;0.0;
22/02/2025 14:35:38;100;0;330.88;-4;-18.98;-4.49;547.4;13.80;75791;2835.307;-1759.360;1;319;-70;-59.7;44.0;44.0;15;14.4;27.1;0.0;
22/02/2025 14:35:58;100;0;333.16;-4;-19.01;-4.48;550.0;13.80;75797;2835.310;-1759.362;1;319;-70;-61.3;44.0;44.0;17;17.1;27.1;0.0;
22/02/2025 14:36:18;100;0;334.10;-4;-19.14;-2.88;552.5;13.80;75789;2835.314;-1759.364;1;319;-70;-61.3;44.0;44.0;17;17.1;27.1;0.0;
22/02/2025 14:36:38;100;0;332.16;-4;-19.11;-3.00;555.1;13.80;75781;2835.317;-1759.366;1;319;-70;-61.3;44.0;44.0;17;17.1;27.1;0.0;
22/02/2025 14:36:58;100;0;329.40;-4;-19.10;-2.98;557.7;13.70;75776;2835.320;-1759.369;1;319;-70;-59.7;44.0;44.0;15;14.4;27.1;0.0;
22/02/2025 14:37:18;100;0;327.89;-4;-19.07;-4.42;560.4;13.70;75769;2835.323;-1759.371;1;319;-70;-59.7;44.0;44.0;15;14.4;27.1;0.0;
22/02/2025 14:37:38;100;0;326.39;-4;-19.21;-4.39;563.0;13.70;75765;2835.326;-1759.374;1;319;-70;-59.7;44.0;44.0;15;14.4;27.1;0.0;
22/02/2025 14:37:58;100;0;326.26;-4;-19.33;-4.38;565.8;13.60;75759;2835.329;-1759.377;1;319;-70;-59.7;44.0;44.0;15;14.4;27.1;0.0;
22/02/2025 14:38:18;100;0;326.68;-4;-19.30;-4.38;568.5;13.60;75756;2835.332;-1759.379;1;319;-70;-59.7;44.0;44.0;15;14.4;27.1;0.0;
22/02/2025 14:38:38;100;0;326.95;-4;-19.46;-4.36;571.3;13.60;75758;2835.335;-1759.382;1;319;-70;-61.3;44.0;44.0;15;14.4;27.1;0.0;
22/02/2025 14:38:58;100;0;325.64;-4;-19.65;-4.36;574.1;13.60;75748;2835.338;-1759.385;1;319;-70;-61.3;44.0;44.0;15;14.4;27.1;0.0;
22/02/2025 14:39:18;100;0;324.08;-4;-19.71;-4.39;577.0;13.60;75744;2835.341;-1759.388;1;319;-70;-59.7;44.0;44.0;15;14.4;27.1;0.0;
22/02/2025 14:39:38;100;0;319.81;-4;-19.53;-4.43;579.9;13.50;75742;2835.344;-1759.391;1;319;-70;-59.7;44.0;44.0;15;14.4;27.1;0.0;
22/02/2025 14:39:58;100;0;315.93;-4;-18.70;-4.30;582.9;13.50;75723;2835.347;-1759.395;1;319;-70;-59.7;44.4;44.8;13;13.1;27.1;0.0;
22/02/2025 14:40:18;100;0;314.27;-4;-20.71;-5.15;585.6;13.50;75729;2835.349;-1759.398;1;319;-70;-61.3;44.4;44.9;13;13.1;27.1;0.0;
22/02/2025 14:40:38;100;0;311.26;-4;-20.41;-5.02;588.7;13.50;75729;2835.352;-1759.401;1;319;-70;-59.7;44.4;44.9;9;9.0;27.1;0.0;
22/02/2025 14:40:58;100;0;311.20;-4;-21.08;-7.10;591.8;13.40;75714;2835.354;-1759.405;1;319;-70;-61.3;44.4;44.8;9;9.0;27.1;0.0;
22/02/2025 14:41:18;100;0;308.72;-4;-20.54;-7.24;594.7;13.40;75715;2835.357;-1759.409;1;319;-70;-59.7;44.4;44.8;6;5.4;27.1;0.0;
22/02/2025 14:41:38;100;0;307.35;-4;-20.39;-8.97;597.7;13.40;75708;2835.359;-1759.413;1;319;-70;-61.3;44.4;44.8;4;4.1;27.1;0.0;
22/02/2025 14:41:58;100;0;307.29;-4;-20.46;-9.77;600.9;13.40;75706;2835.362;-1759.417;1;319;-70;-61.3;44.4;44.9;4;3.6;27.1;0.0;
22/02/2025 14:42:18;100;0;309.54;-4;-20.41;-9.74;604.0;13.30;75708;2835.364;-1759.421;1;319;-70;-61.3;44.4;44.8;7;7.2;27.1;0.0;
22/02/2025 14:42:38;100;0;310.20;-4;-20.60;-7.76;607.1;13.30;75693;2835.367;-1759.425;1;319;-70;-59.7;44.4;44.9;7;7.7;27.1;0.0;
22/02/2025 14:42:58;100;0;310.10;-4;-20.54;-7.76;610.3;13.30;75690;2835.369;-1759.429;1;319;-70;-61.3;44.4;44.9;7;7.7;27.1;0.0;
22/02/2025 14:43:18;100;0;309.22;-4;-20.78;-7.71;613.6;13.30;75686;2835.372;-1759.433;1;319;-70;-61.3;44.4;44.9;7;7.7;27.1;0.0;
22/02/2025 14:43:38;100;0;312.09;-4;-20.63;-7.72;616.9;13.30;75676;2835.375;-1759.436;1;319;-70;-61.3;44.4;44.8;10;10.4;27.1;0.0;
22/02/2025 14:43:58;100;0;315.80;-4;-20.46;-6.24;620.2;13.20;75664;2835.378;-1759.440;1;319;-70;-61.3;44.4;44.8;12;12.2;27.1;0.0;
22/02/2025 14:44:18;100;0;319.32;-4;-20.60;-5.39;623.5;13.20;75654;2835.381;-1759.444;1;319;-70;-59.7;44.4;44.9;12;12.2;27.1;0.0;
22/02/2025 14:44:38;100;0;321.16;-4;-20.58;-5.32;626.9;13.20;75660;2835.384;-1759.447;1;319;-70;-59.7;44.4;44.8;14;14.0;27.1;0.0;
22/02/2025 14:44:58;100;0;322.05;-4;-20.74;-4.18;630.2;13.20;75663;2835.387;-1759.450;1;319;-70;-61.3;44.4;44.9;14;14.9;27.1;0.0;
22/02/2025 14:45:18;100;0;323.92;-4;-20.82;-4.10;633.6;13.10;75656;2835.391;-1759.454;1;319;-70;-59.7;44.4;44.8;14;14.9;27.1;0.0;
22/02/2025 14:45:38;100;0;328.86;-4;-20.61;-4.21;637.0;13.10;75658;2835.394;-1759.456;1;319;-70;-59.7;44.4;44.9;14;14.9;27.1;0.0;
22/02/2025 14:45:58;100;0;333.12;-4;-20.59;-4.19;640.2;13.10;75646;2835.398;-1759.459;1;319;-70;-59.7;44.4;44.8;17;17.6;27.1;0.0;
22/02/2025 14:46:18;100;0;336.43;-4;-20.83;-2.77;643.5;13.10;75636;2835.402;-1759.461;1;319;-70;-59.7;44.4;44.9;20;19.9;27.1;0.0;
22/02/2025 14:46:38;100;0;336.58;-4;-20.84;-1.33;646.9;13.00;75635;2835.406;-1759.464;1;319;-70;-59.7;44.4;44.9;20;20.3;27.1;0.0;
22/02/2025 14:46:58;100;0;336.23;-4;-20.80;-1.33;650.1;13.00;75635;2835.409;-1759.466;1;319;-70;-58.1;44.4;44.8;20;20.3;27.1;0.0;
22/02/2025 14:47:18;100;0;335.19;-4;-20.64;-1.40;653.3;13.00;75631;2835.413;-1759.468;1;319;-70;-61.3;44.4;44.9;20;20.3;27.1;0.0;
22/02/2025 14:47:38;100;0;334.82;-4;-20.78;-1.42;656.6;13.00;75616;2835.417;-1759.471;1;319;-70;-61.3;44.4;44.9;20;20.3;27.1;0.0;
22/02/2025 14:47:58;100;0;333.75;-4;-20.89;-1.36;659.8;13.00;75631;2835.420;-1759.473;1;319;-70;-59.7;44.4;44.9;18;18.1;27.1;0.0;
22/02/2025 14:48:18;100;0;333.55;-4;-20.43;-2.84;663.0;13.00;75623;2835.424;-1759.475;1;319;-70;-59.7;44.4;44.9;18;18.1;27.1;0.0;
22/02/2025 14:48:38;100;0;335.88;-4;-20.67;-2.80;666.0;12.90;75622;2835.428;-1759.478;1;319;-70;-61.3;44.4;44.9;20;19.9;27.1;0.0;
22/02/2025 14:48:58;100;0;333.44;-4;-21.01;-1.51;669.2;12.90;75612;2835.431;-1759.480;1;319;-70;-59.7;44.4;44.9;18;18.1;27.1;0.0;
22/02/2025 14:49:18;100;0;329.29;-4;-20.82;-2.68;672.3;12.90;75599;2835.434;-1759.483;1;319;-70;-59.7;44.4;44.8;15;14.4;27.1;0.0;
22/02/2025 14:49:38;100;0;327.28;-4;-20.90;-4.19;675.4;12.80;75584;2835.438;-1759.486;1;319;-70;-61.3;44.4;44.9;15;14.4;27.1;0.0;
22/02/2025 14:49:58;100;0;324.52;-4;-20.24;-4.21;678.5;12.80;75590;2835.441;-1759.489;1;319;-70;-59.7;44.4;44.8;15;14.9;27.1;0.0;
22/02/2025 14:50:18;100;0;324.43;-4;-20.27;-4.22;681.4;12.80;75569;2835.444;-1759.491;1;319;-70;-61.3;44.4;44.8;15;14.9;27.1;0.0;
22/02/2025 14:50:38;100;0;323.51;-4;-20.45;-4.31;684.2;12.80;75567;2835.447;-1759.494;1;319;-70;-59.7;44.4;44.9;15;14.9;27.1;0.0;
22/02/2025 14:50:58;100;0;322.52;-4;-20.59;-4.23;687.1;12.70;75563;2835.450;-1759.497;1;319;-70;-62.9;44.4;44.9;15;14.9;27.1;0.0;
22/02/2025 14:51:18;100;0;321.38;-4;-20.62;-4.26;689.9;12.70;75568;2835.453;-1759.500;1;319;-70;-59.7;44.4;44.9;15;14.9;27.1;0.0;
22/02/2025 14:51:38;100;0;316.82;-4;-20.72;-4.27;692.7;12.70;75549;2835.455;-1759.503;1;319;-70;-61.3;44.4;45.1;13;13.1;27.1;0.0;
22/02/2025 14:51:58;100;0;313.95;-4;-20.52;-5.27;695.5;12.70;75545;2835.458;-1759.507;1;319;-70;-58.1;44.4;44.8;13;12.6;27.1;0.0;
22/02/2025 14:52:18;100;0;310.87;-4;-20.66;-5.30;698.3;12.70;75549;2835.460;-1759.510;1;319;-70;-61.3;44.4;44.8;9;9.0;27.1;0.0;
22/02/2025 14:52:39;100;0;308.51;-4;-20.33;-7.32;701.1;12.60;75541;2835.462;-1759.514;1;319;-70;-59.7;44.4;44.8;6;5.9;27.1;0.0;
22/02/2025 14:52:59;100;0;309.64;-4;-20.17;-8.82;703.9;12.60;75539;2835.464;-1759.517;1;319;-70;-61.3;44.4;44.9;6;5.4;27.1;0.0;
22/02/2025 14:53:19;100;0;311.91;-4;-20.18;-8.79;706.7;12.60;75534;2835.467;-1759.521;1;319;-70;-61.3;44.4;44.8;9;9.0;27.2;0.0;
22/02/2025 14:53:39;100;0;312.57;-4;-20.36;-6.91;709.5;12.60;75531;2835.469;-1759.524;1;319;-70;-59.7;44.4;44.9;9;9.5;27.1;0.0;
22/02/2025 14:53:59;100;0;313.08;-4;-20.33;-6.89;712.3;12.50;75523;2835.472;-1759.527;1;319;-70;-59.7;44.4;44.8;11;10.8;27.1;0.0;
22/02/2025 14:54:19;100;0;313.00;-4;-20.47;-5.97;715.1;12.50;75532;2835.474;-1759.531;1;319;-70;-59.7;44.4;44.9;11;11.3;27.1;0.0;
22/02/2025 14:54:39;100;0;312.23;-4;-20.85;-5.95;718.0;12.50;75519;2835.477;-1759.534;1;319;-70;-61.3;44.4;44.9;11;11.3;27.1;0.0;
22/02/2025 14:54:59;100;0;310.27;-4;-20.38;-5.95;721.0;12.50;75503;2835.479;-1759.538;1;319;-70;-61.3;44.4;44.8;8;7.7;27.1;0.0;
22/02/2025 14:55:19;100;0;312.69;-4;-19.90;-7.75;723.9;12.40;75509;2835.482;-1759.542;1;319;-70;-59.7;44.4;44.9;10;9.9;27.1;0.0;
22/02/2025 14:55:39;100;0;318.39;-4;-20.02;-6.38;726.6;12.40;75491;2835.485;-1759.545;1;319;-70;-61.3;44.4;44.8;13;13.1;27.1;0.0;
22/02/2025 14:55:59;100;0;319.64;-4;-19.74;-4.83;729.4;12.40;75479;2835.487;-1759.548;1;319;-70;-61.3;44.4;44.9;13;13.5;27.1;0.0;
22/02/2025 14:56:19;100;0;322.20;-4;-20.28;-4.87;732.1;12.40;75472;2835.490;-1759.551;1;319;-70;-59.7;44.4;44.9;13;13.1;27.1;0.0;
22/02/2025 14:56:39;100;0;325.12;-4;-19.99;-4.72;734.9;12.30;75468;2835.493;-1759.553;1;319;-70;-59.7;44.4;44.9;13;13.5;27.1;0.0;
22/02/2025 14:56:59;100;0;326.86;-4;-20.09;-4.83;737.8;12.30;75465;2835.496;-1759.556;1;319;-70;-59.7;44.4;44.8;13;13.5;27.1;0.0;
22/02/2025 14:57:19;100;0;329.00;-4;-20.03;-4.95;740.5;12.30;75456;2835.499;-1759.559;1;319;-70;-62.9;44.4;44.9;13;13.5;27.1;0.0;
22/02/2025 14:57:39;100;0;330.46;-4;-20.10;-4.86;743.3;12.30;75441;2835.502;-1759.561;1;319;-70;-59.7;44.4;44.9;15;14.9;27.1;0.0;
22/02/2025 14:57:59;100;0;332.24;-4;-20.46;-3.71;745.9;12.30;75445;2835.505;-1759.563;1;319;-70;-61.3;44.4;44.9;15;15.8;27.1;0.0;
22/02/2025 14:58:19;100;0;332.08;-4;-20.58;-3.80;748.6;12.20;75449;2835.508;-1759.565;1;319;-70;-62.9;44.4;44.9;15;15.8;27.2;0.0;
22/02/2025 14:58:39;100;0;333.78;-4;-20.67;-3.75;751.3;12.20;75450;2835.511;-1759.568;1;319;-70;-59.7;44.4;44.8;17;17.1;27.1;0.0;
22/02/2025 14:58:59;100;0;334.42;-4;-20.16;-2.84;753.9;12.20;75440;2835.514;-1759.570;1;319;-70;-61.3;44.4;44.9;17;17.6;27.1;0.0;
22/02/2025 14:59:19;100;0;335.16;-4;-20.27;-2.97;756.4;12.20;75430;2835.517;-1759.572;1;319;-70;-61.3;44.4;44.9;17;17.6;27.1;0.0;
22/02/2025 14:59:39;100;0;336.47;-4;-20.55;-2.83;759.1;12.10;75426;2835.520;-1759.574;1;319;-70;-59.7;44.4;44.9;19;19.0;27.1;0.0;
22/02/2025 14:59:59;100;0;337.18;-4;-20.90;-1.85;761.7;12.10;75423;2835.523;-1759.575;1;319;-70;-59.7;44.4;44.9;19;19.4;27.1;0.0;
22/02/2025 15:00:19;100;0;336.17;-4;-20.94;-1.87;764.5;12.10;75428;2835.527;-1759.577;1;319;-70;-59.7;44.4;44.9;19;19.4;27.1;0.0;
22/02/2025 15:00:39;100;0;335.10;-4;-20.93;-1.90;767.2;12.10;75412;2835.530;-1759.579;1;319;-70;-61.3;44.4;44.9;19;19.4;27.1;0.0;
22/02/2025 15:00:59;100;0;334.70;-4;-20.81;-1.84;770.0;12.10;75408;2835.533;-1759.582;1;319;-70;-59.7;44.4;44.9;19;19.4;27.1;0.0;
22/02/2025 15:01:19;100;0;334.31;-4;-20.49;-1.90;772.7;12.00;75399;2835.536;-1759.584;1;319;-70;-59.7;44.4;44.9;19;19.4;27.1;0.0;
22/02/2025 15:01:39;100;0;334.36;-4;-20.35;-1.97;775.4;12.00;75397;2835.539;-1759.586;1;319;-70;-59.7;44.4;44.9;19;19.4;27.1;0.0;
22/02/2025 15:01:59;100;0;332.97;-4;-20.05;-1.96;777.9;12.00;75398;2835.542;-1759.588;1;319;-70;-59.7;44.4;44.8;16;15.8;27.1;0.0;
22/02/2025 15:02:19;100;0;334.38;-4;-20.13;-3.86;780.4;12.00;75385;2835.545;-1759.590;1;319;-70;-61.3;44.4;44.9;18;18.1;27.1;0.0;
22/02/2025 15:02:39;100;0;334.82;-4;-20.35;-2.52;782.8;11.90;75374;2835.548;-1759.592;1;319;-70;-59.7;44.4;44.9;18;18.5;27.1;0.0;
22/02/2025 15:02:59;100;0;334.37;-4;-20.85;-2.41;785.6;11.90;75367;2835.551;-1759.594;1;319;-70;-58.1;44.4;44.9;18;18.5;27.1;0.0;
22/02/2025 15:03:19;100;0;332.46;-4;-20.67;-2.40;788.3;11.90;75371;2835.554;-1759.596;1;319;-70;-59.7;44.4;44.9;18;18.5;27.1;0.0;
22/02/2025 15:03:39;100;0;329.86;-4;-20.59;-2.40;791.1;11.90;75357;2835.557;-1759.599;1;319;-70;-61.3;44.4;44.8;15;14.0;27.1;0.0;
22/02/2025 15:03:59;100;0;328.44;-4;-20.19;-4.06;793.8;11.80;75350;2835.560;-1759.601;1;319;-70;-58.1;44.4;44.9;15;15.3;27.1;0.0;
22/02/2025 15:04:19;100;0;327.23;-4;-20.06;-4.06;796.5;11.80;75349;2835.563;-1759.604;1;319;-70;-61.3;44.4;44.9;15;15.3;27.1;0.0;
22/02/2025 15:04:39;100;0;324.64;-4;-20.08;-4.16;799.1;11.80;75344;2835.566;-1759.606;1;319;-70;-61.3;44.4;44.8;15;14.9;27.1;0.0;
22/02/2025 15:04:59;100;0;325.20;-4;-20.30;-4.15;801.7;11.80;75332;2835.568;-1759.609;1;319;-70;-61.3;44.4;44.9;15;15.3;27.1;0.0;
22/02/2025 15:05:19;100;0;327.11;-4;-20.05;-4.08;804.3;11.70;75327;2835.571;-1759.611;1;319;-70;-59.7;44.4;44.9;15;15.3;27.1;0.0;
22/02/2025 15:05:39;100;0;327.07;-4;-20.09;-4.13;807.1;11.70;75317;2835.574;-1759.614;1;319;-70;-59.7;44.4;44.9;15;15.3;27.1;0.0;
22/02/2025 15:05:59;100;0;325.30;-4;-20.28;-4.28;809.7;11.70;75308;2835.577;-1759.617;1;319;-70;-59.7;44.4;44.8;15;15.3;27.1;0.0;
22/02/2025 15:06:19;100;0;324.25;-4;-20.51;-4.12;812.5;11.70;75303;2835.580;-1759.619;1;319;-70;-61.3;44.4;44.9;15;14.9;27.1;0.0;
22/02/2025 15:06:39;100;0;322.71;-4;-20.41;-4.24;815.2;11.60;75299;2835.583;-1759.622;1;319;-70;-59.7;44.4;44.9;15;15.3;27.1;0.0;
22/02/2025 15:06:59;100;0;322.66;-4;-20.39;-3.91;818.0;11.60;75298;2835.586;-1759.625;1;319;-70;-59.7;44.4;44.9;15;15.3;27.1;0.0;
22/02/2025 15:07:19;100;0;317.94;-4;-21.04;-4.21;820.9;11.60;75285;2835.588;-1759.628;1;319;-70;-61.3;44.4;44.8;15;15.3;27.1;0.0;
22/02/2025 15:07:39;100;0;314.64;-4;-20.07;-4.11;823.6;11.60;75281;2835.591;-1759.632;1;319;-70;-61.3;44.4;44.9;13;13.1;27.1;0.0;
22/02/2025 15:07:59;100;0;314.44;-4;-20.07;-5.14;826.3;11.50;75279;2835.593;-1759.635;1;319;-70;-59.7;44.4;44.9;13;13.1;27.1;0.0;
22/02/2025 15:08:19;100;0;314.42;-4;-20.42;-5.22;829.1;11.50;75277;2835.596;-1759.638;1;319;-70;-59.7;44.4;44.9;13;13.1;27.1;0.0;
22/02/2025 15:08:39;100;0;315.40;-4;-19.95;-5.84;832.0;11.50;75270;2835.599;-1759.641;1;319;-70;-61.3;44.4;44.9;13;13.1;27.1;0.0;
22/02/2025 15:08:59;100;0;320.51;-4;-18.72;-4.86;834.8;11.50;75260;2835.601;-1759.645;1;319;-70;-59.7;44.8;44.8;13;13.1;27.1;0.0;
22/02/2025 15:09:19;100;0;321.97;-4;-20.82;-5.14;837.2;11.40;75247;2835.604;-1759.647;1;319;-70;-61.3;44.8;44.8;13;13.1;27.1;0.0;
22/02/2025 15:09:39;100;0;323.89;-4;-20.71;-5.55;839.8;11.40;75256;2835.607;-1759.650;1;319;-70;-59.7;44.8;44.9;13;13.1;27.1;0.0;
22/02/2025 15:09:59;100;0;324.33;-4;-20.03;-5.33;842.6;11.40;75246;2835.609;-1759.653;1;319;-70;-61.3;44.8;44.9;13;13.1;27.1;0.0;
22/02/2025 15:10:19;100;0;328.27;-4;-18.55;-4.84;844.9;11.40;75249;2835.612;-1759.655;1;319;-70;-59.7;45.3;45.4;15;14.9;27.1;0.0;
22/02/2025 15:10:39;100;0;332.75;-4;-21.26;-3.74;847.2;11.40;75234;2835.615;-1759.657;1;319;-70;-59.7;45.3;45.5;17;17.6;27.1;0.0;
22/02/2025 15:10:59;100;0;331.60;-4;-22.47;-2.83;849.5;11.30;75243;2835.617;-1759.659;1;319;-70;-61.3;44.5;44.5;17;17.6;27.1;0.0;
22/02/2025 15:11:19;100;0;332.35;-4;-19.51;-2.87;852.0;11.30;75232;2835.620;-1759.661;1;319;-70;-59.7;44.5;44.2;17;17.6;27.1;0.0;
22/02/2025 15:11:39;100;0;331.62;-4;-19.15;-2.85;854.5;11.30;75232;2835.623;-1759.663;1;319;-70;-59.7;44.5;44.2;17;17.6;27.1;0.0;
22/02/2025 15:11:59;100;0;328.68;-4;-19.87;-2.86;856.9;11.30;75227;2835.626;-1759.665;1;319;-70;-59.7;44.5;44.2;15;14.9;27.1;0.0;
22/02/2025 15:12:19;100;0;327.78;-4;-19.43;-4.16;859.5;11.20;75220;2835.629;-1759.668;1;319;-70;-59.7;44.5;44.2;15;14.9;27.1;0.0;
22/02/2025 15:12:39;100;0;327.08;-4;-19.18;-4.14;862.1;11.20;75220;2835.631;-1759.670;1;319;-70;-59.7;44.5;44.2;15;14.9;27.1;0.0;
22/02/2025 15:12:59;100;0;326.49;-4;-18.97;-4.14;864.7;11.20;75218;2835.634;-1759.673;1;319;-70;-59.7;44.8;44.9;15;15.3;27.1;0.0;
22/02/2025 15:13:19;100;0;326.68;-4;-20.14;-4.16;867.3;11.20;75217;2835.637;-1759.675;1;319;-70;-61.3;44.8;45.1;15;15.3;27.1;0.0;
22/02/2025 15:13:39;100;0;328.72;-4;-20.13;-4.09;869.8;11.20;75208;2835.640;-1759.678;1;319;-70;-59.7;44.8;45.1;15;15.3;27.1;0.0;
22/02/2025 15:13:59;100;0;329.07;-4;-20.18;-4.11;872.4;11.10;75199;2835.643;-1759.680;1;319;-70;-61.3;44.8;45.1;15;15.3;27.1;0.0;
22/02/2025 15:14:19;100;0;330.37;-4;-20.07;-4.14;875.0;11.10;75195;2835.646;-1759.682;1;319;-70;-59.7;44.8;45.2;15;15.3;27.1;0.0;
22/02/2025 15:14:39;100;0;330.77;-4;-20.20;-4.20;877.6;11.10;75193;2835.649;-1759.685;1;319;-70;-59.7;44.8;45.1;15;15.3;27.1;0.0;
22/02/2025 15:14:59;100;0;332.19;-4;-20.21;-4.18;880.2;11.10;75188;2835.652;-1759.687;1;319;-70;-59.7;44.8;45.2;17;17.1;27.1;0.0;
22/02/2025 15:15:19;100;0;327.32;-4;-20.45;-3.02;882.8;11.00;75181;2835.655;-1759.689;1;319;-70;-59.7;44.8;45.1;15;14.9;27.1;0.0;
22/02/2025 15:15:39;100;0;326.48;-4;-20.28;-4.24;885.4;11.00;75161;2835.657;-1759.692;1;319;-70;-59.7;44.8;45.1;15;14.9;27.1;0.0;
22/02/2025 15:15:59;100;0;326.07;-4;-20.22;-4.26;888.0;11.00;75166;2835.660;-1759.695;1;319;-70;-61.3;44.8;45.2;15;14.9;27.1;0.0;
22/02/2025 15:16:19;100;0;325.59;-4;-20.37;-4.25;890.4;11.00;75160;2835.663;-1759.697;1;319;-70;-59.7;44.8;45.1;15;14.9;27.1;0.0;
22/02/2025 15:16:39;100;0;325.50;-4;-20.33;-4.25;893.0;11.00;75160;2835.666;-1759.699;1;319;-70;-59.7;44.8;45.1;15;14.9;27.1;0.0;
22/02/2025 15:16:59;100;0;326.34;-4;-20.39;-4.25;895.5;10.90;75154;2835.668;-1759.702;1;319;-70;-59.7;44.8;45.2;15;14.9;27.1;0.0;
22/02/2025 15:17:19;100;0;325.63;-4;-20.54;-4.25;898.1;10.90;75145;2835.671;-1759.704;1;319;-70;-59.7;44.8;45.1;15;14.9;27.1;0.0;
22/02/2025 15:17:39;100;0;324.87;-4;-20.36;-4.20;900.5;10.90;75133;2835.674;-1759.707;1;319;-70;-59.7;44.8;45.1;15;14.9;27.1;0.0;
22/02/2025 15:17:59;100;0;323.62;-4;-20.33;-4.23;903.0;10.90;75141;2835.676;-1759.709;1;319;-70;-59.7;44.8;45.1;15;14.9;27.1;0.0;
22/02/2025 15:18:19;100;0;324.56;-4;-20.41;-4.22;905.5;10.80;75134;2835.679;-1759.712;1;319;-70;-59.7;44.8;45.1;15;14.9;27.1;0.0;
22/02/2025 15:18:39;100;0;324.86;-4;-20.16;-4.28;907.9;10.80;75132;2835.681;-1759.714;1;319;-70;-61.3;44.8;45.1;15;14.9;27.1;0.0;
22/02/2025 15:18:59;100;0;325.42;-4;-20.07;-4.24;910.4;10.80;75123;2835.684;-1759.717;1;319;-70;-59.7;44.8;45.1;15;14.9;27.1;0.0;
22/02/2025 15:19:19;100;0;325.30;-4;-20.22;-4.22;912.7;10.80;75117;2835.687;-1759.719;1;319;-70;-58.1;44.8;45.1;15;14.9;27.1;0.0;
22/02/2025 15:19:39;100;0;325.89;-4;-20.50;-4.25;915.2;10.80;75126;2835.689;-1759.722;1;319;-70;-59.7;44.8;45.1;15;14.9;27.1;0.0;
22/02/2025 15:19:59;100;0;326.37;-4;-20.44;-4.18;917.7;10.70;75117;2835.692;-1759.724;1;319;-70;-62.9;44.8;45.2;15;14.9;27.1;0.0;
22/02/2025 15:20:19;100;0;326.11;-4;-20.04;-4.25;920.1;10.70;75110;2835.695;-1759.727;1;319;-70;-59.7;44.8;45.2;15;14.9;27.1;0.0;
22/02/2025 15:20:39;100;0;326.44;-4;-19.94;-4.38;922.4;10.70;75102;2835.697;-1759.729;1;319;-70;-61.3;44.8;45.1;15;14.9;27.1;0.0;
22/02/2025 15:20:59;100;0;327.01;-4;-19.97;-4.17;924.8;10.70;75123;2835.700;-1759.731;1;319;-70;-59.7;44.8;45.2;15;14.9;27.1;0.0;
22/02/2025 15:21:19;100;0;327.49;-4;-20.22;-4.28;927.2;10.70;75097;2835.702;-1759.734;1;319;-70;-59.7;44.8;45.1;15;14.9;27.1;0.0;
22/02/2025 15:21:39;100;0;327.86;-4;-19.78;-4.27;929.5;10.60;75101;2835.705;-1759.736;1;319;-70;-59.7;44.8;45.1;15;14.9;27.1;0.0;
22/02/2025 15:21:59;100;0;324.26;-4;-20.00;-4.49;931.7;10.60;75096;2835.707;-1759.738;1;319;-70;-59.7;44.8;45.2;15;14.9;27.1;0.0;
22/02/2025 15:22:19;100;0;327.51;-4;-20.80;-4.13;933.9;10.60;75095;2835.710;-1759.740;1;319;-70;-59.7;44.8;45.1;15;14.9;27.1;0.0;
22/02/2025 15:22:39;100;0;326.83;-4;-19.85;-4.26;936.3;10.60;75087;2835.712;-1759.743;1;319;-70;-59.7;44.8;45.2;15;14.9;27.1;0.0;
22/02/2025 15:22:59;100;0;325.20;-4;-19.93;-4.28;938.5;10.60;75085;2835.714;-1759.745;1;319;-70;-59.7;44.8;45.1;15;14.9;27.1;0.0;
22/02/2025 15:23:19;100;0;323.48;-4;-20.03;-4.32;940.8;10.50;75092;2835.717;-1759.747;1;319;-70;-59.7;44.8;45.1;15;14.9;27.1;0.0;
22/02/2025 15:23:39;100;0;323.37;-4;-19.91;-4.35;943.0;10.50;75081;2835.719;-1759.750;1;319;-70;-59.7;44.8;45.2;15;14.9;27.1;0.0;
22/02/2025 15:23:59;100;0;322.96;-4;-20.13;-4.26;945.2;10.50;75082;2835.721;-1759.752;1;319;-70;-61.3;44.8;45.1;15;14.9;27.1;0.0;
22/02/2025 15:24:19;100;0;319.95;-4;-19.49;-4.35;947.5;10.50;75083;2835.724;-1759.755;1;319;-70;-61.3;44.8;45.1;15;14.9;27.1;0.0;
22/02/2025 15:24:39;100;0;319.00;-4;-20.25;-4.32;949.8;10.50;75078;2835.726;-1759.757;1;319;-70;-59.7;44.8;45.2;15;14.9;27.1;0.0;
22/02/2025 15:24:59;100;0;318.92;-4;-19.64;-4.25;952.0;10.50;75071;2835.728;-1759.760;1;319;-70;-59.7;44.8;45.2;15;14.9;27.1;0.0;
22/02/2025 15:25:19;100;0;319.23;-4;-20.00;-4.23;954.2;10.40;75072;2835.730;-1759.762;1;319;-70;-59.7;44.8;45.2;15;14.9;27.1;0.0;
22/02/2025 15:25:39;100;0;320.31;-4;-20.21;-4.36;956.4;10.40;75076;2835.733;-1759.765;1;319;-70;-59.7;44.8;45.1;15;14.9;27.1;0.0;
22/02/2025 15:25:59;100;0;321.68;-4;-19.86;-4.29;958.6;10.40;75061;2835.735;-1759.767;1;319;-70;-61.3;44.8;45.1;15;14.9;27.1;0.0;
22/02/2025 15:26:19;100;0;321.81;-4;-19.71;-4.32;960.7;10.40;75059;2835.737;-1759.770;1;319;-70;-59.7;44.8;45.2;15;14.9;27.1;0.0;
22/02/2025 15:26:39;100;0;322.84;-4;-20.10;-4.25;962.8;10.40;75059;2835.739;-1759.772;1;319;-70;-59.7;44.8;45.1;15;14.9;27.1;0.0;
22/02/2025 15:26:59;100;0;324.46;-4;-19.53;-4.34;964.9;10.30;75055;2835.741;-1759.774;1;319;-70;-61.3;44.8;45.2;15;14.9;27.1;0.0;
22/02/2025 15:27:20;100;0;324.68;-4;-19.89;-4.33;966.8;10.30;75069;2835.744;-1759.776;1;319;-90;-90.3;44.8;45.1;15;14.9;27.1;0.0;
22/02/2025 15:27:40;100;0;324.65;-4;-19.39;-4.19;969.0;10.30;75132;2835.746;-1759.778;1;319;-90;-91.9;44.8;45.1;15;14.9;27.1;0.0;
22/02/2025 15:28:00;100;0;324.20;-4;-19.51;-4.15;971.2;10.30;75125;2835.748;-1759.781;1;319;-90;-93.5;44.8;45.1;15;14.9;27.1;0.0;
22/02/2025 15:28:20;100;0;324.12;-4;-19.78;-4.10;973.6;10.30;75134;2835.751;-1759.783;1;319;-90;-95.2;44.8;45.1;15;14.9;27.1;0.0;
22/02/2025 15:28:40;100;0;324.50;-4;-19.53;-4.13;976.0;10.30;75132;2835.753;-1759.786;1;319;-90;-95.2;44.8;45.2;15;14.9;27.1;0.0;
22/02/2025 15:29:00;100;0;323.06;-4;-19.59;-4.15;978.4;10.20;75136;2835.756;-1759.788;1;319;-90;-96.8;44.8;45.2;15;14.9;27.1;0.0;
22/02/2025 15:29:20;100;0;322.16;-4;-19.47;-4.18;980.8;10.20;75137;2835.758;-1759.791;1;319;-90;-96.8;44.8;45.1;15;14.9;27.1;0.0;
22/02/2025 15:29:40;100;0;322.11;-4;-19.48;-4.13;983.1;10.20;75131;2835.761;-1759.793;1;319;-90;-96.8;44.8;45.1;15;14.9;27.1;0.0;
22/02/2025 15:30:00;100;0;321.41;-4;-19.50;-4.18;985.4;10.20;75127;2835.763;-1759.796;1;319;-90;-98.4;44.8;45.1;15;14.9;27.1;0.0;
22/02/2025 15:30:20;100;0;319.51;-4;-19.35;-4.15;987.8;10.20;75117;2835.766;-1759.799;1;319;-90;-96.8;44.8;45.1;15;14.9;27.1;0.0;
22/02/2025 15:30:40;100;0;317.25;-4;-19.34;-4.17;990.2;10.20;75123;2835.768;-1759.802;1;319;-90;-100.0;44.8;45.1;15;14.9;27.1;0.0;
22/02/2025 15:31:00;100;0;316.89;-4;-19.55;-4.14;992.6;10.20;75116;2835.770;-1759.805;1;319;-90;-96.8;44.8;45.2;13;13.1;27.1;0.0;
22/02/2025 15:31:20;100;0;316.83;-4;-19.42;-5.09;995.0;10.10;75111;2835.773;-1759.807;1;319;-90;-98.4;44.8;45.1;13;12.6;27.1;0.0;
22/02/2025 15:31:40;100;0;315.37;-4;-19.77;-5.06;997.5;10.10;75120;2835.775;-1759.810;1;319;-90;-98.4;44.8;45.1;13;13.1;27.1;0.0;
22/02/2025 15:31:52;118;0;313.93;-4;-19.57;-5.09;999.0;10.10;75121;2835.776;-1759.812;1;319;270;-93.5;25.9;25.9;8;8.1;27.1;0.0;
22/02/2025 15:32:02;118;0;52.11;-4;-6.56;-8.40;1000.0;10.10;75094;2835.777;-1759.811;1;319;270;32.3;25.9;25.6;8;8.1;25.8;-1.0;
22/02/2025 15:32:12;118;0;42.87;-4;15.28;-8.15;1000.1;10.10;74829;2835.778;-1759.811;1;319;270;156.5;25.9;25.3;8;8.1;25.8;-1.0;
22/02/2025 15:32:22;118;0;36.92;-4;22.74;-8.59;999.6;10.10;74574;2835.778;-1759.811;1;319;270;271.0;25.9;25.9;8;8.1;25.8;-1.0;
22/02/2025 15:32:32;118;0;321.90;-4;21.50;-7.39;998.5;10.10;74357;2835.779;-1759.812;1;319;270;271.0;25.9;26.1;8;8.1;27.1;-1.0;
22/02/2025 15:32:42;118;0;319.59;-4;20.07;-8.12;997.5;10.10;74367;2835.780;-1759.813;1;319;270;271.0;25.9;26.1;8;7.7;27.1;-1.0;
22/02/2025 15:33:02;117;0;316.97;-4;19.27;-7.99;995.2;10.10;74367;2835.782;-1759.816;1;319;270;271.0;25.9;26.1;8;7.7;27.1;-1.0;
22/02/2025 15:33:22;117;0;313.28;-4;19.03;-7.91;992.8;10.20;74359;2835.785;-1759.819;1;319;270;271.0;25.9;26.1;34;33.8;27.1;-1.0;
22/02/2025 15:33:42;117;0;315.41;-4;20.35;5.92;990.6;10.20;74366;2835.787;-1759.822;1;319;270;271.0;25.9;26.1;32;32.0;27.1;-1.0;
22/02/2025 15:34:02;117;0;318.31;-4;21.08;4.50;988.1;10.20;74361;2835.789;-1759.824;1;319;270;271.0;25.9;26.1;30;29.3;27.1;-1.0;
22/02/2025 15:34:22;117;0;318.59;-4;20.61;3.09;985.7;10.20;74363;2835.791;-1759.827;1;319;270;271.0;25.9;26.2;30;29.3;27.1;-1.0;
22/02/2025 15:34:42;117;0;319.09;-4;20.50;3.21;983.4;10.20;74348;2835.794;-1759.830;1;319;270;271.0;25.9;26.1;30;29.3;27.1;-1.0;
22/02/2025 15:35:02;117;0;319.34;-4;20.41;3.19;981.0;10.20;74346;2835.796;-1759.832;1;319;270;271.0;25.9;26.1;30;29.3;27.1;-1.0;
22/02/2025 15:35:22;117;0;319.58;-4;20.56;3.14;978.8;10.10;74350;2835.798;-1759.835;1;319;270;271.0;25.9;26.1;30;29.3;27.1;-1.0;
22/02/2025 15:35:42;117;0;320.01;-4;20.61;3.14;976.6;10.10;74339;2835.800;-1759.837;1;319;270;271.0;25.9;26.1;30;29.3;27.1;-1.0;
22/02/2025 15:36:02;117;0;320.45;-4;20.64;3.14;974.3;10.10;74333;2835.802;-1759.840;1;319;270;271.0;25.9;26.1;30;29.3;27.1;-1.0;
22/02/2025 15:36:22;117;0;321.23;-4;20.40;3.13;972.1;10.10;74338;2835.805;-1759.842;1;319;270;267.7;25.9;26.1;30;29.3;27.1;-1.0;
22/02/2025 15:36:42;117;0;321.81;-4;20.70;3.13;969.9;10.10;74328;2835.807;-1759.844;1;319;270;271.0;25.9;26.1;30;29.3;27.1;-1.0;
22/02/2025 15:37:02;117;0;322.31;-4;20.76;3.15;967.6;10.10;74337;2835.809;-1759.847;1;319;270;272.6;25.9;26.1;30;29.3;27.1;-1.0;
22/02/2025 15:37:22;117;0;322.29;-4;20.62;3.15;965.2;10.10;74332;2835.811;-1759.849;1;319;270;271.0;25.9;26.1;30;29.3;27.1;-1.0;
22/02/2025 15:37:42;117;0;323.29;-4;20.56;3.19;962.9;10.00;74325;2835.814;-1759.852;1;319;270;271.0;25.9;26.1;30;29.3;27.1;-1.0;
22/02/2025 15:38:02;117;0;323.54;-4;20.62;3.16;960.6;10.00;74319;2835.816;-1759.854;1;319;270;269.4;25.9;26.1;30;29.3;27.1;-1.0;
22/02/2025 15:38:22;117;0;323.76;-4;20.59;3.13;958.4;10.00;74320;2835.818;-1759.856;1;319;270;271.0;25.9;26.1;30;29.3;27.1;-1.0;
22/02/2025 15:38:42;117;0;323.96;-4;20.64;3.22;956.2;10.00;74313;2835.821;-1759.859;1;319;270;272.6;25.9;26.1;30;29.3;27.1;-1.0;
22/02/2025 15:39:02;117;0;323.52;-4;20.45;3.17;954.0;10.00;74319;2835.823;-1759.861;1;319;270;272.6;25.9;26.1;30;29.3;27.1;-1.0;
22/02/2025 15:39:22;117;0;323.63;-4;20.59;3.12;951.9;10.00;74320;2835.825;-1759.863;1;319;270;271.0;25.9;26.1;30;28.9;27.1;-1.0;
22/02/2025 15:39:42;117;0;325.59;-4;21.37;3.20;949.7;10.00;74315;2835.827;-1759.865;1;319;270;271.0;25.9;26.1;30;29.3;27.1;-1.0;
22/02/2025 15:40:02;117;0;324.53;-4;19.79;2.95;947.7;9.90;74315;2835.829;-1759.867;1;319;270;272.6;25.9;26.2;30;29.3;27.1;-1.0;
22/02/2025 15:40:22;117;0;324.43;-4;21.20;3.19;945.7;9.90;74310;2835.831;-1759.870;1;319;270;271.0;25.9;26.1;30;29.3;27.1;-1.0;
22/02/2025 15:40:42;117;0;325.12;-4;21.09;3.19;943.4;9.90;74309;2835.834;-1759.872;1;319;270;271.0;25.9;26.1;30;29.3;27.1;-1.0;
22/02/2025 15:41:02;117;0;327.72;-4;20.23;3.69;941.1;9.90;74296;2835.836;-1759.874;1;319;270;271.0;25.9;26.1;30;29.3;27.1;-1.0;
22/02/2025 15:41:22;117;0;327.91;-4;21.11;3.25;938.9;9.90;74298;2835.839;-1759.876;1;319;270;271.0;25.9;26.1;30;29.3;27.1;-1.0;
22/02/2025 15:41:42;117;0;327.40;-4;20.18;3.02;936.4;9.90;74297;2835.841;-1759.878;1;319;270;271.0;25.9;26.1;30;29.3;27.1;-1.0;
22/02/2025 15:42:02;117;0;323.01;-4;20.32;3.29;934.2;9.90;74301;2835.844;-1759.881;1;319;270;271.0;25.9;26.2;30;29.3;27.1;-1.0;
22/02/2025 15:42:22;117;0;325.02;-4;19.72;3.13;932.0;9.90;74285;2835.846;-1759.883;1;319;270;272.6;25.9;26.1;30;29.3;27.1;-1.0;
22/02/2025 15:42:42;117;0;327.67;-4;21.45;3.31;929.5;9.90;74294;2835.849;-1759.885;1;319;270;272.6;25.9;26.1;30;29.3;27.1;-1.0;
22/02/2025 15:43:02;117;0;326.54;-4;20.21;3.27;927.1;9.80;74283;2835.851;-1759.888;1;319;270;272.6;25.9;26.1;30;29.3;27.1;-1.0;
22/02/2025 15:43:22;117;0;327.97;-4;20.40;3.21;924.9;9.80;74284;2835.854;-1759.890;1;319;270;271.0;25.9;26.1;30;29.3;27.1;-1.0;
22/02/2025 15:43:42;117;0;328.69;-4;20.32;3.24;922.5;9.80;74281;2835.856;-1759.892;1;319;270;271.0;25.9;26.1;30;29.3;27.1;-1.0;
22/02/2025 15:44:02;117;0;328.10;-4;20.32;3.36;920.2;9.80;74290;2835.859;-1759.894;1;319;270;269.4;25.9;26.1;30;29.3;27.1;-1.0;
22/02/2025 15:44:22;117;0;327.49;-4;20.29;3.29;918.0;9.80;74275;2835.861;-1759.897;1;319;270;272.6;25.9;26.1;30;29.3;27.1;-1.0;
22/02/2025 15:44:42;117;0;328.82;-4;20.33;3.21;915.8;9.80;74275;2835.864;-1759.899;1;319;270;271.0;25.9;26.1;30;29.3;27.1;-1.0;
22/02/2025 15:45:02;117;0;328.84;-4;20.49;3.16;913.7;9.80;74272;2835.866;-1759.901;1;319;270;271.0;25.9;26.1;30;29.3;27.1;-1.0;
22/02/2025 15:45:22;117;0;329.34;-4;20.53;3.22;911.4;9.80;74272;2835.869;-1759.903;1;319;270;272.6;25.9;26.1;30;29.3;27.1;-1.0;
22/02/2025 15:45:42;117;0;329.28;-4;20.40;3.15;909.0;9.80;74274;2835.871;-1759.905;1;319;270;271.0;25.9;26.1;30;29.3;27.1;-1.0;
22/02/2025 15:46:02;117;0;329.69;-4;20.46;3.18;906.9;9.80;74272;2835.874;-1759.907;1;319;270;271.0;25.9;26.1;30;29.3;27.1;-1.0;
22/02/2025 15:46:22;117;0;330.12;-4;20.51;3.23;904.7;9.70;74269;2835.876;-1759.909;1;319;270;271.0;25.9;26.1;30;29.3;27.1;-1.0;
22/02/2025 15:46:42;117;0;332.44;-4;20.55;3.28;902.4;9.80;74266;2835.879;-1759.911;1;319;270;271.0;25.9;26.1;28;27.5;27.1;-1.0;
22/02/2025 15:47:02;117;0;332.32;-4;20.44;2.39;900.1;9.70;74261;2835.881;-1759.913;1;319;270;272.6;25.9;26.1;28;27.5;27.1;-1.0;
22/02/2025 15:47:22;117;0;331.86;-4;20.27;2.40;897.8;9.70;74257;2835.884;-1759.915;1;319;270;271.0;25.9;26.1;28;28.0;27.1;-1.0;
22/02/2025 15:47:42;117;0;331.37;-4;20.25;2.41;895.5;9.70;74263;2835.887;-1759.917;1;319;270;271.0;25.9;26.1;28;28.0;27.1;-1.0;
22/02/2025 15:48:02;117;0;331.36;-4;20.30;2.38;893.3;9.70;74263;2835.889;-1759.919;1;319;270;271.0;25.9;26.1;28;28.0;27.1;-1.0;
22/02/2025 15:48:22;117;0;331.00;-4;20.28;2.43;891.0;9.70;74251;2835.892;-1759.921;1;319;270;271.0;25.9;26.1;28;27.5;27.1;-1.0;
22/02/2025 15:48:42;117;0;330.93;-4;20.27;2.38;888.8;9.70;74252;2835.894;-1759.923;1;319;270;271.0;25.9;26.1;28;28.0;27.1;-1.0;
22/02/2025 15:49:02;117;0;330.82;-4;20.22;2.36;886.6;9.70;74250;2835.897;-1759.925;1;319;270;271.0;25.9;26.1;28;27.5;27.1;-1.0;
22/02/2025 15:49:22;117;0;330.86;-4;20.26;2.37;884.3;9.70;74256;2835.899;-1759.927;1;319;270;271.0;25.9;26.1;28;27.5;27.1;-1.0;
22/02/2025 15:49:42;117;0;330.37;-4;20.17;2.39;882.1;9.70;74244;2835.902;-1759.929;1;319;270;271.0;25.9;26.1;28;27.5;27.1;-1.0;
22/02/2025 15:50:02;117;0;330.22;-4;20.12;2.36;880.0;9.70;74245;2835.904;-1759.931;1;319;270;272.6;25.9;26.1;28;27.5;27.1;-1.0;
22/02/2025 15:50:22;117;0;329.68;-4;20.00;2.41;877.8;9.70;74243;2835.907;-1759.933;1;319;270;271.0;25.9;26.1;28;28.0;27.1;-1.0;
22/02/2025 15:50:42;117;0;330.24;-4;20.23;1.94;875.8;9.70;74246;2835.909;-1759.935;1;319;290;293.5;25.9;26.1;28;27.5;27.1;-1.0;
22/02/2025 15:51:02;117;0;327.03;-4;19.73;2.64;873.8;9.60;74195;2835.911;-1759.937;1;319;290;293.5;25.9;26.1;28;27.5;27.1;-1.0;
22/02/2025 15:51:22;117;0;329.24;-4;19.22;2.03;871.7;9.60;74185;2835.914;-1759.939;1;319;290;291.9;25.9;26.1;28;27.5;27.1;-1.0;
22/02/2025 15:51:42;117;0;331.33;-4;19.70;2.45;869.8;9.60;74194;2835.916;-1759.941;1;319;310;312.9;25.9;26.1;28;27.5;27.1;-1.0;
22/02/2025 15:52:02;117;0;329.38;-4;19.65;2.60;867.8;9.60;74161;2835.918;-1759.943;1;319;330;333.9;25.9;26.1;28;27.5;27.1;-1.0;
22/02/2025 15:52:22;117;0;332.52;-4;18.64;2.51;865.8;9.60;74124;2835.920;-1759.944;1;319;330;333.9;25.5;25.3;28;27.5;27.1;-1.0;
22/02/2025 15:52:42;117;0;332.16;-4;20.12;2.62;863.5;9.60;74113;2835.923;-1759.946;1;319;330;333.9;25.5;24.9;28;28.0;27.1;-1.0;
22/02/2025 15:53:02;117;0;331.93;-4;20.34;2.49;861.3;9.60;74126;2835.926;-1759.948;1;319;330;333.9;25.5;24.9;28;28.0;27.1;-1.0;
22/02/2025 15:53:22;117;0;331.95;-4;20.43;2.41;859.0;9.60;74107;2835.928;-1759.950;1;319;330;332.3;25.5;24.9;28;27.5;27.1;-1.0;
22/02/2025 15:53:42;117;0;332.45;-4;20.08;2.43;856.7;9.60;74121;2835.931;-1759.952;1;319;330;333.9;25.5;24.9;28;27.5;27.1;-1.0;
22/02/2025 15:54:02;117;0;333.02;-4;20.47;2.42;854.5;9.60;74124;2835.933;-1759.954;1;319;330;333.9;25.5;24.9;28;27.5;27.1;-1.0;
22/02/2025 15:54:22;117;0;332.94;-4;20.19;2.38;852.3;9.60;74124;2835.936;-1759.956;1;319;330;333.9;25.5;24.9;28;28.0;27.1;-1.0;
22/02/2025 15:54:42;117;0;332.46;-4;20.25;2.25;850.1;9.60;74126;2835.939;-1759.958;1;319;330;333.9;25.5;24.9;28;27.5;27.1;-1.0;
22/02/2025 15:55:02;117;0;331.97;-4;19.76;2.49;848.0;9.60;74124;2835.941;-1759.960;1;319;330;333.9;25.5;24.9;28;28.0;27.1;-1.0;
22/02/2025 15:55:22;117;0;330.63;-4;20.23;2.40;846.0;9.60;74124;2835.943;-1759.962;1;319;330;333.9;25.5;24.9;28;27.5;27.1;-1.0;
22/02/2025 15:55:42;117;0;328.46;-4;19.85;2.77;843.9;9.60;74132;2835.945;-1759.964;1;319;330;333.9;25.5;24.9;28;27.5;27.1;-1.0;
22/02/2025 15:56:02;117;0;327.80;-4;20.33;2.32;841.9;9.60;74129;2835.948;-1759.966;1;319;330;333.9;25.5;24.9;28;27.5;27.1;-1.0;
22/02/2025 15:56:22;117;0;326.85;-4;20.18;2.60;839.7;9.60;74130;2835.950;-1759.968;1;319;330;333.9;25.5;25.0;28;27.5;27.1;-1.0;
