Timestamp;NavState;SecurityLevel;Heading;Declination;Pitch;Roll;Depth;Temperature;Pa;Lat;Lon;DeadReckoning;DesiredH;BallastCmd;BallastPos;LinCmd;LinPos;AngCmd;AngPos;Voltage;Altitude;
15/02/2025 20:54:53;119;0;328.57;-4;-49.53;-4.74;0.4;17.70;75784;2834.585;-1758.466;0;338;500;509.7;100.0;100.9;0;0.9;28.5;-1.0;
15/02/2025 20:55:03;116;0;320.73;-4;-44.37;-18.99;0.2;17.70;75791;2834.584;-1758.467;0;339;500;508.1;100.0;100.7;0;0.9;28.5;-1.0;
15/02/2025 20:55:27;116;0;338.89;-4;-48.20;-8.40;0.3;17.80;75798;2834.568;-1758.477;0;339;500;508.1;100.0;100.7;0;0.9;28.5;-1.0;
15/02/2025 20:55:45;116;0;306.50;-4;-51.11;6.15;0.3;17.90;75807;2834.568;-1758.477;0;-9999;500;509.7;100.0;100.7;0;0.9;28.5;-1.0;
15/02/2025 20:56:03;116;0;321.97;-4;-48.08;-13.80;0.4;17.90;75819;2834.570;-1758.481;0;340;500;509.7;100.0;100.7;0;0.9;28.4;-1.0;
15/02/2025 20:56:23;116;0;340.42;-4;-44.75;-11.77;0.2;18.00;75814;2834.570;-1758.484;0;340;500;509.7;100.0;100.7;0;0.9;28.5;-1.0;
15/02/2025 20:56:34;116;0;341.81;-4;-45.38;-15.59;0.5;18.00;75816;2834.569;-1758.485;0;341;500;509.7;100.0;100.9;0;0.9;28.4;-1.0;
15/02/2025 20:57:37;116;0;325.72;-4;-41.20;-15.46;0.3;18.20;75844;2834.570;-1758.489;0;-9999;500;509.7;100.0;100.9;0;0.9;28.5;-1.0;
15/02/2025 20:58:28;116;0;339.19;-4;-48.02;-18.90;0.3;18.40;75867;2834.569;-1758.494;0;341;500;509.7;100.0;100.7;0;0.9;28.5;-1.0;
15/02/2025 20:59:31;116;0;329.37;-4;-47.15;-13.61;0.3;18.60;75889;2834.567;-1758.500;0;341;500;509.7;100.0;100.7;0;0.9;28.5;-1.0;
15/02/2025 21:00:50;116;0;319.47;-4;-47.04;-19.04;0.5;19.00;75913;2834.567;-1758.506;0;342;500;509.7;100.0;100.7;0;0.9;28.4;-1.0;
15/02/2025 21:01:08;116;0;332.29;-4;-54.69;-22.56;0.2;19.10;75925;2834.568;-1758.506;0;343;500;509.7;100.0;100.7;0;0.9;28.5;-1.0;
15/02/2025 21:01:28;110;0;326.92;-4;-56.71;-3.89;-0.1;19.20;75921;2834.568;-1758.506;0;343;-50;395.2;100.0;99.9;-8;-8.1;28.5;-1.0;
15/02/2025 21:01:38;110;0;328.61;-4;-45.55;-9.44;0.3;19.20;76278;2834.568;-1758.506;1;343;-50;246.8;100.0;99.9;-8;-8.6;28.5;-1.0;
15/02/2025 21:01:48;110;0;322.35;-4;-64.33;-21.35;0.5;19.20;76515;2834.568;-1758.506;1;343;-50;88.7;100.0;99.9;-8;-8.6;28.5;-1.0;
15/02/2025 21:01:58;110;0;317.89;-4;-68.46;-22.84;0.9;19.30;76836;2834.568;-1758.506;1;343;-50;-50.0;100.0;100.0;-8;-8.6;28.4;-1.0;
15/02/2025 21:02:08;110;0;327.02;-4;-67.41;-11.42;1.5;19.30;77118;2834.569;-1758.506;1;343;-50;-50.0;50.0;49.9;-8;-8.6;28.5;-1.0;
15/02/2025 21:02:28;100;0;335.42;-4;-25.88;-16.88;4.9;19.40;77097;2834.572;-1758.508;1;343;-50;-46.8;50.0;49.5;-8;-8.6;28.5;-1.0;
15/02/2025 21:02:48;100;0;343.00;-4;-30.82;-15.82;8.2;19.40;77103;2834.574;-1758.509;1;343;-50;-45.2;50.0;49.5;14;14.0;28.5;-1.0;
15/02/2025 21:03:08;100;0;337.98;-4;-32.82;-4.24;11.9;19.50;77113;2834.577;-1758.510;1;343;-50;-45.2;49.2;49.2;14;14.4;28.5;-1.0;
15/02/2025 21:03:28;100;0;335.54;-4;-34.26;-4.67;15.6;19.50;77117;2834.579;-1758.511;1;343;-50;-45.2;47.9;47.9;14;14.4;28.5;0.0;
15/02/2025 21:03:48;100;0;333.86;-4;-32.12;-3.92;19.1;19.50;77118;2834.582;-1758.512;1;343;-50;-45.2;47.2;47.1;12;12.2;28.5;0.0;
15/02/2025 21:04:08;100;0;334.98;-4;-32.41;-6.44;22.7;19.50;77124;2834.584;-1758.514;1;343;-50;-45.2;46.5;46.4;12;11.7;28.5;0.0;
15/02/2025 21:04:28;100;0;338.70;-4;-26.57;-5.74;26.0;19.60;77131;2834.587;-1758.515;1;343;-50;-45.2;47.5;47.6;12;12.2;28.5;0.0;
15/02/2025 21:04:48;100;0;335.97;-4;-30.53;-5.52;29.4;19.60;77137;2834.590;-1758.516;1;343;-50;-45.2;47.5;47.9;12;12.2;28.5;0.0;
15/02/2025 21:05:08;100;0;332.38;-4;-31.20;-6.25;33.0;19.60;77148;2834.592;-1758.518;1;343;-50;-46.8;47.5;47.9;12;12.2;28.5;0.0;
15/02/2025 21:05:28;100;0;336.20;-4;-29.28;-6.08;36.7;19.60;77157;2834.595;-1758.519;1;343;-50;-45.2;47.5;47.9;12;12.2;28.5;0.0;
15/02/2025 21:05:48;100;0;336.73;-4;-28.94;-6.42;40.5;19.60;77150;2834.598;-1758.521;1;343;-50;-45.2;47.9;47.9;12;12.2;28.5;0.0;
15/02/2025 21:06:08;100;0;345.68;-4;-28.75;-5.86;43.9;19.60;77156;2834.601;-1758.522;1;343;-50;-45.2;48.2;48.6;14;14.0;28.5;0.0;
15/02/2025 21:06:28;100;0;345.08;-4;-30.86;-4.58;47.1;19.70;77154;2834.604;-1758.522;1;343;-50;-45.2;48.2;48.6;14;14.4;28.5;0.0;
15/02/2025 21:06:48;100;0;341.49;-4;-31.96;-4.71;50.6;19.70;77156;2834.606;-1758.523;1;343;-50;-45.2;48.2;48.6;14;14.4;28.5;0.0;
15/02/2025 21:07:08;100;0;340.58;-4;-30.77;-4.60;54.3;19.70;77154;2834.609;-1758.524;1;343;-50;-45.2;48.2;48.6;14;14.4;28.5;0.0;
15/02/2025 21:07:28;100;0;333.94;-4;-31.29;-4.68;58.2;19.70;77154;2834.612;-1758.526;1;343;-50;-45.2;48.2;48.6;12;12.2;28.5;0.0;
15/02/2025 21:07:48;100;0;329.88;-4;-31.28;-5.92;62.0;19.70;77145;2834.615;-1758.528;1;343;-50;-45.2;48.2;48.7;8;8.1;28.5;0.0;
15/02/2025 21:08:08;100;0;330.75;-4;-31.12;-7.91;65.8;19.70;77156;2834.617;-1758.529;1;343;-50;-43.5;48.2;48.6;8;7.7;28.5;0.0;
15/02/2025 21:08:28;100;0;331.04;-4;-30.45;-7.89;69.6;19.70;77156;2834.620;-1758.531;1;343;-50;-48.4;48.2;48.7;8;7.7;28.5;0.0;
15/02/2025 21:08:48;100;0;332.23;-4;-31.45;-7.92;73.5;19.70;77154;2834.623;-1758.533;1;343;-50;-45.2;48.2;48.6;10;9.9;28.5;0.0;
15/02/2025 21:09:08;100;0;332.73;-4;-30.70;-6.46;77.3;19.70;77162;2834.626;-1758.535;1;343;-50;-46.8;48.2;48.7;10;10.8;28.5;0.0;
15/02/2025 21:09:28;100;0;331.56;-4;-31.06;-6.45;81.1;19.70;77156;2834.628;-1758.536;1;343;-50;-48.4;48.2;48.7;10;10.8;28.5;0.0;
15/02/2025 21:09:48;100;0;331.19;-4;-31.17;-6.46;84.9;19.70;77159;2834.631;-1758.538;1;343;-50;-43.5;48.2;48.7;10;10.4;28.5;0.0;
15/02/2025 21:10:08;100;0;329.32;-4;-31.61;-6.48;88.9;19.70;77170;2834.634;-1758.540;1;343;-50;-46.8;48.2;48.7;7;7.2;28.5;0.0;
15/02/2025 21:10:28;100;0;329.75;-4;-30.72;-8.28;92.8;19.70;77165;2834.636;-1758.542;1;344;-50;-46.8;48.2;48.7;7;7.2;28.5;0.0;
15/02/2025 21:10:48;100;0;329.57;-4;-30.36;-8.27;96.6;19.70;77156;2834.639;-1758.543;1;344;-50;-45.2;48.2;48.6;7;7.2;28.5;0.0;
15/02/2025 21:11:08;100;0;328.51;-4;-30.82;-8.38;100.3;19.70;77168;2834.642;-1758.545;1;344;-50;-45.2;48.2;48.7;5;4.5;28.5;0.0;
15/02/2025 21:11:28;100;0;328.26;-4;-30.62;-9.73;104.1;19.70;77162;2834.644;-1758.547;1;344;-50;-45.2;48.2;48.7;5;4.1;28.5;0.0;
15/02/2025 21:11:48;100;0;331.03;-4;-30.84;-9.74;107.9;19.70;77162;2834.647;-1758.549;1;344;-50;-45.2;48.2;48.6;8;8.1;28.5;0.0;
15/02/2025 21:12:09;100;0;333.41;-4;-30.99;-7.47;111.8;19.70;77162;2834.650;-1758.550;1;344;-50;-45.2;48.2;48.6;10;10.4;28.5;0.0;
15/02/2025 21:12:29;100;0;337.30;-4;-30.34;-6.38;115.6;19.70;77149;2834.653;-1758.552;1;344;-50;-45.2;48.2;48.7;12;12.6;28.5;0.0;
15/02/2025 21:12:49;100;0;344.59;-4;-31.21;-5.30;119.3;19.60;77133;2834.656;-1758.553;1;344;-50;-45.2;48.2;48.7;12;13.1;28.5;0.0;
15/02/2025 21:13:09;100;0;347.56;-4;-30.52;-5.29;123.2;19.60;77102;2834.659;-1758.553;1;344;-50;-45.2;48.2;48.7;12;13.1;28.5;0.0;
15/02/2025 21:13:29;100;0;350.82;-4;-31.01;-5.28;127.0;19.60;77083;2834.662;-1758.554;1;344;-50;-45.2;48.2;48.7;14;14.0;28.5;0.0;
15/02/2025 21:13:49;100;0;351.47;-4;-30.74;-4.64;130.7;19.60;77042;2834.665;-1758.554;1;344;-50;-45.2;48.2;48.7;14;14.4;28.5;0.0;
15/02/2025 21:14:09;100;0;348.27;-4;-30.92;-4.69;134.5;19.50;77021;2834.668;-1758.555;1;344;-50;-45.2;48.2;48.7;14;14.4;28.5;0.0;
15/02/2025 21:14:29;100;0;346.89;-4;-30.95;-4.60;138.3;19.50;77002;2834.671;-1758.556;1;344;-50;-45.2;48.2;48.7;14;14.4;28.5;0.0;
15/02/2025 21:14:49;100;0;345.80;-4;-31.41;-4.52;142.3;19.50;76990;2834.674;-1758.557;1;344;-50;-45.2;48.2;48.7;14;14.4;28.5;0.0;
15/02/2025 21:15:09;100;0;341.22;-4;-30.53;-4.62;146.3;19.40;76984;2834.677;-1758.558;1;344;-50;-45.2;48.2;48.7;14;14.4;28.5;0.0;
15/02/2025 21:15:29;100;0;337.70;-4;-30.65;-4.67;150.1;19.40;76977;2834.680;-1758.559;1;344;-50;-46.8;48.2;48.7;12;12.2;28.5;0.0;
15/02/2025 21:15:49;100;0;333.05;-4;-30.54;-5.98;154.0;19.40;76970;2834.683;-1758.561;1;344;-50;-45.2;48.2;48.7;10;9.9;28.5;0.0;
15/02/2025 21:16:09;100;0;338.27;-4;-30.83;-7.51;157.9;19.40;76957;2834.686;-1758.562;1;344;-50;-45.2;48.2;48.7;13;13.1;28.5;0.0;
15/02/2025 21:16:29;100;0;345.10;-4;-31.36;-5.01;162.1;19.30;76934;2834.689;-1758.563;1;344;-50;-45.2;48.2;48.7;13;13.5;28.5;0.0;
15/02/2025 21:16:49;100;0;350.73;-4;-31.10;-5.07;166.2;19.30;76925;2834.693;-1758.564;1;344;-50;-46.8;48.2;48.7;13;13.5;28.5;0.0;
15/02/2025 21:17:09;100;0;352.11;-4;-31.76;-4.99;170.3;19.20;76915;2834.696;-1758.564;1;344;-50;-45.2;48.2;48.6;15;14.9;28.5;0.0;
15/02/2025 21:17:29;100;0;348.17;-4;-31.30;-4.25;174.4;19.20;76890;2834.699;-1758.565;1;344;-50;-45.2;48.2;48.7;13;13.1;28.5;0.0;
15/02/2025 21:17:49;100;0;345.75;-4;-30.93;-5.48;178.5;19.20;76874;2834.702;-1758.566;1;344;-50;-46.8;48.2;48.7;13;12.6;28.5;0.0;
15/02/2025 21:18:09;100;0;341.16;-4;-30.99;-5.47;182.5;19.10;76861;2834.705;-1758.567;1;344;-50;-43.5;48.2;48.6;13;12.6;28.5;0.0;
15/02/2025 21:18:29;100;0;341.88;-4;-30.87;-5.50;186.4;19.10;76845;2834.708;-1758.568;1;344;-50;-45.2;48.2;48.7;13;12.6;28.5;0.0;
15/02/2025 21:18:49;100;0;337.30;-4;-30.79;-5.59;190.4;19.00;76831;2834.711;-1758.569;1;344;-50;-48.4;48.2;48.7;13;12.6;28.5;0.0;
15/02/2025 21:19:09;100;0;334.69;-4;-29.97;-5.52;194.2;19.00;76818;2834.714;-1758.571;1;344;-50;-43.5;48.2;48.7;11;10.8;28.5;0.0;
15/02/2025 21:19:29;100;0;334.85;-4;-29.75;-6.60;197.8;19.00;76803;2834.717;-1758.572;1;344;-50;-45.2;48.2;48.6;11;10.4;28.5;0.0;
15/02/2025 21:19:35;118;0;334.42;-4;-30.15;-6.68;198.8;18.90;76804;2834.718;-1758.573;1;344;150;-40.3;34.0;33.9;8;8.1;28.5;0.0;
15/02/2025 21:19:45;118;0;8.04;-4;-19.75;-8.49;200.2;18.90;76774;2834.720;-1758.573;1;344;150;87.1;34.0;33.7;8;8.1;28.1;-1.0;
15/02/2025 21:19:55;118;0;9.63;-4;-6.96;-8.25;201.0;18.90;76499;2834.721;-1758.572;1;344;150;153.2;34.0;33.4;8;8.1;28.1;-1.0;
15/02/2025 21:20:05;118;0;336.54;-4;-2.95;-8.61;201.3;18.90;76375;2834.721;-1758.572;1;344;150;153.2;34.0;33.4;8;8.1;28.5;-1.0;
15/02/2025 21:20:25;117;0;334.26;-4;-1.76;-8.37;201.3;18.80;76382;2834.721;-1758.572;1;344;150;151.6;34.0;33.4;8;8.1;28.5;-1.0;
15/02/2025 21:20:45;117;0;330.34;-4;-1.01;-8.59;201.0;18.80;76366;2834.721;-1758.572;1;344;150;154.8;24.7;24.6;29;29.3;28.5;-1.0;
15/02/2025 21:21:05;117;0;330.81;-4;25.20;3.28;200.4;18.80;76361;2834.721;-1758.572;1;344;150;156.5;23.3;23.1;33;32.9;28.5;-1.0;
15/02/2025 21:21:25;117;0;331.34;-4;27.77;4.95;198.8;18.70;76361;2834.722;-1758.573;1;344;150;156.5;22.6;22.5;33;33.4;28.5;-1.0;
15/02/2025 21:21:45;117;0;332.79;-4;29.33;4.90;197.0;18.70;76346;2834.724;-1758.574;1;344;150;156.5;22.6;22.2;33;33.4;28.5;-1.0;
15/02/2025 21:22:05;117;0;331.71;-4;28.93;4.93;194.9;18.60;76348;2834.725;-1758.575;1;344;150;156.5;22.3;22.2;33;33.4;28.5;-1.0;
15/02/2025 21:22:25;117;0;331.89;-4;29.54;4.84;192.9;18.60;76347;2834.727;-1758.576;1;344;150;156.5;22.3;22.2;33;33.4;28.5;-1.0;
15/02/2025 21:22:45;117;0;332.84;-4;28.97;4.86;190.8;18.50;76349;2834.728;-1758.577;1;344;150;156.5;22.0;21.9;33;33.4;28.5;-1.0;
15/02/2025 21:23:05;117;0;336.20;-4;30.11;4.95;188.7;18.50;76352;2834.730;-1758.577;1;344;150;154.8;22.0;21.8;31;31.1;28.5;-1.0;
15/02/2025 21:23:25;117;0;335.27;-4;29.89;3.39;186.5;18.50;76345;2834.732;-1758.578;1;344;150;156.5;22.0;21.8;31;30.7;28.5;-1.0;
15/02/2025 21:23:45;117;0;333.69;-4;29.99;3.33;184.4;18.40;76336;2834.733;-1758.579;1;344;150;156.5;22.0;21.8;31;30.7;28.5;-1.0;
15/02/2025 21:24:05;117;0;333.69;-4;29.94;3.40;182.3;18.40;76345;2834.735;-1758.580;1;344;150;156.5;22.0;21.8;31;30.7;28.5;-1.0;
15/02/2025 21:24:25;117;0;336.97;-4;29.76;3.40;180.2;18.40;76350;2834.736;-1758.581;1;344;150;156.5;22.0;21.8;31;30.7;28.5;-1.0;
15/02/2025 21:24:45;117;0;338.74;-4;29.91;3.37;178.2;18.30;76357;2834.738;-1758.581;1;344;150;156.5;22.0;21.8;31;30.7;28.5;-1.0;
15/02/2025 21:25:05;117;0;336.56;-4;29.77;3.41;176.1;18.30;76363;2834.739;-1758.582;1;344;150;156.5;22.0;21.8;31;30.7;28.5;-1.0;
15/02/2025 21:25:25;117;0;337.88;-4;29.87;3.42;174.1;18.30;76352;2834.741;-1758.583;1;344;170;174.2;22.0;21.6;31;30.7;28.5;-1.0;
15/02/2025 21:25:45;117;0;340.21;-4;29.29;3.39;172.2;18.30;76329;2834.742;-1758.583;1;344;190;193.5;22.0;21.8;31;30.7;28.5;-1.0;
15/02/2025 21:26:05;117;0;337.55;-4;29.16;3.49;170.1;18.20;76296;2834.744;-1758.584;1;344;190;195.2;22.0;21.8;31;30.7;28.5;-1.0;
15/02/2025 21:26:25;117;0;335.32;-4;28.75;3.50;167.9;18.20;76298;2834.746;-1758.585;1;344;190;193.5;21.6;21.6;31;30.7;28.5;-1.0;
15/02/2025 21:26:45;117;0;331.92;-4;29.41;3.41;165.7;18.20;76318;2834.747;-1758.586;1;344;190;193.5;21.6;21.5;34;33.8;28.5;-1.0;
15/02/2025 21:27:05;117;0;325.73;-4;29.11;5.29;163.5;18.20;76308;2834.749;-1758.587;1;345;190;195.2;21.6;21.4;44;44.2;28.5;-1.0;
15/02/2025 21:27:25;117;0;322.70;-4;30.31;10.87;161.4;18.20;76328;2834.750;-1758.588;1;345;190;195.2;21.6;21.4;49;49.2;28.5;-1.0;
15/02/2025 21:27:45;117;0;324.75;-4;31.05;14.00;159.2;18.20;76327;2834.752;-1758.590;1;345;190;193.5;21.6;21.4;45;45.1;28.5;-1.0;
15/02/2025 21:28:05;117;0;329.69;-4;31.26;10.90;156.7;18.10;76330;2834.753;-1758.591;1;345;190;193.5;21.6;21.4;38;37.9;28.5;-1.0;
15/02/2025 21:28:25;117;0;329.46;-4;30.47;6.89;154.3;18.10;76336;2834.755;-1758.592;1;345;190;195.2;21.6;21.4;38;37.0;28.5;-1.0;
15/02/2025 21:28:45;117;0;330.14;-4;30.18;6.94;151.9;18.10;76353;2834.757;-1758.593;1;345;190;195.2;21.6;21.4;38;37.5;28.5;-1.0;
15/02/2025 21:29:05;117;0;332.18;-4;30.26;6.87;149.6;18.10;76354;2834.758;-1758.594;1;345;190;193.5;21.6;21.4;35;35.2;28.5;-1.0;
15/02/2025 21:29:25;117;0;333.87;-4;30.18;5.43;147.3;18.10;76360;2834.760;-1758.595;1;345;190;193.5;21.6;21.4;33;32.9;28.5;-1.0;
15/02/2025 21:29:45;117;0;332.97;-4;29.77;4.16;145.1;18.10;76357;2834.762;-1758.596;1;345;190;195.2;21.6;21.4;33;32.0;28.5;-1.0;
15/02/2025 21:30:05;117;0;331.53;-4;29.73;4.14;142.9;18.10;76364;2834.763;-1758.597;1;345;190;193.5;21.6;21.4;36;36.1;28.5;-1.0;
15/02/2025 21:30:25;117;0;332.14;-4;29.95;6.69;140.9;18.10;76373;2834.765;-1758.598;1;345;190;193.5;21.6;21.4;36;36.6;28.5;-1.0;
15/02/2025 21:30:45;117;0;334.46;-4;29.83;6.63;138.9;18.10;76370;2834.766;-1758.599;1;345;190;195.2;21.6;21.4;33;32.5;28.5;-1.0;
15/02/2025 21:31:05;117;0;336.37;-4;29.85;4.09;137.0;18.10;76381;2834.767;-1758.599;1;345;210;214.5;21.6;21.4;33;32.0;28.5;-1.0;
15/02/2025 21:31:25;117;0;336.93;-4;29.67;4.27;134.9;18.10;76356;2834.769;-1758.600;1;345;210;214.5;21.6;21.4;31;30.7;28.5;-1.0;
15/02/2025 21:31:45;117;0;332.17;-4;29.78;3.40;132.6;18.10;76370;2834.771;-1758.601;1;345;210;216.1;21.6;21.4;35;35.2;28.5;-1.0;
15/02/2025 21:32:05;117;0;327.31;-4;30.01;6.31;130.3;18.10;76389;2834.772;-1758.602;1;346;210;214.5;21.6;21.4;43;42.9;28.5;-1.0;
15/02/2025 21:32:25;117;0;325.65;-4;31.09;9.42;127.7;18.10;76414;2834.774;-1758.603;1;346;210;214.5;21.6;21.4;46;46.0;28.5;-1.0;
15/02/2025 21:32:45;117;0;317.82;-4;31.56;12.34;125.0;18.10;76431;2834.775;-1758.605;1;346;210;212.9;21.6;21.4;59;59.1;28.5;-1.0;
15/02/2025 21:33:05;117;0;317.55;-4;31.68;19.56;122.1;18.10;76472;2834.777;-1758.607;1;346;210;212.9;21.6;21.4;59;59.6;28.5;-1.0;
15/02/2025 21:33:25;117;0;322.45;-4;31.27;19.45;119.2;18.20;76497;2834.779;-1758.608;1;346;210;212.9;21.6;21.4;52;51.9;28.5;-1.0;
15/02/2025 21:33:45;117;0;324.97;-4;30.65;14.54;116.3;18.20;76523;2834.781;-1758.610;1;346;210;214.5;21.6;21.4;47;46.5;28.5;-1.0;
15/02/2025 21:34:05;117;0;325.68;-4;30.30;11.78;113.6;18.20;76533;2834.783;-1758.611;1;346;210;214.5;21.6;21.4;47;46.0;28.5;-1.0;
15/02/2025 21:34:25;117;0;326.91;-4;30.20;11.75;110.8;18.20;76541;2834.785;-1758.613;1;347;210;212.9;21.6;21.4;47;46.0;28.5;-1.0;
15/02/2025 21:34:45;117;0;329.11;-4;30.30;11.74;108.2;18.20;76548;2834.786;-1758.614;1;347;210;212.9;21.6;21.4;42;42.0;28.5;-1.0;
15/02/2025 21:35:05;117;0;331.39;-4;29.95;9.03;105.4;18.30;76552;2834.788;-1758.615;1;347;210;214.5;21.6;21.4;39;38.8;28.5;-1.0;
15/02/2025 21:35:25;117;0;333.77;-4;29.54;7.25;102.7;18.30;76559;2834.791;-1758.617;1;347;210;214.5;21.6;21.4;36;36.1;28.5;-1.0;
15/02/2025 21:35:45;117;0;333.00;-4;29.68;6.42;100.0;18.30;76567;2834.792;-1758.618;1;347;210;214.5;21.6;21.4;36;36.6;28.5;-1.0;
15/02/2025 21:36:05;117;0;333.82;-4;29.11;6.37;97.5;18.30;76574;2834.794;-1758.619;1;347;210;212.9;21.6;21.4;36;36.6;28.5;-1.0;
15/02/2025 21:36:25;117;0;334.37;-4;29.24;6.39;95.0;18.40;76588;2834.796;-1758.620;1;347;210;214.5;21.6;21.4;36;36.1;28.5;-1.0;
15/02/2025 21:36:45;117;0;335.23;-4;29.62;6.39;92.4;18.40;76593;2834.798;-1758.621;1;347;210;214.5;21.6;21.4;36;36.1;28.5;-1.0;
15/02/2025 21:37:05;117;0;334.78;-4;29.63;6.41;89.9;18.40;76602;2834.800;-1758.622;1;347;210;214.5;21.6;21.4;36;36.1;28.5;-1.0;
15/02/2025 21:37:25;117;0;334.51;-4;29.56;6.49;87.4;18.40;76616;2834.802;-1758.623;1;347;210;211.3;21.6;21.4;36;36.6;28.5;-1.0;
15/02/2025 21:37:45;117;0;334.45;-4;29.51;6.42;84.8;18.40;76612;2834.804;-1758.624;1;347;210;212.9;21.6;21.4;36;36.6;28.5;-1.0;
15/02/2025 21:38:05;117;0;333.74;-4;29.64;6.41;82.2;18.50;76622;2834.806;-1758.625;1;348;210;214.5;21.6;21.4;36;36.1;28.5;-1.0;
15/02/2025 21:38:25;117;0;333.24;-4;29.61;6.42;79.6;18.50;76616;2834.808;-1758.626;1;348;210;211.3;21.6;21.4;38;38.4;28.5;-1.0;
15/02/2025 21:38:45;117;0;332.75;-4;29.64;7.74;77.0;18.50;76626;2834.810;-1758.627;1;348;210;214.5;21.6;21.4;38;38.4;28.5;-1.0;
15/02/2025 21:39:05;117;0;334.03;-4;29.41;7.68;74.3;18.50;76628;2834.812;-1758.628;1;348;210;216.1;21.6;21.4;38;38.4;28.5;-1.0;
15/02/2025 21:39:25;117;0;335.63;-4;29.38;7.72;71.7;18.60;76638;2834.814;-1758.629;1;348;210;212.9;21.6;21.4;35;35.2;28.5;-1.0;
15/02/2025 21:39:45;117;0;338.29;-4;29.44;5.27;69.2;18.60;76644;2834.816;-1758.630;1;348;210;212.9;21.6;21.4;33;32.9;28.5;-1.0;
15/02/2025 21:40:05;117;0;339.17;-4;28.69;4.48;66.7;18.60;76648;2834.818;-1758.631;1;348;210;214.5;21.2;21.2;33;32.5;28.5;-1.0;
15/02/2025 21:40:25;117;0;341.36;-4;29.87;4.42;64.2;18.60;76659;2834.820;-1758.632;1;348;210;212.9;21.2;20.9;33;32.5;28.5;-1.0;
15/02/2025 21:40:45;117;0;339.92;-4;30.28;4.47;61.8;18.70;76663;2834.822;-1758.633;1;348;210;214.5;21.2;20.9;33;32.5;28.5;-1.0;
15/02/2025 21:41:05;117;0;339.52;-4;30.30;4.43;59.4;18.70;76673;2834.823;-1758.633;1;348;210;214.5;21.2;20.9;33;32.5;28.5;-1.0;
15/02/2025 21:41:25;117;0;339.12;-4;29.88;4.48;56.9;18.70;76684;2834.825;-1758.634;1;348;210;214.5;21.2;20.9;33;32.5;28.5;-1.0;
15/02/2025 21:41:45;117;0;339.07;-4;30.75;4.40;54.3;18.70;76685;2834.827;-1758.635;1;348;210;214.5;21.2;20.9;33;32.5;28.5;-1.0;
15/02/2025 21:42:05;117;0;329.02;-4;30.61;5.06;51.5;18.80;76706;2834.829;-1758.636;1;348;210;214.5;21.2;20.9;45;45.1;28.5;-1.0;
15/02/2025 21:42:25;117;0;327.17;-4;31.94;11.59;48.6;18.80;76708;2834.831;-1758.638;1;349;210;214.5;21.2;20.9;50;50.1;28.5;-1.0;
15/02/2025 21:42:45;117;0;321.92;-4;32.07;13.74;45.5;18.80;76716;2834.833;-1758.639;1;349;210;214.5;21.8;21.9;59;59.1;28.5;-1.0;
15/02/2025 21:43:05;117;0;323.92;-4;31.71;19.39;42.5;18.80;76729;2834.835;-1758.641;1;349;210;214.5;21.8;21.9;55;54.6;28.5;-1.0;
15/02/2025 21:43:25;117;0;326.78;-4;28.87;16.16;39.3;18.90;76732;2834.837;-1758.643;1;349;210;214.5;21.5;21.4;50;50.1;28.5;-1.0;
15/02/2025 21:43:45;117;0;328.21;-4;29.75;14.01;36.5;18.90;76735;2834.839;-1758.644;1;349;210;214.5;21.5;21.5;48;47.8;28.5;-1.0;
15/02/2025 21:44:05;117;0;328.54;-4;31.48;12.47;33.5;18.90;76730;2834.841;-1758.646;1;350;210;214.5;21.5;21.4;48;46.9;28.5;-1.0;
15/02/2025 21:44:25;117;0;329.30;-4;29.50;12.20;30.5;18.90;76741;2834.843;-1758.647;1;350;210;211.3;21.5;21.4;48;46.9;28.5;-1.0;
15/02/2025 21:44:45;117;0;330.00;-4;30.04;12.70;27.6;19.00;76749;2834.845;-1758.648;1;350;210;212.9;21.5;21.4;48;46.9;28.5;-1.0;
15/02/2025 21:45:05;117;0;337.00;-4;31.07;12.22;24.5;19.00;76750;2834.848;-1758.650;1;350;210;214.5;21.5;21.4;37;37.0;28.5;-1.0;
15/02/2025 21:45:25;117;0;332.59;-4;29.58;7.03;21.6;19.00;76749;2834.850;-1758.651;1;350;210;214.5;21.5;21.4;43;43.3;28.5;-1.0;
15/02/2025 21:45:45;117;0;335.87;-4;29.73;10.24;18.6;19.00;76768;2834.852;-1758.652;1;350;210;214.5;21.5;21.4;38;37.9;28.5;-1.0;
15/02/2025 21:46:06;117;0;328.84;-4;29.92;7.43;15.5;19.00;76759;2834.854;-1758.654;1;351;210;214.5;21.5;21.4;50;50.1;28.5;-1.0;
15/02/2025 21:46:26;117;0;335.11;-4;30.16;14.87;12.3;19.10;76777;2834.857;-1758.655;1;351;210;214.5;21.5;21.4;40;40.2;28.5;-1.0;
15/02/2025 21:46:46;117;0;335.42;-4;28.89;7.90;9.3;19.10;76762;2834.859;-1758.656;1;351;210;212.9;21.1;21.2;40;39.7;28.5;-1.0;
15/02/2025 21:47:06;117;0;339.93;-4;29.85;8.02;6.0;19.10;76774;2834.862;-1758.657;1;351;210;214.5;21.1;20.9;35;35.2;28.5;-1.0;
15/02/2025 21:47:25;115;0;333.53;-4;29.15;6.56;2.7;19.10;76765;2834.864;-1758.659;1;351;500;221.0;100.0;64.4;0;0.0;28.5;-1.0;
15/02/2025 21:47:35;115;0;345.25;-4;14.34;-11.35;1.5;19.20;76741;2834.866;-1758.659;1;351;500;340.3;100.0;100.1;0;-0.5;28.2;-1.0;
15/02/2025 21:47:45;115;0;329.00;-4;-59.95;-11.42;1.9;19.20;76493;2834.866;-1758.659;1;351;500;454.8;100.0;100.7;0;0.0;28.3;-1.0;
15/02/2025 21:47:55;115;0;321.14;-4;-78.37;-29.46;1.6;19.20;76227;2834.866;-1758.659;1;351;500;506.5;100.0;100.7;0;-0.5;28.3;-1.0;
15/02/2025 21:48:05;115;0;320.48;-4;-28.82;-16.76;0.1;19.20;76139;2834.867;-1758.660;1;351;500;506.5;100.0;100.7;0;-0.5;28.5;-1.0;
15/02/2025 21:48:25;119;0;322.30;-4;-49.02;-16.15;0.1;19.30;76154;2834.867;-1758.660;1;351;500;508.1;100.0;100.7;0;0.0;28.5;-1.0;
15/02/2025 21:48:35;119;0;335.79;-4;-46.18;-18.88;0.1;19.30;76144;2835.044;-1758.857;0;351;500;508.1;100.0;100.7;0;0.0;28.5;-1.0;
