Timestamp;NavState;SecurityLevel;Heading;Declination;Pitch;Roll;Depth;Temperature;Pa;Lat;Lon;DeadReckoning;DesiredH;BallastCmd;BallastPos;LinCmd;LinPos;AngCmd;AngPos;Voltage;Altitude;
05/03/2025 11:04:14;119;0;131.26;-4;-60.77;-13.61;-0.2;20.50;76538;2837.991;-1757.902;0;130;500;509.7;100.0;101.0;0;0.0;24.7;-1.0;
05/03/2025 11:04:24;116;0;149.73;-4;-54.83;-13.65;-0.2;20.50;76540;2837.996;-1757.903;0;130;500;508.1;100.0;101.0;0;0.0;24.7;-1.0;
05/03/2025 11:04:50;116;0;217.20;-4;-61.27;-30.79;-0.1;20.50;76544;2837.999;-1757.905;0;130;500;509.7;100.0;100.9;0;0.0;24.7;-1.0;
05/03/2025 11:05:14;116;0;233.53;-4;-57.24;-20.91;-0.1;20.50;76547;2838.000;-1757.905;0;135;500;509.7;100.0;101.0;0;-0.5;24.7;-1.0;
05/03/2025 11:05:33;116;0;224.99;-4;-52.28;-21.37;-0.1;20.50;76560;2838.003;-1757.905;0;135;500;509.7;100.0;101.0;0;0.0;24.7;-1.0;
05/03/2025 11:06:36;116;0;246.63;-4;-55.68;-27.48;0.1;20.60;76560;2838.011;-1757.908;0;135;500;509.7;100.0;101.0;0;0.0;24.7;-1.0;
05/03/2025 11:07:32;116;0;243.23;-4;-53.95;-16.00;0.0;20.70;76582;2838.020;-1757.910;0;135;500;509.7;100.0;101.0;0;0.0;24.7;-1.0;
05/03/2025 11:07:43;116;0;236.97;-4;-56.32;-1.67;0.0;20.70;76576;2838.021;-1757.910;0;135;500;508.1;100.0;101.0;0;-0.5;24.7;-1.0;
05/03/2025 11:08:26;116;0;230.40;-4;-53.09;-12.29;0.1;20.80;76586;2838.027;-1757.912;0;135;500;508.1;100.0;101.0;0;0.0;24.7;-1.0;
05/03/2025 11:08:38;116;0;235.21;-4;-55.58;-13.91;0.1;20.80;76581;2838.028;-1757.912;0;135;500;509.7;100.0;101.0;0;-0.5;24.7;-1.0;
05/03/2025 11:08:58;110;0;231.12;-4;-54.34;1.13;-0.1;20.80;76582;2838.028;-1757.912;0;135;-500;390.3;100.0;99.9;-12;-12.2;24.7;-1.0;
05/03/2025 11:09:08;110;0;227.48;-4;-53.63;-14.42;0.1;20.80;76940;2838.029;-1757.913;1;135;-500;241.9;100.0;99.9;-12;-12.6;24.7;-1.0;
05/03/2025 11:09:18;110;0;229.98;-4;-57.67;-13.38;0.5;20.90;77184;2838.029;-1757.913;1;135;-500;85.5;100.0;99.9;-12;-12.6;24.7;-1.0;
05/03/2025 11:09:28;110;0;236.52;-4;-66.45;-29.59;0.9;20.90;77520;2838.029;-1757.913;1;135;-500;-74.2;100.0;99.9;-12;-12.6;24.7;-1.0;
05/03/2025 11:09:38;110;0;244.75;-4;-67.11;-16.26;1.0;20.90;77856;2838.030;-1757.914;1;135;-500;-250.0;56.9;56.7;-12;-12.6;24.7;-1.0;
05/03/2025 11:09:48;110;0;249.52;-4;-55.15;-17.45;2.5;20.90;78241;2838.030;-1757.915;1;135;-500;-479.0;56.9;56.7;-12;-12.6;24.7;-1.0;
05/03/2025 11:09:58;110;0;259.95;-4;-46.51;-16.58;6.0;21.00;78766;2838.030;-1757.917;1;135;-500;-500.0;56.9;56.6;-12;-12.6;24.7;-1.0;
05/03/2025 11:10:08;110;0;275.31;-4;-43.00;-14.00;11.0;21.00;78766;2838.031;-1757.921;1;135;-500;-503.2;56.9;56.7;-12;-12.6;24.7;-1.0;
05/03/2025 11:10:28;100;0;283.86;-4;-43.45;-13.42;23.8;21.00;78747;2838.034;-1757.929;1;135;-500;-501.6;56.9;56.6;-12;-12.6;24.7;0.0;
05/03/2025 11:10:48;100;0;288.87;-4;-42.85;-12.06;37.6;21.00;78752;2838.037;-1757.938;1;135;-500;-500.0;54.5;54.3;70;69.9;24.7;0.0;
05/03/2025 11:11:08;100;0;272.54;-4;-39.97;26.74;50.4;21.00;78761;2838.039;-1757.948;1;135;-500;-509.7;53.0;53.0;70;70.4;24.7;0.0;
05/03/2025 11:11:28;100;0;246.82;-4;-33.72;27.33;61.3;21.00;78770;2838.037;-1757.957;1;135;-500;-508.1;53.4;53.5;70;70.4;24.7;0.0;
05/03/2025 11:11:48;100;0;216.93;-4;-30.05;26.06;70.0;21.00;78765;2838.031;-1757.963;1;135;-500;-508.1;54.9;54.9;70;69.9;24.7;0.0;
05/03/2025 11:12:08;100;0;192.52;-4;-32.19;25.94;78.6;21.00;78754;2838.026;-1757.965;1;135;-500;-508.1;55.8;56.0;70;70.4;24.7;0.0;
05/03/2025 11:12:28;100;0;169.70;-4;-34.31;26.59;87.9;20.90;78744;2838.020;-1757.965;1;135;-500;-509.7;55.8;56.3;49;49.2;24.7;0.0;
05/03/2025 11:12:48;100;0;151.81;-4;-36.22;15.72;97.8;20.90;78747;2838.014;-1757.961;1;135;-500;-508.1;55.8;56.3;20;49.2;24.7;0.0;
05/03/2025 11:12:51;118;0;150.12;-4;-36.37;8.14;99.1;20.90;78755;2838.014;-1757.961;1;135;500;-506.5;14.5;20.3;12;12.2;24.7;0.0;
05/03/2025 11:13:01;118;0;135.43;-4;-31.77;-2.61;103.0;20.90;78724;2838.012;-1757.959;1;135;500;-379.0;14.5;14.3;12;12.2;24.3;-1.0;
05/03/2025 11:13:11;118;0;131.70;-4;-11.22;-3.24;106.1;20.90;78442;2838.009;-1757.955;1;135;500;-245.2;14.5;14.1;12;12.2;24.4;-1.0;
05/03/2025 11:13:21;118;0;128.37;-4;10.53;-4.54;106.8;20.90;78169;2838.009;-1757.954;1;135;500;-117.7;14.5;13.8;12;11.7;24.4;-1.0;
05/03/2025 11:13:31;118;0;125.48;-4;31.94;-5.84;106.0;20.90;77899;2838.009;-1757.954;1;135;500;6.5;14.5;14.4;12;11.7;24.3;-1.0;
05/03/2025 11:13:41;118;0;123.79;-4;43.92;-6.70;105.1;20.90;77634;2838.010;-1757.954;1;135;500;129.0;14.5;14.6;12;11.7;24.3;-1.0;
05/03/2025 11:13:51;118;0;125.68;-4;43.04;-6.97;104.5;20.90;77374;2838.010;-1757.954;1;135;500;253.2;14.5;14.4;12;11.7;24.3;-1.0;
05/03/2025 11:14:01;118;0;128.02;-4;39.04;-7.01;103.6;20.90;77110;2838.010;-1757.954;1;135;500;374.2;14.5;14.6;12;11.7;24.3;-1.0;
05/03/2025 11:14:11;118;0;126.15;-4;39.10;-6.27;102.1;20.90;76864;2838.010;-1757.953;1;135;500;480.6;14.5;14.6;12;11.7;24.4;-1.0;
05/03/2025 11:14:21;118;0;123.56;-4;37.30;-5.98;100.0;20.90;76601;2838.010;-1757.952;1;135;500;504.8;14.5;14.4;12;11.7;24.4;-1.0;
05/03/2025 11:14:31;118;0;140.05;-4;34.48;-5.23;97.2;20.90;76579;2838.009;-1757.951;1;135;500;504.8;14.5;14.4;12;11.7;24.7;-1.0;
05/03/2025 11:14:51;117;0;129.71;-4;33.65;-5.22;91.1;20.90;76585;2838.007;-1757.947;1;135;500;503.2;14.5;14.6;12;11.7;24.7;-1.0;
05/03/2025 11:15:11;117;0;116.64;-4;32.89;-5.41;84.4;20.90;76574;2838.005;-1757.942;1;135;500;503.2;13.8;13.7;57;57.3;24.7;-1.0;
05/03/2025 11:15:31;117;0;119.11;-4;35.62;20.46;78.0;20.90;76573;2838.004;-1757.938;1;135;500;506.5;13.8;13.7;55;55.1;24.7;-1.0;
05/03/2025 11:15:51;117;0;118.70;-4;38.68;19.92;70.8;20.90;76574;2838.003;-1757.934;1;135;500;506.5;14.9;15.0;55;54.6;24.7;-1.0;
05/03/2025 11:16:11;117;0;117.14;-4;35.86;18.69;62.9;20.90;76575;2838.001;-1757.929;1;135;500;506.5;14.9;15.2;55;54.6;24.7;-1.0;
05/03/2025 11:16:31;117;0;116.55;-4;34.66;18.94;56.1;20.90;76587;2838.000;-1757.924;1;135;500;503.2;14.9;15.2;57;56.9;24.7;-1.0;
05/03/2025 11:16:51;117;0;120.32;-4;35.22;20.41;49.3;20.80;76584;2837.999;-1757.920;1;135;500;506.5;14.9;15.2;51;51.0;24.7;-1.0;
05/03/2025 11:17:11;117;0;123.15;-4;35.14;16.71;42.3;20.80;76584;2837.997;-1757.916;1;135;500;504.8;14.9;15.2;47;46.9;24.7;-1.0;
05/03/2025 11:17:31;117;0;123.53;-4;34.64;14.16;35.1;20.80;76579;2837.995;-1757.911;1;135;500;506.5;14.9;15.2;47;46.5;24.7;-1.0;
05/03/2025 11:17:51;117;0;126.04;-4;34.37;14.31;28.3;20.80;76581;2837.993;-1757.907;1;135;500;508.1;14.9;15.2;43;42.9;24.7;-1.0;
05/03/2025 11:18:11;117;0;125.52;-4;33.42;11.53;21.7;20.80;76570;2837.991;-1757.903;1;135;500;506.5;14.5;14.4;43;42.4;24.7;-1.0;
05/03/2025 11:18:31;117;0;125.04;-4;34.70;11.48;15.0;20.80;76576;2837.989;-1757.899;1;135;500;504.8;14.5;14.3;43;42.0;24.7;-1.0;
05/03/2025 11:18:51;117;0;123.88;-4;34.75;11.73;8.3;20.80;76576;2837.987;-1757.894;1;135;500;508.1;14.5;14.3;46;46.0;24.7;-1.0;
05/03/2025 11:19:06;115;0;124.22;-4;34.14;13.38;3.4;20.80;76568;2837.986;-1757.891;1;135;500;506.5;100.0;48.6;0;-0.5;24.7;-1.0;
05/03/2025 11:19:16;115;0;118.60;-4;24.30;-10.54;0.8;20.80;76568;2837.985;-1757.889;1;135;500;503.2;100.0;100.1;0;-0.5;24.7;-1.0;
05/03/2025 11:19:26;115;0;108.13;-4;-23.98;-12.84;0.1;20.80;76584;2837.985;-1757.888;1;135;500;506.5;100.0;100.4;0;-0.5;24.7;-1.0;
05/03/2025 11:19:46;119;0;159.66;-4;-37.19;-12.98;-0.5;20.80;76589;2837.985;-1757.888;1;135;500;506.5;100.0;100.7;0;-0.5;24.7;-1.0;
05/03/2025 11:19:56;119;0;156.71;-4;-53.42;-13.34;-0.1;20.80;76607;2838.021;-1757.895;0;135;500;504.8;100.0;100.7;0;-0.5;24.7;-1.0;
