Timestamp;NavState;SecurityLevel;Heading;Declination;Pitch;Roll;Depth;Temperature;Pa;Lat;Lon;DeadReckoning;DesiredH;BallastCmd;BallastPos;LinCmd;LinPos;AngCmd;AngPos;Voltage;Altitude;
12/02/2025 19:27:43;119;0;339.63;-4;-64.72;-14.30;-0.4;18.80;76322;2835.335;-1758.037;0;114;500;509.7;100.0;100.7;0;-0.5;29.0;-1.0;
12/02/2025 19:27:53;116;0;334.38;-4;-52.69;-10.55;-0.3;18.80;76326;2835.335;-1758.032;0;114;500;509.7;100.0;100.6;0;-0.5;29.0;-1.0;
12/02/2025 19:28:20;116;0;316.94;-4;-55.09;-9.61;-0.3;18.90;76332;2835.337;-1758.031;0;114;500;509.7;100.0;100.7;0;-0.5;29.0;-1.0;
12/02/2025 19:28:51;116;0;291.72;-4;-51.77;-8.07;-0.2;19.00;76338;2835.337;-1758.031;0;115;500;509.7;100.0;100.7;0;-0.5;28.8;-1.0;
12/02/2025 19:29:11;116;0;270.02;-4;-55.05;-11.02;-0.2;19.10;76353;2835.339;-1758.028;0;115;500;508.1;100.0;100.7;0;-0.5;29.0;-1.0;
12/02/2025 19:29:31;116;0;251.11;-4;-56.20;-10.07;-0.2;19.20;76360;2835.339;-1758.023;0;115;500;509.7;100.0;100.7;0;-0.5;29.0;-1.0;
12/02/2025 19:30:31;116;0;227.31;-4;-54.27;-15.79;-0.1;19.50;76384;2835.339;-1758.020;0;115;500;511.3;100.0;100.6;0;-0.5;29.0;-1.0;
12/02/2025 19:31:34;116;0;217.91;-4;-50.74;-17.65;-0.1;19.90;76400;2835.340;-1758.012;0;115;500;509.7;100.0;100.7;0;-0.5;29.0;-1.0;
12/02/2025 19:31:47;116;0;229.38;-4;-56.03;-22.54;-0.1;20.00;76412;2835.340;-1758.012;0;115;500;509.7;100.0;100.6;0;-0.5;29.0;-1.0;
12/02/2025 19:32:07;110;0;216.24;-4;-56.03;-11.32;0.0;20.10;76411;2835.340;-1758.012;0;115;-100;391.9;100.0;99.9;2;2.7;29.0;-1.0;
12/02/2025 19:32:17;110;0;213.95;-4;-52.99;-13.46;0.2;20.20;76776;2835.340;-1758.012;1;115;-100;243.5;100.0;99.7;2;2.7;29.0;-1.0;
12/02/2025 19:32:27;110;0;213.81;-4;-57.36;-18.70;0.6;20.20;77024;2835.340;-1758.012;1;115;-100;83.9;100.0;99.7;2;2.7;29.0;-1.0;
12/02/2025 19:32:37;110;0;213.44;-4;-68.55;-21.24;0.9;20.30;77349;2835.340;-1758.012;1;115;-100;-74.2;100.0;99.7;2;2.7;28.9;-1.0;
12/02/2025 19:32:47;110;0;210.27;-4;-64.14;-16.88;1.2;20.30;77694;2835.340;-1758.013;1;115;-100;-100.0;49.2;49.2;2;2.7;28.9;-1.0;
12/02/2025 19:32:57;110;0;223.71;-4;-54.19;-13.49;2.8;20.30;77699;2835.340;-1758.013;1;115;-100;-101.6;49.2;48.9;2;2.3;29.0;-1.0;
12/02/2025 19:33:17;100;0;243.33;-4;-31.72;-9.68;6.9;20.40;77695;2835.338;-1758.017;1;115;-100;-100.0;49.2;48.7;2;2.3;29.0;-1.0;
12/02/2025 19:33:37;100;0;248.01;-4;-31.15;-10.69;11.9;20.40;77687;2835.337;-1758.022;1;115;-100;-98.4;49.2;48.7;70;69.9;29.0;-1.0;
12/02/2025 19:33:58;100;0;242.29;-4;-34.05;23.42;16.8;20.40;77687;2835.336;-1758.026;1;115;-100;-98.4;48.0;48.0;70;70.4;29.0;0.0;
12/02/2025 19:34:18;100;0;228.52;-4;-33.65;23.39;21.9;20.40;77693;2835.333;-1758.030;1;114;-100;-96.8;46.9;47.0;70;70.4;29.0;0.0;
12/02/2025 19:34:38;100;0;215.34;-4;-32.06;23.54;26.8;20.40;77690;2835.330;-1758.032;1;114;-100;-98.4;46.3;46.2;70;70.4;29.0;0.0;
12/02/2025 19:34:58;100;0;201.95;-4;-30.28;23.63;31.6;20.40;77694;2835.327;-1758.034;1;114;-100;-98.4;46.3;46.1;70;70.4;29.0;0.0;
12/02/2025 19:35:18;100;0;188.15;-4;-29.89;23.67;36.3;20.40;77708;2835.323;-1758.035;1;114;-100;-98.4;46.3;45.9;70;70.4;29.0;0.0;
12/02/2025 19:35:38;100;0;175.84;-4;-29.42;23.75;40.7;20.40;77692;2835.319;-1758.035;1;114;-100;-98.4;46.3;46.1;70;70.4;29.0;0.0;
12/02/2025 19:35:58;100;0;162.62;-4;-29.20;23.44;45.0;20.40;77709;2835.316;-1758.034;1;114;-100;-100.0;46.3;46.1;65;65.0;29.0;0.0;
12/02/2025 19:36:18;100;0;148.89;-4;-28.37;20.37;49.4;20.40;77691;2835.313;-1758.032;1;113;-100;-98.4;46.8;47.1;48;47.4;29.0;0.0;
12/02/2025 19:36:38;100;0;137.93;-4;-28.94;11.40;53.4;20.40;77688;2835.310;-1758.029;1;113;-100;-98.4;47.1;47.1;28;27.5;29.0;0.0;
12/02/2025 19:36:58;100;0;131.26;-4;-28.52;1.78;57.6;20.40;77697;2835.308;-1758.026;1;113;-100;-96.8;47.5;47.9;19;19.0;29.0;0.0;
12/02/2025 19:37:18;100;0;127.80;-4;-29.36;-2.50;61.8;20.40;77694;2835.306;-1758.023;1;113;-100;-98.4;47.5;47.9;15;14.9;29.0;0.0;
12/02/2025 19:37:38;100;0;126.09;-4;-28.85;-4.50;66.1;20.40;77703;2835.304;-1758.020;1;113;-100;-98.4;47.9;47.7;13;13.1;29.0;0.0;
12/02/2025 19:37:58;100;0;126.35;-4;-29.24;-5.32;70.4;20.40;77703;2835.302;-1758.016;1;113;-100;-96.8;47.9;47.7;13;12.6;29.0;0.0;
12/02/2025 19:38:18;100;0;128.20;-4;-29.22;-5.34;74.8;20.30;77706;2835.300;-1758.013;1;113;-100;-98.4;47.9;47.7;16;15.8;29.0;0.0;
12/02/2025 19:38:38;100;0;126.95;-4;-29.24;-3.55;79.1;20.30;77704;2835.298;-1758.010;1;113;-100;-98.4;47.9;47.9;14;14.0;29.0;0.0;
12/02/2025 19:38:58;100;0;125.26;-4;-29.00;-4.87;83.4;20.30;77702;2835.296;-1758.006;1;113;-100;-98.4;47.9;47.7;14;14.0;29.0;0.0;
12/02/2025 19:39:18;100;0;123.12;-4;-29.11;-4.88;87.7;20.30;77710;2835.294;-1758.003;1;113;-100;-98.4;47.9;47.9;12;11.7;29.0;0.0;
12/02/2025 19:39:38;100;0;123.45;-4;-29.18;-6.01;92.3;20.30;77708;2835.292;-1757.999;1;113;-100;-98.4;47.9;47.9;12;11.7;29.0;0.0;
12/02/2025 19:39:58;100;0;123.05;-4;-28.89;-5.96;96.6;20.30;77711;2835.290;-1757.995;1;113;-100;-98.4;48.2;48.2;12;11.3;29.0;0.0;
12/02/2025 19:40:18;100;0;122.21;-4;-29.86;-5.95;101.0;20.30;77714;2835.289;-1757.992;1;113;-100;-98.4;48.2;48.5;12;11.3;29.0;0.0;
12/02/2025 19:40:38;100;0;122.19;-4;-29.98;-5.93;105.5;20.30;77720;2835.287;-1757.988;1;113;-100;-98.4;48.2;48.5;12;11.3;29.0;0.0;
12/02/2025 19:40:58;100;0;122.19;-4;-30.35;-5.96;110.0;20.30;77717;2835.285;-1757.985;1;113;-100;-98.4;48.2;48.5;12;11.3;29.0;0.0;
12/02/2025 19:41:18;100;0;121.93;-4;-30.54;-5.91;114.6;20.30;77718;2835.283;-1757.981;1;113;-100;-98.4;48.2;48.5;12;11.3;29.0;0.0;
12/02/2025 19:41:38;100;0;120.61;-4;-30.06;-5.88;119.2;20.30;77716;2835.282;-1757.977;1;113;-100;-100.0;48.2;48.5;12;11.3;29.0;0.0;
12/02/2025 19:41:58;100;0;118.82;-4;-31.42;-5.77;123.8;20.30;77722;2835.280;-1757.974;1;113;-100;-98.4;48.2;48.5;12;11.3;29.0;0.0;
12/02/2025 19:42:18;100;0;116.74;-4;-30.42;-5.83;128.5;20.20;77711;2835.278;-1757.970;1;113;-100;-96.8;48.2;48.5;12;11.3;29.0;0.0;
12/02/2025 19:42:38;100;0;111.78;-4;-30.73;-5.88;133.0;20.20;77711;2835.277;-1757.966;1;113;-100;-98.4;48.2;48.5;10;9.5;29.0;0.0;
12/02/2025 19:42:58;100;0;111.47;-4;-29.91;-7.16;137.5;20.20;77695;2835.276;-1757.962;1;113;-100;-96.8;48.2;48.5;10;9.0;29.0;0.0;
12/02/2025 19:43:18;100;0;112.72;-4;-29.90;-7.22;141.8;20.20;77681;2835.275;-1757.958;1;113;-100;-98.4;48.2;48.5;10;9.0;29.0;0.0;
12/02/2025 19:43:38;100;0;109.82;-4;-29.92;-7.08;146.2;20.20;77675;2835.274;-1757.954;1;113;-100;-98.4;48.2;48.5;10;9.0;29.0;0.0;
12/02/2025 19:43:58;100;0;107.91;-4;-30.63;-6.97;150.6;20.20;77654;2835.273;-1757.950;1;113;-100;-98.4;48.2;48.5;10;9.0;29.0;0.0;
12/02/2025 19:44:18;100;0;102.44;-4;-29.98;-7.17;155.0;20.10;77624;2835.273;-1757.946;1;113;-100;-98.4;48.2;48.5;4;4.1;29.0;0.0;
12/02/2025 19:44:38;100;0;101.63;-4;-29.00;-10.02;159.2;20.10;77611;2835.272;-1757.942;1;113;-100;-98.4;48.2;48.5;2;1.8;29.0;0.0;
12/02/2025 19:44:58;100;0;107.17;-4;-28.68;-10.90;163.3;20.10;77589;2835.272;-1757.938;1;113;-100;-98.4;48.6;48.6;8;8.1;29.0;0.0;
12/02/2025 19:45:18;100;0;117.43;-4;-29.26;-7.58;167.3;20.10;77574;2835.270;-1757.935;1;113;-100;-98.4;48.6;48.7;10;9.9;29.0;0.0;
12/02/2025 19:45:38;100;0;122.84;-4;-29.86;-6.38;171.5;20.00;77547;2835.269;-1757.932;1;113;-100;-98.4;48.6;48.7;10;10.4;29.0;0.0;
12/02/2025 19:45:58;100;0;125.46;-4;-29.51;-6.39;175.4;20.00;77529;2835.267;-1757.929;1;113;-100;-96.8;48.6;48.6;12;12.2;28.9;0.0;
12/02/2025 19:46:18;100;0;124.99;-4;-30.29;-5.23;179.8;20.00;77514;2835.265;-1757.925;1;113;-100;-98.4;48.6;48.6;12;12.6;29.0;0.0;
12/02/2025 19:46:38;100;0;120.78;-4;-29.39;-5.37;183.9;19.90;77505;2835.263;-1757.922;1;113;-100;-98.4;48.6;48.6;12;12.6;29.0;0.0;
12/02/2025 19:46:58;100;0;123.89;-4;-29.70;-5.31;188.1;19.90;77470;2835.262;-1757.918;1;113;-100;-98.4;48.6;48.7;12;12.6;29.0;0.0;
12/02/2025 19:47:18;100;0;123.99;-4;-29.77;-5.34;192.1;19.80;77452;2835.260;-1757.915;1;113;-100;-98.4;48.6;48.6;12;13.1;29.0;0.0;
12/02/2025 19:47:38;100;0;129.66;-4;-29.78;-5.25;196.4;19.80;77437;2835.258;-1757.912;1;113;-100;-96.8;48.6;48.7;18;18.1;29.0;0.0;
12/02/2025 19:47:58;100;0;127.58;-4;-30.38;-2.60;200.6;19.80;77416;2835.256;-1757.909;1;113;-100;-98.4;48.6;48.7;15;14.9;29.0;0.0;
12/02/2025 19:48:18;100;0;124.34;-4;-29.81;-4.53;204.8;19.70;77412;2835.254;-1757.906;1;113;-100;-98.4;48.6;48.6;13;12.6;29.0;0.0;
12/02/2025 19:48:38;100;0;125.03;-4;-30.20;-5.09;209.0;19.70;77395;2835.252;-1757.903;1;113;-100;-100.0;48.6;48.7;13;13.1;29.0;0.0;
12/02/2025 19:48:58;100;0;120.24;-4;-29.70;-5.04;213.5;19.60;77379;2835.251;-1757.899;1;113;-100;-96.8;48.6;48.7;11;10.8;29.0;0.0;
12/02/2025 19:49:18;100;0;114.53;-4;-29.81;-6.44;217.7;19.60;77363;2835.250;-1757.895;1;113;-100;-101.6;48.6;48.6;11;10.8;29.0;0.0;
12/02/2025 19:49:38;100;0;110.85;-4;-30.48;-6.54;222.1;19.50;77345;2835.249;-1757.891;1;113;-100;-96.8;48.6;48.6;11;10.4;29.0;0.0;
12/02/2025 19:49:58;100;0;111.02;-4;-29.99;-6.37;226.6;19.50;77344;2835.247;-1757.887;1;113;-100;-96.8;48.6;48.7;11;10.8;29.0;0.0;
12/02/2025 19:50:18;100;0;115.03;-4;-29.26;-6.47;230.8;19.50;77323;2835.246;-1757.884;1;113;-100;-98.4;48.6;48.6;11;10.8;29.0;0.0;
12/02/2025 19:50:38;100;0;123.00;-4;-29.63;-6.52;235.0;19.40;77310;2835.244;-1757.880;1;113;-100;-98.4;48.6;48.7;11;10.4;29.0;0.0;
12/02/2025 19:50:58;100;0;125.90;-4;-29.16;-6.40;239.2;19.40;77285;2835.243;-1757.877;1;113;-100;-98.4;48.6;48.6;14;14.0;29.0;0.0;
12/02/2025 19:51:18;100;0;125.62;-4;-29.81;-4.54;243.4;19.30;77259;2835.241;-1757.874;1;113;-100;-96.8;48.6;48.7;14;14.4;29.0;0.0;
12/02/2025 19:51:38;100;0;122.21;-4;-29.94;-4.49;247.6;19.20;77247;2835.239;-1757.871;1;113;-100;-96.8;48.6;48.6;12;12.2;28.9;0.0;
12/02/2025 19:51:58;100;0;120.93;-4;-29.49;-5.80;252.0;19.20;77238;2835.237;-1757.867;1;113;-100;-98.4;48.6;48.6;12;11.7;29.0;0.0;
12/02/2025 19:52:18;100;0;122.92;-4;-30.01;-5.77;256.3;19.10;77223;2835.236;-1757.864;1;113;-100;-98.4;48.6;48.7;12;11.7;29.0;0.0;
12/02/2025 19:52:38;100;0;124.33;-4;-29.60;-5.83;260.6;19.10;77200;2835.234;-1757.860;1;113;-100;-98.4;48.6;48.7;12;12.2;29.0;0.0;
12/02/2025 19:52:58;100;0;124.80;-4;-29.47;-5.84;264.8;19.00;77203;2835.232;-1757.857;1;113;-100;-98.4;48.6;48.7;12;11.7;29.0;0.0;
12/02/2025 19:53:18;100;0;125.78;-4;-29.39;-5.91;269.2;19.00;77191;2835.230;-1757.853;1;113;-100;-98.4;48.6;48.6;14;14.0;29.0;0.0;
12/02/2025 19:53:38;100;0;127.17;-4;-29.72;-4.35;273.4;18.90;77177;2835.228;-1757.850;1;113;-100;-98.4;48.6;48.6;14;14.9;29.0;0.0;
12/02/2025 19:53:58;100;0;121.67;-4;-29.82;-4.43;277.8;18.90;77165;2835.226;-1757.847;1;113;-100;-98.4;48.6;48.7;12;12.2;29.0;0.0;
12/02/2025 19:54:18;100;0;123.62;-4;-30.35;-5.86;282.3;18.80;77152;2835.224;-1757.843;1;113;-100;-98.4;48.6;48.7;12;11.7;29.0;0.0;
12/02/2025 19:54:38;100;0;117.16;-4;-30.07;-5.93;286.9;18.80;77127;2835.223;-1757.839;1;113;-100;-98.4;48.6;48.7;12;11.7;29.0;0.0;
12/02/2025 19:54:58;100;0;115.15;-4;-29.67;-5.99;291.4;18.70;77116;2835.222;-1757.835;1;113;-100;-101.6;48.6;48.7;12;11.7;28.9;0.0;
12/02/2025 19:55:18;100;0;112.32;-4;-29.67;-6.06;295.8;18.70;77095;2835.220;-1757.831;1;113;-100;-98.4;48.6;48.7;12;11.7;29.0;0.0;
12/02/2025 19:55:38;100;0;112.25;-4;-29.42;-5.96;300.3;18.60;77084;2835.219;-1757.827;1;113;-100;-98.4;48.6;48.7;12;11.7;29.0;0.0;
12/02/2025 19:55:58;100;0;107.50;-4;-29.50;-5.99;304.9;18.60;77078;2835.218;-1757.823;1;113;-100;-98.4;48.6;48.7;9;9.0;29.0;0.0;
12/02/2025 19:56:18;100;0;106.21;-4;-30.00;-7.43;309.3;18.50;77064;2835.218;-1757.819;1;113;-100;-98.4;48.6;48.6;9;9.0;29.0;0.0;
12/02/2025 19:56:38;100;0;102.24;-4;-30.12;-7.36;313.9;18.40;77053;2835.217;-1757.815;1;113;-100;-98.4;48.6;48.7;4;4.1;29.0;0.0;
12/02/2025 19:56:58;100;0;109.59;-4;-28.88;-9.86;318.2;18.40;77021;2835.216;-1757.811;1;113;-100;-100.0;49.0;49.3;10;9.9;29.0;0.0;
12/02/2025 19:57:18;100;0;112.25;-4;-29.58;-6.61;322.5;18.30;77011;2835.215;-1757.807;1;113;-100;-98.4;49.0;49.3;10;10.4;29.0;0.0;
12/02/2025 19:57:38;100;0;112.54;-4;-29.63;-6.54;326.6;18.30;76997;2835.214;-1757.804;1;113;-100;-98.4;49.0;49.3;10;10.4;29.0;0.0;
12/02/2025 19:57:58;100;0;114.01;-4;-30.86;-6.67;330.9;18.20;76988;2835.213;-1757.800;1;113;-100;-98.4;49.0;49.3;10;10.4;29.0;0.0;
12/02/2025 19:58:18;100;0;112.85;-4;-31.03;-6.13;335.7;18.20;76951;2835.211;-1757.796;1;113;-100;-100.0;49.0;49.3;10;10.4;29.0;0.0;
12/02/2025 19:58:38;100;0;111.19;-4;-29.71;-6.24;340.4;18.10;76940;2835.210;-1757.792;1;113;-100;-98.4;49.0;49.3;10;10.4;29.0;0.0;
12/02/2025 19:58:58;100;0;111.89;-4;-29.96;-6.67;344.8;18.00;76921;2835.209;-1757.788;1;113;-100;-98.4;49.0;49.3;10;10.4;29.0;0.0;
12/02/2025 19:59:18;100;0;110.07;-4;-30.57;-6.53;349.4;18.00;76911;2835.208;-1757.784;1;113;-100;-98.4;49.0;49.2;10;10.4;29.0;0.0;
12/02/2025 19:59:38;100;0;109.52;-4;-30.35;-6.58;354.0;17.90;76897;2835.207;-1757.780;1;113;-100;-98.4;49.0;49.3;10;10.4;28.9;0.0;
12/02/2025 19:59:58;100;0;107.67;-4;-30.14;-6.62;358.7;17.90;76881;2835.206;-1757.775;1;113;-100;-98.4;49.0;49.3;10;10.4;29.0;0.0;
12/02/2025 20:00:18;100;0;106.72;-4;-30.14;-6.56;363.4;17.80;76876;2835.205;-1757.771;1;113;-100;-98.4;49.0;49.3;8;8.1;29.0;0.0;
12/02/2025 20:00:38;100;0;107.92;-4;-30.40;-7.65;368.0;17.70;76865;2835.204;-1757.767;1;113;-100;-98.4;49.0;49.3;8;8.1;29.0;0.0;
12/02/2025 20:00:58;100;0;107.19;-4;-29.85;-7.65;372.8;17.70;76862;2835.203;-1757.763;1;113;-100;-98.4;49.0;49.3;8;8.1;29.0;0.0;
12/02/2025 20:01:18;100;0;104.67;-4;-29.84;-7.69;377.4;17.60;76848;2835.203;-1757.758;1;113;-100;-96.8;49.0;49.3;6;5.4;28.9;0.0;
12/02/2025 20:01:38;100;0;108.42;-4;-29.50;-9.09;381.9;17.60;76841;2835.202;-1757.754;1;113;-100;-98.4;49.0;49.3;9;9.5;28.9;0.0;
12/02/2025 20:01:58;100;0;111.21;-4;-29.84;-6.87;386.4;17.50;76832;2835.201;-1757.750;1;113;-100;-98.4;49.0;49.3;9;9.5;28.9;0.0;
12/02/2025 20:02:18;100;0;118.12;-4;-29.52;-6.46;390.8;17.50;76819;2835.199;-1757.747;1;113;-100;-98.4;49.0;49.3;11;10.8;29.0;0.0;
12/02/2025 20:02:38;100;0;120.65;-4;-29.88;-5.71;395.1;17.40;76802;2835.198;-1757.743;1;113;-100;-98.4;49.0;49.3;11;10.8;29.0;0.0;
12/02/2025 20:02:58;100;0;122.80;-4;-28.50;-6.49;399.5;17.40;76793;2835.196;-1757.739;1;113;-100;-98.4;49.4;49.3;11;11.3;29.0;0.0;
12/02/2025 20:03:18;100;0;129.50;-4;-30.04;-5.97;403.7;17.30;76789;2835.194;-1757.736;1;113;-100;-98.4;49.4;49.3;17;17.1;29.0;0.0;
12/02/2025 20:03:38;100;0;132.74;-4;-30.48;-2.84;408.4;17.30;76771;2835.191;-1757.733;1;113;-100;-98.4;49.4;49.3;22;22.1;29.0;0.0;
12/02/2025 20:03:58;100;0;130.58;-4;-31.53;-0.65;413.0;17.20;76761;2835.189;-1757.730;1;113;-100;-98.4;49.4;49.3;19;19.0;28.9;0.0;
12/02/2025 20:04:18;100;0;126.69;-4;-30.84;-2.52;417.6;17.10;76743;2835.187;-1757.727;1;113;-100;-98.4;49.4;49.3;14;12.6;29.0;0.0;
12/02/2025 20:04:38;100;0;124.75;-4;-30.53;-5.02;422.1;17.10;76735;2835.185;-1757.723;1;113;-100;-100.0;49.4;49.3;14;13.5;29.0;0.0;
12/02/2025 20:04:58;100;0;119.96;-4;-30.63;-5.15;426.5;17.10;76733;2835.184;-1757.720;1;113;-100;-101.6;49.4;49.3;11;10.4;29.0;0.0;
12/02/2025 20:05:18;100;0;116.24;-4;-30.13;-6.55;431.2;17.00;76719;2835.182;-1757.716;1;113;-100;-98.4;49.4;49.3;11;10.4;29.0;0.0;
12/02/2025 20:05:38;100;0;112.88;-4;-30.26;-6.44;435.5;16.90;76710;2835.181;-1757.712;1;113;-100;-98.4;49.4;49.3;11;10.8;29.0;0.0;
12/02/2025 20:05:58;100;0;110.34;-4;-30.39;-6.48;439.9;16.90;76700;2835.180;-1757.708;1;113;-100;-98.4;49.4;49.3;11;10.8;29.0;0.0;
12/02/2025 20:06:18;100;0;105.53;-4;-30.64;-6.50;444.3;16.80;76702;2835.179;-1757.704;1;113;-100;-98.4;49.4;49.3;7;7.2;29.0;0.0;
12/02/2025 20:06:38;100;0;106.14;-4;-30.49;-8.31;448.6;16.80;76684;2835.179;-1757.700;1;113;-100;-98.4;49.4;49.3;7;6.8;28.9;0.0;
12/02/2025 20:06:58;100;0;108.85;-4;-30.46;-8.36;453.0;16.70;76678;2835.178;-1757.696;1;113;-100;-98.4;49.4;49.3;9;9.0;29.0;0.0;
12/02/2025 20:07:18;100;0;108.73;-4;-30.10;-6.97;457.4;16.70;76669;2835.177;-1757.693;1;113;-100;-98.4;49.4;49.3;9;9.5;29.0;0.0;
12/02/2025 20:07:38;100;0;104.98;-4;-29.96;-7.03;461.7;16.60;76660;2835.176;-1757.689;1;113;-100;-98.4;49.4;49.3;6;5.9;28.9;0.0;
12/02/2025 20:07:58;100;0;104.18;-4;-29.77;-9.00;466.0;16.60;76652;2835.176;-1757.685;1;113;-100;-98.4;49.4;49.3;6;5.4;29.0;0.0;
12/02/2025 20:08:18;100;0;101.55;-4;-29.31;-9.04;470.2;16.50;76651;2835.175;-1757.681;1;113;-100;-98.4;49.4;49.3;2;1.8;29.0;0.0;
12/02/2025 20:08:38;100;0;108.43;-4;-29.39;-10.86;474.4;16.50;76630;2835.174;-1757.677;1;113;-100;-98.4;49.4;49.3;9;9.5;29.0;0.0;
12/02/2025 20:08:58;100;0;112.57;-4;-29.37;-6.82;478.6;16.50;76619;2835.173;-1757.673;1;113;-100;-98.4;49.4;49.5;9;9.5;29.0;0.0;
12/02/2025 20:09:19;100;0;115.17;-4;-28.95;-6.83;482.6;16.40;76612;2835.172;-1757.669;1;113;-100;-101.6;49.7;49.9;9;9.9;29.0;0.0;
12/02/2025 20:09:39;100;0;118.11;-4;-30.87;-6.95;486.3;16.40;76591;2835.171;-1757.666;1;113;-100;-98.4;49.7;50.1;9;9.5;29.0;0.0;
12/02/2025 20:09:59;100;0;122.25;-4;-31.07;-6.90;490.5;16.30;76589;2835.169;-1757.663;1;113;-100;-98.4;49.7;50.1;11;10.8;29.0;0.0;
12/02/2025 20:10:19;100;0;124.45;-4;-31.31;-6.12;494.7;16.30;76577;2835.167;-1757.660;1;113;-100;-98.4;49.7;50.2;11;11.3;29.0;0.0;
12/02/2025 20:10:39;100;0;125.66;-4;-31.21;-6.13;498.9;16.20;76569;2835.166;-1757.657;1;113;-100;-101.6;49.7;50.2;13;11.3;29.0;0.0;
12/02/2025 20:10:41;118;0;125.71;-4;-31.21;-5.10;499.6;16.20;76569;2835.165;-1757.656;1;113;220;-93.5;20.8;20.6;-2;-1.8;29.0;0.0;
12/02/2025 20:10:51;118;0;119.12;-4;-17.49;-13.20;501.1;16.20;76542;2835.164;-1757.654;1;113;220;37.1;20.8;20.3;-2;-1.8;28.2;-1.0;
12/02/2025 20:11:01;118;0;110.16;-4;12.70;-13.41;501.5;16.20;76267;2835.164;-1757.654;1;113;220;161.3;20.8;20.8;-2;-1.8;28.2;-1.0;
12/02/2025 20:11:11;118;0;105.10;-4;26.76;-14.32;500.7;16.10;75995;2835.164;-1757.653;1;113;220;222.6;20.8;21.1;-2;-1.8;28.2;-1.0;
12/02/2025 20:11:21;118;0;135.71;-4;28.83;-14.28;499.3;16.10;75897;2835.164;-1757.652;1;113;220;222.6;20.8;21.1;-2;-1.8;28.9;-1.0;
12/02/2025 20:11:41;117;0;127.01;-4;28.58;-13.97;496.3;16.10;75891;2835.162;-1757.650;1;113;220;224.2;20.8;21.1;-2;-1.8;28.9;-1.0;
12/02/2025 20:12:01;117;0;117.81;-4;28.70;-13.93;492.9;16.10;75890;2835.161;-1757.647;1;113;220;222.6;20.4;20.2;6;5.9;29.0;-1.0;
12/02/2025 20:12:21;117;0;109.87;-4;30.54;-9.56;489.7;16.00;75882;2835.161;-1757.644;1;113;220;222.6;20.4;20.2;8;8.1;29.0;-1.0;
12/02/2025 20:12:41;117;0;101.09;-4;30.87;-8.43;486.4;16.00;75867;2835.160;-1757.641;1;113;220;222.6;20.4;20.2;18;18.5;29.0;-1.0;
12/02/2025 20:13:01;117;0;95.93;-4;32.08;-3.04;483.1;15.90;75866;2835.160;-1757.639;1;113;220;222.6;21.0;21.1;27;27.5;28.9;-1.0;
12/02/2025 20:13:21;117;0;90.67;-4;32.22;1.97;479.8;15.90;75863;2835.161;-1757.636;1;113;220;222.6;21.7;21.6;36;36.1;28.9;-1.0;
12/02/2025 20:13:41;117;0;86.05;-4;31.60;6.68;476.3;15.90;75860;2835.161;-1757.633;1;114;220;222.6;21.7;21.6;43;42.9;28.9;-1.0;
12/02/2025 20:14:02;117;0;83.04;-4;31.94;10.24;472.9;15.80;75851;2835.162;-1757.630;1;114;220;222.6;21.7;21.6;49;49.2;29.0;-1.0;
12/02/2025 20:14:22;117;0;81.67;-4;32.37;13.72;469.5;15.80;75855;2835.163;-1757.627;1;114;220;222.6;22.4;22.4;49;49.6;28.9;-1.0;
12/02/2025 20:14:42;117;0;81.99;-4;31.12;13.74;466.1;15.70;75866;2835.163;-1757.624;1;114;220;224.2;22.4;22.5;49;49.6;29.0;-1.0;
12/02/2025 20:15:02;117;0;84.39;-4;30.85;13.82;462.8;15.70;75857;2835.164;-1757.621;1;114;220;222.6;22.4;22.5;45;45.1;29.0;-1.0;
12/02/2025 20:15:22;117;0;89.21;-4;30.28;10.88;459.5;15.70;75861;2835.164;-1757.618;1;114;220;222.6;22.4;22.5;38;37.9;28.9;-1.0;
12/02/2025 20:15:42;117;0;90.74;-4;29.81;7.00;456.3;15.60;75852;2835.165;-1757.615;1;114;220;222.6;22.4;22.4;38;37.5;29.0;-1.0;
12/02/2025 20:16:02;117;0;91.56;-4;29.52;6.90;453.3;15.60;75853;2835.165;-1757.612;1;114;220;222.6;22.4;22.5;36;36.1;28.9;-1.0;
12/02/2025 20:16:22;117;0;90.93;-4;29.40;5.98;450.3;15.60;75841;2835.165;-1757.609;1;114;220;222.6;22.4;22.5;36;35.6;29.0;-1.0;
12/02/2025 20:16:42;117;0;91.50;-4;29.54;5.96;447.4;15.60;75853;2835.166;-1757.606;1;114;220;222.6;22.4;22.5;36;35.6;29.0;-1.0;
12/02/2025 20:17:02;117;0;92.59;-4;29.56;5.91;444.4;15.50;75838;2835.166;-1757.604;1;115;220;222.6;22.4;22.5;36;35.6;28.9;-1.0;
12/02/2025 20:17:22;117;0;93.31;-4;29.38;6.00;441.6;15.50;75850;2835.166;-1757.601;1;115;220;222.6;22.4;22.5;36;35.6;29.0;-1.0;
12/02/2025 20:17:42;117;0;96.28;-4;29.36;5.92;438.7;15.50;75841;2835.166;-1757.598;1;115;220;222.6;22.4;22.5;30;29.8;28.9;-1.0;
12/02/2025 20:18:02;117;0;95.54;-4;29.13;2.51;435.8;15.40;75844;2835.166;-1757.595;1;115;220;222.6;22.4;22.5;30;29.3;28.9;-1.0;
12/02/2025 20:18:22;117;0;96.07;-4;28.85;2.54;432.9;15.40;75832;2835.166;-1757.593;1;115;220;221.0;22.1;22.1;30;29.3;29.0;-1.0;
12/02/2025 20:18:42;117;0;95.11;-4;29.59;2.72;429.9;15.40;75843;2835.166;-1757.590;1;115;220;224.2;22.1;21.8;32;32.0;29.0;-1.0;
12/02/2025 20:19:02;117;0;95.63;-4;30.29;4.22;427.1;15.40;75833;2835.166;-1757.587;1;115;220;222.6;22.1;21.9;32;32.5;29.0;-1.0;
12/02/2025 20:19:22;117;0;98.50;-4;29.80;4.08;424.1;15.40;75828;2835.166;-1757.584;1;115;220;222.6;22.1;21.8;26;25.7;29.0;-1.0;
12/02/2025 20:19:42;117;0;97.16;-4;29.27;0.61;421.2;15.30;75830;2835.166;-1757.582;1;115;220;221.0;22.1;21.8;28;28.0;29.0;-1.0;
12/02/2025 20:20:02;117;0;97.70;-4;29.87;1.93;418.3;15.30;75822;2835.166;-1757.579;1;115;220;222.6;22.1;21.8;28;28.4;29.0;-1.0;
12/02/2025 20:20:22;117;0;99.62;-4;30.46;2.18;415.3;15.30;75820;2835.166;-1757.576;1;115;220;222.6;22.1;21.8;24;23.9;29.0;-1.0;
12/02/2025 20:20:42;117;0;104.47;-4;29.54;-0.53;412.5;15.30;75825;2835.166;-1757.574;1;115;220;222.6;22.1;21.8;16;15.3;28.9;-1.0;
12/02/2025 20:21:02;117;0;101.09;-4;28.94;-5.12;409.6;15.30;75828;2835.166;-1757.571;1;115;220;224.2;21.8;21.8;22;22.1;28.9;-1.0;
12/02/2025 20:21:22;117;0;97.69;-4;29.19;-0.98;406.8;15.20;75820;2835.166;-1757.569;1;115;220;222.6;21.8;21.8;28;28.0;28.9;-1.0;
12/02/2025 20:21:42;117;0;93.56;-4;29.66;2.14;403.9;15.20;75824;2835.166;-1757.566;1;115;220;224.2;21.8;21.8;35;35.2;28.9;-1.0;
12/02/2025 20:22:02;117;0;90.56;-4;30.40;6.09;401.1;15.20;75835;2835.166;-1757.563;1;116;220;222.6;21.8;21.8;41;41.1;29.0;-1.0;
12/02/2025 20:22:22;117;0;87.90;-4;30.99;9.40;398.0;15.20;75828;2835.167;-1757.560;1;116;220;222.6;21.8;21.8;45;45.1;28.9;-1.0;
12/02/2025 20:22:42;117;0;88.10;-4;31.24;11.37;394.8;15.20;75826;2835.167;-1757.558;1;116;220;222.6;21.8;21.8;43;42.4;28.9;-1.0;
12/02/2025 20:23:02;117;0;86.75;-4;30.76;9.26;391.7;15.20;75818;2835.168;-1757.555;1;116;220;222.6;21.8;21.8;45;45.1;29.0;-1.0;
12/02/2025 20:23:22;117;0;81.53;-4;31.18;11.39;388.5;15.20;75824;2835.168;-1757.552;1;116;220;222.6;21.8;21.8;53;52.8;29.0;-1.0;
12/02/2025 20:23:42;117;0;81.56;-4;31.71;15.51;385.3;15.20;75817;2835.169;-1757.549;1;116;220;222.6;21.8;21.8;53;53.2;28.9;-1.0;
12/02/2025 20:24:02;117;0;82.17;-4;31.67;15.38;382.0;15.10;75818;2835.170;-1757.546;1;116;220;222.6;21.8;21.9;53;53.2;28.9;-1.0;
12/02/2025 20:24:22;117;0;82.15;-4;31.73;15.51;378.7;15.10;75821;2835.170;-1757.544;1;116;220;224.2;21.8;21.8;53;53.2;29.0;-1.0;
12/02/2025 20:24:42;117;0;83.89;-4;31.71;15.58;375.4;15.10;75822;2835.171;-1757.541;1;116;220;222.6;21.8;21.8;49;49.2;29.0;-1.0;
12/02/2025 20:25:02;117;0;83.01;-4;31.43;12.99;372.0;15.10;75816;2835.172;-1757.538;1;117;220;222.6;21.8;21.8;52;51.9;29.0;-1.0;
12/02/2025 20:25:22;117;0;85.22;-4;32.11;15.02;368.8;15.10;75812;2835.172;-1757.535;1;117;220;222.6;22.4;22.5;49;49.2;28.9;-1.0;
12/02/2025 20:25:42;117;0;87.34;-4;30.76;13.11;365.3;15.10;75823;2835.173;-1757.532;1;117;220;222.6;22.4;22.5;46;46.0;29.0;-1.0;
12/02/2025 20:26:02;117;0;88.39;-4;30.12;11.29;362.0;15.10;75825;2835.173;-1757.529;1;117;220;222.6;22.4;22.4;44;44.2;28.9;-1.0;
12/02/2025 20:26:22;117;0;89.82;-4;29.77;10.14;358.8;15.10;75836;2835.173;-1757.526;1;117;220;222.6;22.4;22.5;42;41.5;28.9;-1.0;
12/02/2025 20:26:42;117;0;90.89;-4;29.69;8.86;355.7;15.10;75825;2835.174;-1757.523;1;117;220;222.6;22.4;22.5;42;41.1;29.0;-1.0;
12/02/2025 20:27:02;117;0;92.76;-4;29.54;8.83;352.7;15.10;75828;2835.174;-1757.520;1;117;220;222.6;22.4;22.5;38;37.9;28.9;-1.0;
12/02/2025 20:27:22;117;0;93.42;-4;29.34;6.88;349.5;15.10;75831;2835.174;-1757.517;1;117;220;222.6;22.4;22.5;38;37.5;29.0;-1.0;
12/02/2025 20:27:42;117;0;94.16;-4;29.68;6.93;346.4;15.10;75825;2835.174;-1757.514;1;117;220;222.6;22.4;22.5;35;35.2;28.9;-1.0;
12/02/2025 20:28:02;117;0;94.49;-4;29.20;5.23;343.4;15.00;75831;2835.174;-1757.511;1;118;220;222.6;22.4;22.5;37;37.0;28.9;-1.0;
12/02/2025 20:28:22;117;0;94.14;-4;28.96;6.68;340.4;15.00;75828;2835.175;-1757.508;1;118;220;222.6;22.1;22.1;37;37.0;28.9;-1.0;
12/02/2025 20:28:42;117;0;94.31;-4;30.37;6.75;337.4;15.00;75818;2835.175;-1757.506;1;118;220;222.6;22.1;21.8;37;37.0;29.0;-1.0;
12/02/2025 20:29:02;117;0;93.85;-4;30.53;6.80;334.4;15.00;75834;2835.175;-1757.503;1;118;220;222.6;22.1;21.9;37;37.0;29.0;-1.0;
12/02/2025 20:29:22;117;0;93.30;-4;30.70;6.73;331.3;15.00;75830;2835.175;-1757.500;1;118;220;222.6;22.1;21.8;39;38.8;28.9;-1.0;
12/02/2025 20:29:42;117;0;96.17;-4;30.47;7.82;327.9;15.00;75836;2835.175;-1757.497;1;118;220;222.6;22.1;21.9;34;33.8;28.9;-1.0;
12/02/2025 20:30:02;117;0;94.15;-4;29.82;4.69;324.8;15.00;75843;2835.175;-1757.494;1;118;220;222.6;22.1;21.8;37;37.5;28.9;-1.0;
12/02/2025 20:30:22;117;0;95.65;-4;29.95;6.95;321.7;15.00;75847;2835.175;-1757.491;1;118;220;224.2;22.1;21.8;35;35.2;28.9;-1.0;
12/02/2025 20:30:42;117;0;95.17;-4;29.93;5.63;318.6;15.00;75841;2835.175;-1757.488;1;118;220;222.6;22.1;21.9;35;35.2;29.0;-1.0;
12/02/2025 20:31:02;117;0;94.18;-4;30.12;5.64;315.6;15.00;75855;2835.175;-1757.486;1;118;220;222.6;22.1;21.9;37;37.5;28.9;-1.0;
12/02/2025 20:31:22;117;0;90.97;-4;30.36;7.13;312.6;15.00;75860;2835.176;-1757.483;1;119;220;222.6;22.1;21.8;44;44.2;28.9;-1.0;
12/02/2025 20:31:42;117;0;88.54;-4;30.61;10.69;309.3;15.00;75868;2835.176;-1757.480;1;119;220;222.6;22.1;21.9;47;46.9;28.9;-1.0;
12/02/2025 20:32:02;117;0;86.52;-4;30.90;12.46;306.2;15.10;75870;2835.177;-1757.477;1;119;220;222.6;22.1;21.9;50;50.1;28.9;-1.0;
12/02/2025 20:32:22;117;0;92.88;-4;30.77;14.20;303.0;15.10;75879;2835.177;-1757.474;1;119;220;222.6;22.1;21.8;41;41.1;29.0;-1.0;
12/02/2025 20:32:42;117;0;97.08;-4;30.13;8.52;299.7;15.10;75895;2835.177;-1757.471;1;119;220;222.6;22.1;21.8;34;33.8;28.9;-1.0;
12/02/2025 20:33:02;117;0;98.79;-4;29.93;4.55;296.5;15.10;75895;2835.177;-1757.468;1;119;220;222.6;22.1;21.9;31;30.7;28.9;-1.0;
12/02/2025 20:33:22;117;0;99.30;-4;29.34;2.93;293.3;15.10;75908;2835.177;-1757.465;1;119;220;224.2;22.1;21.8;31;30.2;28.9;-1.0;
12/02/2025 20:33:42;117;0;99.47;-4;30.03;3.05;290.2;15.10;75921;2835.176;-1757.462;1;119;220;222.6;22.1;21.8;31;30.2;28.9;-1.0;
12/02/2025 20:34:02;117;0;99.87;-4;29.46;2.94;286.9;15.10;75921;2835.176;-1757.459;1;119;220;222.6;22.1;21.8;29;28.9;28.9;-1.0;
12/02/2025 20:34:22;117;0;100.80;-4;29.50;1.99;283.8;15.10;75917;2835.176;-1757.456;1;119;220;222.6;22.1;21.8;29;28.4;28.9;-1.0;
12/02/2025 20:34:42;117;0;101.43;-4;29.47;1.96;280.7;15.10;75920;2835.176;-1757.453;1;119;220;222.6;22.1;21.8;27;27.1;28.9;-1.0;
12/02/2025 20:35:02;117;0;100.70;-4;29.39;1.03;277.5;15.10;75914;2835.176;-1757.450;1;120;220;224.2;22.1;21.8;30;29.8;29.0;-1.0;
12/02/2025 20:35:22;117;0;102.96;-4;29.57;2.82;274.5;15.10;75933;2835.175;-1757.448;1;120;220;224.2;22.1;21.8;26;25.7;29.0;-1.0;
12/02/2025 20:35:42;117;0;103.18;-4;29.11;0.39;271.4;15.20;75946;2835.175;-1757.445;1;120;220;222.6;22.1;21.8;26;25.3;28.9;-1.0;
12/02/2025 20:36:02;117;0;102.89;-4;28.96;0.45;268.5;15.20;75948;2835.175;-1757.442;1;120;220;222.6;21.8;21.8;26;25.3;28.9;-1.0;
12/02/2025 20:36:22;117;0;98.46;-4;29.10;0.50;265.7;15.20;75968;2835.175;-1757.439;1;120;220;224.2;21.8;21.9;34;33.8;29.0;-1.0;
12/02/2025 20:36:42;117;0;96.20;-4;29.64;5.36;262.8;15.20;75970;2835.175;-1757.437;1;120;220;222.6;21.8;21.9;39;38.8;28.9;-1.0;
12/02/2025 20:37:02;117;0;96.45;-4;30.03;7.68;260.0;15.20;75980;2835.175;-1757.434;1;120;220;222.6;21.8;21.9;37;37.0;29.0;-1.0;
12/02/2025 20:37:22;117;0;96.85;-4;29.82;6.49;257.1;15.20;75977;2835.175;-1757.431;1;120;220;222.6;21.8;21.8;37;36.6;28.9;-1.0;
12/02/2025 20:37:42;117;0;95.16;-4;30.20;6.54;254.2;15.20;75984;2835.175;-1757.429;1;120;220;222.6;21.8;21.8;39;38.8;28.9;-1.0;
12/02/2025 20:38:02;117;0;94.47;-4;30.14;7.74;251.2;15.20;75984;2835.175;-1757.426;1;120;220;222.6;21.8;21.9;39;38.8;29.0;-1.0;
12/02/2025 20:38:22;117;0;92.27;-4;30.36;7.77;248.3;15.30;75988;2835.175;-1757.423;1;120;220;222.6;21.8;21.8;44;44.2;29.0;-1.0;
12/02/2025 20:38:42;117;0;91.09;-4;30.67;10.89;245.2;15.30;75997;2835.176;-1757.421;1;121;220;222.6;21.8;21.8;47;46.9;28.9;-1.0;
12/02/2025 20:39:02;117;0;89.12;-4;31.06;12.39;242.2;15.30;76000;2835.176;-1757.418;1;121;220;222.6;21.8;21.9;50;50.1;28.9;-1.0;
12/02/2025 20:39:22;117;0;91.87;-4;30.98;14.02;239.1;15.30;76007;2835.176;-1757.415;1;121;220;224.2;21.8;21.8;46;45.6;28.9;-1.0;
12/02/2025 20:39:42;117;0;93.57;-4;30.33;11.10;236.0;15.30;76015;2835.176;-1757.412;1;121;220;224.2;21.8;21.9;43;42.9;28.9;-1.0;
12/02/2025 20:40:02;117;0;93.21;-4;30.53;9.47;233.1;15.30;76028;2835.177;-1757.410;1;121;220;224.2;21.8;21.9;43;42.0;28.9;-1.0;
12/02/2025 20:40:22;117;0;94.41;-4;30.07;9.50;230.1;15.40;76038;2835.177;-1757.407;1;121;220;224.2;21.8;21.9;43;42.4;28.9;-1.0;
12/02/2025 20:40:42;117;0;97.17;-4;30.05;9.42;227.4;15.40;76048;2835.177;-1757.404;1;121;220;224.2;21.8;21.9;38;37.9;29.0;-1.0;
12/02/2025 20:41:02;117;0;91.56;-4;30.20;6.85;224.6;15.40;76061;2835.177;-1757.402;1;121;220;224.2;21.8;21.8;46;46.0;28.9;-1.0;
12/02/2025 20:41:22;117;0;88.56;-4;30.52;11.84;221.8;15.40;76066;2835.177;-1757.399;1;121;220;224.2;21.8;21.9;50;50.1;28.9;-1.0;
12/02/2025 20:41:42;117;0;89.89;-4;30.79;14.24;218.9;15.50;76079;2835.178;-1757.397;1;122;220;222.6;21.8;21.8;50;50.5;28.9;-1.0;
12/02/2025 20:42:02;117;0;92.31;-4;31.31;14.21;215.9;15.50;76092;2835.178;-1757.394;1;122;220;224.2;21.8;21.8;47;46.9;28.9;-1.0;
12/02/2025 20:42:22;117;0;93.23;-4;30.48;11.78;212.8;15.50;76100;2835.178;-1757.391;1;122;220;222.6;21.8;21.8;45;44.7;29.0;-1.0;
12/02/2025 20:42:42;117;0;95.77;-4;30.24;10.88;209.8;15.50;76112;2835.178;-1757.388;1;122;220;225.8;21.8;21.8;42;42.0;29.0;-1.0;
12/02/2025 20:43:02;117;0;99.45;-4;30.01;9.09;206.7;15.50;76120;2835.178;-1757.386;1;122;220;222.6;21.8;21.9;36;36.1;29.0;-1.0;
12/02/2025 20:43:22;117;0;99.41;-4;29.58;5.76;203.7;15.60;76132;2835.178;-1757.383;1;122;220;224.2;21.8;21.9;36;35.6;28.9;-1.0;
12/02/2025 20:43:42;117;0;98.44;-4;29.63;5.83;200.8;15.60;76137;2835.178;-1757.380;1;122;220;224.2;21.8;21.9;36;35.6;28.9;-1.0;
12/02/2025 20:44:02;117;0;98.33;-4;29.72;5.79;197.9;15.60;76141;2835.178;-1757.378;1;122;220;224.2;21.8;21.9;38;37.9;28.9;-1.0;
12/02/2025 20:44:22;117;0;98.37;-4;29.74;7.23;195.0;15.60;76151;2835.178;-1757.375;1;122;220;224.2;21.8;21.9;38;38.4;28.9;-1.0;
12/02/2025 20:44:42;117;0;98.19;-4;30.30;7.27;192.0;15.70;76174;2835.178;-1757.372;1;123;220;224.2;21.8;21.8;38;38.4;28.9;-1.0;
12/02/2025 20:45:02;117;0;100.12;-4;29.74;7.24;189.1;15.70;76165;2835.178;-1757.369;1;123;220;224.2;21.8;21.8;36;36.1;28.9;-1.0;
12/02/2025 20:45:22;117;0;101.22;-4;29.47;5.79;186.2;15.70;76169;2835.178;-1757.367;1;123;220;225.8;21.8;21.8;34;33.8;28.9;-1.0;
12/02/2025 20:45:42;117;0;102.66;-4;29.48;4.42;183.4;15.80;76187;2835.177;-1757.364;1;123;220;224.2;21.8;21.8;32;31.6;28.9;-1.0;
12/02/2025 20:46:02;117;0;103.71;-4;29.46;3.54;180.5;15.80;76182;2835.177;-1757.361;1;123;220;222.6;21.8;21.8;30;29.3;29.0;-1.0;
12/02/2025 20:46:22;117;0;101.79;-4;29.47;2.21;177.7;15.80;76191;2835.177;-1757.359;1;123;220;224.2;21.8;21.8;34;33.8;28.9;-1.0;
12/02/2025 20:46:42;117;0;100.71;-4;29.30;5.19;174.7;15.80;76207;2835.177;-1757.356;1;123;220;224.2;21.8;21.8;34;34.3;29.0;-1.0;
12/02/2025 20:47:02;117;0;100.04;-4;29.46;5.19;171.9;15.90;76214;2835.177;-1757.353;1;123;220;224.2;21.8;21.9;37;37.0;28.9;-1.0;
12/02/2025 20:47:22;117;0;99.66;-4;29.52;6.98;169.2;15.90;76204;2835.177;-1757.351;1;123;220;224.2;21.8;21.8;37;37.5;28.9;-1.0;
12/02/2025 20:47:43;117;0;99.58;-4;29.68;6.96;166.4;15.90;76222;2835.176;-1757.348;1;123;220;224.2;21.8;21.8;37;37.5;28.9;-1.0;
12/02/2025 20:48:03;117;0;100.30;-4;30.40;7.09;163.6;16.00;76234;2835.176;-1757.346;1;124;220;224.2;21.8;21.9;37;37.5;28.9;-1.0;
12/02/2025 20:48:23;117;0;98.19;-4;29.82;7.05;160.6;16.00;76247;2835.176;-1757.343;1;124;220;224.2;21.8;21.9;40;40.2;28.9;-1.0;
12/02/2025 20:48:43;117;0;99.91;-4;30.24;8.52;157.7;16.00;76272;2835.176;-1757.340;1;124;220;225.8;21.8;21.8;38;37.9;28.9;-1.0;
12/02/2025 20:49:03;117;0;100.04;-4;29.40;6.87;154.8;16.00;76277;2835.176;-1757.338;1;124;220;224.2;21.8;21.8;38;37.5;29.0;-1.0;
12/02/2025 20:49:23;117;0;100.13;-4;29.06;6.93;152.2;16.10;76295;2835.176;-1757.335;1;124;220;224.2;21.8;21.9;38;37.5;28.9;-1.0;
12/02/2025 20:49:43;117;0;101.86;-4;29.40;6.88;149.7;16.10;76306;2835.176;-1757.333;1;124;220;224.2;21.8;21.9;35;35.2;28.9;-1.0;
12/02/2025 20:50:03;117;0;99.16;-4;29.32;6.14;147.1;16.10;76329;2835.176;-1757.330;1;124;220;225.8;21.8;21.8;40;40.2;28.9;-1.0;
12/02/2025 20:50:23;117;0;97.15;-4;29.69;8.43;144.7;16.20;76340;2835.176;-1757.328;1;124;220;222.6;21.8;21.9;43;42.9;29.0;-1.0;
12/02/2025 20:50:43;117;0;94.82;-4;29.88;10.24;142.2;16.20;76350;2835.176;-1757.326;1;124;220;224.2;21.8;21.8;46;46.0;28.9;-1.0;
12/02/2025 20:51:03;117;0;89.28;-4;30.33;11.94;139.5;16.20;76377;2835.176;-1757.324;1;124;220;224.2;21.8;21.8;54;54.2;28.9;-1.0;
12/02/2025 20:51:23;117;0;93.73;-4;30.40;16.31;136.8;16.30;76408;2835.177;-1757.321;1;125;220;224.2;21.8;21.9;48;47.8;28.9;-1.0;
12/02/2025 20:51:43;117;0;97.85;-4;29.68;12.22;134.2;16.30;76422;2835.177;-1757.319;1;125;220;224.2;21.8;21.9;43;42.9;28.9;-1.0;
12/02/2025 20:52:03;117;0;106.41;-4;29.69;9.59;131.7;16.40;76443;2835.176;-1757.317;1;125;220;224.2;21.8;21.9;29;28.4;28.9;-1.0;
12/02/2025 20:52:23;117;0;108.08;-4;29.05;1.90;129.2;16.40;76460;2835.176;-1757.314;1;125;220;224.2;21.8;21.8;26;26.2;29.0;-1.0;
12/02/2025 20:52:43;117;0;106.99;-4;28.72;0.39;126.7;16.50;76472;2835.176;-1757.312;1;125;220;224.2;21.4;21.2;28;28.0;28.9;-1.0;
12/02/2025 20:53:03;117;0;106.87;-4;29.48;1.96;124.3;16.50;76500;2835.175;-1757.310;1;125;220;224.2;21.4;21.5;28;28.4;28.9;-1.0;
12/02/2025 20:53:23;117;0;105.58;-4;29.59;2.04;121.9;16.60;76507;2835.175;-1757.308;1;125;220;224.2;21.4;21.2;31;31.1;28.9;-1.0;
12/02/2025 20:53:43;117;0;105.09;-4;30.37;3.80;119.6;16.60;76529;2835.175;-1757.306;1;125;220;225.8;21.4;21.4;31;31.6;28.9;-1.0;
12/02/2025 20:54:03;117;0;111.16;-4;30.21;4.04;117.0;16.70;76557;2835.174;-1757.304;1;125;220;224.2;21.4;21.2;21;21.2;28.9;-1.0;
12/02/2025 20:54:23;117;0;113.84;-4;29.01;-2.35;114.4;16.70;76580;2835.174;-1757.301;1;125;220;224.2;21.4;21.2;17;17.1;29.0;-1.0;
12/02/2025 20:54:43;117;0;111.61;-4;28.89;-4.23;111.9;16.80;76603;2835.173;-1757.299;1;125;220;222.6;21.1;20.8;21;21.2;28.9;-1.0;
12/02/2025 20:55:03;117;0;109.49;-4;30.14;-1.51;109.5;16.80;76614;2835.173;-1757.297;1;125;220;225.8;21.1;20.9;24;23.9;28.9;-1.0;
12/02/2025 20:55:23;117;0;106.67;-4;30.57;0.02;106.9;16.90;76627;2835.173;-1757.295;1;126;220;224.2;21.1;20.8;31;31.1;28.9;-1.0;
12/02/2025 20:55:43;117;0;105.91;-4;31.18;3.99;104.0;16.90;76631;2835.172;-1757.292;1;126;220;224.2;21.1;20.9;31;31.6;28.9;-1.0;
12/02/2025 20:56:03;117;0;105.20;-4;30.98;3.97;101.1;17.00;76657;2835.172;-1757.290;1;126;220;224.2;21.1;20.9;31;32.0;28.9;-1.0;
12/02/2025 20:56:23;117;0;104.63;-4;31.08;3.90;98.2;17.00;76663;2835.172;-1757.288;1;126;220;224.2;21.1;20.8;33;32.9;28.9;-1.0;
12/02/2025 20:56:43;117;0;102.72;-4;31.17;4.89;95.2;17.10;76671;2835.171;-1757.285;1;126;220;224.2;21.1;20.8;36;36.1;29.0;-1.0;
12/02/2025 20:57:03;117;0;103.94;-4;31.13;6.54;92.2;17.20;76680;2835.171;-1757.282;1;126;220;224.2;21.1;20.9;34;33.8;28.9;-1.0;
12/02/2025 20:57:23;117;0;102.46;-4;31.52;4.60;89.3;17.20;76687;2835.171;-1757.280;1;126;220;224.2;21.1;20.8;38;37.9;28.9;-1.0;
12/02/2025 20:57:43;117;0;102.33;-4;31.70;7.46;86.2;17.20;76700;2835.171;-1757.277;1;126;220;224.2;21.1;20.9;38;38.4;28.9;-1.0;
12/02/2025 20:58:03;117;0;101.76;-4;31.46;7.43;83.0;17.30;76698;2835.170;-1757.274;1;126;220;224.2;21.1;20.9;38;38.4;28.9;-1.0;
12/02/2025 20:58:23;117;0;101.18;-4;31.88;7.47;79.9;17.30;76710;2835.170;-1757.272;1;126;220;224.2;21.1;20.9;38;38.4;28.9;-1.0;
12/02/2025 20:58:43;117;0;101.17;-4;31.42;7.42;76.7;17.40;76714;2835.170;-1757.269;1;127;220;224.2;21.1;20.9;40;40.2;28.9;-1.0;
12/02/2025 20:59:03;117;0;100.96;-4;31.51;8.76;73.4;17.40;76720;2835.170;-1757.266;1;127;220;224.2;21.1;20.9;40;40.6;28.9;-1.0;
12/02/2025 20:59:23;117;0;102.09;-4;31.44;8.66;70.1;17.50;76731;2835.170;-1757.263;1;127;220;225.8;21.1;20.9;40;40.2;29.0;-1.0;
12/02/2025 20:59:43;117;0;101.85;-4;31.73;8.59;67.0;17.50;76732;2835.170;-1757.261;1;127;220;224.2;21.1;20.9;40;40.6;28.9;-1.0;
12/02/2025 21:00:03;117;0;100.80;-4;31.63;8.65;63.7;17.60;76743;2835.169;-1757.258;1;127;220;225.8;21.1;20.8;40;40.6;28.9;-1.0;
12/02/2025 21:00:23;117;0;99.70;-4;31.61;8.65;60.6;17.60;76742;2835.169;-1757.255;1;127;220;224.2;21.1;20.8;43;42.9;28.9;-1.0;
12/02/2025 21:00:43;117;0;100.21;-4;31.66;10.24;57.4;17.70;76760;2835.169;-1757.253;1;127;220;225.8;21.1;20.9;43;43.3;28.9;-1.0;
12/02/2025 21:01:03;117;0;98.67;-4;32.21;10.31;54.4;17.70;76744;2835.169;-1757.250;1;127;220;225.8;21.7;21.8;43;43.3;28.9;-1.0;
12/02/2025 21:01:23;117;0;98.53;-4;30.56;10.31;51.3;17.70;76755;2835.169;-1757.247;1;128;220;224.2;21.7;21.8;46;46.0;28.9;-1.0;
12/02/2025 21:01:43;117;0;100.18;-4;30.34;12.03;48.3;17.80;76774;2835.169;-1757.245;1;128;220;225.8;21.7;21.9;43;42.4;28.9;-1.0;
12/02/2025 21:02:03;117;0;101.30;-4;29.98;9.30;45.4;17.80;76769;2835.169;-1757.242;1;128;220;224.2;21.7;21.9;43;42.0;28.9;-1.0;
12/02/2025 21:02:23;117;0;102.71;-4;30.02;9.36;42.5;17.90;76772;2835.168;-1757.239;1;128;220;224.2;21.7;21.9;39;38.4;28.9;-1.0;
12/02/2025 21:02:43;117;0;103.15;-4;29.59;7.22;39.7;17.90;76779;2835.168;-1757.237;1;128;220;224.2;21.7;21.9;39;37.9;28.9;-1.0;
12/02/2025 21:03:03;117;0;102.83;-4;29.64;7.25;37.0;17.90;76792;2835.168;-1757.234;1;128;220;225.8;21.7;21.9;39;37.9;28.9;-1.0;
12/02/2025 21:03:23;117;0;103.59;-4;29.91;7.27;34.2;18.00;76798;2835.168;-1757.232;1;128;220;225.8;21.7;21.9;39;37.9;28.9;-1.0;
12/02/2025 21:03:43;117;0;103.85;-4;29.61;7.22;31.4;18.00;76799;2835.168;-1757.229;1;128;220;224.2;21.7;21.9;39;37.9;28.9;-1.0;
12/02/2025 21:04:03;117;0;105.12;-4;29.49;7.31;28.5;18.10;76803;2835.167;-1757.227;1;129;220;224.2;21.7;21.8;37;36.6;28.9;-1.0;
12/02/2025 21:04:23;117;0;106.48;-4;29.89;6.26;25.7;18.10;76809;2835.167;-1757.224;1;129;220;224.2;21.7;21.8;35;35.2;28.9;-1.0;
12/02/2025 21:04:43;117;0;106.30;-4;29.58;5.46;22.8;18.10;76806;2835.166;-1757.222;1;129;220;224.2;21.7;21.9;35;34.7;28.9;-1.0;
12/02/2025 21:05:03;117;0;106.16;-4;29.06;5.46;19.8;18.20;76821;2835.166;-1757.219;1;129;220;225.8;21.7;21.9;35;34.7;28.9;-1.0;
12/02/2025 21:05:23;117;0;106.39;-4;29.38;5.74;16.9;18.20;76816;2835.166;-1757.216;1;129;220;224.2;21.7;21.9;35;34.7;28.9;-1.0;
12/02/2025 21:05:43;117;0;105.24;-4;30.14;5.61;14.0;18.20;76829;2835.165;-1757.214;1;129;220;224.2;21.7;21.9;37;37.5;28.9;-1.0;
12/02/2025 21:06:03;117;0;105.54;-4;29.53;7.40;11.2;18.30;76829;2835.165;-1757.211;1;129;220;224.2;21.7;21.9;37;37.9;28.9;-1.0;
12/02/2025 21:06:23;117;0;105.92;-4;29.30;7.40;8.2;18.30;76839;2835.165;-1757.208;1;129;220;225.8;21.7;21.9;37;37.9;28.9;-1.0;
12/02/2025 21:06:43;117;0;107.53;-4;29.29;7.29;5.3;18.30;76835;2835.164;-1757.206;1;129;220;224.2;21.7;21.9;33;32.9;28.9;-1.0;
12/02/2025 21:06:58;115;0;104.81;-4;28.11;4.55;3.1;18.40;76842;2835.164;-1757.204;1;130;500;232.3;100.0;67.2;0;-0.5;28.9;-1.0;
12/02/2025 21:07:08;115;0;99.48;-4;8.87;-12.68;2.1;18.40;76827;2835.164;-1757.202;1;130;500;350.0;100.0;100.0;0;-0.5;28.7;-1.0;
12/02/2025 21:07:18;115;0;92.59;-4;-68.13;-9.88;2.6;18.40;76563;2835.164;-1757.202;1;130;500;464.5;100.0;100.6;0;-0.5;28.7;-1.0;
12/02/2025 21:07:28;115;0;48.97;-4;-64.90;-6.09;1.9;18.40;76321;2835.164;-1757.201;1;130;500;508.1;100.0;100.6;0;-0.5;28.7;-1.0;
12/02/2025 21:07:38;115;0;341.86;-4;-22.18;-14.23;-0.4;18.50;76251;2835.167;-1757.202;1;130;500;508.1;100.0;100.4;0;-0.5;28.9;-1.0;
12/02/2025 21:07:58;119;0;330.84;-4;-55.06;-19.55;-0.2;18.50;76270;2835.167;-1757.202;1;130;500;509.7;100.0;100.6;0;-0.5;28.9;-1.0;
12/02/2025 21:08:08;119;0;339.10;-4;-47.01;-15.60;-0.3;18.50;76269;2835.184;-1757.264;0;130;500;509.7;100.0;100.6;0;-0.5;28.9;-1.0;
