Timestamp;NavState;SecurityLevel;Heading;Declination;Pitch;Roll;Depth;Temperature;Pa;Lat;Lon;DeadReckoning;DesiredH;BallastCmd;BallastPos;LinCmd;LinPos;AngCmd;AngPos;Voltage;Altitude;
15/02/2025 15:34:16;119;0;333.32;-4;-45.76;-13.71;-0.0;17.40;75708;2835.188;-1757.050;0;142;500;508.1;100.0;100.4;0;-0.5;28.5;-1.0;
15/02/2025 15:34:26;116;0;334.17;-4;-54.92;-15.38;0.2;17.40;75710;2835.186;-1757.047;0;142;500;509.7;100.0;100.4;0;-0.5;28.5;-1.0;
15/02/2025 15:34:51;116;0;326.65;-4;-53.26;-16.26;-0.1;17.50;75738;2835.184;-1757.044;0;142;500;509.7;100.0;100.6;0;-0.5;28.5;-1.0;
15/02/2025 15:35:10;116;0;344.83;-4;-45.47;-3.86;-0.0;17.50;75727;2835.185;-1757.043;0;-9999;500;509.7;100.0;100.6;0;-0.5;28.5;-1.0;
15/02/2025 15:35:33;116;0;334.87;-4;-40.97;-10.79;-0.0;17.60;75746;2835.184;-1757.040;0;143;500;509.7;100.0;100.6;0;-0.5;28.5;-1.0;
15/02/2025 15:36:36;116;0;342.49;-4;-54.34;-22.20;-0.0;17.80;75777;2835.180;-1757.034;0;143;500;508.1;100.0;100.6;0;-0.5;28.5;-1.0;
15/02/2025 15:39:26;116;0;309.70;-4;-48.28;-24.11;0.0;18.60;75836;2835.169;-1757.021;0;143;500;509.7;100.0;100.6;0;-0.5;28.5;-1.0;
15/02/2025 15:40:53;116;0;322.29;-4;-43.71;-10.01;-0.0;19.00;75863;2835.162;-1757.013;0;-9999;500;508.1;100.0;100.6;0;-0.5;28.5;-1.0;
15/02/2025 15:41:04;116;0;307.38;-4;-49.40;-21.84;0.0;19.00;75871;2835.162;-1757.013;0;144;500;508.1;100.0;100.6;0;-0.5;28.5;-1.0;
15/02/2025 15:41:24;116;0;294.98;-4;-45.28;-8.88;0.0;19.10;75864;2835.157;-1757.011;0;144;500;508.1;100.0;100.4;0;-0.5;28.5;-1.0;
15/02/2025 15:41:35;116;0;275.71;-4;-48.58;-16.29;0.1;19.20;75876;2835.157;-1757.010;0;143;500;506.5;100.0;100.4;0;-0.5;28.5;-1.0;
15/02/2025 15:41:55;110;0;311.30;-4;-61.38;-24.50;-0.1;19.30;75880;2835.157;-1757.010;0;143;-50;400.0;100.0;99.7;-8;-8.6;28.5;-1.0;
15/02/2025 15:42:05;110;0;286.28;-4;-59.64;-10.87;0.1;19.30;76210;2835.157;-1757.011;1;143;-50;254.8;100.0;99.7;-8;-8.6;28.5;-1.0;
15/02/2025 15:42:15;110;0;288.59;-4;-59.29;-14.14;0.5;19.30;76453;2835.157;-1757.011;1;143;-50;95.2;100.0;99.9;-8;-8.6;28.5;-1.0;
15/02/2025 15:42:25;110;0;284.69;-4;-66.49;-13.36;0.8;19.40;76779;2835.157;-1757.011;1;143;-50;-50.0;100.0;99.7;-8;-8.6;28.5;-1.0;
15/02/2025 15:42:35;110;0;281.86;-4;-63.50;-19.38;1.0;19.40;77087;2835.157;-1757.011;1;143;-50;-50.0;50.0;49.9;-8;-8.6;28.5;-1.0;
15/02/2025 15:42:55;100;0;294.66;-4;-41.80;-16.98;4.2;19.50;77041;2835.158;-1757.013;1;143;-50;-50.0;50.0;49.6;-8;-8.6;28.5;-1.0;
15/02/2025 15:43:15;100;0;316.49;-4;-31.18;-16.45;8.4;19.50;77056;2835.161;-1757.016;1;143;-50;-46.8;50.0;49.5;70;69.9;28.5;-1.0;
15/02/2025 15:43:35;100;0;316.14;-4;-36.54;22.79;12.5;19.50;77056;2835.163;-1757.018;1;143;-50;-46.8;48.0;48.0;70;69.9;28.5;-1.0;
15/02/2025 15:43:55;100;0;305.24;-4;-34.67;23.65;16.8;19.50;77058;2835.165;-1757.022;1;143;-50;-46.8;46.6;46.7;70;69.9;28.5;0.0;
15/02/2025 15:44:15;100;0;294.15;-4;-32.73;22.79;21.2;19.60;77057;2835.167;-1757.025;1;143;-50;-50.0;45.8;45.8;70;69.9;28.5;0.0;
15/02/2025 15:44:35;100;0;284.59;-4;-31.37;23.16;25.4;19.50;77061;2835.168;-1757.029;1;143;-50;-46.8;45.8;45.7;70;69.9;28.5;0.0;
15/02/2025 15:44:55;100;0;273.35;-4;-31.41;23.09;29.6;19.50;77050;2835.168;-1757.033;1;142;-50;-50.0;45.8;45.7;70;69.9;28.5;0.0;
15/02/2025 15:45:15;100;0;264.02;-4;-30.61;23.56;33.6;19.50;77050;2835.168;-1757.037;1;142;-50;-46.8;45.8;45.7;70;69.9;28.5;0.0;
15/02/2025 15:45:35;100;0;253.75;-4;-30.38;23.35;37.7;19.50;77056;2835.167;-1757.042;1;141;-50;-46.8;45.8;45.7;70;69.9;28.5;0.0;
15/02/2025 15:45:55;100;0;244.57;-4;-30.07;23.25;41.8;19.50;77064;2835.165;-1757.045;1;141;-50;-50.0;45.8;45.7;70;69.9;28.5;0.0;
15/02/2025 15:46:15;100;0;232.52;-4;-30.23;23.50;45.7;19.50;77067;2835.163;-1757.049;1;141;-50;-46.8;45.8;45.7;70;70.4;28.5;0.0;
15/02/2025 15:46:35;100;0;219.80;-4;-30.08;23.37;49.6;19.50;77076;2835.161;-1757.051;1;140;-50;-45.2;45.8;45.7;70;69.9;28.5;0.0;
15/02/2025 15:46:55;100;0;208.19;-4;-30.12;23.57;53.6;19.50;77079;2835.158;-1757.053;1;140;-50;-46.8;45.8;45.7;70;70.4;28.5;0.0;
15/02/2025 15:47:15;100;0;195.10;-4;-30.43;23.42;57.6;19.50;77084;2835.155;-1757.054;1;139;-50;-46.8;45.8;45.7;70;69.9;28.5;0.0;
15/02/2025 15:47:35;100;0;182.12;-4;-29.86;23.31;61.7;19.50;77091;2835.151;-1757.055;1;139;-50;-46.8;45.8;45.7;66;65.4;28.5;0.0;
15/02/2025 15:47:55;100;0;171.42;-4;-29.40;20.49;65.6;19.50;77090;2835.148;-1757.054;1;139;-50;-45.2;45.8;45.7;51;51.0;28.5;0.0;
15/02/2025 15:48:16;100;0;163.52;-4;-28.35;13.12;69.4;19.50;77090;2835.144;-1757.053;1;139;-50;-46.8;46.3;46.5;39;38.4;28.5;0.0;
15/02/2025 15:48:36;100;0;157.38;-4;-28.87;6.97;73.2;19.50;77090;2835.141;-1757.052;1;138;-50;-46.8;46.7;47.0;30;29.8;28.5;0.0;
15/02/2025 15:48:56;100;0;151.09;-4;-28.95;2.73;77.2;19.50;77084;2835.138;-1757.050;1;138;-50;-46.8;47.0;47.0;20;19.4;28.5;0.0;
15/02/2025 15:49:16;100;0;149.20;-4;-28.14;-2.31;81.0;19.50;77095;2835.135;-1757.048;1;138;-50;-46.8;47.5;47.6;18;17.6;28.5;0.0;
15/02/2025 15:49:36;100;0;149.84;-4;-29.40;-3.23;84.9;19.60;77098;2835.132;-1757.046;1;138;-50;-45.2;47.5;47.7;18;17.6;28.5;0.0;
15/02/2025 15:49:56;100;0;149.59;-4;-29.58;-3.20;88.9;19.60;77101;2835.129;-1757.044;1;138;-50;-46.8;47.5;47.7;18;17.6;28.5;0.0;
15/02/2025 15:50:16;100;0;146.72;-4;-29.55;-3.19;92.9;19.50;77104;2835.126;-1757.042;1;138;-50;-46.8;47.5;47.9;16;15.3;28.5;0.0;
15/02/2025 15:50:36;100;0;146.15;-4;-29.54;-4.33;97.0;19.60;77122;2835.124;-1757.039;1;138;-50;-46.8;47.5;47.9;16;15.3;28.5;0.0;
15/02/2025 15:50:56;100;0;145.02;-4;-29.26;-4.32;101.0;19.60;77117;2835.121;-1757.037;1;138;-50;-48.4;47.5;47.9;16;14.9;28.5;0.0;
15/02/2025 15:51:16;100;0;142.48;-4;-29.39;-4.37;105.0;19.60;77109;2835.118;-1757.035;1;138;-50;-46.8;47.5;47.7;16;15.3;28.5;0.0;
15/02/2025 15:51:36;100;0;140.29;-4;-29.69;-4.39;109.0;19.60;77130;2835.115;-1757.032;1;138;-50;-46.8;47.5;47.9;14;14.0;28.5;0.0;
15/02/2025 15:51:56;100;0;141.53;-4;-29.36;-5.05;113.1;19.60;77127;2835.113;-1757.030;1;138;-50;-46.8;47.5;47.9;14;13.5;28.5;0.0;
15/02/2025 15:52:16;100;0;141.44;-4;-29.47;-5.03;117.1;19.60;77128;2835.110;-1757.027;1;138;-50;-46.8;47.5;47.9;14;13.5;28.5;0.0;
15/02/2025 15:52:36;100;0;138.80;-4;-29.73;-5.06;121.1;19.60;77139;2835.107;-1757.025;1;138;-50;-46.8;47.5;47.9;14;13.5;28.5;0.0;
15/02/2025 15:52:56;100;0;131.69;-4;-29.47;-5.08;125.1;19.60;77119;2835.105;-1757.022;1;138;-50;-45.2;47.5;47.9;14;13.5;28.5;0.0;
15/02/2025 15:53:16;100;0;129.84;-4;-28.94;-5.11;128.9;19.50;77098;2835.103;-1757.019;1;138;-50;-50.0;47.8;47.9;14;14.0;28.5;0.0;
15/02/2025 15:53:36;100;0;133.80;-4;-28.43;-4.99;132.5;19.50;77059;2835.101;-1757.016;1;138;-50;-46.8;48.3;48.3;14;13.5;28.5;0.0;
15/02/2025 15:53:56;100;0;139.54;-4;-29.46;-5.01;135.9;19.50;77041;2835.098;-1757.014;1;138;-50;-48.4;48.3;48.6;14;13.5;28.5;0.0;
15/02/2025 15:54:16;100;0;142.28;-4;-30.80;-5.07;139.5;19.50;76997;2835.096;-1757.012;1;138;-50;-46.8;48.3;48.6;14;14.0;28.5;0.0;
15/02/2025 15:54:36;100;0;139.74;-4;-30.22;-5.13;142.9;19.40;76978;2835.094;-1757.010;1;138;-50;-46.8;48.3;48.6;14;13.5;28.5;0.0;
15/02/2025 15:54:56;100;0;142.01;-4;-30.58;-5.05;146.4;19.40;76946;2835.092;-1757.008;1;138;-50;-45.2;48.3;48.6;14;13.5;28.5;0.0;
15/02/2025 15:55:16;100;0;144.20;-4;-30.22;-5.17;149.8;19.40;76936;2835.089;-1757.006;1;138;-50;-46.8;48.3;48.6;14;13.5;28.5;0.0;
15/02/2025 15:55:36;100;0;147.89;-4;-29.92;-5.12;153.3;19.40;76911;2835.087;-1757.004;1;138;-50;-48.4;48.3;48.6;17;17.1;28.5;0.0;
15/02/2025 15:55:56;100;0;145.15;-4;-30.38;-3.08;156.6;19.30;76905;2835.085;-1757.002;1;138;-50;-46.8;48.3;48.6;17;17.6;28.5;0.0;
15/02/2025 15:56:16;100;0;132.81;-4;-30.38;-3.12;160.0;19.30;76890;2835.083;-1757.000;1;138;-50;-46.8;48.3;48.6;14;13.5;28.5;0.0;
15/02/2025 15:56:36;100;0;126.27;-4;-29.96;-5.29;163.3;19.20;76868;2835.081;-1756.997;1;138;-50;-46.8;48.3;48.6;10;9.9;28.5;0.0;
15/02/2025 15:56:56;100;0;122.48;-4;-29.49;-7.19;166.5;19.20;76846;2835.080;-1756.994;1;138;-50;-46.8;48.3;48.6;5;4.5;28.5;0.0;
15/02/2025 15:57:16;100;0;124.23;-4;-30.05;-9.75;169.7;19.20;76842;2835.078;-1756.992;1;138;-50;-48.4;48.3;48.6;7;7.2;28.5;0.0;
15/02/2025 15:57:36;100;0;134.09;-4;-30.47;-8.15;173.1;19.10;76825;2835.076;-1756.989;1;138;-50;-46.8;48.3;48.6;14;14.4;28.5;0.0;
15/02/2025 15:57:56;100;0;139.85;-4;-30.35;-4.43;176.6;19.10;76807;2835.074;-1756.987;1;138;-50;-46.8;48.3;48.6;14;14.9;28.5;0.0;
15/02/2025 15:58:16;100;0;137.09;-4;-29.78;-4.53;180.0;19.00;76781;2835.072;-1756.985;1;138;-50;-46.8;48.3;48.6;14;14.4;28.5;0.0;
15/02/2025 15:58:36;100;0;132.81;-4;-29.96;-4.59;183.1;19.00;76771;2835.070;-1756.983;1;138;-50;-46.8;48.3;48.6;14;14.4;28.5;0.0;
15/02/2025 15:58:56;100;0;131.46;-4;-29.94;-4.79;186.4;18.90;76745;2835.068;-1756.980;1;138;-50;-48.4;48.3;48.6;14;14.9;28.5;0.0;
15/02/2025 15:59:16;100;0;126.91;-4;-30.49;-4.74;189.6;18.90;76732;2835.067;-1756.978;1;138;-50;-46.8;48.3;48.6;10;9.5;28.5;0.0;
15/02/2025 15:59:36;100;0;123.82;-4;-29.31;-7.22;192.9;18.80;76717;2835.065;-1756.975;1;138;-50;-46.8;48.3;48.6;6;5.9;28.5;0.0;
15/02/2025 15:59:56;100;0;125.45;-4;-30.35;-9.21;196.2;18.80;76689;2835.064;-1756.973;1;138;-50;-46.8;48.3;48.6;8;8.1;28.5;0.0;
15/02/2025 16:00:12;118;0;127.96;-4;-29.60;-7.65;198.9;18.80;76682;2835.062;-1756.970;1;139;150;-41.9;34.0;34.0;8;8.1;28.5;0.0;
15/02/2025 16:00:22;118;0;122.17;-4;-20.28;-8.51;200.3;18.70;76652;2835.061;-1756.969;1;139;150;85.5;34.0;33.9;8;8.1;28.1;-1.0;
15/02/2025 16:00:32;118;0;119.83;-4;-7.67;-8.16;201.2;18.70;76389;2835.061;-1756.967;1;139;150;154.8;34.0;33.7;8;8.1;28.1;-1.0;
15/02/2025 16:00:42;118;0;130.42;-4;-2.95;-8.51;201.5;18.70;76254;2835.061;-1756.967;1;139;150;154.8;34.0;33.6;8;8.1;28.5;-1.0;
15/02/2025 16:01:02;117;0;128.38;-4;-1.12;-8.40;201.3;18.60;76241;2835.061;-1756.967;1;139;150;154.8;34.0;33.6;8;8.1;28.5;-1.0;
15/02/2025 16:01:22;117;0;125.27;-4;-1.42;-8.60;200.8;18.60;76236;2835.061;-1756.967;1;139;150;154.8;24.6;24.4;44;44.2;28.5;-1.0;
15/02/2025 16:01:42;117;0;123.01;-4;26.28;11.29;200.0;18.50;76230;2835.060;-1756.966;1;139;150;156.5;23.5;23.1;41;41.1;28.5;-1.0;
15/02/2025 16:02:02;117;0;123.23;-4;28.55;8.76;198.3;18.50;76235;2835.060;-1756.965;1;139;150;158.1;23.0;23.0;41;41.1;28.5;-1.0;
15/02/2025 16:02:22;117;0;122.84;-4;29.24;8.85;196.5;18.40;76214;2835.059;-1756.963;1;139;150;158.1;23.0;22.7;41;40.6;28.5;-1.0;
15/02/2025 16:02:42;117;0;123.13;-4;28.88;8.84;194.5;18.40;76206;2835.058;-1756.962;1;139;150;158.1;22.7;22.7;41;40.6;28.5;-1.0;
15/02/2025 16:03:02;117;0;124.30;-4;29.18;8.77;192.6;18.30;76206;2835.057;-1756.960;1;139;150;156.5;22.7;22.7;41;40.6;28.5;-1.0;
15/02/2025 16:03:22;117;0;127.07;-4;29.02;8.79;190.6;18.30;76214;2835.056;-1756.959;1;139;150;158.1;22.7;22.7;36;36.1;28.5;-1.0;
15/02/2025 16:03:42;117;0;129.06;-4;28.77;6.09;188.6;18.20;76222;2835.055;-1756.957;1;139;150;158.1;22.3;22.2;34;33.8;28.5;-1.0;
15/02/2025 16:04:02;117;0;130.22;-4;29.58;4.77;186.6;18.20;76213;2835.054;-1756.956;1;139;150;158.1;22.3;22.2;34;33.4;28.5;-1.0;
15/02/2025 16:04:22;117;0;132.62;-4;29.63;4.76;184.6;18.10;76207;2835.053;-1756.954;1;139;150;158.1;22.3;22.2;31;31.1;28.5;-1.0;
15/02/2025 16:04:42;117;0;134.95;-4;29.78;4.11;182.5;18.10;76206;2835.052;-1756.953;1;139;150;159.7;22.3;22.2;31;32.0;28.5;-1.0;
15/02/2025 16:05:02;117;0;137.81;-4;29.19;4.08;180.3;18.10;76219;2835.051;-1756.952;1;139;150;158.1;22.3;22.2;31;32.0;28.5;-1.0;
15/02/2025 16:05:22;117;0;138.84;-4;29.65;4.15;178.1;18.00;76215;2835.049;-1756.950;1;139;150;158.1;22.3;22.2;31;32.0;28.5;-1.0;
15/02/2025 16:05:42;117;0;140.61;-4;29.61;4.08;176.0;18.00;76222;2835.048;-1756.949;1;139;150;159.7;22.3;22.2;31;32.0;28.5;-1.0;
15/02/2025 16:06:02;117;0;140.33;-4;29.06;4.19;173.7;17.90;76214;2835.046;-1756.948;1;139;150;158.1;22.3;22.2;31;32.0;28.5;-1.0;
15/02/2025 16:06:22;117;0;141.26;-4;29.49;4.01;171.7;17.90;76220;2835.045;-1756.946;1;139;150;154.8;22.3;22.2;31;32.0;28.5;-1.0;
15/02/2025 16:06:42;117;0;131.62;-4;29.17;4.24;169.6;17.90;76231;2835.044;-1756.945;1;139;150;158.1;22.3;22.2;31;32.0;28.5;-1.0;
15/02/2025 16:07:02;117;0;127.61;-4;29.33;4.15;167.5;17.90;76239;2835.043;-1756.943;1;140;150;158.1;22.3;22.2;37;37.0;28.5;-1.0;
15/02/2025 16:07:22;117;0;123.85;-4;29.09;7.00;165.4;17.90;76238;2835.042;-1756.941;1;140;150;159.7;22.3;22.2;41;41.1;28.5;-1.0;
15/02/2025 16:07:42;117;0;119.49;-4;29.63;9.22;163.4;17.80;76239;2835.041;-1756.940;1;140;150;159.7;22.3;22.2;49;49.6;28.5;-1.0;
15/02/2025 16:08:02;117;0;115.85;-4;30.32;13.84;161.3;17.80;76251;2835.041;-1756.938;1;140;150;158.1;22.3;22.2;56;56.0;28.5;-1.0;
15/02/2025 16:08:22;117;0;121.33;-4;31.87;17.32;159.3;17.80;76254;2835.040;-1756.936;1;140;150;158.1;22.3;22.2;46;46.0;28.5;-1.0;
15/02/2025 16:08:42;117;0;123.70;-4;30.73;11.22;157.0;17.80;76253;2835.039;-1756.935;1;140;150;158.1;22.3;22.2;41;41.1;28.5;-1.0;
15/02/2025 16:09:02;117;0;126.83;-4;29.89;8.50;154.7;17.80;76259;2835.038;-1756.933;1;140;150;158.1;22.3;22.2;37;37.0;28.5;-1.0;
15/02/2025 16:09:22;117;0;130.14;-4;29.74;6.45;152.5;17.70;76257;2835.037;-1756.931;1;140;150;158.1;22.3;22.2;33;32.9;28.5;-1.0;
15/02/2025 16:09:42;117;0;132.06;-4;29.19;4.21;150.1;17.70;76267;2835.035;-1756.930;1;140;150;159.7;22.3;22.2;33;32.5;28.5;-1.0;
15/02/2025 16:10:02;117;0;135.34;-4;29.36;4.25;148.0;17.70;76268;2835.034;-1756.928;1;140;150;158.1;22.3;22.2;31;31.1;28.5;-1.0;
15/02/2025 16:10:22;117;0;137.49;-4;29.43;3.21;145.7;17.70;76280;2835.033;-1756.927;1;140;150;158.1;22.3;22.4;31;30.7;28.5;-1.0;
15/02/2025 16:10:42;117;0;134.63;-4;29.24;3.23;143.5;17.70;76288;2835.031;-1756.925;1;140;150;159.7;22.3;22.2;31;30.7;28.5;-1.0;
15/02/2025 16:11:02;117;0;128.33;-4;29.13;3.41;141.3;17.70;76297;2835.030;-1756.923;1;141;150;159.7;22.3;22.2;36;36.1;28.5;-1.0;
15/02/2025 16:11:22;117;0;127.20;-4;29.25;6.50;139.2;17.70;76300;2835.029;-1756.922;1;141;150;158.1;22.3;22.2;38;37.9;28.5;-1.0;
15/02/2025 16:11:42;117;0;124.25;-4;29.10;7.53;137.2;17.70;76312;2835.028;-1756.920;1;141;150;159.7;22.3;22.2;42;42.0;28.5;-1.0;
15/02/2025 16:12:02;117;0;124.53;-4;30.08;9.79;135.2;17.70;76318;2835.027;-1756.919;1;141;170;174.2;22.3;22.2;42;42.4;28.5;-1.0;
15/02/2025 16:12:22;117;0;126.59;-4;29.91;9.79;133.0;17.60;76302;2835.026;-1756.917;1;141;170;174.2;22.3;22.2;39;38.4;28.5;-1.0;
15/02/2025 16:12:42;117;0;128.07;-4;29.19;7.17;130.8;17.70;76315;2835.025;-1756.915;1;141;170;172.6;22.3;22.2;37;37.0;28.5;-1.0;
15/02/2025 16:13:02;117;0;125.00;-4;29.21;6.50;128.6;17.70;76323;2835.024;-1756.913;1;141;170;174.2;22.3;22.2;41;41.1;28.5;-1.0;
15/02/2025 16:13:22;117;0;119.11;-4;29.72;9.40;126.4;17.70;76352;2835.023;-1756.912;1;141;170;174.2;22.3;22.2;51;51.0;28.5;-1.0;
15/02/2025 16:13:42;117;0;116.73;-4;30.09;14.83;124.1;17.70;76366;2835.023;-1756.910;1;142;170;174.2;22.3;22.2;56;56.0;28.5;-1.0;
15/02/2025 16:14:02;117;0;114.28;-4;31.11;17.45;121.8;17.70;76389;2835.022;-1756.908;1;142;170;174.2;22.3;22.2;61;60.9;28.5;-1.0;
15/02/2025 16:14:22;117;0;115.82;-4;30.80;20.32;119.4;17.70;76397;2835.021;-1756.906;1;142;170;172.6;22.3;22.2;58;57.8;28.5;-1.0;
15/02/2025 16:14:42;117;0;119.00;-4;30.28;17.95;117.0;17.70;76406;2835.020;-1756.904;1;142;170;174.2;22.3;22.2;53;52.8;28.5;-1.0;
15/02/2025 16:15:02;117;0;128.98;-4;30.10;15.13;114.8;17.70;76441;2835.019;-1756.902;1;142;170;174.2;22.3;22.2;37;36.6;28.5;-1.0;
15/02/2025 16:15:22;117;0;133.82;-4;28.78;6.26;112.7;17.80;76471;2835.018;-1756.901;1;142;170;174.2;22.0;21.6;33;32.9;28.5;-1.0;
15/02/2025 16:15:42;117;0;135.61;-4;29.47;4.23;110.7;17.80;76499;2835.017;-1756.899;1;142;170;174.2;22.0;21.6;33;32.5;28.5;-1.0;
15/02/2025 16:16:02;117;0;135.60;-4;29.78;4.22;108.6;17.80;76529;2835.016;-1756.898;1;142;170;174.2;22.0;21.6;33;32.5;28.5;-1.0;
15/02/2025 16:16:22;117;0;135.55;-4;29.67;4.19;106.6;17.80;76545;2835.014;-1756.896;1;142;170;174.2;22.0;21.6;33;32.5;28.5;-1.0;
15/02/2025 16:16:42;117;0;135.18;-4;29.57;4.13;104.7;17.90;76552;2835.013;-1756.895;1;142;190;195.2;22.0;21.5;33;32.5;28.5;-1.0;
15/02/2025 16:17:02;117;0;138.43;-4;29.46;4.26;102.6;17.90;76520;2835.012;-1756.894;1;142;190;193.5;22.0;21.6;31;31.1;28.5;-1.0;
15/02/2025 16:17:22;117;0;138.29;-4;29.40;3.35;100.5;17.90;76533;2835.011;-1756.892;1;143;190;195.2;22.0;21.6;31;30.7;28.5;-1.0;
15/02/2025 16:17:42;117;0;138.10;-4;29.44;3.44;98.3;18.00;76534;2835.009;-1756.891;1;143;190;195.2;22.0;21.6;31;30.7;28.5;-1.0;
15/02/2025 16:18:02;117;0;136.18;-4;29.46;3.36;96.0;18.00;76538;2835.008;-1756.890;1;143;190;195.2;22.0;21.6;31;30.7;28.5;-1.0;
15/02/2025 16:18:22;117;0;134.68;-4;29.30;3.40;93.7;18.00;76551;2835.007;-1756.888;1;143;190;195.2;22.0;21.6;33;32.9;28.5;-1.0;
15/02/2025 16:18:42;117;0;134.06;-4;29.29;4.95;91.5;18.00;76569;2835.005;-1756.886;1;143;190;195.2;22.0;21.6;33;33.4;28.5;-1.0;
15/02/2025 16:19:02;117;0;133.41;-4;29.43;4.91;89.0;18.10;76573;2835.004;-1756.885;1;143;190;193.5;22.0;21.6;33;33.4;28.5;-1.0;
15/02/2025 16:19:22;117;0;134.36;-4;29.89;4.80;86.7;18.10;76570;2835.003;-1756.883;1;143;190;193.5;22.0;21.6;33;33.4;28.5;-1.0;
15/02/2025 16:19:42;117;0;133.45;-4;29.67;4.95;84.2;18.10;76583;2835.001;-1756.881;1;143;190;195.2;22.0;21.6;33;33.4;28.5;-1.0;
15/02/2025 16:20:02;117;0;132.66;-4;29.66;5.08;81.8;18.20;76590;2835.000;-1756.880;1;143;190;195.2;22.0;21.5;35;35.2;28.5;-1.0;
15/02/2025 16:20:22;117;0;130.87;-4;29.49;6.10;79.3;18.20;76591;2834.999;-1756.878;1;143;190;195.2;22.0;21.6;35;35.6;28.5;-1.0;
15/02/2025 16:20:42;117;0;129.76;-4;29.41;6.07;76.7;18.20;76593;2834.997;-1756.876;1;143;190;191.9;22.0;21.6;38;37.9;28.5;-1.0;
15/02/2025 16:21:02;117;0;128.51;-4;30.12;7.59;74.2;18.20;76603;2834.996;-1756.874;1;143;190;193.5;22.0;21.6;38;38.4;28.5;-1.0;
15/02/2025 16:21:22;117;0;128.27;-4;29.97;7.49;71.6;18.20;76602;2834.995;-1756.872;1;144;190;195.2;22.0;21.6;41;41.1;28.5;-1.0;
15/02/2025 16:21:43;117;0;131.30;-4;29.97;9.32;68.9;18.30;76615;2834.993;-1756.870;1;144;190;195.2;22.0;21.6;37;36.6;28.5;-1.0;
15/02/2025 16:22:03;117;0;132.96;-4;29.66;6.26;66.3;18.30;76613;2834.992;-1756.868;1;144;190;195.2;22.0;21.8;35;35.2;28.5;-1.0;
15/02/2025 16:22:23;117;0;131.02;-4;29.78;5.55;63.7;18.30;76623;2834.990;-1756.866;1;144;190;193.5;22.0;21.6;38;37.9;28.5;-1.0;
15/02/2025 16:22:43;117;0;130.04;-4;29.76;7.58;61.0;18.40;76630;2834.989;-1756.864;1;144;190;195.2;22.0;21.6;38;38.4;28.5;-1.0;
15/02/2025 16:23:03;117;0;129.08;-4;30.14;7.61;58.4;18.40;76624;2834.988;-1756.862;1;144;190;195.2;22.0;21.6;40;40.6;28.5;-1.0;
15/02/2025 16:23:23;117;0;128.90;-4;29.99;9.06;55.6;18.40;76628;2834.986;-1756.860;1;145;190;193.5;22.0;21.6;42;42.0;28.5;-1.0;
15/02/2025 16:23:43;117;0;129.15;-4;30.25;9.89;52.8;18.40;76635;2834.985;-1756.858;1;145;190;195.2;22.0;21.6;42;42.4;28.5;-1.0;
15/02/2025 16:24:03;117;0;131.38;-4;29.90;9.79;50.0;18.50;76648;2834.983;-1756.856;1;145;190;193.5;22.0;21.5;39;38.8;28.5;-1.0;
15/02/2025 16:24:23;117;0;131.42;-4;29.96;7.38;47.2;18.50;76644;2834.982;-1756.854;1;145;190;195.2;22.0;21.6;39;37.9;28.5;-1.0;
15/02/2025 16:24:43;117;0;131.19;-4;29.96;7.38;44.4;18.50;76649;2834.980;-1756.852;1;145;190;193.5;22.0;21.6;39;37.9;28.5;-1.0;
15/02/2025 16:25:03;117;0;131.09;-4;29.37;7.40;41.6;18.50;76654;2834.979;-1756.850;1;145;190;195.2;22.0;21.6;39;37.9;28.5;-1.0;
15/02/2025 16:25:23;117;0;130.08;-4;29.43;7.38;38.9;18.50;76663;2834.977;-1756.848;1;146;190;195.2;22.0;21.5;42;42.0;28.5;-1.0;
15/02/2025 16:25:43;117;0;130.49;-4;29.70;9.94;36.2;18.60;76656;2834.976;-1756.846;1;146;190;191.9;22.0;21.6;42;42.4;28.5;-1.0;
15/02/2025 16:26:03;117;0;131.01;-4;30.55;10.01;33.4;18.60;76658;2834.974;-1756.844;1;146;190;195.2;22.0;21.6;42;42.4;28.5;-1.0;
15/02/2025 16:26:23;117;0;133.27;-4;29.50;10.00;30.9;18.60;76668;2834.973;-1756.842;1;146;190;195.2;22.0;21.6;38;37.0;28.5;-1.0;
15/02/2025 16:26:43;117;0;135.10;-4;29.52;6.89;28.2;18.60;76671;2834.971;-1756.840;1;146;190;193.5;22.0;21.6;36;35.6;28.5;-1.0;
15/02/2025 16:27:03;117;0;136.58;-4;29.80;6.02;25.6;18.70;76669;2834.970;-1756.839;1;146;190;195.2;22.0;21.6;36;35.2;28.5;-1.0;
15/02/2025 16:27:23;117;0;137.70;-4;29.43;5.94;23.0;18.70;76677;2834.968;-1756.837;1;146;190;195.2;22.0;21.6;34;28.9;28.5;-1.0;
15/02/2025 16:27:43;117;0;138.30;-4;28.87;5.23;20.5;18.70;76678;2834.967;-1756.835;1;146;190;195.2;21.6;21.6;34;33.8;28.5;-1.0;
15/02/2025 16:28:03;117;0;140.36;-4;29.68;5.14;18.0;18.70;76681;2834.965;-1756.834;1;147;190;193.5;21.6;21.5;34;33.8;28.5;-1.0;
15/02/2025 16:28:23;117;0;140.08;-4;29.72;5.09;15.5;18.70;76685;2834.963;-1756.832;1;147;190;193.5;21.6;21.5;34;33.8;28.5;-1.0;
15/02/2025 16:28:43;117;0;139.10;-4;29.52;5.30;13.1;18.80;76688;2834.962;-1756.831;1;147;190;195.2;21.6;21.6;34;34.3;28.5;-1.0;
15/02/2025 16:29:03;117;0;140.98;-4;29.55;5.03;10.6;18.80;76695;2834.960;-1756.829;1;147;190;195.2;21.6;21.6;34;33.8;28.5;-1.0;
15/02/2025 16:29:23;117;0;144.13;-4;27.61;4.91;8.3;18.80;76704;2834.959;-1756.828;1;147;190;191.9;20.9;20.9;32;32.0;28.5;-1.0;
15/02/2025 16:29:43;117;0;144.70;-4;29.56;3.83;5.9;18.80;76712;2834.957;-1756.827;1;147;190;195.2;20.9;20.8;32;31.6;28.5;-1.0;
15/02/2025 16:30:03;117;0;143.42;-4;30.70;4.01;3.7;18.80;76719;2834.956;-1756.825;1;147;190;195.2;20.9;20.8;32;31.6;28.5;-1.0;
15/02/2025 16:30:08;115;0;144.89;-4;27.19;2.95;3.0;18.80;76722;2834.955;-1756.825;1;147;500;200.0;100.0;64.9;0;-0.5;28.5;-1.0;
15/02/2025 16:30:18;115;0;128.79;-4;7.92;-11.77;2.3;18.90;76690;2834.954;-1756.824;1;147;500;321.0;100.0;100.0;0;-0.5;28.3;-1.0;
15/02/2025 16:30:28;115;0;130.07;-4;-63.81;-16.78;2.9;18.90;76434;2834.954;-1756.824;1;147;500;440.3;100.0;100.4;0;-0.5;28.3;-1.0;
15/02/2025 16:30:38;115;0;115.10;-4;-69.11;-17.64;2.4;18.90;76176;2834.954;-1756.823;1;147;500;506.5;100.0;100.4;0;-0.5;28.3;-1.0;
15/02/2025 16:30:48;115;0;63.74;-4;-38.49;-10.60;-0.4;18.90;76058;2834.955;-1756.822;1;148;500;506.5;100.0;100.6;0;-0.5;28.5;-1.0;
15/02/2025 16:31:08;119;0;23.70;-4;-37.85;0.70;-0.1;19.00;76065;2834.955;-1756.822;1;148;500;508.1;100.0;100.4;0;-0.5;28.5;-1.0;
15/02/2025 16:31:18;119;0;328.27;-4;-48.80;-20.56;-0.2;19.00;76067;2834.901;-1756.741;0;148;500;508.1;100.0;100.6;0;-0.5;28.5;-1.0;
