Timestamp;NavState;SecurityLevel;Heading;Declination;Pitch;Roll;Depth;Temperature;Pa;Lat;Lon;DeadReckoning;DesiredH;BallastCmd;BallastPos;LinCmd;LinPos;AngCmd;AngPos;Voltage;Altitude;
18/02/2025 19:43:13;119;0;167.72;-4;-60.00;-1.43;0.2;17.30;75667;2835.259;-1758.642;0;205;500;506.5;100.0;100.9;0;-0.5;27.9;-1.0;
18/02/2025 19:43:23;116;0;162.80;-4;-59.16;-15.38;0.7;17.30;75683;2835.260;-1758.643;0;201;500;508.1;100.0;100.7;0;-0.5;27.9;-1.0;
18/02/2025 19:43:56;116;0;217.06;-4;-51.21;-27.31;0.3;17.40;75695;2835.258;-1758.648;0;201;500;508.1;100.0;100.9;0;-0.5;27.9;-1.0;
18/02/2025 19:44:17;116;0;173.83;-4;-53.34;-12.87;0.2;17.50;75704;2835.257;-1758.649;0;-9999;500;508.1;100.0;100.9;0;0.0;27.9;-1.0;
18/02/2025 19:44:38;116;0;182.19;-4;-63.48;-10.25;0.4;17.60;75712;2835.254;-1758.655;0;199;500;508.1;100.0;100.7;0;0.0;27.9;-1.0;
18/02/2025 19:44:49;116;0;199.56;-4;-53.38;-14.40;0.3;17.60;75707;2835.253;-1758.656;0;198;500;508.1;100.0;100.9;0;-0.5;27.8;-1.0;
18/02/2025 19:45:52;116;0;140.34;-4;-59.09;-4.15;0.2;17.80;75731;2835.246;-1758.664;0;197;500;506.5;100.0;100.7;0;-0.5;27.9;-1.0;
18/02/2025 19:47:04;116;0;142.23;-4;-68.31;-11.55;0.3;18.10;75756;2835.244;-1758.667;0;-9999;500;508.1;100.0;100.9;0;-0.5;27.9;-1.0;
18/02/2025 19:47:15;116;0;126.01;-4;-61.23;3.62;0.2;18.10;75764;2835.244;-1758.668;0;8;500;508.1;100.0;100.9;0;-0.5;27.9;-1.0;
18/02/2025 19:48:17;116;0;189.41;-4;-54.50;-4.89;0.3;18.40;75784;2835.243;-1758.671;0;8;500;508.1;100.0;100.7;0;-0.5;27.9;-1.0;
18/02/2025 19:49:53;116;0;189.22;-4;-50.89;-17.28;0.3;18.80;75814;2835.242;-1758.676;0;8;500;508.1;100.0;100.9;0;-0.5;27.9;-1.0;
18/02/2025 19:50:06;116;0;170.45;-4;-48.17;-6.44;0.3;18.90;75836;2835.242;-1758.675;0;8;500;508.1;100.0;100.9;0;-0.5;27.9;-1.0;
18/02/2025 19:50:26;110;0;160.65;-4;-44.44;-7.13;-0.0;19.00;75818;2835.242;-1758.675;0;8;-70;395.2;100.0;99.9;-9;-9.0;27.9;-1.0;
18/02/2025 19:50:36;110;0;172.70;-4;-44.87;-9.14;0.1;19.00;76159;2835.242;-1758.675;1;8;-70;250.0;100.0;99.7;-9;-9.0;27.8;-1.0;
18/02/2025 19:50:46;110;0;173.14;-4;-51.05;-19.70;0.4;19.10;76407;2835.242;-1758.675;1;8;-70;90.3;100.0;99.9;-9;-9.0;27.8;-1.0;
18/02/2025 19:50:56;110;0;173.23;-4;-64.61;1.67;0.8;19.10;76735;2835.242;-1758.675;1;8;-70;-69.4;100.0;99.9;-9;-9.0;27.8;-1.0;
18/02/2025 19:51:06;110;0;186.89;-4;-62.76;-15.50;1.4;19.10;77067;2835.242;-1758.675;1;8;-70;-69.4;43.4;43.4;-9;-9.0;27.9;-1.0;
18/02/2025 19:51:26;100;0;202.45;-4;-32.56;-16.87;4.7;19.20;77029;2835.240;-1758.677;1;8;-70;-67.7;43.4;43.2;-9;-9.0;27.8;-1.0;
18/02/2025 19:51:46;100;0;212.41;-4;-22.78;-16.47;8.2;19.30;77049;2835.238;-1758.679;1;8;-70;-64.5;42.6;42.1;-70;-69.9;27.9;-1.0;
18/02/2025 19:52:06;100;0;224.73;-4;-17.97;-45.84;11.1;19.30;77056;2835.236;-1758.682;1;9;-70;-62.9;43.2;43.2;-70;-69.9;27.9;-1.0;
18/02/2025 19:52:26;100;0;232.90;-4;-20.45;-46.08;13.7;19.40;77062;2835.234;-1758.685;1;9;-70;-62.9;43.2;43.3;-70;-69.9;27.9;0.0;
18/02/2025 19:52:46;100;0;244.17;-4;-18.28;-45.60;16.3;19.50;77068;2835.233;-1758.689;1;9;-70;-61.3;43.7;43.7;-70;-69.9;27.9;0.0;
18/02/2025 19:53:06;100;0;257.07;-4;-20.66;-45.81;19.0;19.50;77071;2835.233;-1758.693;1;9;-70;-62.9;43.7;44.0;-70;-69.9;27.9;0.0;
18/02/2025 19:53:26;100;0;268.24;-4;-21.32;-45.75;21.9;19.50;77090;2835.234;-1758.697;1;9;-70;-62.9;43.7;44.0;-70;-69.9;27.9;0.0;
18/02/2025 19:53:46;100;0;281.30;-4;-20.74;-45.63;24.6;19.60;77087;2835.235;-1758.700;1;9;-70;-62.9;43.7;44.0;-70;-69.9;27.9;0.0;
18/02/2025 19:54:06;100;0;292.54;-4;-21.92;-45.59;27.4;19.60;77093;2835.237;-1758.704;1;9;-70;-61.3;43.7;44.0;-70;-69.9;27.9;0.0;
18/02/2025 19:54:26;100;0;305.61;-4;-20.61;-45.35;30.1;19.60;77100;2835.239;-1758.707;1;9;-70;-62.9;43.7;44.0;-65;-65.0;27.9;0.0;
18/02/2025 19:54:46;100;0;317.47;-4;-21.01;-42.60;33.0;19.60;77102;2835.243;-1758.710;1;9;-70;-61.3;43.7;44.0;-51;-50.5;27.9;0.0;
18/02/2025 19:55:06;100;0;331.17;-4;-19.66;-35.55;35.8;19.60;77111;2835.246;-1758.712;1;9;-70;-61.3;43.7;44.2;-34;-33.8;27.9;0.0;
18/02/2025 19:55:26;100;0;342.40;-4;-20.57;-27.36;38.5;19.60;77114;2835.250;-1758.713;1;9;-70;-61.3;43.7;44.2;-18;-17.6;27.9;0.0;
18/02/2025 19:55:46;100;0;350.27;-4;-20.60;-19.12;41.2;19.60;77118;2835.254;-1758.714;1;9;-70;-61.3;43.7;44.2;-5;-5.0;27.9;0.0;
18/02/2025 19:56:06;100;0;355.80;-4;-21.56;-13.72;43.9;19.60;77122;2835.258;-1758.714;1;10;-70;-61.3;43.7;44.2;2;1.8;27.9;0.0;
18/02/2025 19:56:26;100;0;3.27;-4;-22.82;-10.26;46.7;19.60;77135;2835.262;-1758.714;1;10;-70;-64.5;42.9;42.7;11;10.8;27.9;0.0;
18/02/2025 19:56:46;100;0;6.14;-4;-19.89;-5.98;49.5;19.60;77125;2835.266;-1758.713;1;10;-70;-61.3;42.9;42.7;11;10.8;27.9;0.0;
18/02/2025 19:57:06;100;0;8.14;-4;-20.48;-6.11;52.0;19.60;77137;2835.270;-1758.713;1;10;-70;-62.9;42.9;42.7;13;13.5;27.9;0.0;
18/02/2025 19:57:26;100;0;8.37;-4;-20.21;-4.74;54.6;19.60;77137;2835.274;-1758.712;1;10;-70;-62.9;42.9;42.7;13;13.5;27.9;0.0;
18/02/2025 19:57:46;100;0;7.22;-4;-19.80;-4.79;57.1;19.60;77129;2835.278;-1758.712;1;10;-70;-61.3;42.9;42.9;13;13.5;27.9;0.0;
18/02/2025 19:58:06;100;0;7.14;-4;-19.55;-4.72;59.6;19.60;77127;2835.281;-1758.711;1;10;-70;-61.3;42.9;42.7;13;13.5;27.9;0.0;
18/02/2025 19:58:26;100;0;6.25;-4;-19.98;-4.76;62.0;19.60;77137;2835.285;-1758.711;1;10;-70;-62.9;42.9;42.7;13;13.5;27.9;0.0;
18/02/2025 19:58:46;100;0;5.74;-4;-19.81;-4.79;64.6;19.60;77133;2835.289;-1758.710;1;10;-70;-61.3;42.9;42.7;13;13.5;27.9;0.0;
18/02/2025 19:59:06;100;0;5.45;-4;-19.98;-4.83;67.2;19.60;77137;2835.293;-1758.710;1;10;-70;-61.3;42.9;42.7;13;13.5;27.9;0.0;
18/02/2025 19:59:26;100;0;3.91;-4;-19.45;-4.67;69.6;19.60;77133;2835.297;-1758.710;1;10;-70;-62.9;42.9;42.7;11;10.8;27.9;0.0;
18/02/2025 19:59:46;100;0;4.70;-4;-19.24;-6.29;72.0;19.60;77145;2835.301;-1758.709;1;10;-70;-61.3;42.9;42.7;11;10.8;27.9;0.0;
18/02/2025 20:00:06;100;0;5.78;-4;-19.66;-6.32;74.3;19.60;77153;2835.304;-1758.709;1;10;-70;-61.3;42.9;42.7;11;10.8;27.9;0.0;
18/02/2025 20:00:26;100;0;6.49;-4;-19.87;-6.27;76.8;19.60;77145;2835.308;-1758.709;1;10;-70;-61.3;42.9;42.7;11;10.8;27.9;0.0;
18/02/2025 20:00:46;100;0;6.28;-4;-19.66;-6.27;79.3;19.50;77126;2835.312;-1758.708;1;10;-70;-62.9;42.9;42.7;11;10.8;27.9;0.0;
18/02/2025 20:01:06;100;0;7.06;-4;-20.04;-6.33;81.8;19.60;77137;2835.316;-1758.708;1;10;-70;-61.3;42.9;42.7;11;10.8;27.9;0.0;
18/02/2025 20:01:26;100;0;7.32;-4;-19.64;-6.25;84.2;19.50;77135;2835.319;-1758.707;1;10;-70;-62.9;42.9;42.7;11;10.8;27.9;0.0;
18/02/2025 20:01:46;100;0;6.41;-4;-19.57;-6.31;86.7;19.50;77132;2835.323;-1758.707;1;10;-70;-61.3;42.9;42.7;11;10.8;27.9;0.0;
18/02/2025 20:02:06;100;0;5.78;-4;-19.36;-6.33;89.2;19.50;77144;2835.327;-1758.707;1;10;-70;-62.9;42.9;42.7;11;10.8;27.9;0.0;
18/02/2025 20:02:26;100;0;8.24;-4;-19.33;-6.29;91.6;19.50;77146;2835.331;-1758.706;1;10;-70;-61.3;42.9;42.7;11;10.8;27.9;0.0;
18/02/2025 20:02:46;100;0;7.25;-4;-19.31;-6.17;94.1;19.50;77149;2835.335;-1758.706;1;10;-70;-61.3;42.9;42.7;11;10.8;27.9;0.0;
18/02/2025 20:03:06;100;0;7.65;-4;-19.22;-6.45;96.3;19.50;77150;2835.338;-1758.705;1;10;-70;-62.9;42.9;42.7;11;10.8;27.9;0.0;
18/02/2025 20:03:26;100;0;10.31;-4;-19.47;-6.33;98.5;19.50;77139;2835.342;-1758.705;1;10;-70;-61.3;42.9;42.7;11;10.8;27.9;0.0;
18/02/2025 20:03:46;100;0;10.33;-4;-19.06;-6.42;100.9;19.50;77139;2835.346;-1758.704;1;10;-70;-62.9;42.9;42.7;11;10.8;27.9;0.0;
18/02/2025 20:04:06;100;0;11.44;-4;-19.21;-6.40;103.0;19.50;77129;2835.349;-1758.703;1;10;-70;-61.3;42.9;42.7;11;10.8;27.9;0.0;
18/02/2025 20:04:27;100;0;13.32;-4;-19.25;-6.35;105.2;19.50;77137;2835.352;-1758.703;1;10;-70;-61.3;42.9;42.7;11;10.8;27.9;0.0;
18/02/2025 20:04:47;100;0;15.14;-4;-19.14;-6.36;107.4;19.50;77123;2835.356;-1758.702;1;10;-70;-62.9;42.9;42.7;11;10.8;27.9;0.0;
18/02/2025 20:05:07;100;0;16.88;-4;-18.94;-6.32;109.6;19.50;77135;2835.359;-1758.701;1;10;-70;-62.9;43.2;43.4;13;13.1;27.9;0.0;
18/02/2025 20:05:27;100;0;18.71;-4;-19.85;-4.80;111.9;19.50;77127;2835.363;-1758.700;1;10;-70;-62.9;43.2;43.4;13;13.5;27.9;0.0;
18/02/2025 20:05:47;100;0;21.94;-4;-20.03;-4.86;114.3;19.50;77125;2835.366;-1758.698;1;10;-70;-64.5;43.2;43.6;16;15.8;27.9;0.0;
18/02/2025 20:06:07;100;0;25.17;-4;-20.41;-3.59;116.9;19.40;77117;2835.370;-1758.697;1;10;-70;-61.3;43.2;43.4;19;19.0;27.9;0.0;
18/02/2025 20:06:27;100;0;20.39;-4;-20.40;-2.08;119.4;19.40;77110;2835.374;-1758.695;1;10;-70;-61.3;43.2;43.4;14;13.5;27.9;0.0;
18/02/2025 20:06:47;100;0;16.94;-4;-20.37;-5.00;122.1;19.40;77096;2835.377;-1758.694;1;10;-70;-62.9;43.2;43.4;14;13.5;27.9;0.0;
18/02/2025 20:07:07;100;0;17.04;-4;-20.95;-4.90;124.8;19.40;77086;2835.381;-1758.693;1;10;-70;-61.3;43.2;43.4;14;13.5;27.9;0.0;
18/02/2025 20:07:27;100;0;15.25;-4;-19.93;-4.98;127.6;19.40;77072;2835.385;-1758.692;1;10;-70;-61.3;43.2;43.4;14;13.5;27.9;0.0;
18/02/2025 20:07:47;100;0;15.88;-4;-19.78;-5.04;130.1;19.40;77056;2835.389;-1758.691;1;10;-70;-61.3;43.2;43.4;14;13.5;27.9;0.0;
18/02/2025 20:08:07;100;0;16.04;-4;-19.65;-5.03;132.6;19.30;77028;2835.393;-1758.690;1;10;-70;-62.9;43.2;43.6;14;13.5;27.9;0.0;
18/02/2025 20:08:27;100;0;11.47;-4;-19.97;-5.03;135.1;19.30;77015;2835.397;-1758.689;1;10;-70;-62.9;43.2;43.4;14;13.5;27.9;0.0;
18/02/2025 20:08:47;100;0;7.81;-4;-19.74;-5.02;137.6;19.30;77011;2835.400;-1758.689;1;10;-70;-61.3;43.2;43.4;12;12.2;27.9;0.0;
18/02/2025 20:09:07;100;0;6.46;-4;-20.14;-5.59;140.0;19.20;76980;2835.404;-1758.688;1;10;-70;-61.3;43.2;43.4;12;12.2;27.9;0.0;
18/02/2025 20:09:27;100;0;5.70;-4;-20.17;-5.52;142.5;19.20;76979;2835.408;-1758.688;1;10;-70;-61.3;43.2;43.4;12;12.2;27.9;0.0;
18/02/2025 20:09:47;100;0;5.32;-4;-20.13;-5.60;145.0;19.20;76974;2835.412;-1758.688;1;10;-70;-61.3;43.2;43.6;12;12.2;27.9;0.0;
18/02/2025 20:10:07;100;0;5.22;-4;-20.13;-5.51;147.5;19.20;76956;2835.415;-1758.687;1;10;-70;-61.3;43.2;43.4;12;12.2;27.9;0.0;
18/02/2025 20:10:27;100;0;5.22;-4;-20.41;-5.54;150.0;19.10;76960;2835.419;-1758.687;1;10;-70;-61.3;43.2;43.4;12;12.2;27.9;0.0;
18/02/2025 20:10:47;100;0;6.60;-4;-20.31;-5.55;152.7;19.10;76942;2835.423;-1758.687;1;10;-70;-61.3;43.2;43.4;12;12.2;27.9;0.0;
18/02/2025 20:11:07;100;0;6.13;-4;-20.13;-5.55;155.3;19.10;76932;2835.427;-1758.686;1;10;-70;-61.3;43.2;43.6;12;12.2;27.9;0.0;
18/02/2025 20:11:27;100;0;9.11;-4;-19.52;-5.50;157.8;19.00;76916;2835.431;-1758.686;1;10;-70;-61.3;43.2;43.4;12;12.2;27.9;0.0;
18/02/2025 20:11:47;100;0;8.32;-4;-19.41;-5.62;160.1;19.00;76906;2835.435;-1758.685;1;10;-70;-61.3;43.2;43.4;12;12.2;27.9;0.0;
18/02/2025 20:12:07;100;0;6.58;-4;-19.68;-5.63;162.4;19.00;76889;2835.438;-1758.685;1;10;-70;-62.9;43.2;43.4;12;12.2;27.9;0.0;
18/02/2025 20:12:27;100;0;5.58;-4;-19.78;-5.58;164.7;18.90;76884;2835.442;-1758.684;1;10;-70;-64.5;43.2;43.6;12;12.6;27.9;0.0;
18/02/2025 20:12:47;100;0;5.34;-4;-19.72;-5.59;167.0;18.90;76875;2835.445;-1758.684;1;10;-70;-62.9;43.2;43.4;12;12.6;27.9;0.0;
18/02/2025 20:13:07;100;0;7.14;-4;-19.60;-5.61;169.5;18.90;76876;2835.449;-1758.684;1;10;-70;-62.9;43.2;43.4;12;12.2;27.9;0.0;
18/02/2025 20:13:27;100;0;6.34;-4;-19.62;-5.63;171.9;18.80;76859;2835.453;-1758.683;1;10;-70;-61.3;43.2;43.4;12;12.2;27.8;0.0;
18/02/2025 20:13:47;100;0;6.12;-4;-19.48;-5.66;174.2;18.80;76851;2835.457;-1758.683;1;10;-70;-62.9;43.2;43.4;12;12.2;27.9;0.0;
18/02/2025 20:14:07;100;0;4.97;-4;-19.73;-5.62;176.6;18.80;76842;2835.460;-1758.683;1;10;-70;-61.3;43.2;43.4;12;12.2;27.9;0.0;
18/02/2025 20:14:27;100;0;4.15;-4;-19.91;-5.62;179.1;18.70;76824;2835.464;-1758.682;1;10;-70;-62.9;43.2;43.6;12;12.2;27.9;0.0;
18/02/2025 20:14:47;100;0;4.58;-4;-19.93;-5.51;181.6;18.70;76819;2835.468;-1758.682;1;10;-70;-62.9;43.2;43.4;12;12.6;27.9;0.0;
18/02/2025 20:15:07;100;0;3.59;-4;-19.90;-5.58;184.2;18.70;76810;2835.472;-1758.682;1;10;-70;-61.3;43.2;43.4;10;9.9;27.9;0.0;
18/02/2025 20:15:27;100;0;3.22;-4;-19.47;-6.90;186.7;18.60;76800;2835.476;-1758.682;1;10;-70;-61.3;43.2;43.4;10;9.5;27.9;0.0;
18/02/2025 20:15:47;100;0;5.49;-4;-19.91;-6.88;189.1;18.60;76794;2835.480;-1758.681;1;10;-70;-62.9;43.2;43.4;10;9.5;27.9;0.0;
18/02/2025 20:16:07;100;0;7.33;-4;-19.87;-6.85;191.6;18.50;76787;2835.483;-1758.681;1;10;-70;-62.9;43.2;43.4;12;12.2;27.9;0.0;
18/02/2025 20:16:27;100;0;10.19;-4;-19.87;-5.24;194.1;18.50;76784;2835.487;-1758.680;1;10;-70;-61.3;43.2;43.4;12;13.1;27.9;0.0;
18/02/2025 20:16:47;100;0;13.87;-4;-19.62;-5.10;196.6;18.50;76763;2835.491;-1758.679;1;10;-70;-62.9;43.2;43.6;12;12.6;27.9;0.0;
18/02/2025 20:17:07;100;0;15.63;-4;-20.38;-5.25;199.1;18.40;76762;2835.495;-1758.678;1;10;-70;-61.3;43.2;43.4;12;12.6;27.9;0.0;
18/02/2025 20:17:27;100;0;15.89;-4;-19.65;-5.21;201.5;18.40;76745;2835.498;-1758.677;1;10;-70;-62.9;43.2;43.6;12;12.6;27.9;0.0;
18/02/2025 20:17:47;100;0;12.50;-4;-19.78;-5.29;204.0;18.40;76735;2835.502;-1758.677;1;10;-70;-62.9;43.2;43.4;12;13.1;27.9;0.0;
18/02/2025 20:18:07;100;0;15.72;-4;-19.76;-5.23;206.4;18.30;76720;2835.506;-1758.676;1;10;-70;-61.3;43.2;43.6;12;12.6;27.9;0.0;
18/02/2025 20:18:27;100;0;18.54;-4;-19.93;-5.22;209.0;18.30;76708;2835.509;-1758.674;1;10;-70;-62.9;43.2;43.4;12;12.6;27.9;0.0;
18/02/2025 20:18:47;100;0;21.28;-4;-19.76;-5.21;211.6;18.20;76702;2835.513;-1758.673;1;10;-70;-64.5;43.2;43.4;15;14.9;27.8;0.0;
18/02/2025 20:19:07;100;0;23.11;-4;-19.70;-3.93;214.3;18.20;76683;2835.517;-1758.672;1;10;-70;-61.3;43.2;43.6;15;15.3;27.9;0.0;
18/02/2025 20:19:27;100;0;25.08;-4;-19.59;-3.96;216.9;18.20;76683;2835.521;-1758.670;1;10;-70;-62.9;43.2;43.6;19;19.0;27.9;0.0;
18/02/2025 20:19:47;100;0;25.24;-4;-19.89;-2.12;219.6;18.10;76668;2835.524;-1758.668;1;10;-70;-62.9;43.2;43.6;19;19.0;27.9;0.0;
18/02/2025 20:20:07;100;0;26.78;-4;-20.13;-2.07;222.3;18.10;76661;2835.528;-1758.666;1;10;-70;-61.3;43.2;43.4;21;21.2;27.9;0.0;
18/02/2025 20:20:27;100;0;27.18;-4;-19.59;-0.94;225.1;18.00;76654;2835.532;-1758.665;1;10;-70;-61.3;43.2;43.4;21;21.2;27.9;0.0;
18/02/2025 20:20:47;100;0;25.37;-4;-19.57;-0.96;227.8;18.00;76640;2835.536;-1758.663;1;10;-70;-61.3;43.2;43.6;19;19.0;27.9;0.0;
18/02/2025 20:21:07;100;0;23.60;-4;-19.65;-2.52;230.5;18.00;76633;2835.539;-1758.661;1;10;-70;-62.9;43.2;43.4;17;17.1;27.9;0.0;
18/02/2025 20:21:27;100;0;23.55;-4;-19.56;-3.30;233.1;17.90;76616;2835.543;-1758.660;1;10;-70;-64.5;43.2;43.4;17;17.1;27.9;0.0;
18/02/2025 20:21:47;100;0;24.07;-4;-19.61;-3.40;235.8;17.90;76618;2835.547;-1758.658;1;10;-70;-61.3;43.2;43.4;17;17.1;27.9;0.0;
18/02/2025 20:22:07;100;0;23.35;-4;-19.59;-3.29;238.6;17.80;76614;2835.551;-1758.657;1;9;-70;-61.3;43.2;43.6;17;16.7;27.9;0.0;
18/02/2025 20:22:27;100;0;21.12;-4;-19.44;-3.35;241.3;17.80;76608;2835.555;-1758.655;1;9;-70;-61.3;43.2;43.4;17;17.1;27.9;0.0;
18/02/2025 20:22:47;100;0;16.99;-4;-19.79;-3.32;244.1;17.80;76607;2835.559;-1758.654;1;9;-70;-61.3;43.2;43.4;14;14.0;27.9;0.0;
18/02/2025 20:23:07;100;0;15.55;-4;-19.52;-4.99;246.9;17.70;76587;2835.563;-1758.653;1;9;-70;-62.9;43.2;43.4;14;13.5;27.9;0.0;
18/02/2025 20:23:27;100;0;12.56;-4;-19.62;-5.04;249.7;17.70;76583;2835.567;-1758.652;1;9;-70;-61.3;43.2;43.4;14;13.5;27.9;0.0;
18/02/2025 20:23:47;100;0;10.68;-4;-19.54;-4.97;252.4;17.60;76582;2835.571;-1758.651;1;9;-70;-61.3;43.2;43.6;14;13.1;27.9;0.0;
18/02/2025 20:24:07;100;0;9.79;-4;-19.04;-4.93;255.0;17.60;76567;2835.575;-1758.651;1;9;-70;-61.3;43.2;43.4;14;13.5;27.9;0.0;
18/02/2025 20:24:27;100;0;7.24;-4;-19.13;-4.98;257.5;17.60;76569;2835.579;-1758.650;1;9;-70;-61.3;43.2;43.4;12;12.2;27.9;0.0;
18/02/2025 20:24:47;100;0;4.97;-4;-19.12;-5.83;259.9;17.50;76559;2835.583;-1758.650;1;9;-70;-61.3;43.2;43.4;12;11.7;27.9;0.0;
18/02/2025 20:25:07;100;0;4.56;-4;-19.33;-5.75;262.4;17.50;76558;2835.587;-1758.649;1;9;-70;-61.3;43.2;43.6;12;11.7;27.9;0.0;
18/02/2025 20:25:27;100;0;2.61;-4;-19.42;-5.83;264.8;17.50;76550;2835.591;-1758.649;1;9;-70;-61.3;43.2;43.4;12;11.7;27.9;0.0;
18/02/2025 20:25:47;100;0;0.23;-4;-19.20;-5.80;267.2;17.40;76539;2835.594;-1758.649;1;10;-70;-61.3;43.2;43.6;8;7.7;27.9;0.0;
18/02/2025 20:26:07;100;0;2.38;-4;-18.91;-8.01;269.5;17.40;76524;2835.598;-1758.649;1;10;-70;-62.9;43.5;43.9;10;10.4;27.9;0.0;
18/02/2025 20:26:27;100;0;3.62;-4;-19.95;-6.40;271.9;17.30;76509;2835.602;-1758.649;1;10;-70;-61.3;43.5;43.9;10;10.4;27.9;0.0;
18/02/2025 20:26:47;100;0;5.88;-4;-19.90;-6.40;274.3;17.30;76505;2835.605;-1758.649;1;10;-70;-61.3;43.5;43.9;12;12.2;27.9;0.0;
18/02/2025 20:27:07;100;0;8.56;-4;-20.13;-5.33;276.7;17.20;76487;2835.609;-1758.648;1;10;-70;-62.9;43.5;43.9;12;12.6;27.9;0.0;
18/02/2025 20:27:27;100;0;8.95;-4;-20.44;-5.29;279.2;17.20;76477;2835.613;-1758.647;1;10;-70;-61.3;43.5;43.9;12;12.6;27.9;0.0;
18/02/2025 20:27:47;100;0;9.66;-4;-20.30;-5.29;281.8;17.20;76468;2835.617;-1758.647;1;10;-70;-61.3;43.5;43.9;12;12.6;27.9;0.0;
18/02/2025 20:28:07;100;0;10.77;-4;-20.17;-5.28;284.4;17.10;76458;2835.621;-1758.646;1;10;-70;-61.3;43.5;43.9;12;12.6;27.9;0.0;
18/02/2025 20:28:27;100;0;13.26;-4;-20.02;-5.31;286.8;17.10;76460;2835.624;-1758.645;1;10;-70;-61.3;43.5;43.9;12;12.6;27.9;0.0;
18/02/2025 20:28:47;100;0;14.21;-4;-20.16;-5.28;289.3;17.10;76447;2835.628;-1758.644;1;10;-70;-62.9;43.5;44.0;12;12.6;27.9;0.0;
18/02/2025 20:29:07;100;0;16.90;-4;-20.05;-5.29;291.7;17.00;76442;2835.632;-1758.643;1;10;-70;-61.3;43.5;43.9;12;12.6;27.9;0.0;
18/02/2025 20:29:27;100;0;18.96;-4;-20.15;-5.28;294.1;17.00;76440;2835.635;-1758.642;1;10;-70;-61.3;43.5;43.9;14;14.0;27.9;0.0;
18/02/2025 20:29:47;100;0;21.43;-4;-19.98;-4.35;296.5;16.90;76425;2835.639;-1758.641;1;10;-70;-61.3;43.5;43.9;14;14.4;27.8;0.0;
18/02/2025 20:30:07;100;0;22.57;-4;-20.11;-4.25;298.9;16.90;76427;2835.642;-1758.640;1;9;-70;-61.3;43.5;43.9;17;17.1;27.8;0.0;
18/02/2025 20:30:27;100;0;22.31;-4;-20.29;-2.83;301.2;16.90;76407;2835.646;-1758.638;1;9;-70;-61.3;43.5;43.9;17;17.6;27.9;0.0;
18/02/2025 20:30:47;100;0;20.06;-4;-20.44;-2.75;303.8;16.80;76408;2835.649;-1758.637;1;9;-70;-61.3;43.5;43.9;15;14.4;27.9;0.0;
18/02/2025 20:31:07;100;0;17.66;-4;-20.52;-4.48;306.2;16.80;76398;2835.653;-1758.636;1;9;-70;-61.3;43.5;43.9;15;14.4;27.9;0.0;
18/02/2025 20:31:27;100;0;14.14;-4;-20.36;-4.60;308.8;16.80;76379;2835.657;-1758.635;1;9;-70;-62.9;43.5;43.9;13;13.1;27.9;0.0;
18/02/2025 20:31:47;100;0;10.17;-4;-20.32;-5.42;311.2;16.70;76372;2835.660;-1758.634;1;9;-70;-61.3;43.5;43.9;13;12.6;27.9;0.0;
18/02/2025 20:32:07;100;0;7.76;-4;-20.20;-5.40;313.9;16.70;76370;2835.664;-1758.634;1;9;-70;-61.3;43.5;43.9;13;12.6;27.9;0.0;
18/02/2025 20:32:27;100;0;5.64;-4;-20.19;-5.39;316.3;16.60;76365;2835.668;-1758.634;1;9;-70;-61.3;43.5;44.0;13;12.6;27.8;0.0;
18/02/2025 20:32:47;100;0;4.25;-4;-20.19;-5.41;318.9;16.60;76359;2835.672;-1758.633;1;9;-70;-64.5;43.5;43.9;11;10.8;27.9;0.0;
18/02/2025 20:33:07;100;0;3.98;-4;-20.05;-6.25;321.5;16.60;76351;2835.676;-1758.633;1;9;-70;-62.9;43.5;43.9;11;10.8;27.9;0.0;
18/02/2025 20:33:27;100;0;3.40;-4;-20.15;-6.28;324.2;16.50;76344;2835.680;-1758.633;1;10;-70;-62.9;43.5;43.9;11;10.8;27.9;0.0;
18/02/2025 20:33:47;100;0;1.62;-4;-20.43;-6.31;326.8;16.50;76335;2835.684;-1758.633;1;10;-70;-61.3;43.5;43.9;9;8.6;27.9;0.0;
18/02/2025 20:34:07;100;0;3.47;-4;-20.03;-7.35;329.5;16.50;76326;2835.688;-1758.632;1;10;-70;-61.3;43.5;43.9;9;8.6;27.9;0.0;
18/02/2025 20:34:27;100;0;5.85;-4;-19.68;-7.36;332.2;16.40;76327;2835.692;-1758.632;1;10;-70;-61.3;43.5;43.9;12;12.2;27.9;0.0;
18/02/2025 20:34:47;100;0;8.53;-4;-19.93;-5.43;334.8;16.40;76319;2835.696;-1758.632;1;10;-70;-62.9;43.5;43.9;12;12.2;27.9;0.0;
18/02/2025 20:35:07;100;0;6.69;-4;-20.10;-5.49;337.6;16.40;76311;2835.700;-1758.631;1;10;-70;-61.3;43.5;43.9;12;12.2;27.9;0.0;
18/02/2025 20:35:27;100;0;5.19;-4;-20.00;-5.46;340.2;16.30;76307;2835.704;-1758.631;1;10;-70;-62.9;43.5;43.9;12;12.2;27.9;0.0;
18/02/2025 20:35:47;100;0;3.59;-4;-20.07;-5.45;342.9;16.30;76309;2835.708;-1758.630;1;10;-70;-62.9;43.5;43.9;10;9.5;27.9;0.0;
18/02/2025 20:36:07;100;0;2.66;-4;-19.92;-6.96;345.6;16.30;76296;2835.712;-1758.630;1;10;-70;-61.3;43.5;43.9;10;9.5;27.9;0.0;
18/02/2025 20:36:27;100;0;2.09;-4;-19.84;-6.91;348.3;16.20;76287;2835.716;-1758.630;1;10;-70;-61.3;43.5;43.9;10;9.5;27.9;0.0;
18/02/2025 20:36:47;100;0;1.96;-4;-19.62;-6.94;351.0;16.20;76286;2835.720;-1758.630;1;10;-70;-61.3;43.5;44.0;10;9.5;27.9;0.0;
18/02/2025 20:37:07;100;0;2.81;-4;-19.64;-6.96;353.5;16.20;76284;2835.724;-1758.630;1;10;-70;-62.9;43.5;43.9;10;9.5;27.9;0.0;
18/02/2025 20:37:27;100;0;4.54;-4;-19.67;-7.00;356.1;16.10;76274;2835.728;-1758.630;1;10;-70;-61.3;43.5;44.0;10;9.5;27.9;0.0;
18/02/2025 20:37:47;100;0;6.05;-4;-19.58;-6.98;358.7;16.10;76260;2835.732;-1758.629;1;10;-70;-59.7;43.5;43.9;10;9.5;27.9;0.0;
18/02/2025 20:38:07;100;0;7.52;-4;-19.68;-6.99;361.4;16.00;76254;2835.736;-1758.629;1;10;-70;-61.3;43.5;43.9;12;12.2;27.8;0.0;
18/02/2025 20:38:27;100;0;9.38;-4;-19.70;-5.34;364.0;16.00;76243;2835.740;-1758.628;1;10;-70;-61.3;43.5;43.9;12;12.6;27.9;0.0;
18/02/2025 20:38:47;100;0;10.45;-4;-19.78;-5.33;366.6;16.00;76248;2835.744;-1758.627;1;10;-70;-61.3;43.5;43.9;12;12.6;27.9;0.0;
18/02/2025 20:39:08;100;0;11.69;-4;-19.82;-5.35;369.4;16.00;76242;2835.748;-1758.626;1;10;-70;-61.3;43.5;43.9;12;12.6;27.9;0.0;
18/02/2025 20:39:28;100;0;12.45;-4;-19.86;-5.31;371.9;16.00;76252;2835.752;-1758.626;1;10;-70;-61.3;43.5;43.9;12;12.6;27.9;0.0;
18/02/2025 20:39:48;100;0;12.93;-4;-19.82;-5.36;374.6;15.90;76243;2835.756;-1758.625;1;10;-70;-61.3;43.5;43.9;12;12.6;27.9;0.0;
18/02/2025 20:40:08;100;0;12.09;-4;-19.78;-5.35;377.2;15.90;76228;2835.760;-1758.624;1;10;-70;-61.3;43.5;43.9;12;12.6;27.9;0.0;
18/02/2025 20:40:28;100;0;10.97;-4;-19.88;-5.38;379.8;15.80;76221;2835.764;-1758.623;1;10;-70;-61.3;43.5;43.9;12;12.6;27.8;0.0;
18/02/2025 20:40:48;100;0;11.45;-4;-19.90;-5.33;382.6;15.80;76214;2835.768;-1758.622;1;10;-70;-61.3;43.5;43.9;12;12.6;27.9;0.0;
18/02/2025 20:41:08;100;0;12.78;-4;-19.90;-5.35;385.3;15.80;76215;2835.772;-1758.622;1;10;-70;-61.3;43.5;43.9;12;12.6;27.9;0.0;
18/02/2025 20:41:28;100;0;14.13;-4;-19.89;-5.33;388.0;15.70;76200;2835.776;-1758.621;1;10;-70;-61.3;43.5;43.9;12;12.6;27.9;0.0;
18/02/2025 20:41:48;100;0;14.76;-4;-19.83;-5.36;390.6;15.70;76201;2835.780;-1758.620;1;10;-70;-61.3;43.5;44.0;12;12.6;27.9;0.0;
18/02/2025 20:42:08;100;0;16.04;-4;-19.88;-5.37;393.3;15.70;76197;2835.784;-1758.619;1;10;-70;-61.3;43.5;43.9;12;12.6;27.9;0.0;
18/02/2025 20:42:28;100;0;16.69;-4;-19.83;-5.35;396.0;15.60;76190;2835.788;-1758.617;1;10;-70;-62.9;43.5;43.9;12;12.6;27.9;0.0;
18/02/2025 20:42:48;100;0;14.50;-4;-19.64;-5.35;398.7;15.60;76195;2835.792;-1758.616;1;10;-70;-61.3;43.5;43.9;12;12.6;27.9;0.0;
18/02/2025 20:43:08;100;0;15.08;-4;-19.57;-5.41;401.2;15.60;76182;2835.795;-1758.616;1;10;-70;-61.3;43.5;43.9;12;12.6;27.9;0.0;
18/02/2025 20:43:28;100;0;15.79;-4;-19.77;-5.36;403.7;15.60;76164;2835.799;-1758.615;1;10;-70;-61.3;43.5;43.9;12;12.6;27.9;0.0;
18/02/2025 20:43:48;100;0;15.62;-4;-19.80;-5.32;406.2;15.50;76157;2835.803;-1758.614;1;10;-70;-61.3;43.5;43.9;12;12.6;27.9;0.0;
18/02/2025 20:44:08;100;0;15.87;-4;-19.82;-5.34;408.8;15.50;76162;2835.807;-1758.613;1;10;-70;-61.3;43.5;43.9;12;12.6;27.9;0.0;
18/02/2025 20:44:28;100;0;15.08;-4;-19.75;-5.36;411.4;15.50;76165;2835.810;-1758.612;1;10;-70;-61.3;43.5;43.9;12;12.6;27.9;0.0;
18/02/2025 20:44:48;100;0;14.94;-4;-19.86;-5.29;413.9;15.40;76167;2835.814;-1758.611;1;10;-70;-61.3;43.5;43.9;12;12.6;27.9;0.0;
18/02/2025 20:45:08;100;0;14.58;-4;-19.79;-5.31;416.5;15.40;76143;2835.818;-1758.610;1;10;-70;-62.9;43.5;43.9;12;12.6;27.9;0.0;
18/02/2025 20:45:28;100;0;13.73;-4;-19.83;-5.34;419.0;15.40;76141;2835.822;-1758.609;1;10;-70;-61.3;43.5;43.9;12;12.6;27.9;0.0;
18/02/2025 20:45:48;100;0;14.16;-4;-19.88;-5.35;421.6;15.40;76143;2835.826;-1758.608;1;10;-70;-61.3;43.5;44.0;12;12.6;27.9;0.0;
18/02/2025 20:46:08;100;0;14.34;-4;-19.92;-5.28;424.2;15.30;76134;2835.830;-1758.607;1;10;-70;-62.9;43.5;43.9;12;12.6;27.9;0.0;
18/02/2025 20:46:28;100;0;14.76;-4;-19.86;-5.32;426.8;15.30;76130;2835.833;-1758.606;1;10;-70;-66.1;43.5;44.0;12;12.6;27.9;0.0;
18/02/2025 20:46:48;100;0;13.36;-4;-20.16;-5.46;429.5;15.30;76139;2835.837;-1758.605;1;10;-70;-62.9;43.5;43.9;12;12.6;27.9;0.0;
18/02/2025 20:47:08;100;0;11.54;-4;-19.87;-5.33;432.2;15.30;76135;2835.841;-1758.604;1;10;-70;-62.9;43.5;43.9;12;12.6;27.9;0.0;
18/02/2025 20:47:28;100;0;10.67;-4;-20.03;-5.52;434.8;15.20;76131;2835.845;-1758.604;1;10;-70;-61.3;43.5;43.9;12;12.6;27.9;0.0;
18/02/2025 20:47:48;100;0;9.73;-4;-19.70;-5.20;437.4;15.20;76116;2835.849;-1758.603;1;10;-70;-61.3;43.5;44.0;12;12.6;27.9;0.0;
18/02/2025 20:48:08;100;0;6.53;-4;-19.57;-5.29;440.0;15.20;76130;2835.853;-1758.602;1;10;-70;-61.3;43.5;43.9;12;12.6;27.9;0.0;
18/02/2025 20:48:28;100;0;5.61;-4;-19.80;-5.35;442.4;15.20;76121;2835.857;-1758.602;1;10;-70;-59.7;43.5;44.0;12;12.6;27.9;0.0;
18/02/2025 20:48:48;100;0;4.51;-4;-19.70;-5.39;444.9;15.10;76111;2835.861;-1758.602;1;10;-70;-61.3;43.5;43.9;12;12.6;27.9;0.0;
18/02/2025 20:49:08;100;0;4.09;-4;-19.42;-5.36;447.4;15.10;76111;2835.865;-1758.602;1;10;-70;-61.3;43.5;43.9;10;9.9;27.8;0.0;
18/02/2025 20:49:28;100;0;6.89;-4;-19.18;-6.83;449.7;15.10;76096;2835.868;-1758.601;1;10;-70;-61.3;43.5;43.9;12;12.2;27.9;0.0;
18/02/2025 20:49:48;100;0;9.78;-4;-19.33;-5.47;452.1;15.10;76103;2835.872;-1758.601;1;10;-70;-61.3;43.5;44.0;12;12.6;27.9;0.0;
18/02/2025 20:50:08;100;0;10.12;-4;-19.76;-5.45;454.4;15.00;76099;2835.876;-1758.600;1;10;-70;-61.3;43.5;43.9;12;12.6;27.9;0.0;
18/02/2025 20:50:28;100;0;10.98;-4;-19.52;-5.41;456.9;15.00;76085;2835.879;-1758.599;1;10;-70;-62.9;43.5;44.0;12;12.6;27.9;0.0;
18/02/2025 20:50:48;100;0;12.56;-4;-19.66;-5.37;459.3;15.00;76081;2835.883;-1758.598;1;10;-70;-61.3;43.5;44.0;12;12.6;27.9;0.0;
18/02/2025 20:51:08;100;0;14.64;-4;-19.67;-5.39;461.7;15.00;76063;2835.887;-1758.598;1;10;-70;-61.3;43.5;43.9;12;12.6;27.9;0.0;
18/02/2025 20:51:28;100;0;16.40;-4;-19.57;-5.42;464.1;14.90;76056;2835.890;-1758.597;1;10;-70;-61.3;43.5;44.0;12;12.6;27.9;0.0;
18/02/2025 20:51:48;100;0;16.50;-4;-19.48;-5.45;466.5;14.90;76046;2835.894;-1758.596;1;10;-70;-61.3;43.5;43.9;12;12.6;27.9;0.0;
18/02/2025 20:52:08;100;0;17.68;-4;-19.49;-5.45;468.9;14.90;76047;2835.897;-1758.594;1;10;-70;-64.5;43.5;43.9;12;12.2;27.9;0.0;
18/02/2025 20:52:28;100;0;17.97;-4;-19.71;-5.47;471.1;14.90;76045;2835.901;-1758.593;1;10;-70;-61.3;43.5;43.9;12;12.6;27.9;0.0;
18/02/2025 20:52:48;100;0;21.40;-4;-19.63;-5.41;473.7;14.80;76025;2835.905;-1758.592;1;10;-70;-61.3;43.5;43.9;15;14.9;27.9;0.0;
18/02/2025 20:53:08;100;0;21.35;-4;-19.43;-3.94;476.0;14.80;76020;2835.908;-1758.591;1;10;-70;-61.3;43.5;43.9;15;15.3;27.8;0.0;
18/02/2025 20:53:28;100;0;21.14;-4;-19.37;-3.97;478.2;14.80;76022;2835.911;-1758.590;1;10;-70;-61.3;43.5;43.9;15;15.3;27.8;0.0;
18/02/2025 20:53:48;100;0;19.29;-4;-19.53;-3.93;480.5;14.70;76014;2835.915;-1758.589;1;10;-70;-59.7;43.5;43.9;15;15.3;27.9;0.0;
18/02/2025 20:54:08;100;0;15.84;-4;-19.22;-4.02;482.6;14.70;76007;2835.918;-1758.588;1;10;-70;-62.9;43.5;43.9;13;12.6;27.9;0.0;
18/02/2025 20:54:28;100;0;14.85;-4;-18.91;-5.45;484.9;14.70;76001;2835.922;-1758.587;1;10;-70;-61.3;43.9;43.9;13;12.6;27.9;0.0;
18/02/2025 20:54:48;100;0;14.27;-4;-19.20;-5.50;487.1;14.60;75979;2835.925;-1758.586;1;9;-70;-62.9;43.9;43.9;13;12.6;27.9;0.0;
18/02/2025 20:55:08;100;0;14.57;-4;-19.26;-5.46;489.3;14.60;75995;2835.929;-1758.585;1;9;-70;-61.3;43.9;43.9;13;12.6;27.9;0.0;
18/02/2025 20:55:28;100;0;13.64;-4;-19.52;-5.41;491.6;14.60;75991;2835.932;-1758.584;1;9;-70;-61.3;43.9;44.0;13;12.6;27.9;0.0;
18/02/2025 20:55:48;100;0;15.59;-4;-19.51;-5.40;493.9;14.60;75968;2835.936;-1758.583;1;9;-70;-62.9;43.9;43.9;13;12.6;27.9;0.0;
18/02/2025 20:56:08;100;0;17.55;-4;-19.51;-5.41;496.3;14.50;75960;2835.939;-1758.582;1;9;-70;-62.9;43.9;43.9;13;12.6;27.9;0.0;
18/02/2025 20:56:28;100;0;20.06;-4;-19.60;-5.40;498.6;14.50;75963;2835.943;-1758.581;1;9;-70;-61.3;43.9;43.9;15;14.9;27.8;0.0;
18/02/2025 20:56:48;100;0;21.09;-4;-19.55;-3.96;501.0;14.50;75953;2835.946;-1758.580;1;9;-70;-62.9;43.9;43.9;15;14.9;27.8;0.0;
18/02/2025 20:57:08;100;0;21.63;-4;-19.41;-4.03;503.4;14.40;75947;2835.950;-1758.579;1;9;-70;-61.3;43.9;43.9;15;14.9;27.9;0.0;
18/02/2025 20:57:28;100;0;21.45;-4;-19.36;-4.08;505.6;14.40;75947;2835.953;-1758.577;1;9;-70;-61.3;43.9;43.9;15;14.9;27.9;0.0;
18/02/2025 20:57:48;100;0;22.17;-4;-19.46;-4.15;507.9;14.40;75940;2835.956;-1758.576;1;9;-70;-62.9;43.9;43.9;17;17.6;27.9;0.0;
18/02/2025 20:58:08;100;0;23.01;-4;-19.54;-2.59;510.2;14.40;75938;2835.960;-1758.575;1;9;-70;-61.3;43.9;43.9;17;18.1;27.9;0.0;
18/02/2025 20:58:28;100;0;23.08;-4;-19.76;-2.58;512.6;14.40;75935;2835.963;-1758.573;1;9;-70;-62.9;43.9;43.9;17;18.1;27.9;0.0;
18/02/2025 20:58:48;100;0;19.20;-4;-19.44;-2.60;515.0;14.30;75919;2835.967;-1758.572;1;9;-70;-61.3;43.9;43.9;15;14.9;27.9;0.0;
18/02/2025 20:59:08;100;0;16.87;-4;-19.22;-4.34;517.2;14.30;75925;2835.970;-1758.571;1;9;-70;-61.3;43.9;43.9;13;12.6;27.9;0.0;
18/02/2025 20:59:28;100;0;15.46;-4;-19.25;-5.47;519.5;14.30;75913;2835.974;-1758.570;1;9;-70;-62.9;43.9;43.9;13;12.6;27.8;0.0;
18/02/2025 20:59:48;100;0;14.16;-4;-19.09;-5.41;521.8;14.30;75912;2835.977;-1758.569;1;9;-70;-62.9;43.9;43.9;13;12.6;27.9;0.0;
18/02/2025 21:00:08;100;0;12.32;-4;-19.26;-5.42;524.0;14.20;75902;2835.981;-1758.569;1;9;-70;-62.9;43.9;43.9;13;12.6;27.9;0.0;
18/02/2025 21:00:28;100;0;10.80;-4;-19.11;-5.47;526.2;14.20;75889;2835.985;-1758.568;1;9;-70;-61.3;43.9;44.0;13;12.6;27.9;0.0;
18/02/2025 21:00:48;100;0;12.35;-4;-19.09;-5.47;528.4;14.20;75901;2835.988;-1758.567;1;9;-70;-62.9;43.9;43.9;13;12.6;27.9;0.0;
18/02/2025 21:01:08;100;0;13.56;-4;-19.12;-5.42;530.6;14.20;75889;2835.991;-1758.567;1;9;-70;-61.3;43.9;43.9;13;12.6;27.9;0.0;
18/02/2025 21:01:28;100;0;13.84;-4;-19.14;-5.46;532.8;14.10;75896;2835.995;-1758.566;1;9;-70;-61.3;43.9;43.9;13;12.6;27.9;0.0;
18/02/2025 21:01:48;100;0;14.45;-4;-19.09;-5.39;534.9;14.10;75889;2835.998;-1758.565;1;9;-70;-62.9;43.9;43.9;13;12.6;27.8;0.0;
18/02/2025 21:02:08;100;0;14.95;-4;-19.51;-5.47;537.2;14.10;75881;2836.002;-1758.564;1;9;-70;-62.9;43.9;43.9;13;12.6;27.9;0.0;
18/02/2025 21:02:28;100;0;15.37;-4;-19.59;-5.43;539.6;14.10;75871;2836.005;-1758.563;1;9;-70;-62.9;43.9;43.9;13;12.6;27.8;0.0;
18/02/2025 21:02:48;100;0;14.97;-4;-19.45;-5.41;542.0;14.00;75857;2836.009;-1758.562;1;9;-70;-59.7;43.9;43.9;13;12.6;27.9;0.0;
18/02/2025 21:03:08;100;0;14.14;-4;-19.45;-5.38;544.4;14.00;75858;2836.013;-1758.561;1;9;-70;-59.7;43.9;43.9;13;12.6;27.9;0.0;
18/02/2025 21:03:28;100;0;14.92;-4;-19.26;-5.38;546.8;14.00;75848;2836.016;-1758.560;1;9;-70;-61.3;43.9;43.9;13;12.6;27.9;0.0;
18/02/2025 21:03:48;100;0;16.39;-4;-19.17;-5.38;549.2;14.00;75849;2836.020;-1758.559;1;9;-70;-61.3;43.9;43.9;13;12.6;27.9;0.0;
18/02/2025 21:04:08;100;0;17.31;-4;-19.26;-5.42;551.6;13.90;75845;2836.024;-1758.558;1;9;-70;-61.3;43.9;43.9;13;12.6;27.9;0.0;
18/02/2025 21:04:28;100;0;18.78;-4;-19.12;-5.48;553.9;13.90;75829;2836.027;-1758.557;1;9;-70;-61.3;43.9;43.9;15;15.3;27.9;0.0;
18/02/2025 21:04:48;100;0;18.91;-4;-19.21;-3.94;556.3;13.90;75840;2836.031;-1758.556;1;9;-70;-61.3;43.9;44.0;15;15.8;27.8;0.0;
18/02/2025 21:05:08;100;0;18.56;-4;-18.97;-3.93;558.5;13.90;75831;2836.034;-1758.555;1;9;-70;-62.9;44.2;44.3;15;15.8;27.9;0.0;
18/02/2025 21:05:28;100;0;19.20;-4;-19.89;-3.82;560.8;13.80;75818;2836.038;-1758.554;1;9;-70;-61.3;44.2;44.5;15;15.8;27.9;0.0;
18/02/2025 21:05:48;100;0;19.02;-4;-20.18;-3.91;563.3;13.80;75828;2836.041;-1758.553;1;9;-70;-61.3;44.2;44.5;15;15.8;27.9;0.0;
18/02/2025 21:06:08;100;0;18.81;-4;-20.19;-3.90;565.7;13.80;75821;2836.045;-1758.552;1;9;-70;-61.3;44.2;44.5;15;15.8;27.9;0.0;
18/02/2025 21:06:28;100;0;19.65;-4;-20.24;-3.83;568.2;13.80;75818;2836.049;-1758.550;1;9;-70;-62.9;44.2;44.5;15;15.8;27.9;0.0;
18/02/2025 21:06:48;100;0;19.50;-4;-20.33;-3.81;570.7;13.70;75815;2836.052;-1758.549;1;9;-70;-61.3;44.2;44.5;15;15.8;27.9;0.0;
18/02/2025 21:07:08;100;0;19.01;-4;-20.33;-3.78;573.1;13.70;75818;2836.056;-1758.548;1;9;-70;-61.3;44.2;44.5;15;15.8;27.9;0.0;
18/02/2025 21:07:28;100;0;17.53;-4;-20.46;-4.06;575.4;13.70;75812;2836.059;-1758.547;1;9;-70;-61.3;44.2;44.5;15;15.8;27.9;0.0;
18/02/2025 21:07:48;100;0;18.17;-4;-20.54;-4.04;577.8;13.70;75815;2836.063;-1758.546;1;9;-70;-61.3;44.2;44.5;15;15.8;27.9;0.0;
18/02/2025 21:08:08;100;0;17.86;-4;-20.73;-3.82;580.3;13.70;75799;2836.066;-1758.545;1;9;-70;-61.3;44.2;44.5;15;15.8;27.9;0.0;
18/02/2025 21:08:28;100;0;17.77;-4;-20.55;-3.85;582.7;13.60;75795;2836.070;-1758.544;1;9;-70;-61.3;44.2;44.5;15;15.8;27.9;0.0;
18/02/2025 21:08:48;100;0;17.23;-4;-20.63;-3.80;585.1;13.60;75802;2836.073;-1758.543;1;9;-70;-62.9;44.2;44.5;15;15.8;27.9;0.0;
18/02/2025 21:09:08;100;0;16.65;-4;-20.46;-3.83;587.5;13.60;75794;2836.077;-1758.542;1;9;-70;-61.3;44.2;44.5;15;15.8;27.9;0.0;
18/02/2025 21:09:28;100;0;15.26;-4;-21.00;-3.80;589.9;13.60;75797;2836.080;-1758.541;1;9;-70;-61.3;44.2;44.5;15;15.8;27.9;0.0;
18/02/2025 21:09:48;100;0;14.46;-4;-20.35;-3.75;592.3;13.60;75790;2836.084;-1758.540;1;9;-70;-61.3;44.2;44.5;15;15.8;27.8;0.0;
18/02/2025 21:10:08;100;0;12.28;-4;-20.36;-3.82;594.6;13.50;75792;2836.087;-1758.539;1;9;-70;-61.3;44.2;44.5;15;15.8;27.9;0.0;
18/02/2025 21:10:28;100;0;8.92;-4;-20.82;-3.95;596.9;13.50;75784;2836.091;-1758.539;1;9;-70;-62.9;44.2;44.5;13;13.1;27.9;0.0;
18/02/2025 21:10:48;100;0;9.44;-4;-20.48;-5.04;599.2;13.50;75772;2836.094;-1758.538;1;9;-70;-61.3;44.2;44.5;13;13.5;27.9;0.0;
18/02/2025 21:11:08;100;0;9.08;-4;-20.16;-4.90;601.5;13.50;75772;2836.098;-1758.538;1;9;-70;-61.3;44.2;44.5;13;13.5;27.9;0.0;
18/02/2025 21:11:28;100;0;10.34;-4;-20.23;-4.95;603.8;13.50;75767;2836.101;-1758.537;1;9;-70;-61.3;44.2;44.5;13;13.5;27.9;0.0;
18/02/2025 21:11:48;100;0;10.77;-4;-19.49;-5.06;605.9;13.50;75763;2836.105;-1758.537;1;9;-70;-61.3;44.2;44.5;13;13.5;27.9;0.0;
18/02/2025 21:12:08;100;0;11.54;-4;-20.15;-5.10;608.0;13.40;75753;2836.108;-1758.536;1;9;-70;-61.3;44.2;44.5;13;13.5;27.9;0.0;
18/02/2025 21:12:28;100;0;12.65;-4;-19.71;-5.18;610.1;13.40;75748;2836.111;-1758.535;1;9;-70;-62.9;44.2;44.5;13;13.5;27.9;0.0;
18/02/2025 21:12:48;100;0;13.31;-4;-20.00;-5.11;612.3;13.40;75750;2836.115;-1758.535;1;9;-70;-62.9;44.2;44.5;13;13.5;27.9;0.0;
18/02/2025 21:13:09;100;0;14.48;-4;-20.07;-4.96;614.4;13.40;75748;2836.118;-1758.534;1;9;-70;-61.3;44.2;44.5;13;13.5;27.9;0.0;
18/02/2025 21:13:29;100;0;14.77;-4;-19.68;-5.05;616.5;13.30;75744;2836.121;-1758.533;1;9;-70;-61.3;44.2;44.5;13;13.5;27.9;0.0;
18/02/2025 21:13:49;100;0;14.05;-4;-20.11;-5.10;618.6;13.30;75742;2836.124;-1758.532;1;9;-70;-61.3;44.2;44.6;13;13.5;27.8;0.0;
18/02/2025 21:14:09;100;0;14.07;-4;-20.05;-5.05;620.7;13.30;75750;2836.128;-1758.532;1;9;-70;-61.3;44.2;44.5;13;13.5;27.8;0.0;
18/02/2025 21:14:29;100;0;14.83;-4;-19.92;-5.00;622.8;13.30;75729;2836.131;-1758.531;1;9;-70;-61.3;44.2;44.5;13;13.1;27.9;0.0;
18/02/2025 21:14:49;100;0;12.64;-4;-19.60;-5.25;624.8;13.30;75729;2836.134;-1758.530;1;9;-90;-90.3;44.2;44.5;13;13.5;27.8;0.0;
18/02/2025 21:15:09;100;0;11.68;-4;-19.43;-5.01;627.0;13.20;75789;2836.137;-1758.529;1;9;-90;-93.5;44.2;44.5;13;13.5;27.9;0.0;
18/02/2025 21:15:29;100;0;11.24;-4;-19.47;-4.94;629.3;13.20;75800;2836.141;-1758.529;1;9;-90;-95.2;44.2;44.5;13;13.5;27.9;0.0;
18/02/2025 21:15:49;100;0;10.63;-4;-19.55;-4.95;631.8;13.20;75794;2836.145;-1758.528;1;9;-90;-96.8;44.2;44.5;13;13.5;27.9;0.0;
18/02/2025 21:16:09;100;0;9.97;-4;-19.72;-4.88;634.4;13.20;75805;2836.149;-1758.527;1;9;-90;-98.4;44.2;44.6;13;13.5;27.9;0.0;
18/02/2025 21:16:29;100;0;8.12;-4;-19.75;-4.89;636.9;13.20;75793;2836.153;-1758.527;1;9;-90;-98.4;44.2;44.6;13;13.5;27.8;0.0;
18/02/2025 21:16:49;100;0;6.56;-4;-19.84;-4.92;639.4;13.10;75790;2836.156;-1758.526;1;9;-90;-100.0;44.2;44.5;13;13.5;27.9;0.0;
18/02/2025 21:17:09;100;0;4.58;-4;-19.76;-4.92;642.0;13.10;75791;2836.160;-1758.526;1;9;-90;-98.4;44.2;44.5;13;13.5;27.9;0.0;
18/02/2025 21:17:29;100;0;2.72;-4;-19.95;-4.88;644.5;13.10;75794;2836.164;-1758.526;1;9;-90;-100.0;44.2;44.6;13;13.5;27.9;0.0;
18/02/2025 21:17:49;100;0;0.68;-4;-19.66;-4.90;647.1;13.10;75788;2836.168;-1758.526;1;9;-90;-100.0;44.2;44.5;10;9.5;27.9;0.0;
18/02/2025 21:18:09;100;0;359.15;-4;-19.56;-6.69;649.7;13.10;75783;2836.172;-1758.526;1;9;-90;-101.6;44.2;44.5;10;9.5;27.9;0.0;
18/02/2025 21:18:29;100;0;0.00;-4;-19.20;-6.73;652.4;13.10;75777;2836.176;-1758.526;1;9;-90;-100.0;44.2;44.5;10;9.9;27.9;0.0;
18/02/2025 21:18:49;100;0;0.67;-4;-19.31;-6.74;655.0;13.00;75771;2836.180;-1758.526;1;9;-90;-98.4;44.2;44.5;10;9.5;27.9;0.0;
18/02/2025 21:19:09;100;0;3.61;-4;-19.33;-6.75;657.6;13.00;75767;2836.185;-1758.526;1;9;-90;-101.6;44.2;44.5;12;12.2;27.9;0.0;
18/02/2025 21:19:29;100;0;4.69;-4;-19.35;-5.24;660.2;13.00;75757;2836.189;-1758.525;1;9;-90;-98.4;44.2;44.5;12;12.6;27.9;0.0;
18/02/2025 21:19:49;100;0;4.16;-4;-19.40;-5.22;662.8;13.00;75755;2836.193;-1758.525;1;9;-90;-98.4;44.2;44.6;12;12.6;27.9;0.0;
18/02/2025 21:20:09;100;0;6.80;-4;-19.49;-5.32;665.4;13.00;75755;2836.197;-1758.525;1;9;-90;-100.0;44.2;44.5;12;12.6;27.9;0.0;
18/02/2025 21:20:29;100;0;9.98;-4;-19.50;-5.20;668.0;12.90;75738;2836.201;-1758.524;1;9;-90;-100.0;44.2;44.6;12;12.6;27.9;0.0;
18/02/2025 21:20:49;100;0;13.13;-4;-19.40;-5.21;670.6;12.90;75745;2836.205;-1758.523;1;9;-90;-100.0;44.2;44.5;12;12.6;27.9;0.0;
18/02/2025 21:21:09;100;0;15.50;-4;-18.99;-5.19;673.1;12.90;75732;2836.208;-1758.522;1;9;-90;-100.0;44.5;44.5;14;14.0;27.8;0.0;
18/02/2025 21:21:29;100;0;17.08;-4;-19.49;-4.28;675.8;12.90;75736;2836.212;-1758.521;1;9;-90;-98.4;44.5;44.6;14;14.4;27.9;0.0;
18/02/2025 21:21:49;100;0;17.88;-4;-19.63;-4.22;678.3;12.80;75721;2836.216;-1758.520;1;9;-90;-100.0;44.5;44.5;14;14.4;27.9;0.0;
18/02/2025 21:22:09;100;0;19.94;-4;-19.45;-4.25;680.9;12.80;75724;2836.220;-1758.518;1;9;-90;-100.0;44.5;44.5;16;15.8;27.9;0.0;
18/02/2025 21:22:29;100;0;22.53;-4;-19.75;-3.24;683.6;12.80;75717;2836.224;-1758.517;1;9;-90;-100.0;44.5;44.5;18;18.5;27.9;0.0;
18/02/2025 21:22:49;100;0;19.91;-4;-20.21;-2.18;686.1;12.80;75706;2836.228;-1758.516;1;9;-90;-100.0;44.5;44.5;16;15.8;27.9;0.0;
18/02/2025 21:23:09;100;0;22.18;-4;-19.50;-3.54;688.9;12.80;75694;2836.231;-1758.514;1;9;-90;-100.0;44.5;44.5;18;18.1;27.9;0.0;
18/02/2025 21:23:29;100;0;18.05;-4;-19.48;-2.30;691.4;12.70;75689;2836.235;-1758.513;1;9;-90;-98.4;44.5;44.5;15;14.9;27.9;0.0;
18/02/2025 21:23:49;100;0;16.52;-4;-19.60;-4.31;693.9;12.70;75668;2836.239;-1758.512;1;9;-90;-100.0;44.5;44.6;15;14.9;27.9;0.0;
18/02/2025 21:24:09;100;0;15.22;-4;-19.59;-4.27;696.4;12.70;75667;2836.243;-1758.511;1;9;-90;-98.4;44.5;44.6;15;14.4;27.9;0.0;
18/02/2025 21:24:29;100;0;13.57;-4;-19.22;-4.32;698.9;12.70;75665;2836.247;-1758.510;1;9;-90;-100.0;44.5;44.5;15;14.9;27.9;0.0;
18/02/2025 21:24:49;100;0;11.51;-4;-19.34;-4.19;701.5;12.60;75653;2836.251;-1758.509;1;9;-90;-100.0;44.5;44.5;15;14.4;27.9;0.0;
18/02/2025 21:25:09;100;0;7.68;-4;-19.44;-4.32;703.9;12.60;75651;2836.254;-1758.509;1;9;-90;-100.0;44.5;44.5;13;13.1;27.9;0.0;
18/02/2025 21:25:29;100;0;9.03;-4;-19.33;-4.90;706.5;12.60;75649;2836.258;-1758.508;1;9;-90;-100.0;44.5;44.6;13;14.0;27.9;0.0;
18/02/2025 21:25:49;100;0;8.56;-4;-19.17;-4.87;709.0;12.60;75632;2836.262;-1758.508;1;9;-90;-98.4;44.5;44.5;13;13.5;27.9;0.0;
18/02/2025 21:26:09;100;0;8.20;-4;-19.25;-4.82;711.6;12.60;75625;2836.266;-1758.507;1;9;-90;-100.0;44.5;44.6;13;13.5;27.8;0.0;
18/02/2025 21:26:29;100;0;7.47;-4;-19.36;-4.83;714.3;12.50;75628;2836.271;-1758.507;1;9;-90;-103.2;44.5;44.5;13;13.5;27.8;0.0;
18/02/2025 21:26:49;100;0;8.61;-4;-19.39;-4.72;717.1;12.50;75613;2836.275;-1758.506;1;9;-90;-100.0;44.5;44.5;13;13.5;27.9;0.0;
18/02/2025 21:27:09;100;0;8.66;-4;-19.38;-4.75;719.9;12.50;75598;2836.279;-1758.505;1;9;-90;-100.0;44.5;44.6;13;13.5;27.9;0.0;
18/02/2025 21:27:29;100;0;8.66;-4;-19.38;-4.77;722.5;12.40;75602;2836.283;-1758.505;1;9;-90;-103.2;44.5;44.5;13;13.5;27.9;0.0;
18/02/2025 21:27:49;100;0;8.51;-4;-19.44;-4.75;725.3;12.40;75597;2836.287;-1758.504;1;9;-90;-100.0;44.5;44.5;13;13.5;27.9;0.0;
18/02/2025 21:28:09;100;0;7.48;-4;-19.22;-4.75;727.9;12.40;75582;2836.292;-1758.504;1;9;-90;-100.0;44.5;44.5;13;13.5;27.9;0.0;
18/02/2025 21:28:29;100;0;6.78;-4;-19.55;-4.82;730.5;12.40;75578;2836.295;-1758.503;1;9;-90;-100.0;44.5;44.6;13;13.5;27.9;0.0;
18/02/2025 21:28:49;100;0;5.90;-4;-19.39;-4.73;733.1;12.30;75565;2836.300;-1758.503;1;9;-90;-100.0;44.5;44.5;13;13.5;27.9;0.0;
18/02/2025 21:29:09;100;0;6.84;-4;-19.51;-4.74;735.7;12.30;75565;2836.303;-1758.502;1;9;-90;-98.4;44.5;44.5;13;13.5;27.8;0.0;
18/02/2025 21:29:29;100;0;8.67;-4;-19.41;-4.84;738.3;12.30;75569;2836.308;-1758.502;1;9;-90;-100.0;44.5;44.5;13;13.5;27.9;0.0;
18/02/2025 21:29:49;100;0;10.30;-4;-18.91;-4.59;740.8;12.30;75557;2836.311;-1758.501;1;9;-90;-100.0;44.8;44.9;13;13.5;27.9;0.0;
18/02/2025 21:30:09;100;0;7.79;-4;-21.61;-5.02;743.0;12.30;75547;2836.315;-1758.501;1;9;-90;-100.0;44.8;45.1;13;13.5;27.9;0.0;
18/02/2025 21:30:29;100;0;7.76;-4;-20.16;-4.86;745.5;12.20;75533;2836.318;-1758.500;1;9;-90;-100.0;44.8;45.1;13;13.5;27.9;0.0;
18/02/2025 21:30:49;100;0;8.29;-4;-20.94;-4.88;748.1;12.20;75530;2836.322;-1758.500;1;9;-90;-100.0;44.8;45.1;13;13.5;27.9;0.0;
18/02/2025 21:31:09;100;0;10.64;-4;-20.81;-4.67;750.8;12.20;75532;2836.326;-1758.499;1;9;-90;-100.0;44.8;45.2;13;13.5;27.8;0.0;
18/02/2025 21:31:29;100;0;9.06;-4;-20.60;-4.71;753.4;12.20;75532;2836.330;-1758.498;1;9;-90;-100.0;44.8;45.1;13;13.5;27.9;0.0;
18/02/2025 21:31:49;100;0;8.62;-4;-20.50;-4.88;756.0;12.10;75528;2836.334;-1758.498;1;9;-90;-100.0;44.8;45.2;13;13.5;27.9;0.0;
18/02/2025 21:32:09;100;0;8.48;-4;-20.91;-4.46;758.8;12.10;75527;2836.338;-1758.497;1;9;-90;-98.4;44.8;45.1;13;13.5;27.9;0.0;
18/02/2025 21:32:29;100;0;8.35;-4;-19.83;-4.89;761.4;12.10;75515;2836.342;-1758.497;1;9;-90;-100.0;44.8;45.1;13;13.5;27.9;0.0;
18/02/2025 21:32:49;100;0;8.15;-4;-20.31;-4.70;763.9;12.10;75515;2836.346;-1758.496;1;9;-90;-100.0;44.8;45.1;13;13.5;27.9;0.0;
18/02/2025 21:33:09;100;0;8.32;-4;-20.49;-4.81;766.4;12.10;75508;2836.350;-1758.495;1;9;-90;-100.0;44.8;45.1;13;13.5;27.9;0.0;
18/02/2025 21:33:29;100;0;8.62;-4;-20.50;-4.75;769.1;12.00;75507;2836.353;-1758.495;1;9;-90;-100.0;44.8;45.1;13;13.5;27.9;0.0;
18/02/2025 21:33:49;100;0;9.34;-4;-20.44;-4.77;771.6;12.00;75507;2836.357;-1758.494;1;9;-90;-100.0;44.8;45.1;13;13.5;27.9;0.0;
18/02/2025 21:34:09;100;0;8.51;-4;-20.88;-4.89;774.4;12.00;75501;2836.361;-1758.494;1;9;-90;-101.6;44.8;45.2;13;13.5;27.8;0.0;
18/02/2025 21:34:29;100;0;7.23;-4;-20.14;-4.86;777.1;11.90;75476;2836.365;-1758.493;1;9;-90;-100.0;44.8;45.2;13;13.5;27.9;0.0;
18/02/2025 21:34:49;100;0;6.43;-4;-20.75;-4.75;779.7;11.90;75496;2836.369;-1758.493;1;9;-90;-100.0;44.8;45.1;13;13.5;27.9;0.0;
18/02/2025 21:35:09;100;0;6.35;-4;-20.28;-4.64;782.6;11.90;75482;2836.373;-1758.492;1;9;-90;-100.0;44.8;45.2;13;13.5;27.9;0.0;
18/02/2025 21:35:29;100;0;7.05;-4;-20.30;-4.75;785.3;11.90;75492;2836.377;-1758.492;1;9;-90;-100.0;44.8;45.1;13;13.5;27.9;0.0;
18/02/2025 21:35:49;100;0;7.02;-4;-20.35;-4.82;788.0;11.90;75484;2836.382;-1758.491;1;9;-90;-100.0;44.8;45.1;13;13.5;27.9;0.0;
18/02/2025 21:36:09;100;0;8.30;-4;-20.08;-4.81;790.6;11.80;75468;2836.386;-1758.491;1;9;-90;-100.0;44.8;45.1;13;13.5;27.9;0.0;
18/02/2025 21:36:29;100;0;9.10;-4;-20.15;-4.93;793.0;11.80;75476;2836.389;-1758.490;1;9;-90;-100.0;44.8;45.1;13;13.5;27.9;0.0;
18/02/2025 21:36:49;100;0;11.92;-4;-20.03;-4.75;795.6;11.80;75472;2836.393;-1758.490;1;9;-90;-100.0;44.8;45.1;13;13.5;27.9;0.0;
18/02/2025 21:37:09;100;0;11.80;-4;-19.78;-4.90;797.9;11.80;75470;2836.397;-1758.489;1;9;-90;-100.0;44.8;45.1;13;13.5;27.8;0.0;
18/02/2025 21:37:29;100;0;10.14;-4;-20.37;-4.87;800.2;11.80;75471;2836.400;-1758.488;1;9;-90;-98.4;44.8;45.1;13;13.5;27.8;0.0;
18/02/2025 21:37:49;100;0;8.07;-4;-20.41;-4.73;802.5;11.80;75460;2836.404;-1758.488;1;9;-90;-100.0;44.8;45.1;13;13.5;27.9;0.0;
18/02/2025 21:38:09;100;0;5.56;-4;-19.91;-4.80;804.8;11.70;75450;2836.407;-1758.487;1;9;-90;-100.0;44.8;45.1;13;13.5;27.9;0.0;
18/02/2025 21:38:29;100;0;1.68;-4;-20.33;-4.68;807.1;11.70;75446;2836.411;-1758.487;1;9;-90;-100.0;44.8;45.1;10;9.0;27.9;0.0;
18/02/2025 21:38:49;100;0;359.45;-4;-19.90;-6.93;809.6;11.70;75442;2836.415;-1758.487;1;9;-90;-100.0;44.8;45.1;8;8.1;27.9;0.0;
18/02/2025 21:39:09;100;0;0.31;-4;-20.30;-7.11;811.9;11.70;75438;2836.418;-1758.487;1;9;-90;-100.0;44.8;45.2;8;9.0;27.9;0.0;
18/02/2025 21:39:29;100;0;2.65;-4;-20.06;-6.94;814.4;11.70;75427;2836.422;-1758.487;1;9;-90;-100.0;44.8;45.1;11;11.3;27.9;0.0;
18/02/2025 21:39:49;100;0;4.16;-4;-20.33;-5.83;816.8;11.60;75417;2836.426;-1758.487;1;9;-90;-100.0;44.8;45.2;11;11.3;27.9;0.0;
18/02/2025 21:40:09;100;0;10.16;-4;-20.66;-5.86;819.3;11.60;75407;2836.429;-1758.486;1;9;-90;-100.0;44.8;45.1;13;13.5;27.9;0.0;
18/02/2025 21:40:29;100;0;11.72;-4;-20.53;-4.68;821.9;11.60;75403;2836.433;-1758.486;1;9;-90;-100.0;44.8;45.2;13;14.0;27.8;0.0;
18/02/2025 21:40:49;100;0;12.12;-4;-20.72;-4.77;824.6;11.50;75399;2836.437;-1758.485;1;9;-90;-100.0;44.8;45.1;13;14.0;27.9;0.0;
18/02/2025 21:41:09;100;0;15.14;-4;-20.65;-4.61;827.5;11.50;75386;2836.441;-1758.484;1;9;-90;-100.0;44.8;45.1;13;13.5;27.8;0.0;
18/02/2025 21:41:29;100;0;16.32;-4;-20.09;-4.65;830.3;11.50;75392;2836.445;-1758.483;1;9;-90;-100.0;44.8;45.2;13;14.0;27.9;0.0;
18/02/2025 21:41:49;100;0;15.68;-4;-20.17;-4.68;832.9;11.50;75377;2836.449;-1758.482;1;9;-90;-103.2;44.8;45.2;13;14.0;27.9;0.0;
18/02/2025 21:42:09;100;0;15.27;-4;-20.23;-4.67;835.6;11.50;75377;2836.453;-1758.481;1;9;-90;-100.0;44.8;45.2;13;14.0;27.9;0.0;
18/02/2025 21:42:29;100;0;13.04;-4;-20.53;-4.59;838.4;11.40;75369;2836.457;-1758.480;1;9;-90;-100.0;44.8;45.2;13;13.5;27.9;0.0;
18/02/2025 21:42:49;100;0;11.08;-4;-20.11;-4.53;841.1;11.40;75369;2836.461;-1758.479;1;9;-90;-100.0;44.8;45.2;13;14.0;27.9;0.0;
18/02/2025 21:43:09;100;0;10.77;-4;-20.32;-4.67;843.6;11.40;75352;2836.465;-1758.478;1;9;-90;-100.0;44.8;45.1;13;13.5;27.9;0.0;
18/02/2025 21:43:29;100;0;10.69;-4;-20.96;-4.87;846.2;11.40;75359;2836.469;-1758.478;1;9;-90;-100.0;44.8;45.2;13;14.0;27.9;0.0;
18/02/2025 21:43:49;100;0;10.63;-4;-20.33;-4.70;848.9;11.30;75341;2836.473;-1758.477;1;9;-90;-100.0;44.8;45.1;13;14.0;27.8;0.0;
18/02/2025 21:44:09;100;0;11.66;-4;-20.63;-4.64;851.7;11.30;75349;2836.477;-1758.476;1;9;-90;-100.0;44.8;45.1;13;13.5;27.9;0.0;
18/02/2025 21:44:29;100;0;11.52;-4;-20.78;-4.76;854.6;11.30;75341;2836.481;-1758.475;1;9;-90;-100.0;44.8;45.2;13;13.5;27.9;0.0;
18/02/2025 21:44:49;100;0;11.65;-4;-19.84;-4.56;857.6;11.30;75335;2836.485;-1758.474;1;9;-90;-100.0;44.8;45.2;13;14.0;27.9;0.0;
18/02/2025 21:45:09;100;0;10.11;-4;-20.00;-4.67;860.4;11.30;75325;2836.489;-1758.474;1;9;-90;-100.0;44.8;45.1;13;13.5;27.9;0.0;
18/02/2025 21:45:29;100;0;9.25;-4;-20.20;-4.71;863.0;11.20;75329;2836.493;-1758.473;1;9;-90;-100.0;44.8;45.2;13;14.0;27.8;0.0;
18/02/2025 21:45:49;100;0;10.29;-4;-20.74;-5.05;865.9;11.20;75319;2836.497;-1758.472;1;9;-90;-101.6;44.8;45.2;13;14.0;27.9;0.0;
18/02/2025 21:46:09;100;0;10.88;-4;-20.06;-4.60;868.7;11.20;75317;2836.502;-1758.471;1;9;-90;-100.0;44.8;45.1;13;14.0;27.9;0.0;
18/02/2025 21:46:29;100;0;10.49;-4;-19.28;-4.77;871.5;11.20;75308;2836.506;-1758.471;1;9;-90;-100.0;44.8;45.2;13;14.0;27.9;0.0;
18/02/2025 21:46:49;100;0;9.34;-4;-19.76;-4.71;874.2;11.10;75307;2836.510;-1758.470;1;9;-90;-100.0;44.8;45.2;13;13.5;27.9;0.0;
18/02/2025 21:47:09;100;0;9.51;-4;-20.04;-4.73;876.7;11.10;75290;2836.514;-1758.469;1;9;-90;-100.0;44.8;45.2;13;13.5;27.9;0.0;
18/02/2025 21:47:29;100;0;9.23;-4;-20.18;-4.78;879.3;11.10;75283;2836.518;-1758.469;1;9;-90;-100.0;44.8;45.1;13;13.5;27.9;0.0;
18/02/2025 21:47:50;100;0;10.23;-4;-20.15;-4.76;882.0;11.10;75279;2836.522;-1758.468;1;9;-90;-98.4;44.8;45.1;13;14.0;27.9;0.0;
18/02/2025 21:48:10;100;0;11.88;-4;-19.83;-4.67;884.7;11.10;75285;2836.526;-1758.467;1;9;-90;-100.0;44.8;45.2;13;14.0;27.9;0.0;
18/02/2025 21:48:30;100;0;11.73;-4;-20.12;-4.79;887.2;11.00;75276;2836.529;-1758.467;1;9;-90;-100.0;44.8;45.2;13;13.5;27.8;0.0;
18/02/2025 21:48:50;100;0;11.31;-4;-19.82;-4.61;889.9;11.00;75261;2836.533;-1758.466;1;9;-90;-100.0;44.8;45.2;13;14.0;27.9;0.0;
18/02/2025 21:49:10;100;0;11.74;-4;-19.59;-4.63;892.5;11.00;75259;2836.537;-1758.465;1;9;-90;-100.0;44.8;45.2;13;13.5;27.9;0.0;
18/02/2025 21:49:30;100;0;13.07;-4;-20.08;-4.81;895.1;11.00;75259;2836.541;-1758.464;1;9;-90;-101.6;44.8;45.2;13;14.0;27.8;0.0;
18/02/2025 21:49:50;100;0;14.94;-4;-19.84;-4.58;897.8;10.90;75256;2836.545;-1758.463;1;9;-90;-98.4;44.8;45.2;13;14.0;27.9;0.0;
18/02/2025 21:50:10;100;0;14.08;-4;-19.84;-4.76;900.6;10.90;75261;2836.549;-1758.462;1;9;-90;-100.0;44.8;45.2;13;14.0;27.9;0.0;
18/02/2025 21:50:30;100;0;13.52;-4;-20.05;-4.75;903.3;10.90;75256;2836.553;-1758.461;1;9;-90;-100.0;44.8;45.2;13;14.0;27.8;0.0;
18/02/2025 21:50:50;100;0;10.81;-4;-19.57;-4.68;906.0;10.90;75261;2836.557;-1758.460;1;9;-90;-100.0;44.8;45.2;13;14.0;27.9;0.0;
18/02/2025 21:51:10;100;0;10.83;-4;-20.10;-4.83;908.7;10.80;75236;2836.561;-1758.460;1;9;-90;-100.0;44.8;45.2;13;13.5;27.8;0.0;
18/02/2025 21:51:30;100;0;7.39;-4;-20.10;-4.55;911.5;10.80;75240;2836.566;-1758.459;1;9;-90;-100.0;44.8;45.2;13;14.0;27.9;0.0;
18/02/2025 21:51:50;100;0;5.13;-4;-19.39;-4.91;914.2;10.80;75241;2836.570;-1758.459;1;9;-90;-100.0;44.8;45.2;13;14.0;27.8;0.0;
18/02/2025 21:52:10;100;0;5.38;-4;-20.63;-4.74;916.8;10.80;75225;2836.574;-1758.459;1;9;-90;-100.0;44.8;45.2;13;14.0;27.8;0.0;
18/02/2025 21:52:30;100;0;4.83;-4;-19.41;-4.73;919.7;10.80;75231;2836.578;-1758.458;1;9;-90;-100.0;44.8;45.2;13;13.5;27.9;0.0;
18/02/2025 21:52:50;100;0;4.30;-4;-19.63;-4.73;922.3;10.80;75224;2836.582;-1758.458;1;9;-90;-100.0;44.8;45.2;13;13.5;27.8;0.0;
18/02/2025 21:53:10;100;0;4.86;-4;-19.73;-4.56;925.0;10.70;75228;2836.586;-1758.458;1;9;-90;-103.2;44.8;45.2;13;13.5;27.8;0.0;
18/02/2025 21:53:30;100;0;5.79;-4;-19.39;-4.52;927.7;10.70;75214;2836.590;-1758.457;1;9;-90;-100.0;44.8;45.1;13;13.5;27.9;42.0;
18/02/2025 21:53:50;100;0;5.52;-4;-20.09;-4.63;930.3;10.70;75219;2836.594;-1758.457;1;9;-90;-100.0;44.8;45.2;13;13.5;27.9;38.5;
18/02/2025 21:54:10;100;0;7.02;-4;-20.62;-4.55;933.0;10.70;75218;2836.598;-1758.456;1;9;-90;-103.2;44.8;45.2;13;14.0;27.9;35.1;
18/02/2025 21:54:30;100;0;7.10;-4;-19.77;-4.66;935.8;10.70;75218;2836.602;-1758.456;1;9;-90;-100.0;44.8;45.2;13;14.0;27.9;31.6;
18/02/2025 21:54:34;118;0;6.90;-4;-19.56;-4.75;936.2;10.70;75219;2836.603;-1758.456;1;9;310;-96.8;26.3;26.2;9;9.0;27.8;30.9;
18/02/2025 21:54:44;118;0;60.04;-4;-7.12;-8.01;937.3;10.60;75198;2836.604;-1758.454;1;9;310;30.6;26.3;25.9;9;9.0;26.7;-1.0;
18/02/2025 21:54:54;118;0;52.59;-4;15.22;-7.71;937.5;10.60;74933;2836.605;-1758.454;1;9;310;154.8;26.3;26.5;9;9.0;26.7;-1.0;
18/02/2025 21:55:04;118;0;49.02;-4;20.16;-7.84;936.8;10.60;74674;2836.606;-1758.453;1;9;310;279.0;26.3;26.7;9;9.0;26.6;-1.0;
18/02/2025 21:55:14;118;0;49.53;-4;18.38;-7.86;936.0;10.60;74432;2836.607;-1758.452;1;9;310;312.9;26.3;26.7;9;9.0;26.6;-1.0;
18/02/2025 21:55:24;118;0;3.28;-4;16.87;-7.24;935.0;10.70;74374;2836.608;-1758.452;1;9;310;312.9;26.3;26.7;9;9.0;27.8;-1.0;
18/02/2025 21:55:44;117;0;356.67;-4;16.13;-7.25;933.2;10.70;74380;2836.612;-1758.452;1;9;310;312.9;26.3;26.7;9;9.0;27.8;-1.0;
18/02/2025 21:56:04;117;0;351.94;-4;15.93;-7.24;931.0;10.70;74382;2836.615;-1758.453;1;9;310;312.9;25.1;24.9;47;46.9;27.8;-1.0;
18/02/2025 21:56:24;117;0;355.49;-4;21.63;12.43;928.7;10.70;74369;2836.619;-1758.453;1;9;310;312.9;25.1;25.0;41;40.6;27.8;-1.0;
18/02/2025 21:56:44;117;0;359.51;-4;22.33;9.20;925.8;10.70;74372;2836.623;-1758.453;1;9;310;312.9;25.8;25.9;36;34.7;27.8;-1.0;
18/02/2025 21:57:04;117;0;1.65;-4;19.71;6.71;923.1;10.70;74361;2836.627;-1758.453;1;10;310;311.3;25.8;25.9;36;36.6;27.8;-1.0;
18/02/2025 21:57:24;117;0;4.21;-4;20.71;6.79;920.7;10.70;74363;2836.631;-1758.452;1;10;310;312.9;25.8;25.9;33;32.9;27.8;-1.0;
18/02/2025 21:57:44;117;0;3.05;-4;20.35;4.24;918.2;10.60;74361;2836.634;-1758.452;1;10;310;312.9;25.8;25.8;33;32.5;27.8;-1.0;
18/02/2025 21:58:04;117;0;4.71;-4;19.76;4.84;915.7;10.60;74356;2836.638;-1758.452;1;10;310;312.9;25.8;25.9;33;32.5;27.8;-1.0;
18/02/2025 21:58:24;117;0;6.93;-4;19.90;4.86;913.2;10.60;74354;2836.642;-1758.452;1;10;310;312.9;25.8;25.9;33;32.5;27.9;-1.0;
18/02/2025 21:58:44;117;0;8.61;-4;19.75;4.94;910.7;10.60;74352;2836.646;-1758.451;1;10;310;312.9;25.8;25.9;33;32.5;27.8;-1.0;
18/02/2025 21:59:04;117;0;9.27;-4;19.65;4.83;908.3;10.60;74350;2836.649;-1758.450;1;10;310;312.9;25.8;25.9;33;32.5;27.8;-1.0;
18/02/2025 21:59:24;117;0;9.24;-4;19.70;4.86;905.9;10.50;74338;2836.653;-1758.450;1;10;310;312.9;25.8;25.9;33;32.5;27.8;-1.0;
18/02/2025 21:59:44;117;0;10.09;-4;19.66;4.90;903.5;10.50;74336;2836.657;-1758.449;1;10;310;312.9;25.8;25.9;33;32.5;27.9;-1.0;
18/02/2025 22:00:04;117;0;10.70;-4;19.75;4.84;901.1;10.50;74340;2836.660;-1758.449;1;10;310;312.9;25.8;25.9;33;32.5;27.8;-1.0;
18/02/2025 22:00:24;117;0;11.11;-4;19.62;4.79;898.8;10.50;74345;2836.664;-1758.448;1;10;310;312.9;25.8;25.9;33;32.5;27.9;-1.0;
18/02/2025 22:00:44;117;0;11.75;-4;19.57;4.91;896.5;10.50;74332;2836.667;-1758.447;1;10;310;312.9;25.8;25.9;33;32.5;27.9;-1.0;
18/02/2025 22:01:04;117;0;13.33;-4;20.00;5.10;894.2;10.50;74333;2836.671;-1758.446;1;10;310;312.9;25.8;25.9;33;32.5;27.8;-1.0;
18/02/2025 22:01:24;117;0;14.26;-4;19.38;4.92;891.8;10.50;74326;2836.675;-1758.446;1;10;310;311.3;25.8;25.9;33;32.5;27.9;-1.0;
18/02/2025 22:01:44;117;0;14.49;-4;19.60;4.76;889.5;10.40;74322;2836.678;-1758.445;1;10;310;312.9;25.8;25.9;33;32.5;27.9;-1.0;
18/02/2025 22:02:04;117;0;14.77;-4;19.44;4.78;887.2;10.40;74327;2836.682;-1758.444;1;10;310;308.1;25.8;25.9;33;32.5;27.8;-1.0;
18/02/2025 22:02:24;117;0;16.40;-4;19.46;4.92;885.0;10.40;74322;2836.685;-1758.443;1;10;310;311.3;25.8;25.9;33;32.5;27.8;-1.0;
18/02/2025 22:02:44;117;0;17.49;-4;19.97;4.83;882.8;10.40;74316;2836.689;-1758.442;1;10;310;312.9;25.8;25.9;31;30.7;27.8;-1.0;
18/02/2025 22:03:04;117;0;17.14;-4;19.70;3.92;880.5;10.40;74310;2836.692;-1758.441;1;10;310;312.9;25.8;25.9;31;30.2;27.9;-1.0;
18/02/2025 22:03:24;117;0;16.34;-4;19.27;3.83;878.2;10.40;74308;2836.695;-1758.440;1;10;310;312.9;25.8;25.9;31;30.7;27.8;-1.0;
18/02/2025 22:03:44;117;0;16.08;-4;19.04;3.88;876.1;10.40;74309;2836.699;-1758.439;1;10;310;311.3;25.8;25.9;31;30.7;27.8;-1.0;
18/02/2025 22:04:04;117;0;14.93;-4;19.45;3.91;874.2;10.30;74296;2836.702;-1758.438;1;10;330;332.3;25.8;25.9;31;30.7;27.8;-1.0;
18/02/2025 22:04:24;117;0;12.42;-4;18.70;3.63;872.3;10.30;74267;2836.705;-1758.438;1;10;350;353.2;25.4;25.3;31;30.7;27.8;-1.0;
18/02/2025 22:04:44;117;0;14.67;-4;19.79;3.68;870.2;10.30;74209;2836.708;-1758.437;1;10;350;353.2;25.4;24.9;31;30.7;27.8;-1.0;
18/02/2025 22:05:04;117;0;14.84;-4;19.65;3.61;868.2;10.30;74217;2836.711;-1758.436;1;10;350;351.6;25.4;24.9;31;30.7;27.8;-1.0;
18/02/2025 22:05:24;117;0;16.44;-4;20.24;3.77;866.1;10.30;74224;2836.715;-1758.435;1;9;350;351.6;25.4;24.7;31;30.7;27.8;-1.0;
18/02/2025 22:05:44;117;0;16.60;-4;20.27;3.76;863.9;10.30;74218;2836.718;-1758.434;1;9;350;351.6;25.4;24.9;31;30.7;27.8;-1.0;
18/02/2025 22:06:04;117;0;16.23;-4;19.65;3.68;861.6;10.30;74210;2836.721;-1758.433;1;9;350;353.2;25.4;24.7;31;30.7;27.8;-1.0;
18/02/2025 22:06:24;117;0;16.76;-4;19.66;3.63;859.6;10.30;74211;2836.724;-1758.433;1;9;350;351.6;25.4;24.7;31;30.7;27.8;-1.0;
18/02/2025 22:06:44;117;0;15.70;-4;19.21;3.89;857.5;10.30;74217;2836.728;-1758.432;1;9;350;353.2;25.4;24.7;31;30.7;27.9;-1.0;
18/02/2025 22:07:04;117;0;16.48;-4;19.93;3.91;855.5;10.30;74217;2836.731;-1758.431;1;9;370;371.0;25.4;24.9;31;30.2;27.9;-1.0;
18/02/2025 22:07:24;117;0;15.61;-4;19.79;3.88;853.3;10.20;74164;2836.734;-1758.430;1;9;370;371.0;25.4;24.9;31;30.7;27.8;-1.0;
18/02/2025 22:07:44;117;0;16.56;-4;20.14;3.95;851.1;10.20;74167;2836.738;-1758.429;1;9;370;372.6;25.4;24.7;31;30.7;27.8;-1.0;
18/02/2025 22:08:04;117;0;18.12;-4;19.82;3.65;848.8;10.20;74167;2836.741;-1758.428;1;9;370;371.0;25.4;24.7;31;30.7;27.8;-1.0;
18/02/2025 22:08:24;117;0;19.72;-4;20.16;3.73;846.3;10.20;74170;2836.744;-1758.427;1;9;370;372.6;25.4;24.7;29;28.9;27.9;-1.0;
18/02/2025 22:08:44;117;0;18.37;-4;19.30;2.48;843.9;10.20;74177;2836.748;-1758.426;1;9;370;371.0;25.4;24.7;29;28.4;27.8;-1.0;
18/02/2025 22:09:04;117;0;17.89;-4;19.08;2.92;841.5;10.20;74179;2836.752;-1758.425;1;9;370;372.6;25.4;24.7;29;28.4;27.9;-1.0;
18/02/2025 22:09:24;117;0;16.63;-4;19.29;2.76;839.2;10.20;74171;2836.755;-1758.424;1;9;370;371.0;25.4;24.7;31;31.1;27.9;-1.0;
18/02/2025 22:09:44;117;0;18.08;-4;19.60;4.45;836.8;10.20;74172;2836.759;-1758.423;1;9;370;369.4;25.4;24.7;31;31.6;27.9;-1.0;
18/02/2025 22:10:04;117;0;18.61;-4;19.07;4.42;834.4;10.20;74170;2836.763;-1758.421;1;9;370;372.6;25.4;24.7;31;31.6;27.9;-1.0;
18/02/2025 22:10:24;117;0;19.84;-4;19.29;4.25;832.0;10.20;74159;2836.766;-1758.420;1;9;370;369.4;25.4;24.7;29;28.4;27.8;-1.0;
18/02/2025 22:10:44;117;0;17.97;-4;18.36;2.46;829.9;10.20;74165;2836.770;-1758.419;1;9;370;372.6;24.9;24.9;29;28.4;27.8;-1.0;
18/02/2025 22:11:04;117;0;19.88;-4;18.84;2.97;828.1;10.20;74168;2836.773;-1758.418;1;8;390;393.5;24.6;24.6;29;28.4;27.9;-1.0;
18/02/2025 22:11:24;117;0;19.03;-4;19.30;2.98;826.0;10.20;74128;2836.776;-1758.417;1;8;390;393.5;24.6;24.2;29;28.4;27.9;-1.0;
18/02/2025 22:11:44;117;0;20.90;-4;19.69;2.72;823.9;10.20;74128;2836.779;-1758.416;1;8;390;391.9;24.6;24.2;27;27.1;27.8;-1.0;
18/02/2025 22:12:04;117;0;21.27;-4;20.42;1.68;821.6;10.20;74129;2836.782;-1758.415;1;8;390;393.5;24.6;24.3;27;26.6;27.8;-1.0;
18/02/2025 22:12:24;117;0;21.17;-4;19.81;1.65;819.3;10.20;74134;2836.786;-1758.414;1;8;390;391.9;24.6;24.2;27;26.6;27.9;-1.0;
18/02/2025 22:12:44;117;0;19.40;-4;20.41;1.49;817.1;10.20;74121;2836.789;-1758.413;1;8;390;393.5;24.6;24.2;27;26.6;27.9;-1.0;
18/02/2025 22:13:04;117;0;18.59;-4;20.26;1.57;814.7;10.20;74118;2836.792;-1758.412;1;8;390;393.5;24.6;24.2;29;28.9;27.8;-1.0;
18/02/2025 22:13:24;117;0;17.82;-4;19.93;3.31;812.2;10.20;74123;2836.796;-1758.410;1;8;390;395.2;24.6;24.2;29;29.3;27.8;-1.0;
18/02/2025 22:13:44;117;0;15.14;-4;20.27;3.44;809.8;10.10;74114;2836.800;-1758.409;1;8;390;393.5;24.6;24.2;29;29.3;27.8;-1.0;
18/02/2025 22:14:04;117;0;14.25;-4;19.60;3.34;807.1;10.20;74130;2836.804;-1758.409;1;8;390;393.5;24.6;24.2;29;29.3;27.8;-1.0;
18/02/2025 22:14:24;117;0;14.77;-4;20.20;3.60;804.6;10.10;74134;2836.808;-1758.408;1;8;390;393.5;24.6;24.2;29;29.3;27.9;-1.0;
18/02/2025 22:14:44;117;0;14.65;-4;20.63;3.42;801.9;10.10;74149;2836.811;-1758.407;1;8;390;391.9;24.6;24.2;29;29.3;27.9;-1.0;
18/02/2025 22:15:04;117;0;16.07;-4;19.71;3.20;799.2;10.10;74146;2836.815;-1758.406;1;7;390;393.5;24.6;24.2;29;29.3;27.8;-1.0;
18/02/2025 22:15:24;117;0;16.88;-4;19.92;3.22;796.7;10.20;74152;2836.819;-1758.404;1;7;390;393.5;24.6;24.3;29;29.3;27.9;-1.0;
18/02/2025 22:15:44;117;0;16.47;-4;19.72;3.43;794.2;10.10;74148;2836.823;-1758.403;1;7;390;395.2;24.6;24.2;29;29.3;27.9;-1.0;
18/02/2025 22:16:04;117;0;15.02;-4;19.87;3.54;791.7;10.10;74148;2836.827;-1758.402;1;7;390;393.5;24.6;24.2;29;29.3;27.9;-1.0;
18/02/2025 22:16:24;117;0;15.56;-4;19.61;3.38;789.2;10.10;74153;2836.830;-1758.402;1;7;390;393.5;24.6;24.2;29;29.3;27.9;-1.0;
18/02/2025 22:16:44;117;0;16.12;-4;19.75;3.43;786.9;10.10;74152;2836.834;-1758.401;1;7;390;393.5;24.6;24.2;29;29.3;27.9;-1.0;
18/02/2025 22:17:04;117;0;16.21;-4;19.94;3.56;784.4;10.10;74158;2836.837;-1758.400;1;7;390;393.5;24.6;24.2;29;29.3;27.9;-1.0;
18/02/2025 22:17:24;117;0;17.32;-4;20.19;3.41;782.0;10.20;74155;2836.841;-1758.398;1;7;390;393.5;24.6;24.0;29;29.3;27.9;-1.0;
18/02/2025 22:17:44;117;0;17.77;-4;20.42;3.36;779.4;10.20;74155;2836.845;-1758.397;1;7;390;393.5;24.6;24.2;29;29.3;27.8;-1.0;
18/02/2025 22:18:04;117;0;19.13;-4;20.40;3.29;776.7;10.20;74158;2836.849;-1758.396;1;6;390;393.5;24.6;24.0;25;24.8;27.8;-1.0;
18/02/2025 22:18:24;117;0;17.49;-4;20.22;0.83;773.9;10.20;74152;2836.853;-1758.395;1;6;390;393.5;24.6;24.2;27;27.1;27.8;-1.0;
18/02/2025 22:18:44;117;0;16.46;-4;20.39;2.64;771.0;10.20;74163;2836.857;-1758.394;1;6;390;393.5;24.6;24.0;27;27.5;27.8;-1.0;
18/02/2025 22:19:04;117;0;15.45;-4;20.01;2.72;767.9;10.20;74165;2836.861;-1758.392;1;6;390;393.5;24.6;24.2;27;27.5;27.8;-1.0;
18/02/2025 22:19:24;117;0;13.81;-4;20.54;2.51;764.9;10.20;74179;2836.866;-1758.391;1;6;390;393.5;24.6;24.0;29;28.9;27.8;-1.0;
18/02/2025 22:19:44;117;0;13.68;-4;20.22;3.41;761.6;10.20;74159;2836.870;-1758.390;1;6;390;395.2;24.6;24.2;29;29.3;27.8;-1.0;
18/02/2025 22:20:04;117;0;13.26;-4;20.24;3.53;758.3;10.20;74170;2836.875;-1758.389;1;6;390;395.2;24.6;24.2;29;29.8;27.9;-1.0;
18/02/2025 22:20:24;117;0;12.64;-4;19.84;3.62;755.1;10.20;74173;2836.880;-1758.388;1;5;390;393.5;24.6;24.0;29;29.8;27.8;-1.0;
18/02/2025 22:20:45;117;0;12.91;-4;19.48;3.50;751.9;10.20;74179;2836.884;-1758.387;1;5;390;393.5;24.6;24.0;29;29.8;27.9;-1.0;
18/02/2025 22:21:05;117;0;10.93;-4;18.50;4.03;749.1;10.20;74173;2836.889;-1758.386;1;5;390;393.5;24.1;24.2;29;29.8;27.8;-1.0;
