Timestamp;NavState;SecurityLevel;Heading;Declination;Pitch;Roll;Depth;Temperature;Pa;Lat;Lon;DeadReckoning;DesiredH;BallastCmd;BallastPos;LinCmd;LinPos;AngCmd;AngPos;Voltage;Altitude;
19/02/2025 13:04:59;119;0;276.87;-4;-53.64;-6.96;0.3;17.50;75735;2837.679;-1801.394;0;159;500;508.1;100.0;100.6;0;-0.5;27.7;-1.0;
19/02/2025 13:05:08;116;0;280.53;-4;-55.76;-9.55;-0.1;17.60;75736;2837.684;-1801.389;0;160;500;509.7;100.0;100.4;0;-0.5;27.7;-1.0;
19/02/2025 13:05:33;116;0;267.55;-4;-50.03;-0.48;-0.1;17.60;75748;2837.687;-1801.390;0;162;500;509.7;100.0;100.6;0;-0.5;27.7;-1.0;
19/02/2025 13:06:00;116;0;269.18;-4;-56.12;-10.34;-0.0;17.70;75762;2837.687;-1801.390;0;-9999;500;509.7;100.0;100.6;0;-0.5;27.7;-1.0;
19/02/2025 13:06:22;116;0;284.02;-4;-47.08;-22.18;0.1;17.70;75765;2837.692;-1801.390;0;162;500;508.1;100.0;100.4;0;-0.5;27.7;-1.0;
19/02/2025 13:06:33;116;0;292.42;-4;-52.38;-18.69;-0.1;17.80;75769;2837.692;-1801.389;0;163;500;509.7;100.0;100.4;0;-0.5;27.7;-1.0;
19/02/2025 13:07:36;116;0;283.31;-4;-50.48;-24.86;0.2;18.00;75794;2837.698;-1801.383;0;163;500;509.7;100.0;100.4;0;-0.5;27.7;-1.0;
19/02/2025 13:08:30;116;0;239.46;-4;-47.19;-4.10;0.1;18.20;75814;2837.703;-1801.382;0;-9999;500;509.7;100.0;100.6;0;-0.5;27.7;-1.0;
19/02/2025 13:08:44;116;0;233.44;-4;-55.44;-6.81;0.1;18.20;75820;2837.704;-1801.383;0;59;500;508.1;100.0;100.6;0;-0.5;27.7;-1.0;
19/02/2025 13:09:47;116;0;267.19;-4;-54.83;-8.94;-0.1;18.50;75835;2837.711;-1801.380;0;60;500;508.1;100.0;100.4;0;-0.5;27.7;-1.0;
19/02/2025 13:11:04;116;0;243.30;-4;-44.20;-7.92;-0.1;18.80;75868;2837.721;-1801.377;0;60;500;508.1;100.0;100.6;0;-0.5;27.7;-1.0;
19/02/2025 13:11:24;110;0;257.05;-4;-58.42;-16.52;0.1;18.90;75870;2837.721;-1801.377;0;60;-50;398.4;100.0;100.6;-8;-8.1;27.7;-1.0;
19/02/2025 13:11:34;110;0;258.70;-4;-53.42;-15.33;0.2;18.90;76208;2837.721;-1801.377;1;60;-50;246.8;100.0;100.6;-8;-8.1;27.7;-1.0;
19/02/2025 13:11:44;110;0;242.06;-4;-61.72;-7.45;0.8;19.00;76452;2837.721;-1801.377;1;60;-50;83.9;100.0;100.7;-8;-8.6;27.7;-1.0;
19/02/2025 13:11:54;110;0;244.85;-4;-65.07;-16.26;1.2;19.00;76801;2837.720;-1801.377;1;60;-50;-50.0;100.0;100.6;-8;-8.6;27.7;-1.0;
19/02/2025 13:12:04;110;0;255.36;-4;-73.29;-14.72;1.5;19.10;77070;2837.720;-1801.377;1;60;-50;-50.0;41.6;41.7;-8;-8.6;27.7;-1.0;
19/02/2025 13:12:24;100;0;280.72;-4;-22.42;-15.92;4.7;19.10;77030;2837.721;-1801.381;1;60;-50;-46.8;41.6;41.2;-8;-8.6;27.7;-1.0;
19/02/2025 13:12:44;100;0;285.79;-4;-15.51;-15.60;7.2;19.20;77044;2837.722;-1801.385;1;60;-50;-43.5;43.0;43.3;-70;-69.9;27.7;-1.0;
19/02/2025 13:13:04;100;0;292.04;-4;-21.51;-45.43;9.5;19.30;77047;2837.723;-1801.388;1;60;-50;-41.9;43.0;43.3;-70;-69.9;27.7;-1.0;
19/02/2025 13:13:24;100;0;296.68;-4;-20.72;-45.78;12.1;19.30;77050;2837.724;-1801.391;1;60;-50;-41.9;43.0;43.3;-70;-69.9;27.7;-1.0;
19/02/2025 13:13:44;100;0;310.13;-4;-19.42;-45.73;14.6;19.40;77052;2837.726;-1801.394;1;60;-50;-41.9;43.0;43.3;-70;-69.9;27.7;0.0;
19/02/2025 13:14:04;100;0;323.14;-4;-19.32;-46.04;16.9;19.40;77058;2837.729;-1801.396;1;60;-50;-41.9;43.0;43.3;-70;-69.9;27.7;0.0;
19/02/2025 13:14:24;100;0;334.16;-4;-20.07;-45.51;19.4;19.40;77055;2837.731;-1801.397;1;60;-50;-43.5;43.0;43.3;-70;-69.9;27.7;0.0;
19/02/2025 13:14:44;100;0;345.38;-4;-19.04;-45.77;21.8;19.50;77073;2837.734;-1801.398;1;60;-50;-43.5;43.0;43.4;-70;-69.9;27.7;0.0;
19/02/2025 13:15:04;100;0;355.79;-4;-19.09;-45.89;24.2;19.50;77067;2837.738;-1801.398;1;61;-50;-43.5;43.0;43.3;-62;-61.4;27.7;0.0;
19/02/2025 13:15:24;100;0;8.87;-4;-18.59;-41.01;26.6;19.50;77063;2837.741;-1801.398;1;61;-50;-41.9;43.4;43.4;-47;-46.9;27.7;0.0;
19/02/2025 13:15:44;100;0;20.03;-4;-20.12;-34.12;28.9;19.50;77069;2837.743;-1801.396;1;61;-50;-41.9;43.4;43.6;-33;-32.9;27.7;0.0;
19/02/2025 13:16:04;100;0;31.80;-4;-19.29;-27.04;31.3;19.50;77083;2837.746;-1801.394;1;61;-50;-40.3;43.4;43.6;-16;-15.8;27.7;0.0;
19/02/2025 13:16:24;100;0;39.93;-4;-20.20;-18.52;33.5;19.50;77081;2837.748;-1801.392;1;61;-50;-43.5;43.4;43.7;-2;-1.8;27.7;0.0;
19/02/2025 13:16:44;100;0;42.45;-4;-20.74;-11.98;36.0;19.50;77089;2837.750;-1801.390;1;61;-50;-41.9;43.4;43.7;2;2.3;27.7;0.0;
19/02/2025 13:17:04;100;0;44.90;-4;-20.75;-10.13;38.6;19.50;77084;2837.752;-1801.387;1;61;-50;-43.5;43.4;43.7;6;5.9;27.7;0.0;
19/02/2025 13:17:24;100;0;45.92;-4;-21.24;-8.35;41.1;19.50;77093;2837.754;-1801.384;1;61;-50;-41.9;43.4;43.7;6;6.3;27.7;0.0;
19/02/2025 13:17:44;100;0;47.72;-4;-21.17;-8.41;43.7;19.50;77098;2837.756;-1801.382;1;61;-50;-41.9;43.4;43.7;9;9.0;27.7;0.0;
19/02/2025 13:18:04;100;0;47.63;-4;-21.61;-6.80;46.3;19.50;77106;2837.759;-1801.379;1;61;-50;-43.5;43.4;43.7;9;9.5;27.7;0.0;
19/02/2025 13:18:24;100;0;46.70;-4;-21.32;-6.86;49.0;19.50;77106;2837.761;-1801.376;1;61;-50;-41.9;43.4;43.7;9;9.5;27.7;0.0;
19/02/2025 13:18:44;100;0;46.78;-4;-21.31;-6.79;51.6;19.50;77113;2837.763;-1801.373;1;61;-50;-41.9;43.4;43.7;9;9.5;27.7;0.0;
19/02/2025 13:19:04;100;0;47.77;-4;-21.27;-6.76;54.2;19.50;77108;2837.765;-1801.370;1;61;-50;-45.2;43.4;43.6;9;9.5;27.7;0.0;
19/02/2025 13:19:24;100;0;48.72;-4;-21.50;-6.84;56.7;19.50;77114;2837.767;-1801.368;1;61;-50;-45.2;43.4;43.7;9;9.5;27.7;0.0;
19/02/2025 13:19:44;100;0;48.14;-4;-21.20;-6.81;59.2;19.50;77119;2837.769;-1801.365;1;61;-50;-43.5;43.4;43.7;9;9.5;27.7;0.0;
19/02/2025 13:20:04;100;0;47.27;-4;-21.07;-6.83;61.7;19.50;77117;2837.771;-1801.362;1;61;-50;-43.5;43.4;43.7;9;9.5;27.7;0.0;
19/02/2025 13:20:24;100;0;47.39;-4;-21.34;-6.75;64.2;19.50;77117;2837.773;-1801.360;1;61;-50;-43.5;43.4;43.7;9;9.5;27.7;0.0;
19/02/2025 13:20:44;100;0;46.25;-4;-21.62;-6.70;66.7;19.40;77122;2837.775;-1801.357;1;61;-50;-43.5;43.4;43.7;7;7.2;27.7;0.0;
19/02/2025 13:21:04;100;0;46.33;-4;-21.12;-8.39;69.4;19.50;77127;2837.777;-1801.354;1;61;-50;-41.9;43.4;43.7;7;6.8;27.7;0.0;
19/02/2025 13:21:24;100;0;48.97;-4;-20.93;-8.21;71.9;19.50;77133;2837.779;-1801.351;1;61;-50;-41.9;43.4;43.7;10;10.4;27.7;0.0;
19/02/2025 13:21:44;100;0;49.13;-4;-20.30;-6.54;74.4;19.50;77130;2837.781;-1801.348;1;61;-50;-43.5;43.4;43.7;10;10.4;27.7;0.0;
19/02/2025 13:22:04;100;0;49.19;-4;-21.25;-6.32;76.9;19.40;77137;2837.783;-1801.346;1;61;-50;-41.9;43.4;43.7;10;10.4;27.7;0.0;
19/02/2025 13:22:24;100;0;49.27;-4;-21.17;-6.24;79.5;19.40;77136;2837.785;-1801.343;1;61;-50;-43.5;43.4;43.7;10;10.4;27.7;0.0;
19/02/2025 13:22:44;100;0;49.09;-4;-21.28;-6.40;82.0;19.50;77145;2837.787;-1801.340;1;61;-50;-43.5;43.4;43.7;10;10.8;27.7;0.0;
19/02/2025 13:23:04;100;0;50.56;-4;-20.89;-6.36;84.5;19.40;77140;2837.789;-1801.337;1;61;-50;-41.9;43.4;43.7;10;10.8;27.7;0.0;
19/02/2025 13:23:24;100;0;50.85;-4;-21.06;-6.40;86.9;19.40;77146;2837.791;-1801.334;1;61;-50;-41.9;43.4;43.7;10;10.4;27.7;0.0;
19/02/2025 13:23:44;100;0;53.64;-4;-20.97;-6.36;89.4;19.40;77150;2837.792;-1801.331;1;61;-50;-41.9;43.4;43.7;12;12.2;27.7;0.0;
19/02/2025 13:24:04;100;0;52.50;-4;-21.41;-5.23;91.8;19.40;77162;2837.794;-1801.329;1;61;-50;-43.5;43.4;43.7;12;12.6;27.7;0.0;
19/02/2025 13:24:24;100;0;49.60;-4;-21.25;-5.29;94.4;19.40;77146;2837.796;-1801.326;1;61;-50;-43.5;43.4;43.7;10;9.9;27.7;0.0;
19/02/2025 13:24:45;100;0;47.05;-4;-20.73;-6.88;96.8;19.40;77156;2837.798;-1801.323;1;61;-50;-41.9;43.4;43.7;7;7.2;27.7;0.0;
19/02/2025 13:25:05;100;0;46.91;-4;-20.89;-8.36;99.2;19.40;77149;2837.800;-1801.321;1;61;-50;-41.9;43.4;43.7;7;6.8;27.7;0.0;
19/02/2025 13:25:25;100;0;47.14;-4;-20.90;-8.32;101.8;19.40;77146;2837.802;-1801.318;1;61;-50;-43.5;43.4;43.7;7;6.8;27.7;0.0;
19/02/2025 13:25:45;100;0;43.68;-4;-20.37;-8.33;104.1;19.40;77132;2837.804;-1801.315;1;61;-50;-41.9;43.4;43.7;3;3.2;27.7;0.0;
19/02/2025 13:26:05;100;0;44.30;-4;-19.79;-10.36;106.4;19.40;77118;2837.806;-1801.313;1;61;-50;-41.9;43.4;43.7;3;3.2;27.7;0.0;
19/02/2025 13:26:25;100;0;44.70;-4;-20.10;-10.31;108.6;19.40;77113;2837.808;-1801.311;1;61;-50;-41.9;43.4;43.7;3;2.7;27.7;0.0;
19/02/2025 13:26:45;100;0;49.94;-4;-20.10;-10.32;110.8;19.40;77097;2837.810;-1801.308;1;61;-50;-43.5;43.4;43.7;10;9.9;27.7;0.0;
19/02/2025 13:27:05;100;0;55.87;-4;-20.98;-6.47;113.2;19.40;77075;2837.811;-1801.305;1;61;-50;-41.9;43.4;43.7;12;12.2;27.7;0.0;
19/02/2025 13:27:25;100;0;56.43;-4;-21.01;-5.38;115.6;19.30;77042;2837.813;-1801.302;1;61;-50;-43.5;43.4;43.7;12;12.6;27.7;0.0;
19/02/2025 13:27:45;100;0;58.70;-4;-20.71;-5.36;118.0;19.30;77021;2837.814;-1801.299;1;61;-50;-41.9;43.4;43.7;12;12.6;27.7;0.0;
19/02/2025 13:28:05;100;0;58.09;-4;-20.94;-5.27;120.4;19.30;77004;2837.816;-1801.296;1;61;-50;-43.5;43.4;43.7;12;12.6;27.7;0.0;
19/02/2025 13:28:25;100;0;59.87;-4;-21.11;-5.33;122.7;19.30;76994;2837.817;-1801.293;1;61;-50;-41.9;43.4;43.7;12;12.6;27.7;0.0;
19/02/2025 13:28:45;100;0;61.60;-4;-21.28;-5.34;125.2;19.20;76977;2837.818;-1801.290;1;61;-50;-41.9;43.4;43.7;12;12.6;27.7;0.0;
19/02/2025 13:29:05;100;0;67.55;-4;-20.76;-5.39;127.7;19.20;76968;2837.820;-1801.287;1;61;-50;-43.5;43.4;43.7;14;14.0;27.7;0.0;
19/02/2025 13:29:25;100;0;68.99;-4;-21.06;-4.37;130.2;19.20;76964;2837.821;-1801.283;1;61;-50;-41.9;43.4;43.7;14;14.9;27.7;0.0;
19/02/2025 13:29:45;100;0;71.68;-4;-20.90;-4.33;132.6;19.20;76953;2837.821;-1801.280;1;61;-50;-43.5;43.4;43.7;18;18.5;27.7;0.0;
19/02/2025 13:30:05;100;0;72.61;-4;-20.67;-2.34;135.2;19.10;76932;2837.822;-1801.276;1;61;-50;-43.5;43.4;43.7;18;18.5;27.7;0.0;
19/02/2025 13:30:25;100;0;72.01;-4;-20.67;-2.39;137.5;19.10;76934;2837.823;-1801.273;1;61;-50;-41.9;43.4;43.7;18;19.0;27.7;0.0;
19/02/2025 13:30:45;100;0;73.87;-4;-20.86;-2.36;139.8;19.00;76919;2837.824;-1801.270;1;61;-50;-43.5;43.4;43.7;21;21.2;27.7;0.0;
19/02/2025 13:31:05;100;0;73.07;-4;-21.26;-0.80;142.3;19.00;76914;2837.825;-1801.266;1;61;-50;-41.9;43.4;43.7;21;21.7;27.7;0.0;
19/02/2025 13:31:25;100;0;71.17;-4;-21.46;-0.78;144.9;19.00;76898;2837.826;-1801.263;1;61;-50;-41.9;43.4;43.7;18;18.1;27.7;0.0;
19/02/2025 13:31:45;100;0;68.74;-4;-20.90;-2.91;147.4;19.00;76900;2837.827;-1801.260;1;61;-50;-43.5;43.4;43.7;15;14.9;27.7;0.0;
19/02/2025 13:32:05;100;0;66.47;-4;-21.25;-4.30;149.8;18.90;76889;2837.828;-1801.256;1;61;-50;-43.5;43.4;43.7;15;14.9;27.7;0.0;
19/02/2025 13:32:25;100;0;66.47;-4;-19.91;-4.31;152.2;18.90;76880;2837.829;-1801.253;1;61;-50;-41.9;43.4;43.7;15;14.9;27.7;0.0;
19/02/2025 13:32:45;100;0;64.73;-4;-20.39;-4.37;154.5;18.90;76868;2837.830;-1801.250;1;61;-50;-41.9;43.4;43.7;13;13.1;27.7;0.0;
19/02/2025 13:33:05;100;0;65.74;-4;-20.43;-5.45;156.8;18.80;76869;2837.831;-1801.247;1;61;-50;-41.9;43.4;43.7;13;12.6;27.7;0.0;
19/02/2025 13:33:25;100;0;64.74;-4;-20.33;-5.37;159.2;18.80;76856;2837.832;-1801.243;1;61;-50;-43.5;43.4;43.7;13;12.6;27.7;0.0;
19/02/2025 13:33:45;100;0;64.42;-4;-19.97;-5.47;161.7;18.80;76839;2837.834;-1801.240;1;61;-50;-43.5;43.4;43.7;13;12.6;27.7;0.0;
19/02/2025 13:34:05;100;0;65.14;-4;-20.20;-5.50;164.0;18.70;76832;2837.835;-1801.237;1;61;-50;-41.9;43.4;43.7;13;12.6;27.7;0.0;
19/02/2025 13:34:25;100;0;66.00;-4;-20.40;-5.46;166.3;18.70;76817;2837.836;-1801.234;1;61;-50;-41.9;43.4;43.7;13;12.2;27.7;0.0;
19/02/2025 13:34:45;100;0;66.46;-4;-20.48;-5.54;168.6;18.70;76811;2837.837;-1801.230;1;61;-50;-43.5;43.4;43.9;13;12.6;27.7;0.0;
19/02/2025 13:35:05;100;0;66.30;-4;-20.27;-5.48;171.0;18.60;76808;2837.838;-1801.227;1;61;-50;-43.5;43.4;43.7;13;12.6;27.7;0.0;
19/02/2025 13:35:25;100;0;68.98;-4;-20.42;-5.57;173.4;18.60;76801;2837.839;-1801.224;1;61;-50;-43.5;43.4;43.6;16;15.8;27.7;0.0;
19/02/2025 13:35:45;100;0;67.92;-4;-20.70;-3.56;175.8;18.60;76791;2837.840;-1801.220;1;61;-50;-43.5;43.4;43.6;16;16.2;27.7;0.0;
19/02/2025 13:36:05;100;0;64.98;-4;-20.65;-3.54;178.3;18.50;76788;2837.841;-1801.217;1;61;-50;-43.5;43.4;43.7;14;14.0;27.7;0.0;
19/02/2025 13:36:25;100;0;63.75;-4;-20.38;-4.80;180.7;18.50;76773;2837.843;-1801.214;1;61;-50;-41.9;43.4;43.7;14;14.0;27.7;0.0;
19/02/2025 13:36:45;100;0;64.05;-4;-20.25;-4.76;183.2;18.50;76758;2837.844;-1801.211;1;61;-50;-43.5;43.4;43.7;14;14.0;27.7;0.0;
19/02/2025 13:37:05;100;0;65.39;-4;-20.18;-4.78;185.6;18.40;76762;2837.845;-1801.207;1;61;-50;-43.5;43.4;43.7;14;14.0;27.7;0.0;
19/02/2025 13:37:25;100;0;66.90;-4;-20.29;-4.79;188.1;18.40;76756;2837.846;-1801.204;1;61;-50;-41.9;43.4;43.7;14;14.0;27.7;0.0;
19/02/2025 13:37:45;100;0;67.64;-4;-20.08;-4.80;190.5;18.40;76747;2837.847;-1801.200;1;61;-50;-41.9;43.4;43.7;14;14.0;27.7;0.0;
19/02/2025 13:38:05;100;0;69.03;-4;-20.34;-4.91;193.0;18.30;76746;2837.849;-1801.197;1;61;-50;-41.9;43.4;43.7;16;16.2;27.7;0.0;
19/02/2025 13:38:25;100;0;69.75;-4;-20.56;-3.48;195.4;18.30;76728;2837.850;-1801.194;1;61;-50;-41.9;43.4;43.7;16;16.7;27.7;0.0;
19/02/2025 13:38:45;100;0;70.22;-4;-20.08;-3.31;198.0;18.30;76729;2837.851;-1801.190;1;61;-50;-41.9;43.4;43.7;16;16.7;27.7;0.0;
19/02/2025 13:39:05;100;0;70.17;-4;-19.83;-3.47;200.5;18.20;76717;2837.852;-1801.186;1;61;-50;-41.9;43.4;43.7;16;16.7;27.7;0.0;
19/02/2025 13:39:25;100;0;71.16;-4;-20.19;-3.40;203.1;18.20;76716;2837.853;-1801.183;1;61;-50;-43.5;43.4;43.7;18;18.1;27.7;0.0;
19/02/2025 13:39:45;100;0;71.22;-4;-20.59;-2.34;205.6;18.20;76709;2837.853;-1801.179;1;61;-50;-43.5;43.4;43.7;18;18.5;27.7;0.0;
19/02/2025 13:40:05;100;0;69.10;-4;-21.01;-2.42;208.4;18.10;76699;2837.855;-1801.176;1;61;-50;-43.5;43.4;43.7;16;15.8;27.7;0.0;
19/02/2025 13:40:25;100;0;68.30;-4;-20.12;-3.90;211.2;18.10;76704;2837.856;-1801.172;1;61;-50;-41.9;43.4;43.7;16;15.8;27.7;0.0;
19/02/2025 13:40:45;100;0;67.47;-4;-20.68;-3.95;214.0;18.10;76691;2837.857;-1801.168;1;61;-50;-41.9;43.4;43.7;16;15.3;27.7;0.0;
19/02/2025 13:41:05;100;0;66.62;-4;-20.68;-3.90;216.7;18.00;76690;2837.858;-1801.164;1;61;-50;-43.5;43.4;43.7;16;15.8;27.7;0.0;
19/02/2025 13:41:25;100;0;64.44;-4;-20.61;-3.85;219.5;18.00;76665;2837.860;-1801.161;1;61;-50;-41.9;43.4;43.7;14;13.5;27.7;0.0;
19/02/2025 13:41:45;100;0;63.46;-4;-20.41;-5.02;222.2;18.00;76673;2837.861;-1801.157;1;61;-50;-41.9;43.4;43.7;14;13.5;27.7;0.0;
19/02/2025 13:42:05;100;0;61.63;-4;-20.17;-5.10;224.9;17.90;76657;2837.863;-1801.153;1;61;-50;-43.5;43.4;43.9;14;13.5;27.7;0.0;
19/02/2025 13:42:25;100;0;58.20;-4;-20.23;-5.07;227.6;17.90;76659;2837.864;-1801.150;1;61;-50;-41.9;43.4;43.7;14;13.5;27.7;0.0;
19/02/2025 13:42:45;100;0;55.90;-4;-20.18;-5.07;230.2;17.80;76658;2837.866;-1801.147;1;61;-50;-43.5;43.4;43.7;14;13.5;27.7;0.0;
19/02/2025 13:43:05;100;0;53.16;-4;-19.97;-5.10;232.7;17.80;76648;2837.868;-1801.144;1;61;-50;-43.5;43.4;43.7;14;13.5;27.7;0.0;
19/02/2025 13:43:25;100;0;51.51;-4;-19.72;-5.12;235.2;17.80;76626;2837.870;-1801.141;1;61;-50;-41.9;43.4;43.7;12;11.7;27.7;0.0;
19/02/2025 13:43:45;100;0;52.04;-4;-19.89;-5.88;237.7;17.80;76635;2837.872;-1801.138;1;61;-50;-41.9;43.4;43.7;12;11.7;27.7;0.0;
19/02/2025 13:44:05;100;0;52.42;-4;-20.02;-5.88;240.1;17.70;76615;2837.874;-1801.135;1;61;-50;-43.5;43.4;43.7;12;11.7;27.7;0.0;
19/02/2025 13:44:25;100;0;53.44;-4;-20.15;-5.79;242.6;17.70;76611;2837.876;-1801.132;1;61;-50;-41.9;43.4;43.7;12;11.7;27.7;0.0;
19/02/2025 13:44:45;100;0;53.99;-4;-20.38;-5.77;245.3;17.60;76599;2837.877;-1801.128;1;61;-50;-41.9;43.4;43.7;12;11.7;27.7;0.0;
19/02/2025 13:45:05;100;0;55.31;-4;-20.19;-5.69;247.8;17.60;76592;2837.879;-1801.125;1;61;-50;-41.9;43.4;43.7;12;11.7;27.7;0.0;
19/02/2025 13:45:25;100;0;56.95;-4;-20.23;-5.57;250.4;17.60;76588;2837.881;-1801.122;1;61;-50;-43.5;43.4;43.7;12;11.7;27.7;0.0;
19/02/2025 13:45:45;100;0;58.36;-4;-20.20;-5.65;253.0;17.50;76578;2837.883;-1801.119;1;61;-50;-41.9;43.4;43.7;12;11.7;27.7;0.0;
19/02/2025 13:46:05;100;0;61.19;-4;-20.72;-5.83;255.6;17.50;76565;2837.884;-1801.115;1;61;-50;-41.9;43.4;43.7;12;11.7;27.7;0.0;
19/02/2025 13:46:25;100;0;66.42;-4;-20.83;-5.68;258.3;17.50;76559;2837.885;-1801.112;1;61;-50;-41.9;43.4;43.7;15;14.9;27.7;0.0;
19/02/2025 13:46:45;100;0;67.09;-4;-20.39;-3.81;261.2;17.40;76539;2837.887;-1801.108;1;61;-50;-41.9;43.4;43.7;15;15.3;27.7;0.0;
19/02/2025 13:47:05;100;0;66.93;-4;-20.29;-3.91;263.8;17.40;76532;2837.888;-1801.104;1;61;-50;-41.9;43.4;43.7;15;15.3;27.7;0.0;
19/02/2025 13:47:25;100;0;67.50;-4;-20.31;-3.95;266.5;17.40;76528;2837.889;-1801.100;1;61;-50;-41.9;43.4;43.7;15;15.8;27.7;0.0;
19/02/2025 13:47:45;100;0;70.01;-4;-20.47;-3.92;269.2;17.30;76523;2837.890;-1801.097;1;61;-50;-41.9;43.4;43.7;17;17.6;27.7;0.0;
19/02/2025 13:48:05;100;0;68.10;-4;-19.54;-2.73;271.7;17.30;76520;2837.891;-1801.093;1;61;-50;-43.5;43.4;43.7;17;18.1;27.7;0.0;
19/02/2025 13:48:25;100;0;68.70;-4;-20.04;-2.78;274.1;17.20;76507;2837.892;-1801.090;1;61;-50;-41.9;43.4;43.7;17;18.1;27.7;0.0;
19/02/2025 13:48:45;100;0;68.93;-4;-19.80;-2.77;276.5;17.20;76491;2837.893;-1801.086;1;61;-50;-43.5;43.4;43.7;17;18.1;27.7;0.0;
19/02/2025 13:49:05;100;0;67.36;-4;-19.67;-2.83;278.8;17.20;76491;2837.894;-1801.083;1;61;-50;-41.9;43.4;43.7;15;14.4;27.7;0.0;
19/02/2025 13:49:25;100;0;67.03;-4;-20.03;-4.52;281.3;17.10;76472;2837.896;-1801.080;1;61;-50;-43.5;43.4;43.7;15;14.4;27.7;0.0;
19/02/2025 13:49:45;100;0;65.67;-4;-20.83;-4.44;283.9;17.10;76471;2837.897;-1801.076;1;61;-50;-41.9;43.4;43.7;15;14.4;27.7;0.0;
19/02/2025 13:50:05;100;0;63.02;-4;-20.05;-4.43;286.5;17.10;76464;2837.898;-1801.073;1;61;-50;-41.9;43.4;43.7;15;14.4;27.7;0.0;
19/02/2025 13:50:25;100;0;61.00;-4;-20.02;-4.50;289.1;17.00;76461;2837.900;-1801.069;1;61;-50;-43.5;43.4;43.7;15;14.4;27.7;0.0;
19/02/2025 13:50:45;100;0;58.42;-4;-20.13;-4.46;291.7;17.00;76451;2837.901;-1801.066;1;61;-50;-43.5;43.4;43.7;15;14.4;27.7;0.0;
19/02/2025 13:51:05;100;0;56.37;-4;-20.00;-4.48;294.3;17.00;76444;2837.903;-1801.063;1;61;-50;-43.5;43.4;43.7;15;14.4;27.7;0.0;
19/02/2025 13:51:25;100;0;56.69;-4;-19.89;-4.51;296.8;16.90;76440;2837.905;-1801.059;1;61;-50;-41.9;43.4;43.7;15;14.4;27.7;0.0;
19/02/2025 13:51:45;100;0;55.29;-4;-19.90;-4.48;299.4;16.90;76430;2837.907;-1801.056;1;61;-50;-43.5;43.4;43.7;13;13.1;27.7;0.0;
19/02/2025 13:52:05;100;0;52.96;-4;-19.85;-5.53;301.8;16.90;76422;2837.909;-1801.053;1;61;-50;-41.9;43.4;43.7;13;12.6;27.7;0.0;
19/02/2025 13:52:25;100;0;52.55;-4;-20.33;-5.49;304.4;16.80;76420;2837.910;-1801.050;1;61;-50;-41.9;43.4;43.7;13;12.6;27.7;0.0;
19/02/2025 13:52:45;100;0;52.07;-4;-20.24;-5.45;307.0;16.80;76408;2837.912;-1801.047;1;61;-50;-43.5;43.4;43.7;13;12.6;27.7;0.0;
19/02/2025 13:53:05;100;0;52.09;-4;-20.07;-5.39;309.6;16.80;76400;2837.914;-1801.044;1;61;-50;-43.5;43.4;43.7;13;12.6;27.7;0.0;
19/02/2025 13:53:25;100;0;50.65;-4;-19.54;-5.39;312.1;16.70;76401;2837.916;-1801.041;1;61;-50;-41.9;43.4;43.6;13;12.6;27.7;0.0;
19/02/2025 13:53:45;100;0;50.72;-4;-19.79;-5.59;314.5;16.70;76392;2837.918;-1801.038;1;61;-50;-41.9;43.4;43.7;13;12.6;27.7;0.0;
19/02/2025 13:54:05;100;0;48.96;-4;-19.47;-5.59;316.8;16.70;76386;2837.920;-1801.035;1;61;-50;-43.5;43.4;43.6;10;9.9;27.7;0.0;
19/02/2025 13:54:25;100;0;51.12;-4;-19.76;-6.79;319.1;16.60;76369;2837.922;-1801.033;1;61;-50;-41.9;43.4;43.7;12;12.2;27.7;0.0;
19/02/2025 13:54:45;100;0;52.89;-4;-19.65;-5.45;321.5;16.60;76368;2837.924;-1801.030;1;61;-50;-41.9;43.4;43.7;12;12.2;27.7;0.0;
19/02/2025 13:55:05;100;0;54.11;-4;-19.83;-5.45;323.8;16.60;76364;2837.925;-1801.027;1;61;-50;-43.5;43.4;43.7;12;12.2;27.7;0.0;
19/02/2025 13:55:25;100;0;55.09;-4;-19.86;-5.46;326.2;16.50;76357;2837.927;-1801.024;1;61;-50;-41.9;43.4;43.7;12;12.6;27.7;0.0;
19/02/2025 13:55:45;100;0;55.80;-4;-19.83;-5.40;328.5;16.50;76342;2837.929;-1801.021;1;61;-50;-41.9;43.4;43.7;12;12.6;27.7;0.0;
19/02/2025 13:56:05;100;0;57.29;-4;-19.67;-5.39;330.7;16.50;76348;2837.930;-1801.018;1;61;-50;-43.5;43.4;43.7;12;12.2;27.7;0.0;
19/02/2025 13:56:25;100;0;58.21;-4;-19.76;-5.47;333.1;16.40;76347;2837.931;-1801.015;1;61;-50;-43.5;43.4;43.7;12;12.6;27.7;0.0;
19/02/2025 13:56:45;100;0;59.51;-4;-19.70;-5.45;335.2;16.40;76319;2837.933;-1801.012;1;61;-50;-43.5;43.4;43.7;12;12.6;27.7;0.0;
19/02/2025 13:57:05;100;0;58.73;-4;-19.72;-5.51;337.5;16.30;76309;2837.934;-1801.009;1;61;-50;-45.2;43.4;43.9;12;12.6;27.7;0.0;
19/02/2025 13:57:25;100;0;59.54;-4;-19.65;-5.44;339.7;16.30;76316;2837.936;-1801.007;1;61;-50;-43.5;43.4;43.7;12;12.6;27.7;0.0;
19/02/2025 13:57:45;100;0;61.00;-4;-19.41;-5.54;341.8;16.30;76317;2837.937;-1801.004;1;61;-50;-41.9;43.4;43.7;12;12.2;27.7;0.0;
19/02/2025 13:58:05;100;0;60.81;-4;-19.22;-5.45;343.9;16.30;76302;2837.938;-1801.001;1;61;-50;-41.9;43.4;43.7;12;12.6;27.7;0.0;
19/02/2025 13:58:25;100;0;60.73;-4;-19.59;-5.54;345.8;16.20;76290;2837.939;-1800.998;1;61;-70;-71.0;43.4;43.7;12;12.6;27.7;0.0;
19/02/2025 13:58:45;100;0;61.48;-4;-19.17;-5.40;348.0;16.20;76354;2837.940;-1800.995;1;61;-70;-72.6;43.4;43.7;12;12.6;27.7;0.0;
19/02/2025 13:59:05;100;0;62.32;-4;-19.28;-5.37;350.2;16.20;76355;2837.942;-1800.992;1;61;-70;-75.8;43.4;43.7;12;12.6;27.7;0.0;
19/02/2025 13:59:25;100;0;61.98;-4;-19.38;-5.34;352.6;16.10;76356;2837.943;-1800.989;1;61;-70;-77.4;43.4;43.7;12;12.6;27.7;0.0;
19/02/2025 13:59:45;100;0;60.20;-4;-19.31;-5.32;355.0;16.10;76348;2837.945;-1800.986;1;61;-70;-77.4;43.4;43.9;12;12.2;27.7;0.0;
19/02/2025 14:00:05;100;0;59.78;-4;-19.43;-5.33;357.2;16.10;76343;2837.946;-1800.983;1;61;-70;-77.4;43.4;43.7;12;12.6;27.7;0.0;
19/02/2025 14:00:25;100;0;59.33;-4;-19.66;-5.23;359.7;16.00;76331;2837.948;-1800.979;1;61;-70;-79.0;43.4;43.7;12;12.6;27.7;0.0;
19/02/2025 14:00:46;100;0;57.93;-4;-19.60;-5.31;362.2;16.00;76324;2837.949;-1800.976;1;61;-70;-79.0;43.4;43.7;12;12.6;27.7;0.0;
19/02/2025 14:01:06;100;0;57.12;-4;-19.69;-5.29;364.6;16.00;76323;2837.951;-1800.973;1;61;-70;-77.4;43.4;43.7;12;12.6;27.7;0.0;
19/02/2025 14:01:26;100;0;55.19;-4;-19.80;-5.24;367.2;15.90;76310;2837.953;-1800.970;1;61;-70;-79.0;43.4;43.7;12;12.6;27.7;0.0;
19/02/2025 14:01:46;100;0;51.52;-4;-19.74;-5.26;369.8;15.90;76317;2837.955;-1800.967;1;61;-70;-79.0;43.4;43.7;12;12.6;27.7;0.0;
19/02/2025 14:02:06;100;0;50.23;-4;-19.49;-5.23;372.3;15.90;76300;2837.957;-1800.964;1;61;-70;-80.6;43.4;43.7;12;12.2;27.7;0.0;
19/02/2025 14:02:26;100;0;47.31;-4;-19.43;-5.31;374.7;15.80;76306;2837.959;-1800.961;1;61;-70;-79.0;43.4;43.7;8;8.1;27.7;0.0;
19/02/2025 14:02:46;100;0;48.60;-4;-19.30;-7.45;377.1;15.80;76289;2837.961;-1800.958;1;61;-70;-79.0;43.4;43.7;10;10.4;27.7;0.0;
19/02/2025 14:03:06;100;0;49.40;-4;-19.26;-6.25;379.6;15.80;76284;2837.963;-1800.955;1;61;-70;-77.4;43.4;43.7;10;10.4;27.7;0.0;
19/02/2025 14:03:26;100;0;51.38;-4;-19.18;-6.26;381.8;15.70;76272;2837.965;-1800.952;1;61;-70;-77.4;43.4;43.7;12;12.2;27.7;0.0;
19/02/2025 14:03:46;100;0;52.55;-4;-19.18;-5.27;384.1;15.70;76270;2837.966;-1800.950;1;61;-70;-79.0;43.4;43.7;12;12.6;27.7;0.0;
19/02/2025 14:04:06;100;0;54.93;-4;-19.34;-5.20;386.5;15.70;76258;2837.968;-1800.947;1;61;-70;-79.0;43.4;43.7;12;12.6;27.7;0.0;
19/02/2025 14:04:26;100;0;57.99;-4;-19.33;-5.17;388.8;15.70;76253;2837.970;-1800.943;1;61;-70;-79.0;43.4;43.7;12;12.6;27.7;0.0;
19/02/2025 14:04:46;100;0;59.23;-4;-19.30;-5.22;391.2;15.60;76252;2837.971;-1800.940;1;61;-70;-79.0;43.4;43.7;12;12.6;27.7;0.0;
19/02/2025 14:05:06;100;0;59.69;-4;-19.31;-5.22;393.5;15.60;76242;2837.973;-1800.937;1;61;-70;-77.4;43.4;43.7;12;12.6;27.7;0.0;
19/02/2025 14:05:26;100;0;58.02;-4;-19.45;-5.24;395.9;15.60;76238;2837.974;-1800.934;1;61;-70;-77.4;43.4;43.7;12;12.6;27.7;0.0;
19/02/2025 14:05:46;100;0;53.72;-4;-19.30;-5.29;398.3;15.50;76228;2837.976;-1800.931;1;61;-70;-77.4;43.4;43.7;12;12.6;27.7;0.0;
19/02/2025 14:06:06;100;0;51.22;-4;-19.18;-5.26;400.6;15.50;76216;2837.978;-1800.928;1;61;-70;-77.4;43.4;43.7;12;12.6;27.7;0.0;
19/02/2025 14:06:26;100;0;51.64;-4;-19.35;-5.24;403.0;15.50;76209;2837.980;-1800.925;1;61;-70;-77.4;43.4;43.7;12;12.6;27.7;0.0;
19/02/2025 14:06:46;100;0;51.35;-4;-19.34;-5.20;405.3;15.40;76207;2837.982;-1800.922;1;61;-70;-80.6;43.4;43.6;12;12.6;27.7;0.0;
19/02/2025 14:07:06;100;0;51.20;-4;-19.28;-5.18;407.7;15.40;76195;2837.983;-1800.919;1;61;-70;-77.4;43.4;43.7;12;12.6;27.7;0.0;
19/02/2025 14:07:26;100;0;51.08;-4;-19.19;-5.27;410.0;15.40;76193;2837.985;-1800.916;1;61;-70;-80.6;43.4;43.7;12;12.6;27.7;0.0;
19/02/2025 14:07:46;100;0;51.78;-4;-19.22;-5.22;412.4;15.30;76186;2837.987;-1800.914;1;61;-70;-77.4;43.4;43.7;12;12.6;27.7;0.0;
19/02/2025 14:08:06;100;0;52.01;-4;-19.24;-5.24;414.6;15.30;76177;2837.989;-1800.911;1;61;-70;-79.0;43.4;43.7;12;12.6;27.7;0.0;
19/02/2025 14:08:26;100;0;52.75;-4;-19.28;-5.27;416.9;15.30;76173;2837.991;-1800.908;1;61;-70;-77.4;43.4;43.7;12;12.6;27.7;0.0;
19/02/2025 14:08:46;100;0;54.88;-4;-19.24;-5.22;419.2;15.30;76162;2837.992;-1800.905;1;61;-70;-79.0;43.4;43.7;12;12.6;27.7;0.0;
19/02/2025 14:09:06;100;0;56.07;-4;-19.11;-5.21;421.5;15.20;76154;2837.994;-1800.902;1;61;-70;-82.3;43.4;43.7;12;12.6;27.7;0.0;
19/02/2025 14:09:26;100;0;58.85;-4;-19.29;-5.28;423.7;15.20;76157;2837.995;-1800.899;1;61;-70;-79.0;43.4;43.7;12;12.6;27.7;0.0;
19/02/2025 14:09:46;100;0;63.77;-4;-19.28;-5.22;426.0;15.20;76139;2837.997;-1800.896;1;61;-70;-79.0;43.4;43.7;12;12.6;27.7;0.0;
19/02/2025 14:10:06;100;0;66.02;-4;-19.05;-5.18;428.3;15.10;76139;2837.998;-1800.892;1;61;-70;-79.0;43.4;43.7;14;14.0;27.7;0.0;
19/02/2025 14:10:26;100;0;63.63;-4;-19.30;-4.33;430.7;15.10;76121;2837.999;-1800.889;1;61;-70;-79.0;43.4;43.7;14;14.4;27.7;0.0;
19/02/2025 14:10:46;100;0;61.92;-4;-19.22;-4.29;432.9;15.10;76112;2838.000;-1800.886;1;61;-70;-79.0;43.4;43.7;14;14.4;27.7;0.0;
19/02/2025 14:11:06;100;0;60.73;-4;-19.09;-4.24;435.3;15.00;76121;2838.002;-1800.883;1;61;-70;-79.0;43.4;43.7;14;14.4;27.7;0.0;
19/02/2025 14:11:26;100;0;58.27;-4;-19.13;-4.30;437.7;15.00;76120;2838.003;-1800.880;1;61;-70;-79.0;43.4;43.7;14;14.4;27.7;0.0;
19/02/2025 14:11:46;100;0;57.95;-4;-19.19;-4.18;439.9;15.00;76107;2838.005;-1800.877;1;61;-70;-77.4;43.4;43.7;14;14.4;27.7;0.0;
19/02/2025 14:12:06;100;0;55.36;-4;-17.84;-4.31;442.2;15.00;76109;2838.007;-1800.873;1;61;-70;-79.0;44.1;44.2;14;14.9;27.7;0.0;
19/02/2025 14:12:26;100;0;52.88;-4;-20.32;-4.34;444.4;14.90;76102;2838.008;-1800.871;1;61;-70;-77.4;44.1;44.5;12;12.2;27.7;0.0;
19/02/2025 14:12:46;100;0;53.55;-4;-20.64;-5.81;446.7;14.90;76086;2838.010;-1800.868;1;61;-70;-79.0;44.1;44.5;12;11.7;27.7;0.0;
19/02/2025 14:13:06;100;0;55.21;-4;-20.78;-5.54;449.3;14.90;76096;2838.012;-1800.865;1;61;-70;-77.4;44.1;44.3;12;11.7;27.7;0.0;
19/02/2025 14:13:26;100;0;53.55;-4;-20.02;-5.94;451.6;14.80;76086;2838.013;-1800.862;1;61;-70;-79.0;44.1;44.5;12;11.7;27.7;0.0;
19/02/2025 14:13:46;100;0;51.15;-4;-20.33;-5.67;454.0;14.80;76075;2838.015;-1800.859;1;61;-70;-79.0;44.1;44.5;12;11.7;27.7;0.0;
19/02/2025 14:14:06;100;0;51.22;-4;-20.17;-5.78;456.4;14.80;76081;2838.017;-1800.857;1;61;-70;-77.4;44.1;44.5;12;11.7;27.7;0.0;
19/02/2025 14:14:26;100;0;51.55;-4;-20.22;-5.68;458.8;14.70;76071;2838.019;-1800.854;1;61;-70;-79.0;44.1;44.5;12;11.7;27.7;0.0;
19/02/2025 14:14:46;100;0;51.99;-4;-20.17;-5.65;461.2;14.70;76070;2838.021;-1800.851;1;61;-70;-80.6;44.1;44.5;12;11.7;27.7;0.0;
19/02/2025 14:15:06;100;0;51.69;-4;-19.98;-5.72;463.6;14.70;76068;2838.022;-1800.848;1;61;-70;-77.4;44.1;44.5;12;11.7;27.7;0.0;
19/02/2025 14:15:26;100;0;51.64;-4;-20.31;-5.72;466.1;14.70;76063;2838.024;-1800.845;1;61;-70;-79.0;44.1;44.5;12;11.7;27.7;0.0;
19/02/2025 14:15:46;100;0;53.13;-4;-20.15;-5.68;468.5;14.70;76070;2838.026;-1800.842;1;61;-70;-77.4;44.1;44.5;12;11.7;27.7;0.0;
19/02/2025 14:16:06;100;0;54.72;-4;-20.30;-5.71;471.1;14.60;76058;2838.028;-1800.839;1;61;-70;-77.4;44.1;44.5;12;11.7;27.7;0.0;
19/02/2025 14:16:26;100;0;55.19;-4;-20.20;-5.68;473.6;14.60;76045;2838.030;-1800.836;1;61;-70;-77.4;44.1;44.5;12;11.7;27.7;0.0;
19/02/2025 14:16:46;100;0;54.37;-4;-20.34;-5.60;476.1;14.60;76055;2838.032;-1800.833;1;61;-70;-77.4;44.1;44.5;12;11.7;27.7;0.0;
19/02/2025 14:17:06;100;0;54.53;-4;-19.91;-5.55;478.7;14.60;76055;2838.033;-1800.830;1;61;-70;-79.0;44.1;44.5;12;11.7;27.7;0.0;
19/02/2025 14:17:26;100;0;53.33;-4;-19.98;-5.80;481.0;14.50;76030;2838.035;-1800.827;1;61;-70;-79.0;44.1;44.5;12;11.7;27.7;0.0;
19/02/2025 14:17:46;100;0;54.77;-4;-20.37;-5.65;483.4;14.50;76036;2838.037;-1800.824;1;61;-70;-80.6;44.1;44.5;12;11.7;27.7;0.0;
19/02/2025 14:18:06;100;0;54.66;-4;-20.25;-5.69;485.9;14.50;76042;2838.038;-1800.821;1;61;-70;-79.0;44.1;44.5;12;11.7;27.7;0.0;
19/02/2025 14:18:26;100;0;55.90;-4;-20.17;-5.65;488.5;14.40;76024;2838.040;-1800.817;1;61;-70;-79.0;44.1;44.5;12;11.7;27.7;0.0;
19/02/2025 14:18:46;100;0;57.05;-4;-20.21;-5.69;491.0;14.40;76030;2838.042;-1800.814;1;61;-70;-77.4;44.1;44.5;12;11.7;27.7;0.0;
19/02/2025 14:19:06;100;0;57.77;-4;-20.33;-5.66;493.6;14.40;76015;2838.044;-1800.811;1;61;-70;-79.0;44.1;44.5;12;11.7;27.7;0.0;
19/02/2025 14:19:26;100;0;59.25;-4;-20.35;-5.70;496.2;14.40;76014;2838.045;-1800.807;1;61;-70;-79.0;44.1;44.5;12;11.7;27.7;0.0;
19/02/2025 14:19:46;100;0;58.41;-4;-20.08;-5.68;498.9;14.40;76004;2838.047;-1800.804;1;61;-70;-77.4;44.1;44.5;12;11.7;27.7;0.0;
19/02/2025 14:20:06;100;0;57.06;-4;-20.75;-5.60;501.5;14.30;75999;2838.049;-1800.801;1;61;-70;-77.4;44.1;44.5;12;11.7;27.7;0.0;
19/02/2025 14:20:26;100;0;56.71;-4;-19.96;-5.67;504.1;14.30;76000;2838.050;-1800.798;1;61;-70;-79.0;44.1;44.5;12;11.7;27.7;0.0;
19/02/2025 14:20:46;100;0;55.86;-4;-20.15;-5.62;506.6;14.30;75987;2838.052;-1800.794;1;61;-70;-77.4;44.1;44.5;12;11.7;27.7;0.0;
19/02/2025 14:21:06;100;0;55.06;-4;-20.12;-5.55;509.1;14.30;75977;2838.054;-1800.791;1;61;-70;-79.0;44.1;44.5;12;11.7;27.7;0.0;
19/02/2025 14:21:26;100;0;55.87;-4;-20.17;-5.63;511.5;14.20;75983;2838.055;-1800.788;1;61;-70;-77.4;44.1;44.5;12;11.7;27.7;0.0;
19/02/2025 14:21:46;100;0;55.64;-4;-20.01;-5.68;513.8;14.20;75976;2838.057;-1800.785;1;61;-70;-77.4;44.1;44.5;12;11.7;27.7;0.0;
19/02/2025 14:22:06;100;0;56.37;-4;-19.89;-5.75;516.2;14.20;75963;2838.059;-1800.782;1;61;-70;-79.0;44.1;44.5;12;11.7;27.7;0.0;
19/02/2025 14:22:26;100;0;56.27;-4;-19.89;-5.64;518.5;14.20;75967;2838.060;-1800.779;1;61;-70;-79.0;44.1;44.5;12;11.7;27.7;0.0;
19/02/2025 14:22:46;100;0;57.86;-4;-19.63;-5.72;520.7;14.20;75965;2838.062;-1800.777;1;61;-70;-79.0;44.1;44.5;12;11.7;27.7;0.0;
19/02/2025 14:23:06;100;0;60.14;-4;-19.71;-5.76;522.9;14.10;75955;2838.063;-1800.774;1;61;-70;-79.0;44.1;44.5;12;11.7;27.7;0.0;
19/02/2025 14:23:26;100;0;59.46;-4;-20.06;-5.79;525.2;14.10;75948;2838.064;-1800.771;1;61;-70;-79.0;44.1;44.5;12;11.7;27.7;0.0;
19/02/2025 14:23:46;100;0;57.98;-4;-20.03;-5.69;527.5;14.10;75947;2838.066;-1800.768;1;61;-70;-77.4;44.1;44.5;12;11.7;27.7;0.0;
19/02/2025 14:24:06;100;0;59.09;-4;-20.21;-5.73;529.8;14.10;75942;2838.067;-1800.765;1;61;-70;-77.4;44.1;44.5;12;11.7;27.7;0.0;
19/02/2025 14:24:26;100;0;59.90;-4;-19.17;-5.70;532.1;14.00;75922;2838.069;-1800.762;1;61;-70;-79.0;44.1;44.5;12;11.7;27.7;0.0;
19/02/2025 14:24:46;100;0;59.30;-4;-19.69;-5.80;534.3;14.00;75928;2838.070;-1800.759;1;61;-70;-77.4;44.1;44.5;12;11.7;27.7;0.0;
19/02/2025 14:25:06;100;0;60.34;-4;-19.44;-5.79;536.4;14.00;75915;2838.071;-1800.756;1;61;-70;-77.4;44.1;44.5;12;11.7;27.7;0.0;
19/02/2025 14:25:26;100;0;60.80;-4;-19.57;-5.79;538.6;13.90;75905;2838.073;-1800.753;1;61;-70;-79.0;44.1;44.5;12;11.7;27.7;0.0;
19/02/2025 14:25:46;100;0;60.50;-4;-19.77;-5.77;540.8;13.90;75903;2838.074;-1800.750;1;61;-70;-82.3;44.1;44.5;12;11.7;27.7;0.0;
19/02/2025 14:26:06;100;0;60.35;-4;-19.73;-5.73;543.0;13.90;75893;2838.075;-1800.747;1;61;-70;-79.0;44.1;44.5;12;11.7;27.7;0.0;
19/02/2025 14:26:26;100;0;62.07;-4;-19.45;-5.75;545.2;13.90;75892;2838.077;-1800.744;1;61;-70;-77.4;44.1;44.5;12;11.7;27.7;0.0;
19/02/2025 14:26:46;100;0;62.67;-4;-19.73;-5.67;547.3;13.90;75898;2838.078;-1800.741;1;61;-70;-79.0;44.1;44.5;12;11.7;27.7;0.0;
19/02/2025 14:27:06;100;0;63.84;-4;-19.67;-5.77;549.5;13.90;75886;2838.079;-1800.738;1;61;-70;-77.4;44.1;44.5;12;11.7;27.7;0.0;
19/02/2025 14:27:26;100;0;64.47;-4;-19.57;-5.72;551.5;13.80;75880;2838.080;-1800.735;1;61;-70;-79.0;44.1;44.5;12;11.7;27.7;0.0;
19/02/2025 14:27:46;100;0;65.59;-4;-19.59;-5.73;553.6;13.80;75894;2838.081;-1800.733;1;61;-70;-79.0;44.1;44.5;14;14.0;27.7;0.0;
19/02/2025 14:28:06;100;0;65.54;-4;-19.77;-4.45;555.7;13.80;75880;2838.082;-1800.730;1;61;-70;-79.0;44.1;44.5;14;14.4;27.7;0.0;
19/02/2025 14:28:26;100;0;64.45;-4;-19.66;-4.43;557.9;13.70;75869;2838.083;-1800.727;1;61;-70;-79.0;44.1;44.5;14;14.4;27.7;0.0;
19/02/2025 14:28:46;100;0;63.54;-4;-19.65;-4.47;559.9;13.70;75878;2838.084;-1800.724;1;61;-70;-77.4;44.1;44.5;14;14.4;27.7;0.0;
19/02/2025 14:29:06;100;0;65.22;-4;-19.11;-4.27;561.9;13.70;75867;2838.085;-1800.721;1;61;-70;-79.0;44.1;44.5;14;14.4;27.7;0.0;
19/02/2025 14:29:26;100;0;66.66;-4;-19.86;-4.50;563.9;13.70;75867;2838.086;-1800.718;1;61;-70;-79.0;44.1;44.5;14;14.0;27.7;0.0;
19/02/2025 14:29:46;100;0;68.51;-4;-19.44;-4.57;566.0;13.60;75855;2838.087;-1800.715;1;61;-70;-77.4;44.1;44.5;16;15.8;27.7;0.0;
19/02/2025 14:30:06;100;0;70.21;-4;-19.65;-3.52;568.0;13.60;75863;2838.088;-1800.712;1;61;-70;-79.0;44.1;44.5;18;18.1;27.7;0.0;
19/02/2025 14:30:26;100;0;68.73;-4;-20.05;-2.40;570.1;13.60;75851;2838.089;-1800.709;1;61;-70;-79.0;44.1;44.5;16;15.8;27.7;0.0;
19/02/2025 14:30:46;100;0;67.61;-4;-20.03;-3.74;572.2;13.60;75851;2838.090;-1800.707;1;61;-70;-79.0;44.1;44.5;16;15.8;27.7;0.0;
19/02/2025 14:31:06;100;0;65.12;-4;-20.05;-3.74;574.5;13.60;75841;2838.091;-1800.703;1;61;-70;-77.4;44.1;44.5;13;12.6;27.7;0.0;
19/02/2025 14:31:26;100;0;64.34;-4;-20.12;-5.27;576.8;13.60;75839;2838.092;-1800.700;1;61;-70;-79.0;44.1;44.5;13;12.6;27.7;0.0;
19/02/2025 14:31:46;100;0;64.20;-4;-20.49;-5.19;579.2;13.50;75826;2838.093;-1800.697;1;61;-70;-79.0;44.1;44.5;13;12.6;27.7;0.0;
19/02/2025 14:32:06;100;0;63.77;-4;-19.90;-5.26;581.8;13.50;75820;2838.095;-1800.693;1;61;-70;-79.0;44.1;44.5;13;12.6;27.7;0.0;
19/02/2025 14:32:26;100;0;62.02;-4;-20.22;-5.07;584.2;13.50;75812;2838.096;-1800.690;1;61;-70;-79.0;44.1;44.5;13;12.6;27.7;0.0;
19/02/2025 14:32:46;100;0;61.81;-4;-19.91;-5.23;586.7;13.50;75808;2838.097;-1800.687;1;61;-70;-79.0;44.1;44.5;13;12.6;27.7;0.0;
19/02/2025 14:33:06;100;0;59.58;-4;-19.71;-5.12;589.2;13.40;75809;2838.099;-1800.684;1;61;-70;-79.0;44.1;44.5;13;12.6;27.7;0.0;
19/02/2025 14:33:26;100;0;59.63;-4;-19.88;-5.27;591.8;13.40;75804;2838.101;-1800.680;1;61;-70;-77.4;44.1;44.5;13;12.6;27.7;0.0;
19/02/2025 14:33:46;100;0;59.46;-4;-19.81;-5.02;594.5;13.40;75795;2838.102;-1800.677;1;61;-70;-79.0;44.1;44.5;13;12.6;27.7;0.0;
19/02/2025 14:34:06;100;0;57.89;-4;-19.39;-5.38;597.0;13.40;75798;2838.104;-1800.673;1;61;-70;-79.0;44.1;44.5;13;12.6;27.7;0.0;
19/02/2025 14:34:26;100;0;54.49;-4;-20.60;-5.15;599.6;13.30;75786;2838.106;-1800.670;1;61;-70;-79.0;44.1;44.5;13;12.6;27.7;0.0;
19/02/2025 14:34:46;100;0;56.30;-4;-19.71;-5.24;602.3;13.30;75783;2838.107;-1800.667;1;61;-70;-77.4;44.1;44.5;13;12.6;27.7;0.0;
19/02/2025 14:35:06;100;0;55.88;-4;-19.79;-5.30;604.8;13.30;75785;2838.109;-1800.664;1;61;-70;-79.0;44.1;44.5;13;12.6;27.7;0.0;
19/02/2025 14:35:26;100;0;54.65;-4;-20.39;-5.32;607.5;13.30;75774;2838.111;-1800.660;1;61;-70;-79.0;44.1;44.5;13;12.6;27.7;0.0;
19/02/2025 14:35:46;100;0;55.08;-4;-20.86;-5.54;610.2;13.30;75772;2838.113;-1800.657;1;61;-70;-79.0;44.1;44.5;13;12.6;27.7;0.0;
19/02/2025 14:36:07;100;0;51.77;-4;-19.51;-5.21;612.9;13.20;75755;2838.115;-1800.654;1;61;-70;-79.0;44.1;44.5;11;10.8;27.7;0.0;
19/02/2025 14:36:27;100;0;50.52;-4;-19.75;-6.11;615.5;13.20;75769;2838.117;-1800.651;1;61;-70;-77.4;44.1;44.5;11;11.3;27.7;0.0;
19/02/2025 14:36:47;100;0;50.79;-4;-19.97;-6.07;618.1;13.20;75754;2838.119;-1800.648;1;61;-70;-77.4;44.1;44.5;11;10.8;27.7;0.0;
19/02/2025 14:37:07;100;0;51.27;-4;-19.94;-5.99;620.7;13.20;75763;2838.121;-1800.645;1;61;-70;-79.0;44.1;44.5;11;10.8;27.7;0.0;
19/02/2025 14:37:27;100;0;51.27;-4;-19.97;-6.00;623.4;13.20;75761;2838.123;-1800.642;1;61;-70;-79.0;44.1;44.5;11;10.8;27.7;0.0;
19/02/2025 14:37:47;100;0;49.64;-4;-19.94;-6.18;626.0;13.10;75751;2838.125;-1800.639;1;61;-70;-79.0;44.1;44.6;11;10.8;27.7;0.0;
19/02/2025 14:38:07;100;0;49.56;-4;-19.59;-6.04;628.7;13.10;75742;2838.127;-1800.635;1;61;-70;-79.0;44.1;44.5;11;10.8;27.7;0.0;
19/02/2025 14:38:27;100;0;48.91;-4;-19.82;-6.06;631.3;13.10;75743;2838.129;-1800.633;1;61;-70;-77.4;44.1;44.5;9;9.0;27.7;0.0;
19/02/2025 14:38:47;100;0;49.01;-4;-19.59;-7.18;633.9;13.10;75739;2838.132;-1800.630;1;61;-70;-77.4;44.1;44.5;9;9.0;27.7;0.0;
19/02/2025 14:39:07;100;0;48.01;-4;-19.49;-7.14;636.6;13.10;75736;2838.134;-1800.626;1;61;-70;-79.0;44.1;44.5;9;9.0;27.7;0.0;
19/02/2025 14:39:27;100;0;48.53;-4;-19.35;-7.15;639.2;13.00;75738;2838.136;-1800.623;1;61;-70;-79.0;44.1;44.5;9;9.0;27.7;0.0;
19/02/2025 14:39:47;100;0;50.18;-4;-19.35;-7.16;641.9;13.00;75725;2838.138;-1800.620;1;61;-70;-79.0;44.1;44.5;9;9.0;27.7;0.0;
19/02/2025 14:40:07;100;0;52.43;-4;-19.26;-7.17;644.4;13.00;75736;2838.140;-1800.617;1;61;-70;-77.4;44.1;44.5;11;10.8;27.7;0.0;
19/02/2025 14:40:27;100;0;53.61;-4;-19.35;-5.87;646.9;13.00;75711;2838.142;-1800.614;1;61;-70;-77.4;44.1;44.5;11;11.3;27.7;0.0;
19/02/2025 14:40:47;100;0;52.81;-4;-19.53;-5.88;649.4;13.00;75714;2838.144;-1800.611;1;61;-70;-79.0;44.1;44.5;11;11.3;27.7;0.0;
19/02/2025 14:41:07;100;0;52.58;-4;-19.51;-5.89;651.9;13.00;75715;2838.146;-1800.608;1;61;-70;-77.4;44.1;44.5;11;11.3;27.7;0.0;
19/02/2025 14:41:27;100;0;52.38;-4;-19.51;-5.87;654.4;12.90;75711;2838.148;-1800.605;1;61;-70;-77.4;44.1;44.6;11;11.7;27.7;0.0;
19/02/2025 14:41:47;100;0;52.24;-4;-19.42;-5.85;656.8;12.90;75701;2838.150;-1800.602;1;61;-70;-79.0;44.1;44.5;11;11.7;27.7;0.0;
19/02/2025 14:42:07;100;0;52.93;-4;-19.50;-5.78;659.1;12.90;75704;2838.151;-1800.599;1;61;-70;-79.0;44.1;44.5;11;11.3;27.7;0.0;
19/02/2025 14:42:27;100;0;53.23;-4;-19.30;-5.85;661.5;12.90;75700;2838.153;-1800.596;1;61;-70;-79.0;44.1;44.5;11;11.3;27.7;0.0;
19/02/2025 14:42:47;100;0;54.41;-4;-19.71;-5.82;663.7;12.90;75697;2838.155;-1800.593;1;61;-70;-77.4;44.1;44.5;11;11.3;27.7;0.0;
19/02/2025 14:43:07;100;0;54.98;-4;-19.48;-5.88;666.0;12.80;75676;2838.156;-1800.590;1;61;-70;-79.0;44.1;44.5;11;11.3;27.7;0.0;
19/02/2025 14:43:27;100;0;55.27;-4;-19.28;-5.87;668.3;12.80;75683;2838.158;-1800.587;1;61;-70;-75.8;44.1;44.5;11;11.3;27.7;0.0;
19/02/2025 14:43:47;100;0;55.48;-4;-19.12;-5.85;670.5;12.80;75681;2838.159;-1800.585;1;61;-70;-79.0;44.1;44.5;11;11.7;27.7;0.0;
19/02/2025 14:44:07;100;0;55.26;-4;-19.39;-5.91;672.6;12.80;75682;2838.161;-1800.582;1;61;-70;-79.0;44.1;44.5;11;11.7;27.7;0.0;
19/02/2025 14:44:27;100;0;53.21;-4;-19.42;-5.90;674.7;12.70;75661;2838.163;-1800.579;1;61;-70;-79.0;44.1;44.5;11;11.7;27.7;0.0;
19/02/2025 14:44:47;100;0;54.05;-4;-19.45;-5.88;676.8;12.70;75675;2838.164;-1800.576;1;61;-70;-79.0;44.1;44.5;11;11.7;27.7;0.0;
19/02/2025 14:45:07;100;0;54.56;-4;-19.54;-5.78;679.0;12.70;75660;2838.166;-1800.574;1;61;-70;-77.4;44.1;44.5;11;11.3;27.7;0.0;
19/02/2025 14:45:27;100;0;54.03;-4;-19.18;-5.98;681.3;12.70;75651;2838.167;-1800.571;1;61;-70;-82.3;44.1;44.5;11;11.3;27.7;0.0;
19/02/2025 14:45:47;100;0;53.76;-4;-19.06;-5.93;683.4;12.70;75653;2838.169;-1800.568;1;62;-70;-77.4;44.1;44.5;11;11.3;27.7;0.0;
19/02/2025 14:46:07;100;0;51.14;-4;-18.45;-5.97;685.4;12.70;75649;2838.171;-1800.566;1;62;-70;-82.3;44.5;44.5;11;11.7;27.7;0.0;
19/02/2025 14:46:27;100;0;51.25;-4;-18.75;-6.03;687.3;12.70;75647;2838.172;-1800.563;1;62;-90;-90.3;44.9;45.1;11;11.7;27.7;0.0;
19/02/2025 14:46:47;100;0;50.92;-4;-20.48;-5.88;689.3;12.60;75665;2838.174;-1800.561;1;62;-90;-91.9;44.9;45.2;11;11.3;27.7;0.0;
19/02/2025 14:47:07;100;0;50.81;-4;-20.56;-5.80;691.6;12.60;75660;2838.175;-1800.558;1;62;-90;-93.5;44.9;45.2;9;9.0;27.7;0.0;
19/02/2025 14:47:27;100;0;52.00;-4;-20.55;-7.05;694.0;12.60;75665;2838.177;-1800.555;1;62;-90;-93.5;44.9;45.2;9;8.6;27.7;0.0;
19/02/2025 14:47:47;100;0;53.75;-4;-20.71;-7.09;696.4;12.60;75659;2838.179;-1800.553;1;62;-90;-95.2;44.9;45.4;11;10.8;27.7;0.0;
19/02/2025 14:48:07;100;0;55.34;-4;-20.89;-5.89;698.8;12.50;75648;2838.180;-1800.550;1;62;-90;-93.5;44.9;45.2;11;11.3;27.7;0.0;
19/02/2025 14:48:27;100;0;56.33;-4;-20.92;-5.96;701.2;12.50;75648;2838.182;-1800.547;1;62;-90;-96.8;44.9;45.2;11;11.3;27.7;0.0;
19/02/2025 14:48:47;100;0;57.43;-4;-20.76;-5.86;703.6;12.50;75644;2838.183;-1800.544;1;62;-90;-95.2;44.9;45.2;11;11.3;27.7;0.0;
19/02/2025 14:49:07;100;0;59.39;-4;-20.45;-5.83;706.0;12.50;75635;2838.185;-1800.541;1;62;-90;-95.2;44.9;45.2;11;11.3;27.7;0.0;
19/02/2025 14:49:27;100;0;59.45;-4;-20.66;-5.89;708.5;12.50;75635;2838.186;-1800.538;1;62;-90;-95.2;44.9;45.2;11;11.3;27.7;0.0;
19/02/2025 14:49:47;100;0;58.68;-4;-20.68;-5.85;710.8;12.40;75615;2838.188;-1800.535;1;62;-90;-96.8;44.9;45.2;11;11.3;27.7;0.0;
19/02/2025 14:50:07;100;0;59.67;-4;-21.17;-5.81;713.3;12.40;75615;2838.189;-1800.532;1;62;-90;-95.2;44.9;45.2;11;11.3;27.7;0.0;
19/02/2025 14:50:27;100;0;61.81;-4;-20.76;-5.87;715.7;12.40;75608;2838.191;-1800.528;1;62;-90;-95.2;44.9;45.2;11;11.3;27.7;0.0;
19/02/2025 14:50:47;100;0;61.75;-4;-20.67;-5.85;718.3;12.40;75593;2838.192;-1800.525;1;62;-90;-95.2;44.9;45.4;11;11.3;27.7;0.0;
19/02/2025 14:51:07;100;0;60.91;-4;-20.66;-5.91;720.7;12.30;75582;2838.193;-1800.522;1;62;-90;-93.5;44.9;45.2;11;11.3;27.7;0.0;
19/02/2025 14:51:27;100;0;61.31;-4;-20.84;-5.77;723.2;12.30;75595;2838.195;-1800.519;1;62;-90;-93.5;44.9;45.2;11;11.3;27.7;0.0;
19/02/2025 14:51:47;100;0;59.42;-4;-20.94;-5.87;725.8;12.30;75587;2838.196;-1800.516;1;62;-90;-93.5;44.9;45.2;11;11.3;27.7;0.0;
19/02/2025 14:52:07;100;0;56.32;-4;-20.85;-5.88;728.5;12.30;75583;2838.198;-1800.512;1;62;-90;-95.2;44.9;45.2;11;11.3;27.7;0.0;
19/02/2025 14:52:27;100;0;55.33;-4;-20.73;-5.88;731.1;12.30;75578;2838.200;-1800.509;1;62;-90;-95.2;44.9;45.2;11;11.3;27.7;0.0;
19/02/2025 14:52:47;100;0;55.21;-4;-20.70;-5.87;733.8;12.20;75576;2838.202;-1800.506;1;62;-90;-95.2;44.9;45.2;11;11.3;27.7;0.0;
19/02/2025 14:53:07;100;0;54.06;-4;-21.06;-5.82;736.5;12.20;75556;2838.204;-1800.503;1;62;-90;-95.2;44.9;45.2;11;11.3;27.7;0.0;
19/02/2025 14:53:27;100;0;54.29;-4;-21.25;-5.67;739.3;12.20;75556;2838.205;-1800.499;1;62;-90;-95.2;44.9;45.2;11;11.3;27.7;0.0;
19/02/2025 14:53:47;100;0;53.23;-4;-20.82;-5.83;742.1;12.20;75552;2838.207;-1800.496;1;62;-90;-95.2;44.9;45.2;11;11.3;27.7;0.0;
19/02/2025 14:54:07;100;0;52.55;-4;-20.57;-5.90;744.8;12.20;75544;2838.209;-1800.493;1;62;-90;-95.2;44.9;45.2;11;11.3;27.7;0.0;
19/02/2025 14:54:27;100;0;55.03;-4;-20.71;-5.82;747.5;12.10;75544;2838.211;-1800.490;1;62;-90;-95.2;44.9;45.2;11;11.3;27.7;0.0;
19/02/2025 14:54:47;100;0;55.13;-4;-20.80;-5.86;750.1;12.10;75541;2838.213;-1800.487;1;62;-90;-95.2;44.9;45.2;11;11.3;27.7;0.0;
19/02/2025 14:55:07;100;0;58.14;-4;-20.05;-5.87;752.7;12.10;75532;2838.215;-1800.483;1;62;-90;-95.2;44.9;45.4;11;11.3;27.7;0.0;
19/02/2025 14:55:27;100;0;60.07;-4;-20.49;-5.86;755.3;12.00;75533;2838.216;-1800.480;1;62;-90;-93.5;44.9;45.2;11;11.3;27.7;0.0;
19/02/2025 14:55:47;100;0;61.42;-4;-20.67;-5.90;757.8;12.00;75520;2838.218;-1800.477;1;62;-90;-95.2;44.9;45.2;11;11.3;27.7;0.0;
19/02/2025 14:56:07;100;0;63.37;-4;-20.62;-5.95;760.4;12.00;75512;2838.219;-1800.473;1;62;-90;-95.2;44.9;45.4;11;11.3;27.7;0.0;
19/02/2025 14:56:27;100;0;64.37;-4;-20.96;-5.82;763.1;12.00;75508;2838.220;-1800.470;1;62;-90;-95.2;44.9;45.4;11;11.3;27.7;0.0;
19/02/2025 14:56:47;100;0;63.18;-4;-20.83;-5.83;765.9;12.00;75507;2838.222;-1800.466;1;62;-90;-95.2;44.9;45.2;11;11.3;27.7;0.0;
19/02/2025 14:57:07;100;0;62.68;-4;-20.57;-5.86;768.7;11.90;75496;2838.223;-1800.463;1;62;-90;-95.2;44.9;45.2;11;11.3;27.7;0.0;
19/02/2025 14:57:27;100;0;63.22;-4;-20.59;-5.87;771.5;11.90;75494;2838.225;-1800.459;1;62;-90;-95.2;44.9;45.2;11;11.3;27.7;0.0;
19/02/2025 14:57:47;100;0;62.89;-4;-20.65;-5.80;774.3;11.90;75484;2838.226;-1800.455;1;62;-90;-95.2;44.9;45.4;11;11.3;27.7;0.0;
19/02/2025 14:58:07;100;0;64.13;-4;-20.36;-5.91;777.0;11.90;75484;2838.228;-1800.452;1;62;-90;-95.2;44.9;45.2;11;11.3;27.7;0.0;
19/02/2025 14:58:27;100;0;64.48;-4;-20.34;-5.84;779.6;11.90;75475;2838.229;-1800.448;1;62;-90;-95.2;44.9;45.2;11;11.3;27.7;0.0;
19/02/2025 14:58:47;100;0;64.50;-4;-20.25;-5.93;782.3;11.80;75468;2838.230;-1800.444;1;62;-90;-93.5;44.9;45.2;11;11.3;27.7;0.0;
19/02/2025 14:59:07;100;0;65.61;-4;-20.34;-5.86;784.9;11.80;75468;2838.232;-1800.441;1;62;-90;-93.5;44.9;45.2;11;11.3;27.7;0.0;
19/02/2025 14:59:27;100;0;66.35;-4;-20.40;-5.92;787.4;11.80;75456;2838.233;-1800.437;1;62;-90;-95.2;44.9;45.2;11;11.3;27.7;0.0;
19/02/2025 14:59:47;100;0;65.85;-4;-20.23;-5.88;790.0;11.80;75449;2838.234;-1800.434;1;62;-90;-95.2;44.9;45.2;11;11.3;27.7;0.0;
19/02/2025 15:00:07;100;0;66.61;-4;-20.44;-5.89;792.5;11.70;75445;2838.235;-1800.430;1;62;-90;-93.5;44.9;45.2;13;13.1;27.7;0.0;
19/02/2025 15:00:27;100;0;67.73;-4;-20.48;-4.73;795.1;11.70;75456;2838.237;-1800.427;1;62;-90;-95.2;44.9;45.4;13;13.5;27.7;0.0;
19/02/2025 15:00:47;100;0;68.15;-4;-20.70;-4.70;797.6;11.70;75436;2838.238;-1800.423;1;61;-90;-93.5;44.9;45.2;13;13.5;27.7;0.0;
19/02/2025 15:01:07;100;0;69.26;-4;-21.01;-4.75;800.1;11.70;75426;2838.239;-1800.420;1;61;-90;-93.5;44.9;45.4;15;14.9;27.7;0.0;
19/02/2025 15:01:27;100;0;69.43;-4;-20.99;-3.96;802.7;11.70;75424;2838.240;-1800.416;1;61;-90;-95.2;44.9;45.4;15;15.3;27.7;0.0;
19/02/2025 15:01:47;100;0;68.69;-4;-20.88;-3.88;805.3;11.60;75412;2838.241;-1800.413;1;61;-90;-95.2;44.9;45.4;15;15.3;27.7;0.0;
19/02/2025 15:02:07;100;0;67.30;-4;-20.74;-3.66;808.1;11.60;75415;2838.242;-1800.409;1;61;-90;-93.5;44.9;45.2;15;15.3;27.7;0.0;
19/02/2025 15:02:27;100;0;65.36;-4;-20.65;-3.87;810.7;11.60;75417;2838.243;-1800.406;1;61;-90;-95.2;44.9;45.2;13;13.1;27.7;0.0;
19/02/2025 15:02:47;100;0;64.08;-4;-20.89;-5.15;813.4;11.60;75404;2838.245;-1800.402;1;61;-90;-95.2;44.9;45.4;13;13.1;27.7;0.0;
19/02/2025 15:03:07;100;0;63.18;-4;-21.03;-5.14;816.2;11.50;75397;2838.246;-1800.399;1;61;-90;-95.2;44.9;45.2;13;13.1;27.7;0.0;
19/02/2025 15:03:27;100;0;59.66;-4;-21.06;-5.05;819.1;11.50;75396;2838.248;-1800.395;1;61;-90;-95.2;44.9;45.2;13;12.6;27.7;0.0;
19/02/2025 15:03:47;100;0;56.94;-4;-20.34;-5.22;821.9;11.50;75399;2838.250;-1800.391;1;61;-90;-95.2;44.9;45.4;13;13.1;27.7;0.0;
19/02/2025 15:04:07;100;0;55.62;-4;-20.40;-5.20;824.6;11.50;75389;2838.252;-1800.388;1;61;-90;-95.2;44.9;45.2;13;12.6;27.7;0.0;
19/02/2025 15:04:27;100;0;53.70;-4;-20.24;-5.17;827.2;11.50;75385;2838.253;-1800.385;1;61;-90;-95.2;44.9;45.2;11;10.8;27.7;0.0;
19/02/2025 15:04:47;100;0;55.25;-4;-20.07;-6.14;829.8;11.40;75378;2838.255;-1800.382;1;61;-90;-95.2;44.9;45.2;11;10.8;27.7;0.0;
19/02/2025 15:05:07;100;0;56.72;-4;-20.10;-6.18;832.3;11.40;75368;2838.257;-1800.379;1;61;-90;-95.2;44.9;45.4;11;10.8;27.7;0.0;
19/02/2025 15:05:27;100;0;57.02;-4;-20.30;-6.16;834.8;11.40;75363;2838.259;-1800.375;1;61;-90;-95.2;44.9;45.4;11;10.8;27.7;0.0;
19/02/2025 15:05:47;100;0;57.55;-4;-20.39;-6.19;837.4;11.40;75354;2838.260;-1800.372;1;61;-90;-95.2;44.9;45.2;11;10.8;27.7;0.0;
19/02/2025 15:06:07;100;0;57.34;-4;-20.19;-6.21;839.9;11.30;75346;2838.262;-1800.369;1;61;-90;-93.5;44.9;45.2;11;10.8;27.7;0.0;
19/02/2025 15:06:27;100;0;58.18;-4;-20.30;-6.15;842.6;11.30;75355;2838.264;-1800.365;1;61;-90;-95.2;44.9;45.2;11;10.8;27.7;0.0;
19/02/2025 15:06:47;100;0;59.66;-4;-20.05;-6.12;845.1;11.30;75343;2838.265;-1800.362;1;61;-90;-93.5;44.9;45.2;11;10.8;27.7;0.0;
19/02/2025 15:07:07;100;0;60.84;-4;-20.25;-6.15;847.6;11.30;75336;2838.267;-1800.359;1;61;-90;-93.5;44.9;45.4;11;10.8;27.7;0.0;
19/02/2025 15:07:27;100;0;63.00;-4;-20.04;-6.17;850.0;11.30;75331;2838.268;-1800.356;1;61;-90;-95.2;44.9;45.2;11;10.8;27.7;0.0;
19/02/2025 15:07:47;100;0;63.14;-4;-20.09;-6.15;852.4;11.20;75328;2838.269;-1800.352;1;61;-90;-95.2;44.9;45.4;11;10.8;27.7;0.0;
19/02/2025 15:08:07;100;0;62.31;-4;-20.27;-6.23;854.8;11.20;75328;2838.271;-1800.349;1;61;-90;-93.5;44.9;45.4;11;10.8;27.7;0.0;
19/02/2025 15:08:27;100;0;62.93;-4;-20.08;-6.45;857.2;11.20;75307;2838.272;-1800.346;1;61;-90;-93.5;44.9;45.2;11;10.8;27.7;0.0;
19/02/2025 15:08:47;100;0;65.45;-4;-19.76;-6.24;859.6;11.20;75305;2838.273;-1800.343;1;61;-90;-95.2;44.9;45.2;13;13.5;27.7;0.0;
19/02/2025 15:09:07;100;0;67.13;-4;-20.21;-4.74;861.9;11.10;75299;2838.274;-1800.339;1;61;-90;-96.8;44.9;45.2;13;13.5;27.7;0.0;
19/02/2025 15:09:27;100;0;65.86;-4;-20.44;-4.86;864.3;11.10;75299;2838.275;-1800.336;1;61;-90;-93.5;44.9;45.2;13;13.5;27.7;0.0;
19/02/2025 15:09:47;100;0;63.73;-4;-20.24;-4.82;866.8;11.10;75287;2838.277;-1800.333;1;61;-90;-95.2;44.9;45.4;13;13.5;27.7;0.0;
19/02/2025 15:10:07;100;0;65.25;-4;-19.75;-4.78;869.3;11.10;75288;2838.278;-1800.329;1;61;-90;-95.2;44.9;45.2;13;13.5;27.7;0.0;
19/02/2025 15:10:27;100;0;65.67;-4;-19.92;-4.70;871.7;11.00;75278;2838.279;-1800.326;1;61;-90;-95.2;44.9;45.4;13;13.5;27.7;0.0;
19/02/2025 15:10:47;100;0;66.43;-4;-19.90;-4.82;874.0;11.00;75268;2838.280;-1800.323;1;61;-90;-93.5;44.9;45.4;13;13.5;27.7;0.0;
19/02/2025 15:11:07;100;0;64.97;-4;-19.68;-4.76;876.2;11.00;75261;2838.281;-1800.320;1;61;-90;-95.2;44.9;45.4;13;13.5;27.7;0.0;
19/02/2025 15:11:27;100;0;64.33;-4;-19.82;-4.83;878.5;11.00;75259;2838.283;-1800.317;1;61;-90;-93.5;44.9;45.2;13;13.5;27.7;0.0;
19/02/2025 15:11:48;100;0;63.90;-4;-20.20;-4.80;880.7;11.00;75255;2838.284;-1800.314;1;61;-90;-93.5;44.9;45.4;13;13.5;27.7;0.0;
19/02/2025 15:12:08;100;0;62.01;-4;-20.02;-4.77;882.9;10.90;75256;2838.285;-1800.311;1;61;-90;-93.5;44.9;45.2;13;13.5;27.7;0.0;
19/02/2025 15:12:28;100;0;60.16;-4;-19.82;-4.81;885.1;10.90;75242;2838.286;-1800.308;1;61;-90;-95.2;44.9;45.4;13;13.5;27.7;0.0;
19/02/2025 15:12:48;100;0;59.33;-4;-19.82;-4.85;887.2;10.90;75245;2838.288;-1800.305;1;61;-90;-95.2;44.9;45.4;13;13.5;27.7;0.0;
19/02/2025 15:13:08;100;0;59.03;-4;-20.16;-4.80;889.3;10.90;75241;2838.289;-1800.302;1;61;-90;-95.2;44.9;45.2;13;13.5;27.7;0.0;
19/02/2025 15:13:28;100;0;60.07;-4;-20.08;-4.70;891.5;10.90;75244;2838.290;-1800.299;1;61;-90;-95.2;44.9;45.2;13;13.5;27.7;0.0;
19/02/2025 15:13:48;100;0;61.64;-4;-20.05;-4.81;893.6;10.80;75219;2838.291;-1800.297;1;61;-90;-95.2;44.9;45.2;13;13.5;27.7;0.0;
19/02/2025 15:14:08;100;0;61.65;-4;-19.96;-4.55;895.8;10.80;75217;2838.293;-1800.294;1;61;-90;-95.2;44.9;45.4;13;13.5;27.7;0.0;
19/02/2025 15:14:28;100;0;64.01;-4;-20.88;-4.94;897.9;10.80;75210;2838.294;-1800.291;1;61;-90;-95.2;44.9;45.2;13;13.5;27.7;0.0;
19/02/2025 15:14:48;100;0;62.32;-4;-19.33;-5.00;900.1;10.80;75223;2838.295;-1800.288;1;61;-90;-95.2;44.9;45.2;13;13.5;27.7;0.0;
19/02/2025 15:15:08;100;0;60.00;-4;-21.00;-4.97;902.2;10.70;75212;2838.296;-1800.285;1;61;-90;-95.2;44.9;45.4;13;13.5;27.7;0.0;
19/02/2025 15:15:28;100;0;59.36;-4;-21.04;-4.72;904.6;10.70;75205;2838.298;-1800.282;1;61;-90;-95.2;44.9;45.2;13;13.5;27.7;0.0;
19/02/2025 15:15:48;100;0;58.89;-4;-20.38;-4.80;907.2;10.70;75200;2838.299;-1800.279;1;61;-90;-95.2;44.9;45.2;13;13.5;27.7;0.0;
19/02/2025 15:16:08;100;0;57.07;-4;-19.80;-4.82;909.6;10.70;75196;2838.301;-1800.276;1;61;-90;-95.2;44.9;45.4;13;13.5;27.7;0.0;
19/02/2025 15:16:28;100;0;55.31;-4;-19.87;-4.81;911.9;10.60;75192;2838.302;-1800.273;1;61;-90;-95.2;44.9;45.4;13;13.5;27.7;0.0;
19/02/2025 15:16:48;100;0;53.08;-4;-19.82;-4.67;914.3;10.60;75187;2838.304;-1800.270;1;61;-90;-95.2;44.9;45.2;13;13.5;27.7;0.0;
19/02/2025 15:17:08;100;0;52.32;-4;-19.79;-4.91;916.6;10.60;75182;2838.306;-1800.267;1;61;-90;-95.2;44.9;45.4;11;10.8;27.7;0.0;
19/02/2025 15:17:28;100;0;51.10;-4;-19.59;-6.46;918.8;10.60;75184;2838.308;-1800.264;1;61;-90;-95.2;44.9;45.4;11;10.8;27.7;0.0;
19/02/2025 15:17:48;100;0;49.91;-4;-20.01;-6.27;920.9;10.60;75179;2838.309;-1800.262;1;61;-90;-93.5;44.9;45.2;11;10.4;27.7;0.0;
19/02/2025 15:18:08;100;0;51.45;-4;-20.27;-6.38;923.0;10.60;75180;2838.311;-1800.260;1;61;-90;-93.5;44.9;45.4;11;10.4;27.7;0.0;
19/02/2025 15:18:28;100;0;49.85;-4;-19.18;-6.23;925.1;10.50;75172;2838.313;-1800.257;1;61;-90;-95.2;44.9;45.2;11;10.8;27.7;0.0;
19/02/2025 15:18:48;100;0;51.75;-4;-19.89;-6.30;927.1;10.50;75163;2838.314;-1800.255;1;61;-110;-109.7;44.9;45.4;11;10.8;27.7;0.0;
19/02/2025 15:19:08;100;0;53.46;-4;-19.24;-6.33;929.1;10.50;75193;2838.315;-1800.252;1;61;-110;-111.3;44.9;45.4;11;10.4;27.7;0.0;
19/02/2025 15:19:28;100;0;54.63;-4;-19.44;-6.32;931.1;10.50;75190;2838.317;-1800.249;1;61;-110;-109.7;44.9;45.2;11;10.8;27.7;0.0;
19/02/2025 15:19:48;100;0;55.64;-4;-19.69;-6.27;933.2;10.40;75192;2838.318;-1800.247;1;61;-110;-112.9;44.9;45.2;11;10.8;27.7;0.0;
19/02/2025 15:20:08;100;0;58.91;-4;-19.09;-6.08;935.5;10.40;75188;2838.320;-1800.244;1;61;-110;-111.3;44.9;45.2;11;10.8;27.7;0.0;
19/02/2025 15:20:28;100;0;61.85;-4;-19.57;-6.34;937.8;10.40;75182;2838.321;-1800.241;1;61;-110;-112.9;44.9;45.4;11;10.8;27.7;0.0;
19/02/2025 15:20:48;100;0;63.34;-4;-19.69;-6.23;940.0;10.40;75178;2838.322;-1800.238;1;61;-110;-114.5;44.9;45.4;11;10.4;27.7;0.0;
19/02/2025 15:21:08;100;0;66.89;-4;-19.76;-6.35;942.3;10.40;75176;2838.323;-1800.234;1;61;-110;-112.9;44.9;45.2;14;14.0;27.7;0.0;
19/02/2025 15:21:28;100;0;66.47;-4;-20.03;-4.26;944.8;10.40;75171;2838.325;-1800.231;1;61;-110;-114.5;44.9;45.2;14;14.4;27.7;0.0;
19/02/2025 15:21:48;100;0;67.04;-4;-19.67;-4.34;947.0;10.30;75170;2838.326;-1800.228;1;61;-110;-112.9;44.9;45.2;14;14.4;27.7;0.0;
19/02/2025 15:22:08;100;0;66.84;-4;-19.89;-4.39;949.5;10.30;75168;2838.327;-1800.225;1;61;-110;-112.9;44.9;45.2;14;14.4;27.7;0.0;
19/02/2025 15:22:28;100;0;67.13;-4;-19.85;-4.41;951.9;10.30;75171;2838.328;-1800.221;1;61;-110;-112.9;44.9;45.4;14;14.4;27.7;0.0;
19/02/2025 15:22:48;100;0;66.63;-4;-19.85;-4.36;954.4;10.30;75156;2838.329;-1800.218;1;61;-110;-112.9;44.9;45.2;14;14.4;27.7;0.0;
19/02/2025 15:23:08;100;0;65.48;-4;-19.99;-4.34;957.0;10.30;75164;2838.330;-1800.214;1;61;-110;-112.9;44.9;45.2;14;14.4;27.7;0.0;
19/02/2025 15:23:28;100;0;65.83;-4;-19.87;-4.36;959.7;10.20;75161;2838.332;-1800.210;1;61;-110;-114.5;44.9;45.2;14;14.4;27.7;0.0;
19/02/2025 15:23:48;100;0;66.22;-4;-19.65;-4.33;962.4;10.20;75149;2838.333;-1800.207;1;61;-110;-111.3;44.9;45.4;14;14.4;27.7;0.0;
19/02/2025 15:24:08;100;0;66.58;-4;-20.01;-4.48;965.1;10.20;75153;2838.334;-1800.203;1;61;-110;-114.5;44.9;45.2;14;14.4;27.7;0.0;
19/02/2025 15:24:28;100;0;66.38;-4;-19.49;-4.32;967.9;10.20;75151;2838.336;-1800.199;1;61;-110;-112.9;44.9;45.4;14;14.4;27.7;0.0;
19/02/2025 15:24:48;100;0;66.48;-4;-19.67;-4.41;970.8;10.20;75144;2838.337;-1800.195;1;61;-110;-112.9;44.9;45.2;14;14.4;27.7;42.0;
19/02/2025 15:25:08;100;0;65.81;-4;-19.73;-4.32;973.6;10.10;75149;2838.339;-1800.191;1;61;-110;-112.9;44.9;45.4;14;14.4;27.7;38.4;
19/02/2025 15:25:28;100;0;65.99;-4;-19.77;-4.41;976.2;10.10;75135;2838.340;-1800.187;1;61;-110;-112.9;44.9;45.4;14;14.4;27.7;34.8;
19/02/2025 15:25:48;100;0;65.79;-4;-19.65;-4.42;979.1;10.10;75139;2838.341;-1800.184;1;61;-110;-112.9;44.9;45.4;14;14.4;27.7;31.2;
19/02/2025 15:25:51;118;0;65.60;-4;-19.72;-4.37;979.5;10.10;75144;2838.341;-1800.183;1;61;310;-111.3;21.9;21.9;8;7.7;27.7;30.5;
19/02/2025 15:26:01;118;0;82.34;-4;-5.17;-8.55;980.5;10.10;75113;2838.342;-1800.182;1;61;310;16.1;21.9;21.6;8;7.7;26.5;-1.0;
19/02/2025 15:26:11;118;0;70.65;-4;21.95;-8.22;980.6;10.10;74861;2838.342;-1800.181;1;61;310;140.3;21.9;22.1;8;7.7;26.4;-1.0;
19/02/2025 15:26:21;118;0;67.41;-4;30.17;-8.92;979.8;10.10;74599;2838.342;-1800.181;1;61;310;264.5;21.9;22.2;8;7.7;26.4;-1.0;
19/02/2025 15:26:31;118;0;67.21;-4;29.21;-8.44;978.7;10.10;74352;2838.342;-1800.179;1;61;310;312.9;21.9;22.2;8;7.7;26.5;-1.0;
19/02/2025 15:26:41;118;0;63.06;-4;27.69;-8.10;977.3;10.10;74275;2838.343;-1800.178;1;61;310;312.9;21.9;22.2;8;7.7;27.7;-1.0;
19/02/2025 15:27:01;117;0;56.08;-4;26.10;-8.09;974.0;10.10;74278;2838.344;-1800.175;1;61;310;312.9;21.9;22.2;8;7.7;27.7;-1.0;
19/02/2025 15:27:21;117;0;47.70;-4;25.94;-8.12;970.4;10.20;74281;2838.347;-1800.171;1;61;310;312.9;23.7;23.7;33;32.9;27.7;-1.0;
19/02/2025 15:27:41;117;0;46.92;-4;25.13;5.45;967.1;10.20;74275;2838.349;-1800.168;1;61;310;312.9;25.2;25.3;33;33.4;27.7;-1.0;
19/02/2025 15:28:01;117;0;48.68;-4;22.30;5.38;964.0;10.20;74277;2838.352;-1800.165;1;61;310;312.9;25.9;25.9;33;33.4;27.7;-1.0;
19/02/2025 15:28:21;117;0;50.05;-4;20.46;5.39;961.2;10.20;74272;2838.354;-1800.162;1;61;310;312.9;25.9;26.1;31;31.1;27.7;-1.0;
19/02/2025 15:28:41;117;0;50.75;-4;20.10;4.07;958.8;10.20;74265;2838.356;-1800.159;1;61;310;312.9;25.9;25.9;31;30.7;27.7;-1.0;
19/02/2025 15:29:01;117;0;50.22;-4;19.62;4.09;956.3;10.10;74256;2838.358;-1800.156;1;61;310;311.3;25.9;26.1;31;30.7;27.7;-1.0;
19/02/2025 15:29:21;117;0;50.41;-4;19.73;3.99;953.9;10.10;74254;2838.359;-1800.153;1;61;310;311.3;25.9;25.9;31;30.7;27.7;-1.0;
19/02/2025 15:29:41;117;0;50.39;-4;19.87;4.01;951.5;10.10;74257;2838.361;-1800.151;1;61;310;309.7;25.9;26.1;31;30.7;27.7;-1.0;
19/02/2025 15:30:01;117;0;50.29;-4;19.74;4.09;949.1;10.10;74255;2838.363;-1800.148;1;61;310;312.9;25.9;25.9;31;30.7;27.7;-1.0;
19/02/2025 15:30:21;117;0;49.33;-4;19.95;4.05;946.6;10.10;74249;2838.365;-1800.145;1;61;310;308.1;25.9;26.1;31;30.7;27.7;-1.0;
19/02/2025 15:30:41;117;0;49.06;-4;19.57;4.03;944.3;10.10;74251;2838.367;-1800.142;1;61;310;312.9;25.9;26.1;31;31.1;27.7;-1.0;
19/02/2025 15:31:01;117;0;49.69;-4;19.96;3.96;941.9;10.00;74247;2838.369;-1800.139;1;61;310;312.9;25.9;26.1;31;30.7;27.7;-1.0;
19/02/2025 15:31:21;117;0;50.08;-4;19.94;4.07;939.5;10.00;74247;2838.371;-1800.137;1;61;310;311.3;25.9;26.1;31;30.7;27.7;-1.0;
19/02/2025 15:31:41;117;0;49.94;-4;20.02;4.13;936.9;10.00;74250;2838.373;-1800.134;1;61;310;312.9;25.9;26.1;31;30.7;27.7;-1.0;
19/02/2025 15:32:01;117;0;49.94;-4;19.81;4.05;934.4;10.00;74238;2838.375;-1800.131;1;61;310;308.1;25.9;25.9;31;30.7;27.7;-1.0;
19/02/2025 15:32:21;117;0;49.93;-4;19.71;4.04;931.9;10.00;74238;2838.377;-1800.128;1;61;310;312.9;25.9;26.1;31;30.7;27.7;-1.0;
19/02/2025 15:32:41;117;0;50.20;-4;20.03;4.10;929.3;10.00;74236;2838.379;-1800.125;1;61;310;312.9;25.9;25.9;31;30.7;27.7;-1.0;
19/02/2025 15:33:01;117;0;49.91;-4;19.56;4.06;926.8;10.00;74234;2838.381;-1800.122;1;61;310;312.9;25.9;26.1;31;31.1;27.7;-1.0;
19/02/2025 15:33:21;117;0;49.90;-4;19.82;4.07;924.3;9.90;74238;2838.383;-1800.119;1;62;310;312.9;25.9;26.1;31;30.7;27.7;-1.0;
19/02/2025 15:33:41;117;0;49.89;-4;19.76;4.09;921.6;9.90;74227;2838.385;-1800.116;1;62;310;311.3;25.9;26.1;31;30.7;27.7;-1.0;
19/02/2025 15:34:01;117;0;49.92;-4;19.77;4.03;919.2;9.90;74225;2838.387;-1800.113;1;62;310;312.9;25.9;26.1;31;30.7;27.7;-1.0;
19/02/2025 15:34:21;117;0;50.67;-4;19.86;4.04;916.5;9.90;74220;2838.389;-1800.110;1;62;310;312.9;25.9;26.1;31;30.7;27.7;-1.0;
19/02/2025 15:34:41;117;0;51.16;-4;19.82;3.97;913.9;9.90;74222;2838.391;-1800.107;1;62;310;309.7;25.9;26.1;31;30.7;27.7;-1.0;
19/02/2025 15:35:01;117;0;51.41;-4;18.91;4.05;911.4;9.90;74218;2838.393;-1800.104;1;62;310;312.9;25.6;25.6;31;30.7;27.7;-1.0;
19/02/2025 15:35:21;117;0;50.87;-4;19.57;3.90;908.9;9.90;74228;2838.395;-1800.101;1;62;310;312.9;25.6;25.5;31;30.7;27.7;-1.0;
19/02/2025 15:35:41;117;0;50.94;-4;19.84;3.95;906.5;9.80;74208;2838.397;-1800.098;1;62;310;312.9;25.6;25.6;31;30.7;27.7;-1.0;
19/02/2025 15:36:01;117;0;50.99;-4;20.21;4.09;904.1;9.90;74223;2838.399;-1800.095;1;62;310;312.9;25.6;25.6;31;30.7;27.7;-1.0;
19/02/2025 15:36:21;117;0;51.39;-4;20.23;3.96;901.7;9.80;74213;2838.401;-1800.092;1;62;310;311.3;25.6;25.6;31;30.7;27.7;-1.0;
19/02/2025 15:36:41;117;0;51.93;-4;20.51;3.94;899.0;9.80;74214;2838.402;-1800.089;1;62;310;311.3;25.6;25.5;31;30.7;27.7;-1.0;
19/02/2025 15:37:01;117;0;53.36;-4;20.10;3.95;896.3;9.80;74219;2838.404;-1800.086;1;62;310;312.9;25.6;25.5;31;30.7;27.7;-1.0;
19/02/2025 15:37:21;117;0;53.78;-4;19.41;4.03;893.7;9.80;74201;2838.406;-1800.083;1;62;310;312.9;25.6;25.6;31;30.7;27.7;-1.0;
19/02/2025 15:37:41;117;0;53.97;-4;20.07;3.93;891.2;9.80;74196;2838.408;-1800.080;1;62;310;312.9;25.6;25.6;31;30.7;27.7;-1.0;
19/02/2025 15:38:01;117;0;53.97;-4;19.53;4.00;888.6;9.80;74204;2838.410;-1800.076;1;62;310;312.9;25.6;25.5;31;30.7;27.7;-1.0;
19/02/2025 15:38:21;117;0;54.55;-4;19.78;3.98;886.2;9.80;74193;2838.412;-1800.073;1;62;310;312.9;25.6;25.6;31;30.7;27.7;-1.0;
19/02/2025 15:38:41;117;0;57.39;-4;19.90;3.95;883.8;9.80;74199;2838.413;-1800.070;1;62;310;311.3;25.6;25.6;31;30.7;27.7;-1.0;
19/02/2025 15:39:01;117;0;58.10;-4;19.98;3.92;881.4;9.80;74194;2838.415;-1800.067;1;62;310;312.9;25.6;25.6;31;30.7;27.7;-1.0;
19/02/2025 15:39:21;117;0;58.63;-4;19.96;3.80;879.0;9.80;74189;2838.416;-1800.064;1;62;310;312.9;25.6;25.5;31;30.7;27.7;-1.0;
19/02/2025 15:39:41;117;0;58.42;-4;19.88;3.96;876.6;9.80;74194;2838.418;-1800.061;1;62;310;312.9;25.6;25.6;31;31.1;27.6;-1.0;
19/02/2025 15:40:01;117;0;58.13;-4;19.56;3.89;874.4;9.70;74189;2838.419;-1800.058;1;62;310;311.3;25.6;25.6;31;30.7;27.7;-1.0;
19/02/2025 15:40:21;117;0;58.75;-4;19.37;3.82;872.1;9.70;74189;2838.421;-1800.055;1;62;310;312.9;25.6;25.6;31;30.7;27.7;-1.0;
19/02/2025 15:40:41;117;0;59.93;-4;19.37;3.99;870.0;9.70;74201;2838.422;-1800.052;1;62;310;312.9;25.6;25.6;31;31.1;27.7;-1.0;
19/02/2025 15:41:01;117;0;60.77;-4;20.46;3.97;867.8;9.70;74195;2838.423;-1800.049;1;62;310;311.3;25.6;25.6;31;30.7;27.7;-1.0;
19/02/2025 15:41:21;117;0;62.20;-4;19.95;3.97;865.5;9.70;74201;2838.425;-1800.046;1;62;310;311.3;25.6;25.6;31;31.1;27.7;-1.0;
