Timestamp;NavState;SecurityLevel;Heading;Declination;Pitch;Roll;Depth;Temperature;Pa;Lat;Lon;DeadReckoning;DesiredH;BallastCmd;BallastPos;LinCmd;LinPos;AngCmd;AngPos;Voltage;Altitude;
21/02/2025 07:40:16;119;0;12.59;-4;-57.67;-27.22;0.2;17.30;75667;2835.591;-1758.961;0;154;500;508.1;100.0;100.6;0;0.5;27.3;-1.0;
21/02/2025 07:40:26;116;0;6.36;-4;-50.22;-14.23;0.2;17.30;75663;2835.607;-1758.978;0;154;500;506.5;100.0;100.4;0;0.5;27.3;-1.0;
21/02/2025 07:40:55;116;0;341.09;-4;-54.65;-11.66;0.1;17.40;75681;2835.610;-1758.978;0;154;500;508.1;100.0;100.4;0;0.5;27.3;-1.0;
21/02/2025 07:41:15;116;0;328.90;-4;-43.99;-13.85;0.2;17.40;75676;2835.611;-1758.978;0;-9999;500;509.7;100.0;100.4;0;0.5;27.3;-1.0;
21/02/2025 07:41:36;116;0;303.62;-4;-52.54;-10.14;0.2;17.50;75694;2835.614;-1758.977;0;20;500;509.7;100.0;100.4;0;0.5;27.4;-1.0;
21/02/2025 07:42:39;116;0;289.68;-4;-54.97;-19.10;0.2;17.70;75711;2835.619;-1758.978;0;20;500;508.1;100.0;100.6;0;0.5;27.3;-1.0;
21/02/2025 07:43:15;116;0;320.15;-4;-51.99;-10.23;0.2;17.80;75731;2835.624;-1758.979;0;20;500;508.1;100.0;100.4;0;0.5;27.2;-1.0;
21/02/2025 07:44:18;116;0;323.55;-4;-58.32;-14.29;0.1;18.10;75759;2835.631;-1758.980;0;20;500;508.1;100.0;100.4;0;0.5;27.3;-1.0;
21/02/2025 07:45:51;116;0;313.66;-4;-52.12;-9.88;0.2;18.50;75783;2835.643;-1758.980;0;20;500;508.1;100.0;100.4;0;0.5;27.3;-1.0;
21/02/2025 07:47:07;116;0;219.79;-4;-55.03;-9.28;0.2;18.80;75810;2835.652;-1758.981;0;21;500;508.1;100.0;100.4;0;0.5;27.4;-1.0;
21/02/2025 07:47:18;116;0;251.98;-4;-54.66;-4.48;0.2;18.90;75814;2835.653;-1758.980;0;21;500;506.5;100.0;100.6;0;0.5;27.3;-1.0;
21/02/2025 07:47:38;110;0;250.85;-4;-55.45;-3.71;0.1;19.00;75810;2835.653;-1758.980;0;21;-70;395.2;100.0;100.0;-7;-7.7;27.4;-1.0;
21/02/2025 07:47:48;110;0;239.85;-4;-51.79;-21.42;0.1;19.00;76159;2835.653;-1758.980;1;21;-70;245.2;100.0;99.7;-7;-7.7;27.3;-1.0;
21/02/2025 07:47:58;110;0;240.15;-4;-55.86;-9.31;0.5;19.00;76404;2835.653;-1758.980;1;21;-70;83.9;100.0;99.9;-7;-7.7;27.3;-1.0;
21/02/2025 07:48:08;110;0;234.30;-4;-68.56;-3.86;0.9;19.10;76735;2835.654;-1758.981;1;21;-70;-71.0;100.0;99.7;-7;-7.7;27.3;-1.0;
21/02/2025 07:48:18;110;0;271.50;-4;-63.55;-14.51;1.4;19.10;77066;2835.654;-1758.981;1;21;-70;-71.0;43.6;43.6;-7;-7.7;27.3;-1.0;
21/02/2025 07:48:38;100;0;276.98;-4;-33.12;-15.56;5.1;19.20;77029;2835.655;-1758.985;1;21;-70;-67.7;43.6;43.4;-7;-7.7;27.3;-1.0;
21/02/2025 07:48:58;100;0;286.70;-4;-21.86;-15.40;8.6;19.30;77055;2835.656;-1758.990;1;21;-70;-66.1;43.6;43.2;-70;-69.9;27.4;-1.0;
21/02/2025 07:49:18;100;0;297.02;-4;-20.89;-45.57;11.7;19.30;77048;2835.659;-1758.994;1;21;-70;-62.9;43.6;43.2;-70;-70.4;27.4;-1.0;
21/02/2025 07:49:38;100;0;307.58;-4;-20.71;-46.01;14.7;19.40;77062;2835.661;-1758.998;1;21;-70;-64.5;43.6;43.2;-70;-70.4;27.3;0.0;
21/02/2025 07:49:58;100;0;318.53;-4;-18.73;-45.48;17.6;19.40;77077;2835.665;-1759.001;1;22;-70;-62.9;44.0;43.9;-70;-70.4;27.3;0.0;
21/02/2025 07:50:18;100;0;328.41;-4;-20.54;-45.49;20.5;19.50;77083;2835.668;-1759.004;1;22;-70;-62.9;44.0;44.2;-60;-60.0;27.3;0.0;
21/02/2025 07:50:38;100;0;339.21;-4;-19.99;-39.74;23.5;19.50;77079;2835.672;-1759.006;1;22;-70;-62.9;44.0;44.0;-47;-46.9;27.4;0.0;
21/02/2025 07:50:58;100;0;348.69;-4;-20.40;-33.21;26.5;19.50;77079;2835.676;-1759.007;1;22;-70;-62.9;44.0;44.2;-34;-33.4;27.3;0.0;
21/02/2025 07:51:18;100;0;358.09;-4;-20.65;-26.91;29.4;19.50;77084;2835.681;-1759.007;1;22;-70;-62.9;44.0;44.2;-22;-22.1;27.4;0.0;
21/02/2025 07:51:38;100;0;5.34;-4;-21.68;-20.93;32.5;19.60;77086;2835.685;-1759.007;1;22;-70;-62.9;44.0;44.2;-11;-10.8;27.3;0.0;
21/02/2025 07:51:58;100;0;10.08;-4;-21.90;-15.98;35.6;19.50;77093;2835.689;-1759.007;1;22;-70;-62.9;44.0;44.3;-3;-3.2;27.4;0.0;
21/02/2025 07:52:18;100;0;13.67;-4;-22.01;-12.47;38.7;19.50;77089;2835.693;-1759.007;1;22;-70;-62.9;43.4;43.0;3;3.2;27.4;0.0;
21/02/2025 07:52:38;100;0;16.29;-4;-20.74;-9.78;41.8;19.50;77098;2835.697;-1759.006;1;22;-70;-62.9;43.4;43.0;7;7.2;27.3;0.0;
21/02/2025 07:52:58;100;0;16.98;-4;-20.54;-7.61;44.7;19.50;77096;2835.701;-1759.005;1;22;-70;-62.9;43.4;43.0;7;7.7;27.3;0.0;
21/02/2025 07:53:18;100;0;17.63;-4;-20.64;-7.72;47.6;19.50;77096;2835.705;-1759.004;1;22;-70;-66.1;43.4;43.0;7;7.7;27.3;0.0;
21/02/2025 07:53:38;100;0;19.36;-4;-20.47;-7.69;50.5;19.50;77087;2835.709;-1759.003;1;22;-70;-62.9;43.4;42.9;10;9.9;27.3;0.0;
21/02/2025 07:53:58;100;0;20.58;-4;-20.33;-6.47;53.3;19.50;77097;2835.713;-1759.002;1;22;-70;-61.3;43.4;43.0;10;9.9;27.4;0.0;
21/02/2025 07:54:18;100;0;22.56;-4;-20.37;-6.35;56.1;19.50;77107;2835.716;-1759.001;1;22;-70;-61.3;43.4;43.0;12;12.2;27.3;0.0;
21/02/2025 07:54:38;100;0;23.73;-4;-20.58;-5.15;59.0;19.50;77097;2835.720;-1759.000;1;22;-70;-62.9;43.4;43.0;12;12.6;27.3;0.0;
21/02/2025 07:54:58;100;0;24.88;-4;-20.67;-5.11;61.9;19.50;77111;2835.724;-1758.998;1;22;-70;-62.9;43.4;43.0;12;12.6;27.3;0.0;
21/02/2025 07:55:18;100;0;26.84;-4;-20.65;-5.11;64.9;19.50;77116;2835.728;-1758.997;1;22;-70;-62.9;43.4;43.0;14;14.0;27.3;0.0;
21/02/2025 07:55:38;100;0;28.22;-4;-20.66;-4.42;67.9;19.50;77114;2835.731;-1758.995;1;22;-70;-61.3;43.4;43.0;14;14.0;27.3;0.0;
21/02/2025 07:55:58;100;0;28.07;-4;-20.38;-4.37;70.8;19.50;77117;2835.735;-1758.994;1;22;-70;-62.9;43.4;43.0;14;14.4;27.3;0.0;
21/02/2025 07:56:18;100;0;27.16;-4;-20.64;-4.37;73.8;19.50;77122;2835.739;-1758.992;1;22;-70;-61.3;43.4;43.0;14;14.0;27.3;0.0;
21/02/2025 07:56:38;100;0;26.03;-4;-21.30;-4.36;76.7;19.50;77125;2835.743;-1758.991;1;22;-70;-62.9;43.4;43.0;14;14.0;27.3;0.0;
21/02/2025 07:56:58;100;0;29.04;-4;-20.64;-4.33;79.8;19.50;77122;2835.746;-1758.989;1;22;-70;-62.9;43.4;43.0;14;14.4;27.3;0.0;
21/02/2025 07:57:18;100;0;29.37;-4;-20.24;-4.38;82.6;19.50;77131;2835.750;-1758.987;1;22;-70;-62.9;43.4;43.0;14;14.0;27.3;0.0;
21/02/2025 07:57:38;100;0;28.89;-4;-20.70;-4.36;85.4;19.50;77133;2835.754;-1758.986;1;22;-70;-64.5;43.4;43.0;14;14.4;27.3;0.0;
21/02/2025 07:57:58;100;0;26.48;-4;-20.59;-4.34;88.2;19.50;77131;2835.757;-1758.984;1;22;-70;-64.5;43.4;43.0;14;14.4;27.4;0.0;
21/02/2025 07:58:18;100;0;24.58;-4;-20.32;-4.38;91.0;19.50;77135;2835.761;-1758.983;1;22;-70;-62.9;43.4;43.0;14;14.0;27.3;0.0;
21/02/2025 07:58:38;100;0;26.47;-4;-20.22;-4.38;93.7;19.50;77126;2835.764;-1758.982;1;22;-70;-62.9;43.4;43.0;14;14.0;27.4;0.0;
21/02/2025 07:58:58;100;0;30.27;-4;-20.55;-4.39;96.4;19.50;77126;2835.768;-1758.980;1;22;-70;-64.5;43.4;43.0;14;14.0;27.4;0.0;
21/02/2025 07:59:18;100;0;32.25;-4;-20.37;-4.36;99.2;19.50;77118;2835.771;-1758.978;1;22;-70;-62.9;43.4;43.0;14;14.0;27.3;0.0;
21/02/2025 07:59:38;100;0;32.39;-4;-19.80;-4.42;101.8;19.40;77094;2835.775;-1758.977;1;22;-70;-66.1;43.4;43.0;14;14.4;27.4;0.0;
21/02/2025 07:59:58;100;0;29.90;-4;-19.93;-4.40;104.4;19.40;77095;2835.778;-1758.975;1;22;-70;-62.9;43.4;43.0;14;14.0;27.4;0.0;
21/02/2025 08:00:18;100;0;27.26;-4;-20.31;-4.43;106.9;19.40;77075;2835.781;-1758.974;1;22;-70;-61.3;43.4;43.0;14;14.0;27.3;0.0;
21/02/2025 08:00:38;100;0;29.54;-4;-20.48;-4.45;109.6;19.40;77070;2835.785;-1758.972;1;22;-70;-62.9;43.4;43.0;14;14.0;27.3;0.0;
21/02/2025 08:00:58;100;0;32.16;-4;-20.26;-4.29;112.5;19.40;77051;2835.788;-1758.971;1;22;-70;-62.9;43.4;43.0;14;14.0;27.3;0.0;
21/02/2025 08:01:18;100;0;28.56;-4;-20.16;-4.42;115.2;19.40;77038;2835.792;-1758.969;1;22;-70;-62.9;43.4;43.0;14;14.0;27.4;0.0;
21/02/2025 08:01:38;100;0;24.48;-4;-20.30;-4.40;117.9;19.40;77033;2835.796;-1758.968;1;22;-70;-62.9;43.4;43.2;14;14.0;27.3;0.0;
21/02/2025 08:01:58;100;0;25.81;-4;-20.69;-4.40;120.7;19.30;77025;2835.799;-1758.967;1;22;-70;-62.9;43.4;43.0;14;14.0;27.4;0.0;
21/02/2025 08:02:18;100;0;26.98;-4;-20.16;-4.30;123.5;19.30;76996;2835.803;-1758.965;1;22;-70;-62.9;43.4;43.0;14;14.0;27.4;0.0;
21/02/2025 08:02:38;100;0;30.97;-4;-19.76;-4.38;126.1;19.30;76982;2835.806;-1758.963;1;22;-70;-62.9;43.4;43.0;14;14.0;27.4;0.0;
21/02/2025 08:02:58;100;0;34.64;-4;-19.98;-4.34;128.8;19.20;76972;2835.809;-1758.962;1;22;-70;-62.9;43.4;43.0;14;14.4;27.4;0.0;
21/02/2025 08:03:18;100;0;35.17;-4;-20.06;-4.42;131.4;19.20;76959;2835.813;-1758.960;1;22;-70;-62.9;43.4;43.0;14;14.0;27.4;0.0;
21/02/2025 08:03:38;100;0;33.57;-4;-20.59;-4.41;134.2;19.20;76949;2835.816;-1758.958;1;22;-70;-64.5;43.4;43.0;14;14.0;27.3;0.0;
21/02/2025 08:03:58;100;0;34.81;-4;-19.83;-4.34;137.0;19.10;76925;2835.819;-1758.956;1;22;-70;-62.9;43.4;43.0;14;14.0;27.3;0.0;
21/02/2025 08:04:18;100;0;38.23;-4;-19.60;-4.37;139.6;19.10;76917;2835.822;-1758.954;1;22;-70;-64.5;43.4;43.0;14;14.0;27.3;0.0;
21/02/2025 08:04:38;100;0;38.34;-4;-19.70;-4.37;142.2;19.10;76897;2835.826;-1758.952;1;22;-70;-62.9;43.4;43.0;14;14.0;27.4;0.0;
21/02/2025 08:04:58;100;0;36.84;-4;-19.74;-4.39;144.9;19.00;76884;2835.829;-1758.950;1;22;-70;-61.3;43.4;43.0;14;14.0;27.4;0.0;
21/02/2025 08:05:18;100;0;38.09;-4;-19.80;-4.41;147.7;19.00;76876;2835.832;-1758.948;1;22;-70;-62.9;43.4;43.0;14;14.0;27.3;0.0;
21/02/2025 08:05:38;100;0;36.88;-4;-19.44;-4.40;150.4;19.00;76868;2835.835;-1758.946;1;22;-70;-62.9;43.4;43.0;14;14.4;27.4;0.0;
21/02/2025 08:05:58;100;0;38.30;-4;-19.31;-4.44;153.0;18.90;76850;2835.839;-1758.944;1;22;-70;-62.9;43.4;43.0;16;15.8;27.3;0.0;
21/02/2025 08:06:18;100;0;40.28;-4;-19.27;-3.47;155.6;18.90;76827;2835.842;-1758.942;1;22;-70;-62.9;43.4;43.0;16;16.2;27.3;0.0;
21/02/2025 08:06:38;100;0;40.02;-4;-19.40;-3.43;158.3;18.90;76822;2835.845;-1758.940;1;22;-70;-62.9;43.4;43.0;16;16.2;27.4;0.0;
21/02/2025 08:06:58;100;0;39.40;-4;-19.22;-3.31;161.0;18.80;76813;2835.848;-1758.937;1;22;-70;-62.9;43.4;43.0;16;16.2;27.3;0.0;
21/02/2025 08:07:18;100;0;39.67;-4;-19.42;-3.42;163.7;18.80;76796;2835.851;-1758.935;1;22;-70;-62.9;43.4;43.0;16;16.2;27.3;0.0;
21/02/2025 08:07:38;100;0;40.14;-4;-19.57;-3.42;166.3;18.70;76792;2835.854;-1758.933;1;22;-70;-61.3;43.4;43.0;16;16.2;27.3;0.0;
21/02/2025 08:07:58;100;0;42.07;-4;-19.18;-3.51;169.0;18.70;76788;2835.858;-1758.931;1;22;-70;-62.9;43.4;43.0;19;19.0;27.3;0.0;
21/02/2025 08:08:18;100;0;41.85;-4;-19.64;-1.90;171.7;18.70;76770;2835.861;-1758.929;1;22;-70;-62.9;43.4;43.0;19;19.4;27.3;0.0;
21/02/2025 08:08:38;100;0;40.29;-4;-19.66;-1.88;174.4;18.60;76758;2835.864;-1758.926;1;22;-70;-62.9;43.4;43.0;17;16.7;27.3;0.0;
21/02/2025 08:08:58;100;0;37.76;-4;-19.60;-3.47;177.2;18.60;76746;2835.867;-1758.924;1;22;-70;-61.3;43.4;43.0;17;16.2;27.3;0.0;
21/02/2025 08:09:18;100;0;36.16;-4;-19.59;-3.44;179.9;18.50;76740;2835.870;-1758.922;1;22;-70;-62.9;43.4;43.0;15;14.4;27.3;0.0;
21/02/2025 08:09:38;100;0;33.12;-4;-19.63;-4.58;182.5;18.50;76731;2835.874;-1758.921;1;22;-70;-62.9;43.4;43.0;15;14.4;27.3;0.0;
21/02/2025 08:09:58;100;0;30.81;-4;-19.92;-4.49;185.4;18.50;76727;2835.877;-1758.919;1;22;-70;-61.3;43.4;43.0;15;14.4;27.3;0.0;
21/02/2025 08:10:18;100;0;27.51;-4;-19.71;-4.53;188.2;18.40;76721;2835.881;-1758.917;1;22;-70;-62.9;43.4;43.0;15;14.0;27.4;0.0;
21/02/2025 08:10:38;100;0;22.77;-4;-19.56;-4.53;191.0;18.40;76703;2835.885;-1758.916;1;22;-70;-62.9;43.4;43.0;13;13.1;27.3;0.0;
21/02/2025 08:10:58;100;0;23.35;-4;-19.72;-5.26;193.9;18.30;76694;2835.889;-1758.915;1;22;-70;-62.9;43.4;43.0;13;12.6;27.4;0.0;
21/02/2025 08:11:18;100;0;24.39;-4;-19.59;-5.23;197.0;18.30;76687;2835.893;-1758.913;1;22;-70;-62.9;43.4;43.0;13;12.6;27.3;0.0;
21/02/2025 08:11:38;100;0;23.80;-4;-19.65;-5.25;199.9;18.30;76671;2835.897;-1758.912;1;22;-70;-62.9;43.4;43.0;13;12.6;27.3;0.0;
21/02/2025 08:11:58;100;0;21.00;-4;-19.96;-5.19;203.0;18.20;76663;2835.901;-1758.911;1;22;-70;-62.9;43.4;43.0;13;12.6;27.4;0.0;
21/02/2025 08:12:18;100;0;20.85;-4;-19.37;-5.25;206.1;18.20;76659;2835.905;-1758.910;1;22;-70;-62.9;43.4;43.0;13;12.6;27.3;0.0;
21/02/2025 08:12:38;100;0;21.60;-4;-19.69;-5.22;209.0;18.10;76650;2835.909;-1758.908;1;22;-70;-64.5;43.4;43.0;13;12.6;27.3;0.0;
21/02/2025 08:12:58;100;0;21.53;-4;-19.42;-5.21;212.0;18.10;76638;2835.913;-1758.907;1;22;-70;-62.9;43.4;43.0;13;12.6;27.3;0.0;
21/02/2025 08:13:18;100;0;20.57;-4;-18.90;-5.34;214.9;18.00;76634;2835.917;-1758.906;1;22;-70;-62.9;43.7;43.7;11;10.4;27.4;0.0;
21/02/2025 08:13:38;100;0;20.85;-4;-19.93;-6.44;217.6;18.00;76622;2835.921;-1758.905;1;22;-70;-62.9;43.7;43.9;11;10.4;27.3;0.0;
21/02/2025 08:13:58;100;0;20.46;-4;-20.34;-6.35;220.4;18.00;76606;2835.925;-1758.904;1;22;-70;-62.9;43.7;43.9;11;10.4;27.4;0.0;
21/02/2025 08:14:18;100;0;21.35;-4;-20.20;-6.31;223.3;17.90;76610;2835.929;-1758.903;1;22;-70;-62.9;43.7;44.0;11;10.4;27.3;0.0;
21/02/2025 08:14:39;100;0;24.05;-4;-19.89;-6.44;226.2;17.90;76584;2835.933;-1758.902;1;22;-70;-62.9;43.7;43.9;13;13.1;27.3;0.0;
21/02/2025 08:14:59;100;0;27.00;-4;-20.38;-4.80;228.9;17.80;76577;2835.936;-1758.900;1;22;-70;-64.5;43.7;43.9;13;13.5;27.3;0.0;
21/02/2025 08:15:19;100;0;31.40;-4;-20.44;-4.68;231.8;17.80;76565;2835.940;-1758.898;1;22;-70;-62.9;43.7;43.9;13;13.5;27.3;0.0;
21/02/2025 08:15:39;100;0;35.56;-4;-20.38;-4.60;234.6;17.80;76561;2835.943;-1758.896;1;22;-70;-62.9;43.7;43.9;13;13.5;27.4;0.0;
21/02/2025 08:15:59;100;0;38.79;-4;-19.92;-4.78;237.5;17.70;76550;2835.947;-1758.894;1;22;-70;-64.5;43.7;43.9;16;15.8;27.3;0.0;
21/02/2025 08:16:19;100;0;42.41;-4;-20.00;-3.50;240.2;17.70;76552;2835.950;-1758.892;1;22;-70;-62.9;43.7;44.0;19;19.0;27.3;0.0;
21/02/2025 08:16:39;100;0;44.71;-4;-20.38;-2.05;242.9;17.60;76534;2835.952;-1758.889;1;22;-70;-62.9;43.7;44.0;22;22.1;27.4;0.0;
21/02/2025 08:16:59;100;0;45.19;-4;-20.79;-0.26;245.7;17.60;76527;2835.955;-1758.887;1;22;-70;-62.9;43.7;44.0;22;22.6;27.4;0.0;
21/02/2025 08:17:19;100;0;42.02;-4;-21.14;-0.28;248.7;17.50;76513;2835.959;-1758.885;1;22;-70;-66.1;43.7;43.9;19;19.0;27.3;0.0;
21/02/2025 08:17:39;100;0;38.56;-4;-20.77;-2.27;251.7;17.50;76503;2835.962;-1758.882;1;22;-70;-62.9;43.7;44.0;16;15.8;27.3;0.0;
21/02/2025 08:17:59;100;0;36.30;-4;-20.40;-3.96;254.6;17.40;76488;2835.965;-1758.880;1;22;-70;-62.9;43.7;44.0;16;15.3;27.3;0.0;
21/02/2025 08:18:19;100;0;36.91;-4;-20.27;-3.97;257.3;17.40;76478;2835.969;-1758.878;1;22;-70;-62.9;43.7;44.0;16;14.9;27.3;0.0;
21/02/2025 08:18:39;100;0;36.87;-4;-20.03;-4.00;259.9;17.40;76464;2835.972;-1758.876;1;22;-70;-62.9;43.7;44.0;16;15.3;27.3;0.0;
21/02/2025 08:18:59;100;0;36.50;-4;-20.59;-3.93;262.6;17.30;76452;2835.975;-1758.874;1;22;-70;-66.1;43.7;44.0;16;15.3;27.3;0.0;
21/02/2025 08:19:19;100;0;33.41;-4;-20.89;-3.94;265.4;17.30;76437;2835.978;-1758.873;1;22;-70;-64.5;43.7;44.0;14;14.0;27.3;0.0;
21/02/2025 08:19:39;100;0;35.14;-4;-20.36;-4.75;268.2;17.20;76436;2835.982;-1758.871;1;22;-70;-62.9;43.7;44.0;14;13.5;27.3;0.0;
21/02/2025 08:19:59;100;0;34.33;-4;-20.53;-4.73;271.0;17.20;76433;2835.985;-1758.869;1;22;-70;-62.9;43.7;44.0;14;13.5;27.3;0.0;
21/02/2025 08:20:19;100;0;32.95;-4;-20.30;-4.74;273.6;17.10;76426;2835.988;-1758.867;1;22;-70;-62.9;43.7;44.0;14;13.5;27.4;0.0;
21/02/2025 08:20:39;100;0;34.59;-4;-20.25;-4.73;276.4;17.10;76420;2835.992;-1758.865;1;22;-70;-62.9;43.7;44.0;14;13.5;27.4;0.0;
21/02/2025 08:20:59;100;0;34.44;-4;-20.42;-4.74;279.0;17.10;76410;2835.995;-1758.864;1;22;-70;-62.9;43.7;44.0;14;13.5;27.3;0.0;
21/02/2025 08:21:19;100;0;34.87;-4;-20.34;-4.78;281.8;17.00;76402;2835.998;-1758.862;1;22;-70;-62.9;43.7;44.0;14;13.5;27.3;0.0;
21/02/2025 08:21:39;100;0;34.92;-4;-20.39;-4.78;284.5;17.00;76395;2836.002;-1758.860;1;22;-70;-62.9;43.7;43.9;14;13.5;27.3;0.0;
21/02/2025 08:21:59;100;0;35.75;-4;-20.00;-4.70;287.2;16.90;76402;2836.005;-1758.858;1;22;-70;-62.9;43.7;43.9;14;13.5;27.3;0.0;
21/02/2025 08:22:19;100;0;36.25;-4;-20.42;-4.81;289.9;16.90;76393;2836.008;-1758.856;1;22;-70;-62.9;43.7;44.0;14;13.5;27.3;0.0;
21/02/2025 08:22:39;100;0;35.61;-4;-20.70;-4.72;292.8;16.90;76374;2836.012;-1758.854;1;22;-70;-62.9;43.7;43.9;14;13.5;27.3;0.0;
21/02/2025 08:22:59;100;0;34.60;-4;-20.32;-4.74;295.6;16.80;76380;2836.015;-1758.852;1;22;-70;-62.9;43.7;44.0;14;13.5;27.4;0.0;
21/02/2025 08:23:19;100;0;35.58;-4;-20.01;-4.77;298.3;16.80;76372;2836.018;-1758.850;1;22;-70;-62.9;43.7;44.0;14;13.5;27.3;0.0;
21/02/2025 08:23:39;100;0;35.53;-4;-19.97;-4.79;301.0;16.70;76360;2836.022;-1758.848;1;22;-70;-62.9;43.7;44.0;14;13.5;27.4;0.0;
21/02/2025 08:23:59;100;0;35.18;-4;-20.14;-4.92;303.8;16.70;76362;2836.025;-1758.846;1;22;-70;-62.9;43.7;43.9;14;13.5;27.3;0.0;
21/02/2025 08:24:19;100;0;34.92;-4;-20.12;-4.79;306.5;16.70;76347;2836.028;-1758.844;1;22;-70;-62.9;43.7;44.0;14;13.5;27.3;0.0;
21/02/2025 08:24:39;100;0;36.67;-4;-19.82;-4.91;309.4;16.60;76338;2836.032;-1758.842;1;22;-70;-62.9;43.7;44.0;14;13.5;27.4;0.0;
21/02/2025 08:24:59;100;0;36.64;-4;-20.14;-4.86;312.1;16.60;76329;2836.035;-1758.840;1;22;-70;-62.9;43.7;43.9;14;13.5;27.3;0.0;
21/02/2025 08:25:19;100;0;36.00;-4;-20.02;-4.82;314.8;16.60;76324;2836.038;-1758.838;1;22;-70;-62.9;43.7;44.0;14;13.5;27.3;0.0;
21/02/2025 08:25:39;100;0;35.21;-4;-20.11;-4.81;317.7;16.50;76315;2836.042;-1758.836;1;22;-70;-62.9;43.7;44.0;14;13.5;27.4;0.0;
21/02/2025 08:25:59;100;0;34.53;-4;-20.14;-4.79;320.5;16.50;76313;2836.045;-1758.834;1;22;-70;-64.5;43.7;44.0;14;13.5;27.3;0.0;
21/02/2025 08:26:19;100;0;34.49;-4;-20.07;-4.82;323.3;16.40;76307;2836.049;-1758.832;1;22;-70;-64.5;43.7;44.0;14;13.5;27.3;0.0;
21/02/2025 08:26:39;100;0;33.12;-4;-20.11;-4.82;326.1;16.40;76300;2836.052;-1758.831;1;22;-70;-62.9;43.7;43.9;14;13.5;27.3;0.0;
21/02/2025 08:26:59;100;0;31.21;-4;-20.07;-4.77;329.0;16.40;76291;2836.056;-1758.829;1;22;-70;-62.9;43.7;44.0;14;13.5;27.3;0.0;
21/02/2025 08:27:19;100;0;31.92;-4;-19.91;-4.82;331.8;16.30;76287;2836.059;-1758.827;1;22;-70;-62.9;43.7;43.9;14;13.5;27.3;0.0;
21/02/2025 08:27:39;100;0;30.46;-4;-19.99;-4.77;334.5;16.30;76272;2836.063;-1758.825;1;22;-70;-62.9;43.7;44.0;14;13.5;27.3;0.0;
21/02/2025 08:27:59;100;0;29.14;-4;-20.31;-4.82;337.3;16.30;76276;2836.067;-1758.824;1;22;-70;-66.1;43.7;44.0;14;13.5;27.3;0.0;
21/02/2025 08:28:19;100;0;29.53;-4;-20.42;-4.73;340.2;16.20;76253;2836.070;-1758.822;1;22;-70;-62.9;43.7;44.0;14;13.5;27.3;0.0;
21/02/2025 08:28:39;100;0;29.39;-4;-20.43;-4.72;343.2;16.20;76252;2836.074;-1758.820;1;22;-70;-62.9;43.7;43.9;14;13.5;27.4;0.0;
21/02/2025 08:28:59;100;0;29.68;-4;-20.30;-4.76;346.2;16.10;76250;2836.078;-1758.819;1;22;-70;-62.9;43.7;44.0;14;13.5;27.3;0.0;
21/02/2025 08:29:19;100;0;30.02;-4;-20.34;-4.74;349.1;16.10;76241;2836.082;-1758.817;1;22;-70;-62.9;43.7;44.0;14;13.5;27.3;0.0;
21/02/2025 08:29:39;100;0;29.90;-4;-20.25;-4.72;352.1;16.10;76229;2836.085;-1758.815;1;22;-70;-62.9;43.7;43.9;14;13.5;27.3;0.0;
21/02/2025 08:29:59;100;0;29.33;-4;-20.33;-4.79;355.0;16.00;76233;2836.089;-1758.813;1;22;-70;-62.9;43.7;43.9;14;13.5;27.3;0.0;
21/02/2025 08:30:19;100;0;28.96;-4;-20.29;-4.75;358.1;16.00;76221;2836.093;-1758.812;1;22;-70;-62.9;43.7;44.0;14;13.5;27.4;0.0;
21/02/2025 08:30:39;100;0;26.58;-4;-20.44;-4.82;361.0;16.00;76222;2836.097;-1758.810;1;22;-70;-62.9;43.7;43.9;14;13.5;27.3;0.0;
21/02/2025 08:30:59;100;0;25.12;-4;-19.98;-4.74;364.0;15.90;76207;2836.101;-1758.809;1;22;-70;-61.3;43.7;43.9;14;13.5;27.3;0.0;
21/02/2025 08:31:19;100;0;23.72;-4;-19.91;-4.83;366.9;15.90;76192;2836.105;-1758.807;1;22;-70;-64.5;43.7;43.9;14;13.5;27.3;0.0;
21/02/2025 08:31:39;100;0;22.57;-4;-20.03;-4.78;369.8;15.90;76186;2836.109;-1758.806;1;22;-70;-62.9;43.7;43.9;14;13.5;27.3;0.0;
21/02/2025 08:31:59;100;0;21.89;-4;-20.09;-4.79;372.7;15.80;76181;2836.112;-1758.805;1;22;-70;-62.9;43.7;44.0;14;13.5;27.4;0.0;
21/02/2025 08:32:19;100;0;22.13;-4;-20.06;-4.82;375.5;15.80;76175;2836.116;-1758.804;1;22;-70;-62.9;43.7;44.0;14;13.5;27.3;0.0;
21/02/2025 08:32:39;100;0;22.21;-4;-19.81;-4.77;378.3;15.70;76166;2836.120;-1758.803;1;22;-70;-62.9;43.7;43.9;14;13.5;27.3;0.0;
21/02/2025 08:32:59;100;0;22.33;-4;-19.86;-4.80;381.2;15.70;76161;2836.124;-1758.801;1;22;-70;-62.9;43.7;43.9;14;13.5;27.3;0.0;
21/02/2025 08:33:19;100;0;23.49;-4;-19.61;-4.79;384.0;15.70;76158;2836.128;-1758.800;1;22;-70;-62.9;43.7;44.0;14;13.5;27.3;0.0;
21/02/2025 08:33:39;100;0;26.07;-4;-19.74;-4.80;386.7;15.60;76151;2836.131;-1758.799;1;22;-70;-62.9;43.7;44.0;14;13.5;27.3;0.0;
21/02/2025 08:33:59;100;0;27.95;-4;-19.91;-4.82;389.5;15.60;76149;2836.135;-1758.797;1;22;-70;-62.9;43.7;43.9;14;14.0;27.3;0.0;
21/02/2025 08:34:19;100;0;28.03;-4;-20.04;-4.78;392.3;15.60;76149;2836.139;-1758.796;1;22;-70;-62.9;43.7;44.0;14;13.5;27.3;0.0;
21/02/2025 08:34:39;100;0;30.08;-4;-19.96;-4.80;395.2;15.60;76134;2836.142;-1758.794;1;22;-70;-62.9;43.7;43.9;14;14.0;27.3;0.0;
21/02/2025 08:34:59;100;0;32.08;-4;-19.96;-4.73;398.1;15.50;76131;2836.146;-1758.792;1;22;-70;-62.9;43.7;44.0;14;13.5;27.3;0.0;
21/02/2025 08:35:19;100;0;33.05;-4;-19.95;-4.77;401.0;15.50;76126;2836.150;-1758.790;1;22;-70;-62.9;43.7;43.9;14;14.0;27.3;0.0;
21/02/2025 08:35:39;100;0;33.76;-4;-19.85;-4.76;403.9;15.50;76119;2836.153;-1758.788;1;22;-70;-62.9;43.7;43.9;14;13.5;27.3;0.0;
21/02/2025 08:35:59;100;0;35.20;-4;-19.85;-4.78;406.7;15.40;76115;2836.156;-1758.786;1;22;-70;-62.9;43.7;44.0;14;13.5;27.4;0.0;
21/02/2025 08:36:19;100;0;37.66;-4;-19.72;-4.73;409.6;15.40;76106;2836.160;-1758.784;1;22;-70;-61.3;43.7;43.9;16;15.8;27.3;0.0;
21/02/2025 08:36:39;100;0;39.73;-4;-19.73;-3.50;412.3;15.30;76105;2836.163;-1758.782;1;22;-70;-62.9;43.7;44.0;16;16.2;27.3;0.0;
21/02/2025 08:36:59;100;0;39.49;-4;-19.57;-3.49;414.9;15.30;76098;2836.166;-1758.780;1;22;-70;-62.9;43.7;44.0;16;16.2;27.3;0.0;
21/02/2025 08:37:19;100;0;36.51;-4;-19.79;-3.53;417.6;15.30;76080;2836.169;-1758.778;1;22;-70;-62.9;43.7;43.9;16;16.2;27.3;0.0;
21/02/2025 08:37:39;100;0;34.88;-4;-19.76;-3.51;420.2;15.30;76087;2836.173;-1758.776;1;22;-70;-62.9;43.7;44.0;16;16.2;27.3;0.0;
21/02/2025 08:37:59;100;0;32.90;-4;-19.81;-3.52;422.8;15.20;76069;2836.176;-1758.775;1;22;-70;-62.9;43.7;44.2;16;16.2;27.3;0.0;
21/02/2025 08:38:19;100;0;31.45;-4;-19.98;-3.49;425.6;15.20;76076;2836.179;-1758.773;1;22;-70;-62.9;43.7;44.0;16;16.2;27.3;0.0;
21/02/2025 08:38:39;100;0;29.32;-4;-19.91;-3.48;428.2;15.20;76060;2836.183;-1758.771;1;22;-70;-64.5;43.7;43.9;16;16.2;27.3;0.0;
21/02/2025 08:38:59;100;0;28.00;-4;-19.88;-3.50;430.9;15.10;76059;2836.186;-1758.770;1;22;-70;-64.5;43.7;44.0;16;16.2;27.3;0.0;
21/02/2025 08:39:19;100;0;28.54;-4;-19.76;-3.49;433.4;15.10;76060;2836.190;-1758.769;1;22;-70;-61.3;43.7;43.9;14;14.0;27.3;0.0;
21/02/2025 08:39:39;100;0;31.44;-4;-19.69;-4.66;436.0;15.10;76057;2836.193;-1758.767;1;22;-70;-62.9;43.7;44.0;14;14.0;27.3;0.0;
21/02/2025 08:39:59;100;0;32.31;-4;-19.80;-4.62;438.8;15.00;76036;2836.196;-1758.765;1;22;-70;-62.9;43.7;44.0;14;14.0;27.3;0.0;
21/02/2025 08:40:19;100;0;32.78;-4;-19.73;-4.65;441.4;15.00;76029;2836.200;-1758.764;1;22;-70;-62.9;43.7;43.9;14;14.0;27.3;0.0;
21/02/2025 08:40:39;100;0;31.26;-4;-19.64;-4.64;444.1;15.00;76030;2836.203;-1758.762;1;22;-70;-62.9;43.7;44.0;14;14.0;27.4;0.0;
21/02/2025 08:40:59;100;0;30.93;-4;-19.83;-4.63;446.7;14.90;76021;2836.206;-1758.760;1;22;-70;-62.9;43.7;44.0;14;14.0;27.4;0.0;
21/02/2025 08:41:19;100;0;31.21;-4;-19.83;-4.64;449.4;14.90;76011;2836.210;-1758.759;1;22;-70;-62.9;43.7;43.9;14;14.0;27.3;0.0;
21/02/2025 08:41:39;100;0;31.44;-4;-19.84;-4.63;452.2;14.90;76010;2836.213;-1758.757;1;22;-70;-62.9;43.7;44.0;14;14.0;27.4;0.0;
21/02/2025 08:41:59;100;0;31.21;-4;-19.79;-4.58;454.9;14.90;76008;2836.217;-1758.755;1;22;-70;-62.9;43.7;43.9;14;14.0;27.3;0.0;
21/02/2025 08:42:19;100;0;31.41;-4;-19.86;-4.57;457.6;14.80;75997;2836.220;-1758.754;1;22;-70;-62.9;43.7;43.9;14;14.0;27.3;0.0;
21/02/2025 08:42:39;100;0;31.12;-4;-19.92;-4.55;460.4;14.80;76003;2836.224;-1758.752;1;22;-70;-61.3;43.7;43.9;14;14.0;27.3;0.0;
21/02/2025 08:42:59;100;0;32.61;-4;-19.91;-4.54;463.3;14.80;75996;2836.227;-1758.750;1;22;-70;-62.9;43.7;44.0;14;14.0;27.3;0.0;
21/02/2025 08:43:19;100;0;33.08;-4;-19.74;-4.58;466.0;14.70;75982;2836.231;-1758.748;1;22;-70;-62.9;43.7;43.9;14;14.0;27.3;0.0;
21/02/2025 08:43:39;100;0;30.64;-4;-19.83;-4.68;468.8;14.70;75981;2836.234;-1758.747;1;22;-70;-62.9;43.7;44.0;14;14.0;27.4;0.0;
21/02/2025 08:43:59;100;0;29.26;-4;-19.98;-4.59;471.6;14.70;75974;2836.238;-1758.745;1;22;-70;-62.9;43.7;44.0;14;14.0;27.3;0.0;
21/02/2025 08:44:19;100;0;28.44;-4;-19.67;-4.64;474.4;14.70;75959;2836.242;-1758.743;1;22;-70;-61.3;43.7;44.0;14;14.0;27.3;0.0;
21/02/2025 08:44:39;100;0;27.71;-4;-19.67;-4.69;477.1;14.60;75959;2836.245;-1758.742;1;22;-70;-62.9;43.7;44.0;14;14.0;27.4;0.0;
21/02/2025 08:44:59;100;0;25.92;-4;-19.44;-4.67;479.9;14.60;75955;2836.249;-1758.741;1;22;-70;-62.9;43.7;43.9;14;14.0;27.3;0.0;
21/02/2025 08:45:19;100;0;25.37;-4;-19.38;-4.70;482.5;14.60;75946;2836.253;-1758.739;1;22;-70;-62.9;43.7;44.0;14;14.0;27.4;0.0;
21/02/2025 08:45:39;100;0;25.63;-4;-19.68;-4.63;485.3;14.50;75946;2836.256;-1758.738;1;22;-70;-62.9;43.7;44.0;14;14.0;27.3;0.0;
21/02/2025 08:45:59;100;0;23.42;-4;-19.62;-4.68;488.0;14.50;75938;2836.260;-1758.737;1;22;-70;-62.9;43.7;43.9;14;14.0;27.3;0.0;
21/02/2025 08:46:19;100;0;22.34;-4;-19.69;-4.66;490.9;14.50;75931;2836.264;-1758.735;1;22;-70;-62.9;43.7;44.0;14;14.0;27.3;0.0;
21/02/2025 08:46:39;100;0;21.67;-4;-19.76;-4.59;493.7;14.40;75938;2836.268;-1758.734;1;22;-70;-64.5;43.7;43.9;14;14.0;27.3;0.0;
21/02/2025 08:46:59;100;0;22.13;-4;-19.81;-4.55;496.6;14.40;75931;2836.272;-1758.733;1;22;-70;-66.1;43.7;44.0;14;14.0;27.4;0.0;
21/02/2025 08:47:19;100;0;19.39;-4;-19.74;-4.65;499.4;14.40;75929;2836.275;-1758.732;1;22;-70;-62.9;43.7;44.0;11;10.8;27.3;0.0;
21/02/2025 08:47:39;100;0;18.58;-4;-19.41;-6.16;502.4;14.40;75916;2836.280;-1758.731;1;22;-70;-62.9;43.7;43.9;11;10.8;27.3;0.0;
21/02/2025 08:47:59;100;0;19.03;-4;-19.30;-6.23;505.1;14.40;75918;2836.283;-1758.730;1;22;-70;-62.9;43.7;43.9;11;10.8;27.3;0.0;
21/02/2025 08:48:19;100;0;19.02;-4;-19.35;-6.22;507.9;14.30;75919;2836.287;-1758.729;1;22;-70;-62.9;43.7;44.0;11;10.8;27.4;0.0;
21/02/2025 08:48:39;100;0;18.64;-4;-19.33;-6.23;510.7;14.30;75911;2836.292;-1758.728;1;22;-70;-62.9;43.7;44.0;11;10.8;27.3;0.0;
21/02/2025 08:48:59;100;0;20.21;-4;-19.32;-6.21;513.4;14.30;75910;2836.295;-1758.727;1;22;-70;-62.9;43.7;44.0;11;10.8;27.3;0.0;
21/02/2025 08:49:19;100;0;21.74;-4;-19.28;-6.21;516.1;14.20;75893;2836.299;-1758.726;1;22;-70;-62.9;43.7;44.0;11;10.8;27.3;0.0;
21/02/2025 08:49:40;100;0;23.51;-4;-18.94;-6.14;518.8;14.20;75897;2836.303;-1758.725;1;22;-70;-62.9;44.0;44.0;13;13.5;27.4;0.0;
21/02/2025 08:50:00;100;0;25.42;-4;-19.28;-4.71;521.4;14.20;75888;2836.306;-1758.724;1;22;-70;-64.5;44.0;43.9;13;13.5;27.3;0.0;
21/02/2025 08:50:20;100;0;26.23;-4;-19.35;-4.62;524.0;14.20;75893;2836.310;-1758.722;1;22;-70;-61.3;44.0;44.0;13;13.5;27.3;0.0;
21/02/2025 08:50:40;100;0;27.22;-4;-19.34;-4.74;526.7;14.20;75887;2836.314;-1758.721;1;22;-70;-62.9;44.0;43.9;13;14.0;27.4;0.0;
21/02/2025 08:51:00;100;0;28.09;-4;-19.33;-4.74;529.2;14.10;75890;2836.317;-1758.719;1;22;-70;-62.9;44.0;44.0;13;13.5;27.3;0.0;
21/02/2025 08:51:20;100;0;28.75;-4;-19.37;-4.77;531.8;14.10;75881;2836.321;-1758.718;1;22;-70;-62.9;44.0;44.0;13;14.0;27.3;0.0;
21/02/2025 08:51:40;100;0;30.69;-4;-19.18;-4.78;534.4;14.10;75881;2836.324;-1758.716;1;22;-70;-62.9;44.0;43.9;13;13.5;27.3;0.0;
21/02/2025 08:52:00;100;0;32.78;-4;-19.14;-4.70;537.0;14.00;75863;2836.327;-1758.715;1;22;-70;-62.9;44.0;44.0;13;13.5;27.3;0.0;
21/02/2025 08:52:20;100;0;35.98;-4;-18.88;-4.80;539.4;14.00;75868;2836.331;-1758.713;1;22;-70;-62.9;44.3;44.5;15;14.9;27.3;0.0;
21/02/2025 08:52:40;100;0;37.18;-4;-20.00;-3.79;541.9;14.00;75875;2836.334;-1758.711;1;22;-70;-62.9;44.3;44.5;15;15.3;27.3;0.0;
21/02/2025 08:53:00;100;0;38.39;-4;-20.48;-3.76;544.5;14.00;75873;2836.337;-1758.709;1;22;-70;-64.5;44.3;44.5;15;15.3;27.4;0.0;
21/02/2025 08:53:20;100;0;40.69;-4;-20.62;-3.80;547.1;14.00;75863;2836.340;-1758.707;1;22;-70;-62.9;44.3;44.6;17;18.1;27.3;0.0;
21/02/2025 08:53:40;100;0;36.79;-4;-20.52;-2.43;549.7;14.00;75846;2836.343;-1758.705;1;22;-70;-62.9;44.3;44.5;15;14.4;27.3;0.0;
21/02/2025 08:54:00;100;0;34.24;-4;-20.62;-4.26;552.3;13.90;75845;2836.346;-1758.704;1;22;-70;-62.9;44.3;44.5;15;14.4;27.4;0.0;
21/02/2025 08:54:20;100;0;31.45;-4;-20.83;-4.34;554.9;13.90;75849;2836.349;-1758.702;1;22;-70;-62.9;44.3;44.6;15;14.4;27.3;0.0;
21/02/2025 08:54:40;100;0;28.46;-4;-20.66;-4.39;557.6;13.90;75837;2836.352;-1758.701;1;22;-70;-64.5;44.3;44.6;15;14.4;27.3;0.0;
21/02/2025 08:55:00;100;0;27.25;-4;-20.61;-4.41;560.4;13.90;75829;2836.356;-1758.699;1;22;-70;-62.9;44.3;44.6;15;14.4;27.3;0.0;
21/02/2025 08:55:20;100;0;25.46;-4;-20.52;-4.35;563.1;13.80;75822;2836.359;-1758.698;1;22;-70;-62.9;44.3;44.6;15;14.4;27.3;0.0;
21/02/2025 08:55:40;100;0;24.03;-4;-20.66;-4.41;565.9;13.80;75828;2836.363;-1758.697;1;22;-70;-62.9;44.3;44.6;13;12.6;27.4;0.0;
21/02/2025 08:56:00;100;0;25.61;-4;-20.45;-5.35;568.6;13.80;75824;2836.367;-1758.695;1;22;-70;-61.3;44.3;44.6;13;12.2;27.3;0.0;
21/02/2025 08:56:20;100;0;26.68;-4;-20.50;-5.36;571.4;13.80;75818;2836.370;-1758.694;1;22;-70;-62.9;44.3;44.6;13;12.6;27.3;0.0;
21/02/2025 08:56:40;100;0;27.93;-4;-20.49;-5.38;574.1;13.70;75804;2836.374;-1758.693;1;22;-70;-62.9;44.3;44.5;13;12.6;27.4;0.0;
21/02/2025 08:57:00;100;0;29.07;-4;-20.39;-5.39;576.9;13.70;75811;2836.377;-1758.691;1;22;-70;-62.9;44.3;44.6;13;12.2;27.3;0.0;
21/02/2025 08:57:20;100;0;29.64;-4;-20.07;-5.42;579.7;13.70;75807;2836.381;-1758.689;1;22;-70;-62.9;44.3;44.5;13;12.2;27.3;0.0;
21/02/2025 08:57:40;100;0;30.56;-4;-20.35;-5.39;582.4;13.70;75802;2836.384;-1758.688;1;22;-70;-62.9;44.3;44.6;13;12.6;27.3;0.0;
21/02/2025 08:58:00;100;0;31.33;-4;-20.28;-5.40;585.2;13.70;75797;2836.388;-1758.686;1;22;-70;-62.9;44.3;44.6;13;12.6;27.3;0.0;
21/02/2025 08:58:20;100;0;30.23;-4;-20.19;-5.44;587.9;13.60;75795;2836.391;-1758.684;1;22;-70;-62.9;44.3;44.6;13;12.2;27.3;0.0;
21/02/2025 08:58:40;100;0;29.81;-4;-20.20;-5.42;590.6;13.60;75788;2836.395;-1758.683;1;22;-70;-64.5;44.3;44.6;13;12.6;27.3;0.0;
21/02/2025 08:59:00;100;0;29.50;-4;-20.15;-5.43;593.3;13.60;75786;2836.398;-1758.681;1;22;-70;-62.9;44.3;44.6;13;12.2;27.3;0.0;
21/02/2025 08:59:20;100;0;33.52;-4;-20.03;-5.35;596.0;13.60;75785;2836.402;-1758.680;1;22;-70;-62.9;44.3;44.6;13;12.6;27.4;0.0;
21/02/2025 08:59:40;100;0;35.38;-4;-19.87;-5.40;598.6;13.50;75780;2836.405;-1758.678;1;22;-70;-62.9;44.3;44.6;13;12.2;27.3;0.0;
21/02/2025 09:00:00;100;0;37.71;-4;-20.20;-5.48;601.2;13.50;75764;2836.408;-1758.676;1;22;-70;-62.9;44.3;44.5;15;14.9;27.4;0.0;
21/02/2025 09:00:20;100;0;39.95;-4;-20.58;-3.87;603.8;13.50;75755;2836.411;-1758.674;1;22;-70;-61.3;44.3;44.6;17;17.1;27.3;0.0;
21/02/2025 09:00:40;100;0;42.90;-4;-20.48;-2.70;606.5;13.50;75750;2836.414;-1758.672;1;22;-70;-64.5;44.3;44.6;20;20.3;27.3;0.0;
21/02/2025 09:01:00;100;0;42.86;-4;-20.67;-1.31;609.3;13.50;75739;2836.417;-1758.669;1;22;-70;-64.5;44.3;44.6;20;20.8;27.3;0.0;
21/02/2025 09:01:20;100;0;41.75;-4;-20.60;-1.28;612.0;13.40;75732;2836.420;-1758.667;1;22;-70;-62.9;44.3;44.6;18;18.1;27.4;0.0;
21/02/2025 09:01:40;100;0;41.82;-4;-19.49;-2.69;614.6;13.40;75725;2836.423;-1758.665;1;22;-70;-64.5;44.3;44.6;18;17.6;27.3;0.0;
21/02/2025 09:02:00;100;0;42.35;-4;-20.30;-2.69;617.1;13.40;75720;2836.426;-1758.663;1;22;-70;-62.9;44.3;44.6;18;17.6;27.4;0.0;
21/02/2025 09:02:20;100;0;42.07;-4;-20.64;-2.67;619.8;13.40;75724;2836.429;-1758.661;1;22;-70;-62.9;44.3;44.6;18;18.1;27.3;0.0;
21/02/2025 09:02:40;100;0;40.68;-4;-19.90;-2.79;622.3;13.30;75731;2836.432;-1758.659;1;22;-70;-62.9;44.3;44.6;18;18.1;27.3;0.0;
21/02/2025 09:03:00;100;0;40.65;-4;-20.32;-2.77;624.8;13.30;75715;2836.435;-1758.657;1;22;-70;-64.5;44.3;44.6;18;17.6;27.3;0.0;
21/02/2025 09:03:20;100;0;40.84;-4;-20.32;-2.84;627.4;13.30;75714;2836.438;-1758.655;1;22;-70;-62.9;44.3;44.6;18;18.1;27.3;0.0;
21/02/2025 09:03:40;100;0;43.10;-4;-20.31;-2.78;629.9;13.30;75709;2836.440;-1758.653;1;22;-70;-62.9;44.3;44.6;20;19.9;27.3;0.0;
21/02/2025 09:04:00;100;0;43.39;-4;-20.55;-1.50;632.5;13.30;75707;2836.443;-1758.650;1;22;-70;-62.9;44.3;44.6;20;20.3;27.3;0.0;
21/02/2025 09:04:20;100;0;43.37;-4;-20.53;-1.45;635.1;13.20;75712;2836.446;-1758.648;1;21;-70;-62.9;44.3;44.6;20;20.3;27.3;0.0;
21/02/2025 09:04:40;100;0;44.50;-4;-20.51;-1.50;637.6;13.20;75703;2836.449;-1758.646;1;21;-70;-62.9;44.3;44.5;23;23.0;27.3;0.0;
21/02/2025 09:05:00;100;0;43.66;-4;-20.67;0.15;640.2;13.20;75689;2836.451;-1758.644;1;21;-70;-62.9;44.3;44.6;23;23.5;27.3;0.0;
21/02/2025 09:05:20;100;0;37.24;-4;-20.56;0.06;642.6;13.20;75690;2836.454;-1758.642;1;21;-70;-62.9;44.3;44.6;16;15.3;27.4;0.0;
21/02/2025 09:05:40;100;0;35.88;-4;-20.33;-4.01;645.3;13.10;75673;2836.458;-1758.641;1;21;-70;-62.9;44.3;44.6;16;15.3;27.3;0.0;
21/02/2025 09:06:00;100;0;33.33;-4;-20.23;-3.95;647.8;13.10;75672;2836.461;-1758.639;1;21;-70;-64.5;44.3;44.6;16;15.3;27.3;0.0;
21/02/2025 09:06:20;100;0;30.98;-4;-20.92;-4.09;650.4;13.10;75668;2836.464;-1758.637;1;21;-70;-62.9;44.3;44.5;16;15.3;27.3;0.0;
21/02/2025 09:06:40;100;0;28.59;-4;-20.77;-3.90;653.0;13.10;75660;2836.467;-1758.636;1;21;-70;-64.5;44.3;44.6;16;15.3;27.3;0.0;
21/02/2025 09:07:00;100;0;26.84;-4;-20.61;-3.81;655.6;13.10;75661;2836.471;-1758.635;1;21;-70;-62.9;44.3;44.6;16;15.3;27.3;0.0;
21/02/2025 09:07:20;100;0;24.92;-4;-20.26;-3.88;658.3;13.00;75653;2836.474;-1758.634;1;21;-70;-66.1;44.3;44.6;16;15.3;27.3;0.0;
21/02/2025 09:07:40;100;0;21.76;-4;-19.97;-3.96;660.8;13.00;75648;2836.478;-1758.633;1;21;-70;-62.9;44.3;44.6;13;13.1;27.3;0.0;
21/02/2025 09:08:00;100;0;21.09;-4;-20.21;-5.33;663.3;13.00;75636;2836.481;-1758.632;1;21;-70;-64.5;44.3;44.6;13;12.6;27.3;0.0;
21/02/2025 09:08:20;100;0;17.83;-4;-19.87;-5.37;665.8;13.00;75652;2836.485;-1758.631;1;21;-70;-62.9;44.3;44.6;9;9.0;27.3;0.0;
21/02/2025 09:08:40;100;0;20.00;-4;-19.75;-7.07;668.2;12.90;75627;2836.488;-1758.630;1;22;-70;-62.9;44.3;44.6;11;10.8;27.3;0.0;
21/02/2025 09:09:00;100;0;22.09;-4;-19.74;-5.88;670.6;12.90;75620;2836.491;-1758.629;1;22;-70;-66.1;44.3;44.6;11;11.3;27.3;0.0;
21/02/2025 09:09:20;100;0;25.94;-4;-19.65;-5.89;672.9;12.90;75612;2836.494;-1758.628;1;22;-70;-62.9;44.3;44.6;14;14.0;27.3;0.0;
21/02/2025 09:09:40;100;0;30.89;-4;-20.19;-4.45;675.3;12.90;75613;2836.498;-1758.627;1;22;-70;-62.9;44.3;44.6;14;14.4;27.3;0.0;
21/02/2025 09:10:00;100;0;31.77;-4;-20.24;-4.37;677.8;12.80;75593;2836.501;-1758.625;1;22;-70;-62.9;44.3;44.5;14;14.4;27.4;0.0;
21/02/2025 09:10:20;100;0;32.05;-4;-20.22;-4.35;680.3;12.80;75585;2836.504;-1758.624;1;22;-70;-62.9;44.3;44.6;14;14.4;27.4;0.0;
21/02/2025 09:10:40;100;0;32.63;-4;-20.21;-4.35;682.7;12.80;75585;2836.507;-1758.622;1;22;-70;-66.1;44.3;44.6;14;14.0;27.4;0.0;
21/02/2025 09:11:00;100;0;34.12;-4;-20.09;-4.42;685.2;12.80;75573;2836.510;-1758.620;1;22;-70;-62.9;44.3;44.6;14;14.4;27.4;0.0;
21/02/2025 09:11:20;100;0;34.24;-4;-20.17;-4.41;687.7;12.70;75558;2836.513;-1758.619;1;22;-70;-64.5;44.3;44.5;14;14.4;27.4;0.0;
21/02/2025 09:11:40;100;0;35.82;-4;-19.92;-4.45;690.2;12.70;75565;2836.516;-1758.617;1;21;-70;-62.9;44.3;44.6;14;14.4;27.3;0.0;
21/02/2025 09:12:00;100;0;37.65;-4;-20.12;-4.48;692.6;12.70;75560;2836.519;-1758.615;1;21;-70;-62.9;44.3;44.6;16;15.8;27.3;0.0;
21/02/2025 09:12:20;100;0;38.98;-4;-20.42;-3.33;695.1;12.70;75558;2836.522;-1758.613;1;21;-70;-61.3;44.3;44.6;16;16.2;27.3;0.0;
21/02/2025 09:12:40;100;0;39.49;-4;-20.07;-3.34;697.7;12.60;75549;2836.525;-1758.611;1;21;-70;-62.9;44.3;44.6;18;18.1;27.3;0.0;
21/02/2025 09:13:00;100;0;39.71;-4;-20.24;-2.21;700.2;12.60;75544;2836.528;-1758.609;1;21;-70;-62.9;44.3;44.6;18;19.0;27.3;0.0;
21/02/2025 09:13:20;100;0;40.07;-4;-20.32;-2.18;702.7;12.60;75546;2836.531;-1758.607;1;21;-70;-62.9;44.3;44.6;18;19.0;27.3;0.0;
21/02/2025 09:13:40;100;0;41.46;-4;-20.15;-2.23;705.3;12.60;75536;2836.534;-1758.605;1;21;-70;-62.9;44.3;44.6;20;19.9;27.3;0.0;
21/02/2025 09:14:00;100;0;41.61;-4;-20.40;-1.60;707.8;12.60;75529;2836.537;-1758.603;1;21;-70;-62.9;44.3;44.6;20;19.9;27.3;0.0;
21/02/2025 09:14:20;100;0;41.99;-4;-20.39;-1.50;710.3;12.50;75526;2836.540;-1758.601;1;21;-70;-62.9;44.3;44.6;20;19.9;27.3;0.0;
21/02/2025 09:14:40;100;0;42.71;-4;-20.04;-1.57;712.9;12.50;75519;2836.543;-1758.599;1;21;-70;-64.5;44.3;44.6;20;19.9;27.3;0.0;
21/02/2025 09:15:00;100;0;46.20;-4;-20.24;-1.69;715.4;12.50;75518;2836.545;-1758.597;1;21;-70;-62.9;44.3;44.5;26;26.2;27.3;0.0;
21/02/2025 09:15:20;100;0;45.05;-4;-20.45;1.77;717.9;12.50;75514;2836.548;-1758.595;1;21;-70;-64.5;44.3;44.6;24;23.9;27.3;0.0;
21/02/2025 09:15:40;100;0;43.61;-4;-20.41;0.00;720.2;12.40;75494;2836.551;-1758.593;1;21;-70;-62.9;44.3;44.6;22;22.1;27.3;0.0;
21/02/2025 09:16:00;100;0;43.15;-4;-20.69;-0.74;722.8;12.40;75500;2836.554;-1758.591;1;21;-70;-62.9;44.3;44.6;22;21.7;27.3;0.0;
21/02/2025 09:16:20;100;0;40.38;-4;-19.84;-0.84;725.2;12.40;75491;2836.556;-1758.589;1;21;-70;-62.9;44.3;44.6;19;19.0;27.3;0.0;
21/02/2025 09:16:40;100;0;40.86;-4;-19.92;-2.05;727.5;12.40;75492;2836.559;-1758.587;1;21;-70;-62.9;44.3;44.6;19;19.4;27.3;0.0;
21/02/2025 09:17:00;100;0;42.67;-4;-20.17;-2.09;729.5;12.30;75472;2836.561;-1758.585;1;21;-70;-62.9;44.3;44.6;19;19.4;27.3;0.0;
21/02/2025 09:17:20;100;0;40.75;-4;-20.73;-2.25;731.6;12.30;75475;2836.564;-1758.584;1;20;-70;-64.5;44.3;44.5;19;19.4;27.3;0.0;
21/02/2025 09:17:40;100;0;37.42;-4;-19.21;-2.17;733.9;12.30;75474;2836.567;-1758.582;1;20;-70;-62.9;44.3;44.6;17;17.1;27.3;0.0;
21/02/2025 09:18:00;100;0;34.95;-4;-19.97;-2.56;735.9;12.30;75462;2836.569;-1758.581;1;20;-70;-62.9;44.3;44.6;17;18.1;27.3;0.0;
21/02/2025 09:18:20;100;0;37.09;-4;-20.04;-2.58;738.3;12.20;75449;2836.572;-1758.579;1;20;-70;-62.9;44.3;44.6;17;18.1;27.3;0.0;
21/02/2025 09:18:40;100;0;36.70;-4;-20.37;-2.63;740.7;12.20;75460;2836.575;-1758.577;1;20;-70;-62.9;44.3;44.5;17;18.1;27.3;0.0;
21/02/2025 09:19:00;100;0;33.49;-4;-18.63;-2.20;743.0;12.20;75451;2836.578;-1758.576;1;20;-70;-62.9;44.7;44.9;17;18.1;27.3;0.0;
21/02/2025 09:19:20;100;0;27.65;-4;-20.12;-2.51;745.2;12.20;75452;2836.581;-1758.575;1;20;-70;-62.9;44.7;45.2;15;14.9;27.3;0.0;
21/02/2025 09:19:40;100;0;29.62;-4;-22.10;-4.17;747.3;12.20;75445;2836.584;-1758.574;1;20;-70;-62.9;44.1;44.2;15;15.3;27.3;0.0;
21/02/2025 09:20:00;100;0;30.19;-4;-19.97;-4.01;749.7;12.10;75457;2836.587;-1758.572;1;20;-70;-62.9;44.1;44.0;15;14.9;27.3;0.0;
21/02/2025 09:20:20;100;0;30.72;-4;-19.28;-4.06;752.0;12.10;75452;2836.590;-1758.571;1;20;-70;-62.9;44.1;44.0;15;15.3;27.3;0.0;
21/02/2025 09:20:40;100;0;28.68;-4;-19.94;-4.00;754.2;12.10;75440;2836.593;-1758.570;1;20;-70;-62.9;44.1;44.0;15;15.3;27.4;0.0;
21/02/2025 09:21:00;100;0;27.05;-4;-19.61;-4.55;756.5;12.10;75444;2836.596;-1758.569;1;20;-70;-62.9;44.1;44.0;15;15.3;27.3;0.0;
21/02/2025 09:21:20;100;0;26.63;-4;-19.47;-4.23;758.7;12.10;75439;2836.599;-1758.568;1;20;-70;-62.9;44.1;44.0;15;15.3;27.3;0.0;
21/02/2025 09:21:40;100;0;24.56;-4;-19.87;-4.44;761.0;12.00;75429;2836.602;-1758.567;1;20;-70;-61.3;44.1;44.0;15;14.9;27.3;0.0;
21/02/2025 09:22:00;100;0;22.21;-4;-18.82;-4.18;763.2;12.00;75437;2836.606;-1758.566;1;20;-70;-62.9;44.5;44.5;15;15.3;27.3;0.0;
21/02/2025 09:22:20;100;0;21.30;-4;-19.18;-4.19;765.3;12.00;75430;2836.609;-1758.565;1;20;-70;-62.9;44.5;44.8;13;13.1;27.3;0.0;
21/02/2025 09:22:40;100;0;20.36;-4;-19.31;-4.67;767.3;12.00;75420;2836.612;-1758.564;1;21;-70;-62.9;44.5;44.8;13;13.5;27.3;0.0;
21/02/2025 09:23:00;100;0;19.89;-4;-19.98;-4.99;769.4;12.00;75424;2836.615;-1758.564;1;21;-70;-62.9;44.5;44.8;11;10.8;27.3;0.0;
21/02/2025 09:23:20;100;0;22.21;-4;-19.28;-6.55;771.7;11.90;75413;2836.618;-1758.563;1;21;-70;-61.3;44.5;44.8;13;13.1;27.4;0.0;
21/02/2025 09:23:40;100;0;21.89;-4;-19.82;-4.91;773.7;11.90;75418;2836.621;-1758.562;1;21;-70;-62.9;44.5;44.8;13;13.5;27.3;0.0;
21/02/2025 09:24:01;100;0;23.49;-4;-19.96;-4.95;775.7;11.90;75411;2836.624;-1758.561;1;21;-70;-61.3;44.5;44.8;13;13.1;27.3;0.0;
21/02/2025 09:24:21;100;0;23.26;-4;-20.23;-4.99;777.8;11.90;75403;2836.627;-1758.560;1;21;-70;-62.9;44.5;44.8;13;13.5;27.3;0.0;
21/02/2025 09:24:41;100;0;23.22;-4;-19.58;-4.95;780.1;11.80;75408;2836.630;-1758.560;1;21;-70;-62.9;44.5;44.8;13;13.5;27.3;0.0;
21/02/2025 09:25:01;100;0;20.40;-4;-20.02;-5.09;782.2;11.80;75403;2836.633;-1758.559;1;21;-70;-62.9;44.5;44.8;11;10.8;27.3;0.0;
21/02/2025 09:25:21;100;0;22.10;-4;-19.96;-6.15;784.5;11.80;75392;2836.636;-1758.558;1;21;-70;-62.9;44.5;44.8;13;13.1;27.3;0.0;
21/02/2025 09:25:41;100;0;22.01;-4;-20.00;-4.73;786.7;11.80;75409;2836.639;-1758.557;1;21;-70;-62.9;44.5;44.8;13;13.5;27.3;0.0;
21/02/2025 09:26:01;100;0;22.16;-4;-20.09;-4.82;789.0;11.80;75400;2836.642;-1758.556;1;21;-70;-62.9;44.5;44.8;13;13.5;27.3;0.0;
21/02/2025 09:26:21;100;0;23.03;-4;-20.13;-4.89;791.3;11.80;75395;2836.645;-1758.555;1;21;-70;-62.9;44.5;44.8;13;13.5;27.3;0.0;
21/02/2025 09:26:41;100;0;23.34;-4;-19.61;-4.97;793.6;11.80;75391;2836.649;-1758.555;1;21;-70;-62.9;44.5;44.8;13;14.0;27.3;0.0;
21/02/2025 09:27:01;100;0;23.08;-4;-20.35;-4.87;795.8;11.70;75399;2836.652;-1758.554;1;21;-70;-62.9;44.5;44.8;13;13.5;27.3;0.0;
21/02/2025 09:27:21;100;0;21.74;-4;-19.77;-4.85;798.1;11.70;75400;2836.655;-1758.553;1;21;-70;-62.9;44.5;44.8;13;13.5;27.3;0.0;
21/02/2025 09:27:41;100;0;18.82;-4;-19.80;-4.85;800.2;11.70;75399;2836.658;-1758.552;1;21;-70;-62.9;44.5;44.8;10;9.5;27.3;0.0;
21/02/2025 09:28:01;100;0;19.79;-4;-19.56;-6.94;802.3;11.70;75378;2836.661;-1758.552;1;21;-70;-62.9;44.5;44.8;10;9.5;27.3;0.0;
21/02/2025 09:28:21;100;0;21.69;-4;-19.52;-6.93;804.5;11.70;75392;2836.664;-1758.551;1;21;-70;-62.9;44.5;44.8;12;12.2;27.3;0.0;
21/02/2025 09:28:41;100;0;22.18;-4;-19.72;-5.30;806.6;11.70;75371;2836.667;-1758.550;1;22;-70;-62.9;44.5;44.8;12;12.6;27.3;0.0;
21/02/2025 09:29:01;100;0;23.65;-4;-20.10;-5.22;808.8;11.70;75369;2836.670;-1758.549;1;22;-70;-64.5;44.5;44.8;12;13.1;27.3;0.0;
21/02/2025 09:29:21;100;0;23.12;-4;-19.88;-5.21;811.0;11.60;75368;2836.673;-1758.548;1;22;-70;-66.1;44.5;44.8;12;12.6;27.3;0.0;
21/02/2025 09:29:41;100;0;25.38;-4;-19.79;-5.18;813.3;11.60;75344;2836.676;-1758.547;1;22;-70;-62.9;44.5;44.8;14;14.0;27.3;0.0;
21/02/2025 09:30:01;100;0;25.70;-4;-19.94;-4.27;815.4;11.60;75344;2836.679;-1758.546;1;22;-70;-62.9;44.5;44.6;14;14.4;27.3;0.0;
21/02/2025 09:30:21;100;0;28.44;-4;-19.87;-4.29;817.7;11.60;75348;2836.682;-1758.545;1;22;-70;-62.9;44.5;44.8;14;14.4;27.3;0.0;
21/02/2025 09:30:41;100;0;28.34;-4;-20.12;-4.23;819.9;11.50;75332;2836.685;-1758.544;1;22;-70;-62.9;44.5;44.8;14;14.4;27.3;0.0;
21/02/2025 09:31:01;100;0;30.22;-4;-19.69;-4.27;822.0;11.50;75341;2836.688;-1758.543;1;22;-70;-62.9;44.5;44.8;14;14.4;27.3;0.0;
21/02/2025 09:31:21;100;0;31.19;-4;-19.70;-4.29;824.1;11.50;75336;2836.691;-1758.542;1;22;-70;-62.9;44.5;44.8;14;14.4;27.3;0.0;
21/02/2025 09:31:41;100;0;31.35;-4;-19.93;-4.32;826.1;11.50;75324;2836.693;-1758.540;1;22;-90;-91.9;44.5;44.8;14;14.4;27.4;0.0;
21/02/2025 09:32:01;100;0;32.09;-4;-19.42;-4.18;828.2;11.50;75398;2836.696;-1758.539;1;22;-90;-93.5;44.5;44.8;14;14.4;27.3;0.0;
21/02/2025 09:32:21;100;0;32.25;-4;-19.09;-4.09;830.3;11.50;75393;2836.699;-1758.538;1;22;-90;-93.5;44.5;44.8;14;14.4;27.3;0.0;
21/02/2025 09:32:41;100;0;33.53;-4;-19.40;-4.03;832.3;11.40;75381;2836.702;-1758.536;1;22;-90;-93.5;44.5;44.8;14;14.4;27.3;0.0;
21/02/2025 09:33:01;100;0;33.90;-4;-19.81;-4.20;834.5;11.40;75392;2836.705;-1758.535;1;22;-90;-93.5;44.5;44.8;14;14.4;27.3;0.0;
21/02/2025 09:33:21;100;0;34.91;-4;-19.66;-4.17;836.8;11.40;75377;2836.707;-1758.534;1;22;-90;-96.8;44.5;44.8;14;14.4;27.3;0.0;
21/02/2025 09:33:41;100;0;33.68;-4;-18.97;-4.29;839.2;11.40;75383;2836.711;-1758.532;1;22;-90;-96.8;44.8;44.8;14;14.4;27.3;0.0;
21/02/2025 09:34:01;100;0;33.68;-4;-19.02;-4.16;841.2;11.40;75370;2836.713;-1758.531;1;22;-110;-111.3;44.8;44.8;14;14.4;27.3;0.0;
21/02/2025 09:34:21;100;0;33.66;-4;-19.44;-4.17;843.2;11.40;75415;2836.716;-1758.529;1;22;-130;-132.3;44.8;44.8;14;14.4;27.3;0.0;
21/02/2025 09:34:41;100;0;33.44;-4;-20.97;-4.04;845.6;11.30;75453;2836.719;-1758.528;1;22;-130;-133.9;44.8;44.8;14;14.4;27.3;0.0;
21/02/2025 09:35:01;100;0;33.34;-4;-19.37;-4.01;848.4;11.30;75454;2836.723;-1758.526;1;22;-130;-135.5;44.8;44.8;14;14.4;27.3;0.0;
21/02/2025 09:35:21;100;0;32.92;-4;-19.52;-3.97;851.0;11.30;75446;2836.726;-1758.524;1;22;-130;-135.5;44.8;44.8;14;14.4;27.3;0.0;
21/02/2025 09:35:41;100;0;31.47;-4;-20.56;-3.93;853.7;11.30;75449;2836.729;-1758.523;1;22;-130;-135.5;44.8;44.8;14;14.4;27.3;0.0;
21/02/2025 09:36:01;100;0;34.83;-4;-18.30;-4.40;856.6;11.20;75443;2836.733;-1758.521;1;22;-130;-137.1;45.3;45.4;14;14.9;27.3;0.0;
21/02/2025 09:36:21;100;0;36.35;-4;-21.83;-3.76;859.4;11.20;75440;2836.736;-1758.519;1;22;-130;-138.7;45.3;45.5;14;14.4;27.3;43.9;
21/02/2025 09:36:41;100;0;35.73;-4;-22.16;-3.89;862.4;11.20;75441;2836.739;-1758.517;1;21;-130;-137.1;44.6;44.6;16;15.8;27.3;39.9;
21/02/2025 09:37:01;100;0;33.28;-4;-19.30;-3.27;865.5;11.20;75434;2836.743;-1758.515;1;21;-130;-137.1;44.6;44.3;16;15.8;27.3;35.4;
21/02/2025 09:37:21;100;0;36.43;-4;-19.63;-3.26;868.3;11.20;75451;2836.747;-1758.512;1;21;-130;-137.1;44.6;44.5;16;15.8;27.3;31.7;
21/02/2025 09:37:25;118;0;36.56;-4;-18.96;-3.56;868.9;11.20;75435;2836.747;-1758.512;1;21;330;-132.3;21.6;21.5;6;5.4;27.3;30.8;
21/02/2025 09:37:35;118;0;69.66;-4;-4.60;-9.27;869.9;11.20;75418;2836.748;-1758.511;1;21;330;-8.1;21.6;21.4;6;5.4;26.0;-1.0;
21/02/2025 09:37:45;118;0;61.61;-4;19.66;-9.68;869.9;11.20;75162;2836.748;-1758.511;1;21;330;117.7;21.6;21.6;6;5.4;26.1;-1.0;
21/02/2025 09:37:55;118;0;56.43;-4;28.58;-10.18;869.0;11.20;74907;2836.749;-1758.510;1;21;330;241.9;21.6;21.8;6;5.4;26.0;-1.0;
21/02/2025 09:38:05;118;0;55.40;-4;29.24;-9.69;868.0;11.20;74641;2836.750;-1758.510;1;21;330;333.9;21.6;21.8;6;5.4;26.2;-1.0;
21/02/2025 09:38:15;118;0;36.57;-4;27.42;-9.64;866.4;11.20;74471;2836.751;-1758.509;1;21;330;333.9;21.6;21.8;6;5.4;27.3;-1.0;
21/02/2025 09:38:35;117;0;29.17;-4;26.72;-9.52;862.9;11.20;74478;2836.755;-1758.507;1;21;330;333.9;21.6;21.8;6;5.4;27.3;-1.0;
21/02/2025 09:38:55;117;0;19.56;-4;25.21;-9.19;859.1;11.20;74474;2836.759;-1758.506;1;21;330;333.9;23.2;23.4;30;29.8;27.3;-1.0;
21/02/2025 09:39:15;117;0;18.84;-4;23.97;4.23;855.8;11.20;74474;2836.763;-1758.505;1;21;330;333.9;24.4;24.4;30;30.2;27.3;-1.0;
21/02/2025 09:39:35;117;0;19.84;-4;22.22;3.88;852.8;11.20;74471;2836.767;-1758.504;1;21;330;333.9;25.1;25.2;30;30.2;27.3;-1.0;
21/02/2025 09:39:55;117;0;18.36;-4;20.92;3.98;850.1;11.20;74469;2836.770;-1758.503;1;22;330;335.5;25.1;25.2;33;32.9;27.3;-1.0;
21/02/2025 09:40:15;117;0;20.06;-4;20.71;5.38;847.3;11.20;74469;2836.774;-1758.502;1;22;330;333.9;25.1;25.3;31;31.1;27.3;-1.0;
21/02/2025 09:40:35;117;0;20.35;-4;20.92;3.96;844.5;11.20;74467;2836.778;-1758.502;1;22;330;333.9;25.1;25.2;31;30.7;27.3;-1.0;
21/02/2025 09:40:55;117;0;20.38;-4;20.24;3.90;841.6;11.20;74462;2836.782;-1758.500;1;22;330;332.3;25.1;25.3;31;30.7;27.3;-1.0;
21/02/2025 09:41:15;117;0;20.30;-4;19.91;4.28;838.9;11.20;74462;2836.786;-1758.499;1;22;330;333.9;25.1;25.2;31;30.7;27.3;-1.0;
21/02/2025 09:41:35;117;0;20.58;-4;20.63;4.02;836.2;11.20;74451;2836.789;-1758.499;1;22;330;333.9;25.1;25.2;31;30.7;27.3;-1.0;
21/02/2025 09:41:55;117;0;19.53;-4;19.64;4.14;833.6;11.20;74448;2836.793;-1758.498;1;22;330;333.9;25.1;25.2;31;30.7;27.3;-1.0;
21/02/2025 09:42:15;117;0;21.37;-4;20.13;3.87;831.1;11.10;74452;2836.796;-1758.497;1;22;330;333.9;25.1;25.2;31;30.7;27.3;-1.0;
21/02/2025 09:42:35;117;0;21.81;-4;20.13;4.04;828.7;11.10;74448;2836.800;-1758.496;1;22;330;333.9;25.1;25.2;31;30.7;27.3;-1.0;
21/02/2025 09:42:55;117;0;21.92;-4;20.32;4.10;826.3;11.10;74443;2836.803;-1758.495;1;22;330;335.5;25.1;25.3;31;30.7;27.3;-1.0;
21/02/2025 09:43:15;117;0;21.92;-4;20.07;4.07;823.9;11.10;74455;2836.806;-1758.494;1;23;330;333.9;25.1;25.3;31;30.7;27.4;-1.0;
21/02/2025 09:43:35;117;0;22.80;-4;20.23;3.88;821.4;11.10;74439;2836.810;-1758.493;1;23;330;333.9;25.1;25.2;31;30.7;27.4;-1.0;
21/02/2025 09:43:55;117;0;24.47;-4;19.41;4.33;818.9;11.10;74444;2836.813;-1758.492;1;23;330;335.5;25.1;25.3;31;30.7;27.3;-1.0;
21/02/2025 09:44:15;117;0;21.79;-4;17.14;4.90;816.4;11.10;74442;2836.817;-1758.491;1;23;330;332.3;24.2;24.2;31;30.7;27.3;-1.0;
21/02/2025 09:44:35;117;0;22.31;-4;23.52;3.92;814.5;11.10;74445;2836.819;-1758.490;1;23;350;354.8;25.3;25.3;37;37.0;27.4;-1.0;
21/02/2025 09:44:55;117;0;26.94;-4;21.14;7.36;812.1;11.00;74397;2836.822;-1758.489;1;23;350;353.2;25.3;25.3;29;28.4;27.3;-1.0;
21/02/2025 09:45:15;117;0;30.47;-4;21.17;2.98;809.6;11.00;74397;2836.826;-1758.488;1;23;350;353.2;25.3;25.3;29;28.4;27.3;-1.0;
21/02/2025 09:45:35;117;0;29.22;-4;19.75;2.72;807.2;11.00;74398;2836.829;-1758.486;1;23;350;350.0;25.3;25.3;29;28.4;27.3;-1.0;
21/02/2025 09:45:55;117;0;28.29;-4;19.79;2.96;804.9;11.00;74401;2836.832;-1758.485;1;23;350;351.6;25.3;25.3;29;28.9;27.3;-1.0;
21/02/2025 09:46:15;117;0;28.26;-4;19.45;2.85;802.7;11.00;74383;2836.835;-1758.484;1;23;350;353.2;25.3;25.3;29;28.4;27.3;-1.0;
21/02/2025 09:46:35;117;0;29.35;-4;19.50;2.92;800.4;11.00;74388;2836.838;-1758.483;1;23;350;353.2;25.3;25.3;29;28.9;27.3;-1.0;
21/02/2025 09:46:55;117;0;31.01;-4;19.83;2.92;798.1;11.00;74403;2836.841;-1758.481;1;23;350;353.2;25.3;25.3;29;28.4;27.3;-1.0;
21/02/2025 09:47:15;117;0;31.94;-4;19.74;3.00;795.6;11.00;74403;2836.844;-1758.480;1;23;350;353.2;25.3;25.3;29;28.4;27.3;-1.0;
21/02/2025 09:47:35;117;0;31.94;-4;19.34;2.97;793.0;11.00;74398;2836.848;-1758.478;1;23;350;353.2;25.3;25.5;29;28.4;27.3;-1.0;
21/02/2025 09:47:55;117;0;32.64;-4;19.15;2.92;790.4;11.00;74407;2836.851;-1758.476;1;23;350;350.0;25.3;25.3;29;28.4;27.3;-1.0;
21/02/2025 09:48:15;117;0;33.54;-4;19.27;2.96;787.8;11.00;74412;2836.854;-1758.475;1;23;350;353.2;25.3;25.3;29;28.4;27.3;-1.0;
21/02/2025 09:48:35;117;0;33.46;-4;19.14;3.05;785.3;11.00;74407;2836.858;-1758.473;1;23;350;350.0;25.3;25.3;29;28.4;27.3;-1.0;
21/02/2025 09:48:55;117;0;35.10;-4;19.03;2.93;782.7;11.00;74398;2836.861;-1758.471;1;23;350;353.2;25.3;25.3;29;28.9;27.3;-1.0;
21/02/2025 09:49:15;117;0;35.21;-4;19.24;2.88;780.2;10.90;74402;2836.864;-1758.469;1;23;350;353.2;25.3;25.3;29;28.4;27.3;-1.0;
21/02/2025 09:49:35;117;0;34.49;-4;19.72;2.81;777.6;11.00;74410;2836.867;-1758.467;1;23;350;351.6;25.3;25.3;29;28.4;27.3;-1.0;
21/02/2025 09:49:55;117;0;37.04;-4;19.09;2.85;775.0;10.90;74402;2836.871;-1758.465;1;23;350;353.2;25.3;25.5;27;27.1;27.3;-1.0;
21/02/2025 09:50:15;117;0;36.12;-4;19.01;2.06;772.3;10.90;74405;2836.874;-1758.463;1;23;350;353.2;25.3;25.3;27;27.1;27.3;-1.0;
21/02/2025 09:50:35;117;0;36.05;-4;19.11;2.30;769.8;10.90;74411;2836.877;-1758.462;1;23;350;353.2;25.3;25.3;27;27.1;27.3;-1.0;
21/02/2025 09:50:55;117;0;37.72;-4;19.31;2.00;767.3;10.90;74414;2836.880;-1758.460;1;23;350;353.2;25.3;25.3;27;27.1;27.3;-1.0;
21/02/2025 09:51:15;117;0;37.19;-4;19.00;2.05;764.7;10.90;74405;2836.883;-1758.458;1;23;350;351.6;25.3;25.3;27;27.1;27.3;-1.0;
21/02/2025 09:51:35;117;0;38.37;-4;18.99;2.38;761.9;10.90;74400;2836.887;-1758.455;1;23;350;351.6;25.0;24.9;27;27.1;27.3;-1.0;
21/02/2025 09:51:55;117;0;40.13;-4;19.22;1.98;759.2;10.90;74407;2836.890;-1758.453;1;22;350;353.2;25.0;24.9;25;24.8;27.3;-1.0;
21/02/2025 09:52:15;117;0;38.37;-4;19.16;1.02;756.6;10.90;74403;2836.893;-1758.451;1;22;350;351.6;25.0;24.6;25;24.8;27.3;-1.0;
21/02/2025 09:52:35;117;0;37.35;-4;20.38;1.15;754.0;10.90;74400;2836.896;-1758.449;1;22;350;353.2;25.0;24.6;27;27.5;27.3;-1.0;
21/02/2025 09:52:55;117;0;38.65;-4;19.53;2.53;751.2;10.90;74403;2836.900;-1758.447;1;22;350;353.2;25.0;24.6;27;28.4;27.3;-1.0;
21/02/2025 09:53:15;117;0;36.52;-4;20.65;2.61;748.2;10.90;74394;2836.903;-1758.445;1;22;350;353.2;25.0;24.6;27;28.0;27.3;-1.0;
21/02/2025 09:53:35;117;0;34.46;-4;19.35;2.78;745.3;10.90;74394;2836.907;-1758.443;1;22;350;351.6;25.0;24.6;27;28.4;27.3;-1.0;
21/02/2025 09:53:55;117;0;34.11;-4;19.59;2.67;742.4;10.90;74400;2836.910;-1758.441;1;22;350;353.2;25.0;24.6;27;28.4;27.3;-1.0;
21/02/2025 09:54:15;117;0;33.74;-4;18.59;2.01;739.6;10.90;74403;2836.914;-1758.439;1;22;350;353.2;24.5;24.6;27;28.0;27.3;-1.0;
21/02/2025 09:54:35;117;0;32.38;-4;19.98;2.36;736.8;10.90;74384;2836.917;-1758.437;1;21;350;353.2;24.5;24.6;27;28.0;27.3;-1.0;
21/02/2025 09:54:55;117;0;31.75;-4;19.69;2.54;734.0;10.90;74405;2836.921;-1758.435;1;21;350;353.2;24.5;24.6;27;28.4;27.3;-1.0;
21/02/2025 09:55:15;117;0;30.11;-4;19.91;2.69;731.2;10.90;74394;2836.924;-1758.434;1;21;350;350.0;24.5;24.6;27;28.0;27.3;-1.0;
21/02/2025 09:55:35;117;0;29.74;-4;19.49;2.83;728.4;10.90;74392;2836.928;-1758.432;1;21;350;353.2;24.5;24.6;27;28.0;27.3;-1.0;
21/02/2025 09:55:55;117;0;30.47;-4;20.21;2.75;725.6;10.90;74392;2836.932;-1758.430;1;21;350;351.6;24.5;24.6;27;28.0;27.3;-1.0;
21/02/2025 09:56:15;117;0;28.64;-4;19.52;2.68;722.9;10.90;74387;2836.935;-1758.429;1;21;350;353.2;24.5;24.6;27;28.0;27.3;-1.0;
21/02/2025 09:56:35;117;0;28.19;-4;19.58;2.81;720.2;10.90;74395;2836.939;-1758.427;1;21;350;353.2;24.5;24.6;27;28.4;27.3;-1.0;
21/02/2025 09:56:55;117;0;27.77;-4;19.84;2.77;717.5;10.90;74387;2836.942;-1758.426;1;21;350;353.2;24.5;24.6;27;28.0;27.3;-1.0;
21/02/2025 09:57:15;117;0;25.21;-4;19.40;2.95;715.0;10.90;74393;2836.946;-1758.425;1;22;350;353.2;24.5;24.6;27;28.0;27.3;-1.0;
21/02/2025 09:57:36;117;0;24.64;-4;19.52;2.94;712.5;10.90;74393;2836.949;-1758.424;1;22;350;351.6;24.5;24.7;29;28.9;27.3;-1.0;
21/02/2025 09:57:56;117;0;26.06;-4;19.64;3.53;710.0;10.90;74390;2836.952;-1758.422;1;22;350;353.2;24.5;24.7;29;29.3;27.3;-1.0;
21/02/2025 09:58:16;117;0;25.16;-4;19.92;3.42;707.6;10.90;74396;2836.956;-1758.421;1;22;350;353.2;24.5;24.6;29;29.3;27.3;-1.0;
21/02/2025 09:58:36;117;0;25.72;-4;20.23;3.27;705.2;10.90;74396;2836.959;-1758.420;1;22;350;351.6;24.5;24.6;29;29.3;27.3;-1.0;
21/02/2025 09:58:56;117;0;24.22;-4;19.84;3.46;702.8;10.90;74400;2836.962;-1758.419;1;22;350;351.6;24.5;24.6;29;29.3;27.3;-1.0;
21/02/2025 09:59:16;117;0;23.47;-4;19.09;3.57;700.4;10.90;74398;2836.966;-1758.418;1;22;350;353.2;24.5;24.6;29;29.3;27.3;-1.0;
21/02/2025 09:59:36;117;0;23.61;-4;20.38;3.55;697.9;10.90;74400;2836.969;-1758.417;1;23;350;353.2;24.5;24.6;29;29.3;27.3;-1.0;
21/02/2025 09:59:56;117;0;21.61;-4;20.07;3.52;695.4;10.90;74393;2836.972;-1758.416;1;23;350;353.2;24.5;24.7;32;32.0;27.3;-1.0;
21/02/2025 10:00:16;117;0;20.96;-4;19.98;5.08;692.9;10.90;74404;2836.976;-1758.415;1;23;350;351.6;24.5;24.6;32;32.5;27.3;-1.0;
21/02/2025 10:00:36;117;0;21.15;-4;20.09;5.18;690.3;10.90;74415;2836.980;-1758.414;1;24;350;353.2;24.5;24.6;32;32.5;27.3;-1.0;
21/02/2025 10:00:56;117;0;22.67;-4;19.89;5.00;687.6;10.90;74423;2836.983;-1758.413;1;24;350;353.2;24.5;24.6;32;32.5;27.3;-1.0;
21/02/2025 10:01:16;117;0;24.30;-4;19.61;5.04;685.0;10.90;74429;2836.987;-1758.412;1;24;350;353.2;24.5;24.6;30;29.8;27.3;-1.0;
21/02/2025 10:01:36;117;0;26.62;-4;19.45;3.40;682.6;10.90;74433;2836.990;-1758.411;1;25;350;353.2;24.5;24.6;30;29.8;27.3;-1.0;
21/02/2025 10:01:56;117;0;31.03;-4;20.18;2.95;680.3;10.90;74441;2836.993;-1758.409;1;25;350;353.2;24.5;24.6;28;27.5;27.3;-1.0;
21/02/2025 10:02:16;117;0;30.24;-4;19.69;2.46;677.8;10.90;74444;2836.996;-1758.408;1;25;350;353.2;24.5;24.6;28;27.5;27.3;-1.0;
21/02/2025 10:02:36;117;0;30.05;-4;19.48;2.67;675.4;10.90;74446;2837.000;-1758.406;1;25;350;354.8;24.5;24.6;28;27.5;27.3;-1.0;
21/02/2025 10:02:56;117;0;30.11;-4;19.22;2.39;673.1;10.90;74460;2837.003;-1758.405;1;25;350;353.2;24.5;24.6;28;27.5;27.3;-1.0;
21/02/2025 10:03:16;117;0;30.36;-4;19.70;2.40;670.9;10.90;74444;2837.006;-1758.404;1;25;350;353.2;24.5;24.6;28;27.5;27.3;-1.0;
21/02/2025 10:03:36;117;0;30.24;-4;19.67;2.39;668.6;10.90;74449;2837.009;-1758.403;1;25;350;351.6;24.5;24.6;28;27.5;27.3;-1.0;
21/02/2025 10:03:56;117;0;30.99;-4;19.82;2.42;666.4;10.90;74449;2837.011;-1758.401;1;26;350;353.2;24.5;24.6;28;27.5;27.3;-1.0;
21/02/2025 10:04:16;117;0;31.97;-4;19.75;2.18;664.1;11.00;74440;2837.014;-1758.400;1;26;350;353.2;24.5;24.6;28;27.5;27.3;-1.0;
21/02/2025 10:04:36;117;0;32.46;-4;19.98;2.45;661.9;11.00;74461;2837.017;-1758.399;1;26;350;353.2;24.5;24.6;28;27.5;27.3;-1.0;
21/02/2025 10:04:56;117;0;33.23;-4;19.66;2.20;659.5;11.00;74458;2837.020;-1758.397;1;26;350;353.2;24.5;24.6;28;27.5;27.3;-1.0;
21/02/2025 10:05:16;117;0;34.03;-4;19.70;2.34;657.2;11.00;74460;2837.023;-1758.396;1;26;350;353.2;24.5;24.6;28;27.5;27.3;-1.0;
21/02/2025 10:05:36;117;0;33.52;-4;20.06;2.42;655.0;11.00;74472;2837.026;-1758.394;1;26;350;353.2;24.5;24.6;28;27.5;27.3;-1.0;
21/02/2025 10:05:56;117;0;31.58;-4;19.59;2.24;652.6;11.00;74458;2837.029;-1758.393;1;27;350;354.8;24.5;24.6;28;27.5;27.4;-1.0;
21/02/2025 10:06:16;117;0;28.86;-4;19.36;2.39;650.1;11.00;74474;2837.033;-1758.391;1;27;350;353.2;24.5;24.6;30;29.8;27.3;-1.0;
21/02/2025 10:06:36;117;0;29.49;-4;19.44;3.63;647.7;11.00;74473;2837.036;-1758.390;1;28;350;353.2;24.5;24.7;30;30.2;27.3;-1.0;
21/02/2025 10:06:56;117;0;29.91;-4;19.76;3.92;645.4;11.00;74470;2837.039;-1758.389;1;28;350;353.2;24.5;24.6;30;30.7;27.3;-1.0;
21/02/2025 10:07:16;117;0;30.13;-4;19.57;3.86;642.8;11.00;74472;2837.042;-1758.387;1;29;350;353.2;24.5;24.6;30;30.2;27.3;-1.0;
21/02/2025 10:07:36;117;0;30.11;-4;19.90;3.89;640.4;11.00;74483;2837.045;-1758.386;1;30;350;353.2;24.5;24.6;32;32.9;27.3;-1.0;
21/02/2025 10:07:56;117;0;31.32;-4;19.88;5.57;637.9;11.00;74472;2837.048;-1758.384;1;31;350;353.2;24.5;24.6;32;33.8;27.3;-1.0;
21/02/2025 10:08:16;117;0;33.24;-4;20.11;5.62;635.4;11.00;74472;2837.052;-1758.383;1;31;350;351.6;24.5;24.6;30;29.8;27.3;-1.0;
21/02/2025 10:08:36;117;0;33.03;-4;19.76;3.50;632.8;11.10;74476;2837.055;-1758.381;1;33;350;351.6;24.5;24.6;30;29.8;27.3;-1.0;
21/02/2025 10:08:56;117;0;32.49;-4;19.95;3.52;630.3;11.10;74484;2837.058;-1758.379;1;34;350;353.2;24.5;24.6;33;32.9;27.3;-1.0;
21/02/2025 10:09:16;117;0;33.44;-4;19.79;5.78;627.7;11.10;74484;2837.061;-1758.378;1;36;350;351.6;24.5;24.6;35;35.2;27.3;-1.0;
21/02/2025 10:09:36;117;0;35.26;-4;19.96;6.58;625.2;11.10;74472;2837.064;-1758.376;1;39;350;353.2;24.5;24.7;35;35.6;27.3;-1.0;
21/02/2025 10:09:56;117;0;36.59;-4;19.91;6.65;622.5;11.10;74483;2837.068;-1758.374;1;44;350;353.2;24.5;24.6;41;41.1;27.3;-1.0;
21/02/2025 10:10:16;117;0;40.61;-4;20.16;9.44;620.0;11.10;74483;2837.071;-1758.372;1;52;350;353.2;24.5;24.6;48;47.8;27.3;-1.0;
21/02/2025 10:10:36;117;0;46.14;-4;20.58;13.20;617.4;11.10;74490;2837.073;-1758.370;1;73;350;350.0;24.5;24.6;70;69.9;27.3;-1.0;
21/02/2025 10:10:56;117;0;56.36;-4;20.37;25.13;614.8;11.10;74493;2837.076;-1758.367;1;180;350;353.2;24.5;24.7;70;70.4;27.3;-1.0;
21/02/2025 10:11:16;117;0;68.41;-4;20.43;25.21;612.1;11.10;74488;2837.077;-1758.364;1;221;350;351.6;24.5;24.6;70;70.4;27.3;-1.0;
21/02/2025 10:11:36;117;0;81.57;-4;20.28;25.02;609.4;11.10;74488;2837.078;-1758.360;1;234;350;353.2;24.5;24.6;70;70.4;27.3;-1.0;
21/02/2025 10:11:56;117;0;95.54;-4;20.56;25.41;606.9;11.10;74489;2837.079;-1758.357;1;243;350;350.0;24.5;24.6;70;70.4;27.3;-1.0;
21/02/2025 10:12:16;117;0;107.45;-4;20.68;25.16;604.3;11.10;74486;2837.078;-1758.354;1;251;350;353.2;24.5;24.7;70;69.9;27.3;-1.0;
21/02/2025 10:12:36;117;0;122.22;-4;20.49;25.34;601.7;11.20;74504;2837.077;-1758.351;1;259;350;353.2;24.5;24.6;70;70.4;27.3;-1.0;
21/02/2025 10:12:56;117;0;134.23;-4;20.45;25.27;599.1;11.10;74497;2837.075;-1758.349;1;267;350;353.2;24.5;24.6;70;70.4;27.3;-1.0;
21/02/2025 10:13:16;117;0;145.59;-4;20.25;25.17;596.6;11.20;74507;2837.073;-1758.347;1;274;350;353.2;24.5;24.6;70;70.4;27.3;-1.0;
21/02/2025 10:13:36;117;0;159.41;-4;20.63;25.22;594.1;11.20;74501;2837.070;-1758.346;1;281;350;353.2;24.5;24.6;70;70.4;27.3;-1.0;
21/02/2025 10:13:56;117;0;171.84;-4;20.63;25.33;591.6;11.20;74504;2837.068;-1758.346;1;289;350;353.2;24.5;24.6;70;70.4;27.3;-1.0;
21/02/2025 10:14:16;117;0;183.98;-4;20.40;25.19;589.2;11.20;74507;2837.065;-1758.347;1;297;350;353.2;24.5;24.6;70;70.4;27.3;-1.0;
21/02/2025 10:14:36;117;0;197.41;-4;20.25;24.94;586.8;11.20;74515;2837.063;-1758.348;1;305;350;353.2;24.5;24.6;70;70.4;27.3;-1.0;
21/02/2025 10:14:56;117;0;210.22;-4;20.76;25.34;584.3;11.20;74518;2837.060;-1758.350;1;313;350;353.2;24.5;24.6;70;70.4;27.3;-1.0;
21/02/2025 10:15:16;117;0;223.50;-4;20.29;25.21;581.9;11.20;74518;2837.059;-1758.353;1;322;350;353.2;24.5;24.6;70;70.4;27.3;-1.0;
21/02/2025 10:15:36;117;0;236.46;-4;20.21;25.13;579.4;11.20;74507;2837.057;-1758.357;1;331;350;353.2;24.5;24.6;70;70.4;27.3;-1.0;
21/02/2025 10:15:56;117;0;249.76;-4;20.12;25.28;577.1;11.20;74527;2837.057;-1758.360;1;341;350;354.8;24.5;24.4;70;70.4;27.3;-1.0;
21/02/2025 10:16:16;117;0;263.52;-4;20.23;25.35;574.7;11.20;74516;2837.057;-1758.364;1;352;350;353.2;24.5;24.6;70;70.4;27.3;-1.0;
21/02/2025 10:16:36;117;0;277.43;-4;20.39;25.35;572.2;11.20;74525;2837.058;-1758.368;1;3;350;353.2;24.5;24.6;70;70.4;27.3;-1.0;
21/02/2025 10:16:56;117;0;290.59;-4;20.43;25.16;569.8;11.20;74521;2837.059;-1758.372;1;16;350;353.2;24.5;24.6;70;70.4;27.3;-1.0;
21/02/2025 10:17:16;117;0;302.11;-4;20.39;24.80;567.3;11.30;74521;2837.062;-1758.375;1;30;350;353.2;24.5;24.6;70;70.4;27.3;-1.0;
21/02/2025 10:17:36;117;0;314.10;-4;20.56;25.48;564.8;11.30;74533;2837.064;-1758.378;1;45;350;353.2;24.5;24.6;70;70.4;27.3;-1.0;
