Timestamp;NavState;SecurityLevel;Heading;Declination;Pitch;Roll;Depth;Temperature;Pa;Lat;Lon;DeadReckoning;DesiredH;BallastCmd;BallastPos;LinCmd;LinPos;AngCmd;AngPos;Voltage;Altitude;
20/02/2025 06:12:26;119;0;122.99;-4;-60.93;-8.09;0.1;19.60;76358;2837.441;-1758.507;0;162;500;509.7;100.0;100.6;0;-0.5;27.5;-1.0;
20/02/2025 06:12:36;116;0;104.83;-4;-56.19;-2.75;-0.0;19.60;76353;2837.443;-1758.508;0;162;500;509.7;100.0;100.4;0;-0.5;27.5;-1.0;
20/02/2025 06:13:01;116;0;127.63;-4;-60.74;-11.07;-0.1;19.60;76365;2837.443;-1758.510;0;161;500;508.1;100.0;100.4;0;-0.5;27.5;-1.0;
20/02/2025 06:13:27;116;0;138.28;-4;-49.20;-9.24;0.0;19.70;76372;2837.444;-1758.510;0;161;500;509.7;100.0;100.6;0;-0.5;27.5;-1.0;
20/02/2025 06:13:47;116;0;129.00;-4;-62.76;-10.18;-0.1;19.70;76381;2837.445;-1758.510;0;161;500;509.7;100.0;100.4;0;-0.5;27.5;-1.0;
20/02/2025 06:14:07;116;0;138.72;-4;-52.88;-24.56;-0.0;19.70;76365;2837.447;-1758.511;0;161;500;508.1;100.0;100.6;0;-0.5;27.5;-1.0;
20/02/2025 06:14:21;116;0;122.54;-4;-57.24;-16.16;-0.0;19.70;76375;2837.447;-1758.512;0;161;500;511.3;100.0;100.4;0;-0.5;27.5;-1.0;
20/02/2025 06:15:00;116;0;123.89;-4;-53.03;-9.00;-0.1;19.80;76379;2837.449;-1758.514;0;161;500;509.7;100.0;100.6;0;-0.5;27.5;-1.0;
20/02/2025 06:15:52;116;0;126.53;-4;-49.18;-9.43;-0.0;19.90;76393;2837.450;-1758.517;0;161;500;511.3;100.0;100.4;0;-0.5;27.5;-1.0;
20/02/2025 06:16:03;116;0;118.12;-4;-54.99;-0.21;-0.1;19.90;76387;2837.450;-1758.517;0;161;500;509.7;100.0;100.4;0;-0.5;27.6;-1.0;
20/02/2025 06:16:14;116;0;123.60;-4;-57.40;-16.13;0.0;19.90;76386;2837.450;-1758.517;0;161;500;508.1;100.0;100.4;0;-0.5;27.5;-1.0;
20/02/2025 06:17:16;116;0;110.97;-4;-46.61;-14.97;-0.0;20.10;76401;2837.453;-1758.520;0;161;500;509.7;100.0;100.4;0;-0.5;27.5;-1.0;
20/02/2025 06:18:01;116;0;122.98;-4;-52.63;-21.49;-0.1;20.20;76404;2837.456;-1758.523;0;160;500;509.7;100.0;100.4;0;-0.5;27.5;-1.0;
20/02/2025 06:18:12;116;0;126.18;-4;-51.98;-24.09;-0.1;20.20;76412;2837.456;-1758.523;0;160;500;509.7;100.0;100.4;0;-0.5;27.5;-1.0;
20/02/2025 06:18:32;110;0;133.06;-4;-48.66;-13.84;0.2;20.30;76400;2837.456;-1758.523;0;160;-50;396.8;100.0;100.4;-15;-14.9;27.5;-1.0;
20/02/2025 06:18:42;110;0;145.36;-4;-59.48;-20.39;0.1;20.30;76765;2837.457;-1758.524;1;160;-50;246.8;100.0;100.4;-15;-14.9;27.5;-1.0;
20/02/2025 06:18:52;110;0;148.61;-4;-52.10;-28.11;0.6;20.30;77002;2837.457;-1758.524;1;160;-50;85.5;100.0;100.4;-15;-14.9;27.5;-1.0;
20/02/2025 06:19:02;110;0;137.13;-4;-68.95;-20.39;1.1;20.30;77343;2837.457;-1758.525;1;160;-50;-48.4;100.0;100.6;-15;-15.3;27.5;-1.0;
20/02/2025 06:19:12;110;0;130.37;-4;-65.94;-15.07;1.7;20.40;77612;2837.457;-1758.525;1;160;-50;-48.4;48.1;48.0;-15;-15.3;27.5;-1.0;
20/02/2025 06:19:32;100;0;141.92;-4;-34.12;-19.07;5.0;20.40;77597;2837.456;-1758.524;1;160;-50;-46.8;48.1;47.7;-15;-14.9;27.5;-1.0;
20/02/2025 06:19:52;100;0;151.56;-4;-29.29;-19.48;8.8;20.50;77595;2837.454;-1758.523;1;160;-50;-45.2;48.1;47.7;8;8.1;27.5;-1.0;
20/02/2025 06:20:12;100;0;153.29;-4;-30.52;-6.48;12.3;20.50;77605;2837.452;-1758.523;1;160;-50;-45.2;48.1;47.7;8;8.6;27.5;-1.0;
20/02/2025 06:20:32;100;0;152.90;-4;-31.55;-7.22;16.0;20.50;77608;2837.450;-1758.522;1;160;-50;-45.2;48.1;47.7;8;8.6;27.5;0.0;
20/02/2025 06:20:52;100;0;151.55;-4;-29.54;-6.65;19.9;20.50;77608;2837.448;-1758.521;1;160;-50;-45.2;48.1;47.7;8;8.6;27.5;0.0;
20/02/2025 06:21:12;100;0;156.08;-4;-30.06;-7.28;23.6;20.50;77605;2837.446;-1758.521;1;160;-50;-45.2;48.1;47.7;8;8.6;27.5;0.0;
20/02/2025 06:21:32;100;0;155.46;-4;-30.66;-7.42;27.6;20.50;77613;2837.444;-1758.520;1;160;-50;-45.2;48.1;47.7;8;8.6;27.6;0.0;
20/02/2025 06:21:52;100;0;155.56;-4;-29.34;-7.09;31.7;20.50;77610;2837.441;-1758.519;1;160;-50;-43.5;48.1;47.7;8;8.1;27.5;0.0;
20/02/2025 06:22:12;100;0;156.53;-4;-30.14;-7.31;35.5;20.50;77616;2837.439;-1758.519;1;160;-50;-45.2;48.1;47.7;8;8.6;27.5;0.0;
20/02/2025 06:22:32;100;0;158.58;-4;-29.42;-6.85;39.4;20.50;77620;2837.436;-1758.518;1;160;-50;-45.2;48.1;47.7;10;9.9;27.5;0.0;
20/02/2025 06:22:52;100;0;162.46;-4;-31.18;-5.93;43.3;20.50;77613;2837.434;-1758.518;1;160;-50;-45.2;48.1;47.6;14;14.0;27.5;0.0;
20/02/2025 06:23:12;100;0;162.76;-4;-30.51;-4.19;47.3;20.50;77613;2837.431;-1758.518;1;160;-50;-45.2;48.1;47.7;14;14.4;27.5;0.0;
20/02/2025 06:23:32;100;0;159.36;-4;-29.17;-4.11;51.1;20.50;77608;2837.429;-1758.518;1;160;-50;-45.2;48.1;47.7;10;9.9;27.5;0.0;
20/02/2025 06:23:52;100;0;157.78;-4;-29.14;-6.45;54.5;20.50;77605;2837.427;-1758.518;1;159;-50;-45.2;48.1;47.7;10;9.5;27.5;0.0;
20/02/2025 06:24:12;100;0;157.31;-4;-30.54;-6.73;58.0;20.50;77600;2837.425;-1758.517;1;159;-50;-45.2;48.1;47.7;10;9.5;27.5;0.0;
20/02/2025 06:24:32;100;0;155.84;-4;-29.54;-6.33;61.7;20.50;77600;2837.423;-1758.517;1;159;-50;-45.2;48.1;47.7;10;9.5;27.5;0.0;
20/02/2025 06:24:52;100;0;159.12;-4;-29.73;-6.70;65.1;20.50;77603;2837.421;-1758.517;1;159;-50;-45.2;48.1;47.6;12;12.2;27.5;0.0;
20/02/2025 06:25:12;100;0;159.34;-4;-29.93;-5.24;68.7;20.50;77601;2837.419;-1758.516;1;159;-50;-45.2;48.1;47.7;12;12.6;27.5;0.0;
20/02/2025 06:25:32;100;0;155.16;-4;-29.92;-5.34;72.4;20.50;77601;2837.417;-1758.516;1;159;-50;-45.2;48.1;47.7;9;9.0;27.5;0.0;
20/02/2025 06:25:52;100;0;155.13;-4;-29.71;-6.95;76.0;20.40;77593;2837.415;-1758.515;1;159;-50;-45.2;48.1;47.7;9;9.0;27.5;0.0;
20/02/2025 06:26:12;100;0;156.45;-4;-29.79;-6.96;79.6;20.40;77596;2837.413;-1758.515;1;159;-50;-45.2;48.1;47.7;9;9.0;27.5;0.0;
20/02/2025 06:26:32;100;0;155.46;-4;-29.92;-7.10;83.2;20.40;77586;2837.410;-1758.514;1;159;-50;-45.2;48.1;47.7;9;9.0;27.5;0.0;
20/02/2025 06:26:52;100;0;156.16;-4;-29.75;-7.10;86.8;20.40;77588;2837.408;-1758.514;1;159;-50;-46.8;48.1;47.9;9;9.0;27.5;0.0;
20/02/2025 06:27:12;100;0;156.98;-4;-29.85;-7.24;90.4;20.40;77595;2837.406;-1758.513;1;159;-50;-45.2;48.1;47.7;11;10.8;27.5;0.0;
20/02/2025 06:27:32;100;0;159.36;-4;-29.72;-5.76;94.0;20.40;77577;2837.404;-1758.513;1;159;-50;-46.8;48.1;47.7;11;11.3;27.5;0.0;
20/02/2025 06:27:52;100;0;159.89;-4;-30.14;-5.82;97.7;20.40;77583;2837.402;-1758.513;1;159;-50;-45.2;48.1;47.7;11;11.3;27.5;0.0;
20/02/2025 06:28:12;100;0;152.08;-4;-30.03;-5.57;101.5;20.40;77589;2837.400;-1758.512;1;159;-50;-45.2;48.1;47.7;9;9.0;27.5;0.0;
20/02/2025 06:28:32;100;0;148.70;-4;-29.79;-6.94;105.3;20.40;77569;2837.398;-1758.511;1;159;-50;-45.2;48.1;47.7;9;9.0;27.5;0.0;
20/02/2025 06:28:52;100;0;143.06;-4;-28.71;-7.01;109.0;20.30;77587;2837.396;-1758.510;1;159;-50;-45.2;48.5;48.5;9;9.0;27.6;0.0;
20/02/2025 06:29:12;100;0;142.51;-4;-31.05;-7.11;112.5;20.30;77559;2837.394;-1758.509;1;159;-50;-45.2;48.5;48.6;9;9.0;27.5;0.0;
20/02/2025 06:29:32;100;0;144.42;-4;-30.41;-7.00;116.3;20.30;77557;2837.392;-1758.508;1;159;-50;-45.2;48.5;48.6;9;9.0;27.5;0.0;
20/02/2025 06:29:52;100;0;147.66;-4;-30.68;-6.79;120.1;20.30;77552;2837.390;-1758.507;1;159;-50;-45.2;48.5;48.7;9;9.0;27.5;0.0;
20/02/2025 06:30:12;100;0;143.02;-4;-29.92;-6.89;123.9;20.30;77542;2837.389;-1758.505;1;159;-50;-45.2;48.5;48.6;9;9.0;27.5;0.0;
20/02/2025 06:30:32;100;0;141.72;-4;-29.58;-7.10;127.5;20.20;77529;2837.387;-1758.504;1;159;-50;-43.5;48.5;48.6;7;7.2;27.5;0.0;
20/02/2025 06:30:52;100;0;143.57;-4;-30.05;-8.17;131.1;20.20;77516;2837.385;-1758.503;1;159;-50;-45.2;48.5;48.6;7;6.8;27.5;0.0;
20/02/2025 06:31:12;100;0;146.21;-4;-30.57;-8.00;134.9;20.20;77509;2837.383;-1758.502;1;159;-50;-45.2;48.5;48.6;9;9.5;27.5;0.0;
20/02/2025 06:31:32;100;0;148.26;-4;-30.47;-6.40;138.9;20.20;77484;2837.381;-1758.501;1;159;-50;-45.2;48.5;48.6;9;9.9;27.5;0.0;
20/02/2025 06:31:52;100;0;151.65;-4;-31.49;-6.39;142.8;20.10;77477;2837.379;-1758.500;1;159;-50;-45.2;48.5;48.7;9;9.9;27.5;0.0;
20/02/2025 06:32:12;100;0;151.89;-4;-30.63;-6.57;147.0;20.10;77468;2837.377;-1758.499;1;159;-50;-45.2;48.5;48.6;9;9.9;27.5;0.0;
20/02/2025 06:32:32;100;0;153.26;-4;-30.89;-6.47;151.2;20.10;77461;2837.374;-1758.498;1;159;-50;-45.2;48.5;48.6;9;9.9;27.5;0.0;
20/02/2025 06:32:52;100;0;149.87;-4;-31.14;-6.35;155.4;20.10;77456;2837.372;-1758.497;1;159;-50;-45.2;48.5;48.7;9;9.9;27.5;0.0;
20/02/2025 06:33:12;100;0;143.23;-4;-31.17;-6.74;159.8;20.00;77455;2837.370;-1758.496;1;159;-50;-43.5;48.5;48.6;7;7.2;27.5;0.0;
20/02/2025 06:33:32;100;0;134.99;-4;-30.25;-8.12;164.0;20.00;77428;2837.368;-1758.494;1;159;-50;-45.2;48.5;48.7;-2;-1.8;27.5;0.0;
20/02/2025 06:33:52;100;0;133.37;-4;-30.03;-12.57;168.0;20.00;77428;2837.367;-1758.492;1;159;-50;-45.2;48.5;48.7;-2;-2.3;27.5;0.0;
20/02/2025 06:34:12;100;0;135.34;-4;-29.80;-12.56;171.9;20.00;77411;2837.365;-1758.490;1;160;-50;-45.2;48.5;48.7;-2;-2.3;27.5;0.0;
20/02/2025 06:34:32;100;0;142.19;-4;-29.47;-12.46;176.0;19.90;77409;2837.363;-1758.488;1;160;-50;-48.4;48.5;48.6;6;5.9;27.5;0.0;
20/02/2025 06:34:52;100;0;147.38;-4;-30.38;-8.28;179.9;19.90;77406;2837.361;-1758.487;1;160;-50;-45.2;48.5;48.6;8;8.1;27.5;0.0;
20/02/2025 06:35:12;100;0;144.00;-4;-29.86;-7.15;184.0;19.90;77399;2837.359;-1758.486;1;160;-50;-45.2;48.5;48.7;8;8.6;27.5;0.0;
20/02/2025 06:35:32;100;0;138.54;-4;-29.61;-7.28;187.9;19.80;77370;2837.357;-1758.484;1;160;-50;-45.2;48.5;48.7;3;3.2;27.5;0.0;
20/02/2025 06:35:52;100;0;140.24;-4;-29.23;-10.14;191.5;19.80;77361;2837.355;-1758.483;1;160;-50;-45.2;48.5;48.7;5;5.4;27.5;0.0;
20/02/2025 06:36:12;100;0;140.56;-4;-29.61;-8.73;195.2;19.80;77337;2837.353;-1758.482;1;160;-50;-45.2;48.5;48.7;5;5.4;27.5;0.0;
20/02/2025 06:36:31;118;0;137.72;-4;-29.76;-8.73;198.7;19.70;77327;2837.352;-1758.480;1;160;190;-43.5;22.0;21.8;15;15.3;27.5;0.0;
20/02/2025 06:36:41;118;0;126.03;-4;-17.07;-4.17;200.1;19.70;77300;2837.351;-1758.479;1;160;190;87.1;22.0;21.6;15;15.3;27.1;-1.0;
20/02/2025 06:36:51;118;0;116.98;-4;10.92;-4.08;200.6;19.70;77027;2837.351;-1758.479;1;161;190;193.5;22.0;21.9;15;15.3;27.1;-1.0;
20/02/2025 06:37:01;118;0;133.63;-4;22.61;-4.41;199.9;19.70;76805;2837.351;-1758.478;1;161;190;195.2;22.0;22.1;15;15.3;27.5;-1.0;
20/02/2025 06:37:11;118;0;133.68;-4;26.76;-4.34;198.9;19.70;76808;2837.351;-1758.478;1;161;190;195.2;22.0;22.2;15;15.3;27.5;-1.0;
20/02/2025 06:37:31;117;0;135.48;-4;28.23;-4.53;196.5;19.60;76804;2837.350;-1758.477;1;161;190;195.2;22.0;22.2;15;15.8;27.5;-1.0;
20/02/2025 06:37:51;117;0;131.34;-4;28.00;-4.41;194.0;19.60;76790;2837.349;-1758.476;1;161;190;195.2;21.4;21.1;46;46.0;27.5;-1.0;
20/02/2025 06:38:11;117;0;134.06;-4;32.21;12.20;191.5;19.60;76791;2837.349;-1758.476;1;161;190;195.2;22.1;22.1;42;42.0;27.5;-1.0;
20/02/2025 06:38:31;117;0;135.77;-4;30.56;9.67;188.7;19.50;76794;2837.348;-1758.475;1;161;190;193.5;22.1;22.4;42;41.5;27.5;-1.0;
20/02/2025 06:38:51;117;0;134.21;-4;30.29;9.54;186.0;19.50;76790;2837.347;-1758.474;1;161;190;195.2;22.1;22.4;44;44.2;27.5;-1.0;
20/02/2025 06:39:11;117;0;136.10;-4;29.95;11.25;183.4;19.40;76797;2837.346;-1758.473;1;161;190;195.2;22.1;22.4;41;41.1;27.5;-1.0;
20/02/2025 06:39:31;117;0;139.40;-4;29.77;9.15;181.0;19.40;76809;2837.345;-1758.473;1;161;190;195.2;22.1;22.4;39;38.8;27.5;-1.0;
20/02/2025 06:39:51;117;0;141.24;-4;29.37;7.70;178.7;19.40;76819;2837.345;-1758.472;1;161;190;195.2;22.1;22.4;39;37.9;27.5;-1.0;
20/02/2025 06:40:11;117;0;141.97;-4;29.50;7.76;176.4;19.30;76810;2837.344;-1758.472;1;161;190;193.5;22.1;22.4;39;38.4;27.5;-1.0;
20/02/2025 06:40:31;117;0;137.26;-4;29.77;7.94;174.2;19.30;76822;2837.343;-1758.471;1;161;190;195.2;22.1;22.4;39;38.4;27.5;-1.0;
20/02/2025 06:40:51;117;0;134.94;-4;29.68;7.76;172.0;19.30;76813;2837.343;-1758.471;1;161;190;193.5;22.1;22.4;39;38.4;27.5;-1.0;
20/02/2025 06:41:11;117;0;134.20;-4;29.60;7.75;169.7;19.30;76823;2837.342;-1758.470;1;161;190;195.2;22.1;22.4;41;41.1;27.5;-1.0;
20/02/2025 06:41:31;117;0;137.16;-4;29.59;9.54;167.5;19.30;76823;2837.342;-1758.470;1;161;190;195.2;22.1;22.4;39;38.8;27.5;-1.0;
20/02/2025 06:41:51;117;0;140.26;-4;29.42;7.65;165.2;19.20;76830;2837.341;-1758.469;1;161;190;191.9;22.1;22.4;39;37.9;27.5;-1.0;
20/02/2025 06:42:11;117;0;147.57;-4;29.70;7.79;163.0;19.20;76826;2837.340;-1758.469;1;161;190;195.2;22.1;22.4;39;37.9;27.5;-1.0;
20/02/2025 06:42:31;117;0;152.76;-4;29.26;7.57;160.8;19.20;76829;2837.339;-1758.469;1;161;190;193.5;22.1;22.4;36;36.1;27.5;-1.0;
20/02/2025 06:42:52;117;0;155.76;-4;29.28;6.35;158.6;19.20;76838;2837.338;-1758.469;1;161;190;193.5;22.1;22.4;33;32.9;27.5;-1.0;
20/02/2025 06:43:12;117;0;157.50;-4;28.81;4.67;156.4;19.20;76841;2837.337;-1758.469;1;161;190;195.2;21.7;21.6;31;30.7;27.5;-1.0;
20/02/2025 06:43:32;117;0;157.62;-4;29.89;3.59;154.2;19.20;76842;2837.336;-1758.469;1;161;190;191.9;21.7;21.4;31;30.7;27.5;-1.0;
20/02/2025 06:43:52;117;0;158.97;-4;30.23;3.56;152.0;19.10;76840;2837.335;-1758.469;1;161;190;195.2;21.7;21.4;29;28.9;27.5;-1.0;
20/02/2025 06:44:12;117;0;157.72;-4;30.19;2.36;149.7;19.10;76846;2837.334;-1758.470;1;161;190;195.2;21.7;21.4;31;31.1;27.5;-1.0;
20/02/2025 06:44:32;117;0;156.66;-4;30.56;4.04;147.4;19.10;76838;2837.333;-1758.470;1;161;190;195.2;21.7;21.4;31;31.6;27.5;-1.0;
20/02/2025 06:44:52;117;0;153.74;-4;30.60;4.19;144.9;19.10;76836;2837.332;-1758.470;1;161;190;195.2;21.7;21.4;36;36.1;27.5;-1.0;
20/02/2025 06:45:12;117;0;150.95;-4;30.66;7.00;142.4;19.10;76840;2837.331;-1758.469;1;161;190;195.2;21.7;21.5;36;36.6;27.5;-1.0;
20/02/2025 06:45:32;117;0;147.48;-4;31.63;6.96;139.9;19.10;76848;2837.330;-1758.469;1;161;190;195.2;21.7;21.4;38;38.4;27.5;-1.0;
20/02/2025 06:45:52;117;0;141.85;-4;31.25;8.19;137.3;19.10;76855;2837.329;-1758.469;1;161;190;195.2;21.7;21.4;38;38.8;27.5;-1.0;
20/02/2025 06:46:12;117;0;139.97;-4;30.96;8.05;134.7;19.10;76857;2837.328;-1758.468;1;161;190;195.2;21.7;21.4;38;38.8;27.5;-1.0;
20/02/2025 06:46:32;117;0;139.62;-4;31.22;8.03;132.0;19.10;76858;2837.327;-1758.467;1;161;190;195.2;21.7;21.4;38;38.8;27.5;-1.0;
20/02/2025 06:46:52;117;0;136.79;-4;31.82;8.14;129.2;19.10;76861;2837.326;-1758.467;1;161;190;195.2;21.7;21.4;41;41.5;27.5;-1.0;
20/02/2025 06:47:12;117;0;135.86;-4;31.26;9.77;126.2;19.10;76878;2837.325;-1758.466;1;161;190;195.2;21.7;21.4;43;42.9;27.5;-1.0;
20/02/2025 06:47:32;117;0;141.92;-4;31.27;10.71;123.4;19.10;76889;2837.324;-1758.465;1;161;190;195.2;21.7;21.4;38;36.1;27.5;-1.0;
20/02/2025 06:47:52;117;0;143.46;-4;30.83;7.18;120.6;19.10;76889;2837.323;-1758.464;1;161;190;195.2;21.7;21.4;38;37.5;27.5;-1.0;
20/02/2025 06:48:12;117;0;141.78;-4;31.21;7.55;117.8;19.10;76900;2837.322;-1758.464;1;161;190;195.2;21.7;21.5;38;37.5;27.5;-1.0;
20/02/2025 06:48:32;117;0;138.54;-4;30.73;7.56;115.2;19.10;76900;2837.321;-1758.463;1;161;190;196.8;21.7;21.4;38;37.5;27.5;-1.0;
20/02/2025 06:48:52;117;0;131.48;-4;31.12;7.53;112.4;19.00;76893;2837.321;-1758.462;1;161;190;196.8;21.7;21.4;48;47.8;27.5;-1.0;
20/02/2025 06:49:12;117;0;132.98;-4;31.67;13.35;109.6;19.10;76914;2837.320;-1758.461;1;161;190;196.8;21.7;21.4;44;43.8;27.5;-1.0;
20/02/2025 06:49:32;117;0;136.07;-4;30.84;10.43;106.9;19.10;76920;2837.319;-1758.460;1;162;190;195.2;21.7;21.5;42;42.0;27.5;-1.0;
20/02/2025 06:49:52;117;0;140.18;-4;30.73;9.49;104.3;19.10;76942;2837.318;-1758.460;1;162;190;195.2;21.7;21.4;39;38.4;27.5;-1.0;
20/02/2025 06:50:12;117;0;143.06;-4;30.44;7.54;101.8;19.10;76942;2837.317;-1758.459;1;162;190;195.2;21.7;21.4;39;37.9;27.5;-1.0;
20/02/2025 06:50:32;117;0;144.48;-4;30.41;7.56;99.4;19.10;76942;2837.316;-1758.459;1;162;190;195.2;21.7;21.4;39;37.9;27.5;-1.0;
20/02/2025 06:50:52;117;0;145.18;-4;31.19;7.57;97.0;19.10;76962;2837.316;-1758.458;1;162;190;195.2;21.7;21.4;39;37.9;27.5;-1.0;
20/02/2025 06:51:12;117;0;143.58;-4;30.60;7.60;94.5;19.10;76970;2837.315;-1758.458;1;162;190;196.8;21.7;21.4;39;37.9;27.5;-1.0;
20/02/2025 06:51:32;117;0;144.07;-4;30.69;7.53;92.1;19.10;76969;2837.314;-1758.458;1;162;190;195.2;21.7;21.5;39;37.9;27.5;-1.0;
20/02/2025 06:51:52;117;0;142.21;-4;30.63;7.66;89.7;19.10;76975;2837.313;-1758.457;1;162;190;195.2;21.7;21.4;39;37.9;27.5;-1.0;
20/02/2025 06:52:12;117;0;138.93;-4;31.19;7.67;87.5;19.10;76980;2837.312;-1758.457;1;162;190;195.2;21.7;21.4;39;37.9;27.6;-1.0;
20/02/2025 06:52:32;117;0;135.45;-4;31.44;7.64;84.9;19.10;76982;2837.312;-1758.456;1;162;190;191.9;21.7;21.4;42;42.4;27.5;-1.0;
20/02/2025 06:52:52;117;0;133.94;-4;31.36;10.30;82.4;19.10;76985;2837.311;-1758.455;1;162;190;196.8;21.7;21.4;42;42.4;27.5;-1.0;
20/02/2025 06:53:12;117;0;132.19;-4;30.73;10.24;80.0;19.20;76984;2837.311;-1758.455;1;162;190;196.8;21.7;21.4;44;44.7;27.5;-1.0;
20/02/2025 06:53:32;117;0;138.61;-4;31.43;11.69;77.5;19.20;76990;2837.310;-1758.454;1;162;190;195.2;21.7;21.4;40;40.2;27.5;-1.0;
20/02/2025 06:53:52;117;0;141.71;-4;30.21;8.18;75.1;19.20;76993;2837.309;-1758.454;1;162;190;195.2;21.7;21.4;40;39.3;27.5;-1.0;
20/02/2025 06:54:12;117;0;144.09;-4;31.35;8.30;72.8;19.20;77003;2837.308;-1758.453;1;162;190;195.2;21.7;21.4;38;37.9;27.5;-1.0;
20/02/2025 06:54:32;117;0;144.41;-4;30.99;7.35;70.3;19.20;76997;2837.307;-1758.453;1;162;190;195.2;21.7;21.4;38;37.5;27.5;-1.0;
20/02/2025 06:54:52;117;0;146.14;-4;30.44;7.30;67.8;19.20;77005;2837.306;-1758.452;1;162;190;195.2;21.7;21.4;38;37.5;27.5;-1.0;
20/02/2025 06:55:12;117;0;146.64;-4;29.90;7.20;65.5;19.20;76999;2837.305;-1758.452;1;162;190;196.8;21.7;21.4;38;37.5;27.5;-1.0;
20/02/2025 06:55:32;117;0;144.64;-4;30.12;7.35;63.2;19.20;77007;2837.305;-1758.452;1;162;190;191.9;21.7;21.4;38;37.5;27.5;-1.0;
20/02/2025 06:55:52;117;0;141.66;-4;30.44;7.18;61.2;19.20;77019;2837.304;-1758.452;1;162;190;195.2;21.7;21.4;38;37.5;27.5;-1.0;
20/02/2025 06:56:12;117;0;139.47;-4;30.27;7.38;58.9;19.30;77027;2837.303;-1758.451;1;162;190;195.2;21.7;21.4;38;37.5;27.5;-1.0;
20/02/2025 06:56:32;117;0;137.85;-4;30.40;7.22;56.7;19.30;77037;2837.303;-1758.451;1;162;190;196.8;21.7;21.4;38;37.5;27.5;-1.0;
20/02/2025 06:56:52;117;0;134.53;-4;30.51;7.34;54.5;19.30;77031;2837.302;-1758.450;1;162;190;195.2;21.7;21.4;41;41.1;27.5;-1.0;
20/02/2025 06:57:12;117;0;132.75;-4;31.43;9.50;52.1;19.30;77037;2837.302;-1758.450;1;162;190;196.8;21.7;21.4;44;44.2;27.5;-1.0;
20/02/2025 06:57:32;117;0;133.72;-4;31.42;11.44;49.7;19.30;77042;2837.301;-1758.449;1;162;190;196.8;21.7;21.4;44;44.7;27.5;-1.0;
20/02/2025 06:57:52;117;0;133.63;-4;30.99;11.42;47.1;19.30;77054;2837.300;-1758.448;1;163;190;195.2;21.7;21.4;44;44.7;27.5;-1.0;
20/02/2025 06:58:12;117;0;135.17;-4;30.58;11.38;44.7;19.30;77054;2837.300;-1758.447;1;163;190;195.2;21.7;21.4;44;44.7;27.5;-1.0;
20/02/2025 06:58:32;117;0;136.40;-4;30.21;11.34;42.3;19.30;77056;2837.299;-1758.447;1;163;190;195.2;21.7;21.4;42;42.0;27.5;-1.0;
20/02/2025 06:58:52;117;0;135.98;-4;30.32;9.45;40.0;19.40;77059;2837.298;-1758.446;1;163;190;195.2;21.7;21.4;42;41.5;27.5;-1.0;
20/02/2025 06:59:12;117;0;136.85;-4;29.83;9.36;37.7;19.40;77069;2837.298;-1758.446;1;163;190;195.2;21.7;21.4;42;41.1;27.5;-1.0;
20/02/2025 06:59:32;117;0;138.76;-4;30.66;9.40;35.2;19.40;77066;2837.297;-1758.445;1;163;190;195.2;21.7;21.4;40;40.2;27.5;-1.0;
20/02/2025 06:59:52;117;0;139.25;-4;30.36;8.50;32.9;19.40;77076;2837.296;-1758.445;1;163;190;193.5;21.7;21.4;40;39.3;27.5;-1.0;
20/02/2025 07:00:12;117;0;141.91;-4;29.68;8.23;30.6;19.40;77081;2837.296;-1758.444;1;163;190;196.8;21.7;21.4;40;39.3;27.5;-1.0;
20/02/2025 07:00:32;117;0;141.81;-4;30.73;8.27;28.2;19.40;77075;2837.295;-1758.444;1;163;190;195.2;21.7;21.5;40;39.7;27.5;-1.0;
20/02/2025 07:00:52;117;0;141.69;-4;30.69;8.26;25.7;19.40;77080;2837.294;-1758.443;1;163;190;195.2;21.7;21.5;40;39.3;27.6;-1.0;
20/02/2025 07:01:12;117;0;143.32;-4;29.95;8.23;23.2;19.50;77084;2837.293;-1758.443;1;163;190;196.8;21.7;21.5;40;39.3;27.5;-1.0;
20/02/2025 07:01:32;117;0;143.48;-4;29.94;8.30;20.6;19.50;77093;2837.292;-1758.442;1;163;190;195.2;21.7;21.4;40;39.3;27.5;-1.0;
20/02/2025 07:01:52;117;0;143.79;-4;27.97;8.35;18.1;19.50;77087;2837.291;-1758.442;1;163;190;196.8;21.1;21.1;40;39.3;27.5;-1.0;
20/02/2025 07:02:12;117;0;143.69;-4;31.25;8.41;16.0;19.50;77083;2837.290;-1758.441;1;163;190;196.8;21.1;20.9;40;39.3;27.5;-1.0;
20/02/2025 07:02:32;117;0;146.32;-4;30.78;8.24;13.8;19.50;77085;2837.290;-1758.441;1;163;190;196.8;21.1;20.8;40;39.3;27.5;-1.0;
20/02/2025 07:02:52;117;0;145.07;-4;31.99;8.19;11.6;19.50;77087;2837.289;-1758.441;1;163;190;195.2;21.1;20.8;40;39.3;27.5;-1.0;
20/02/2025 07:03:12;117;0;144.52;-4;32.48;8.16;9.1;19.50;77084;2837.288;-1758.441;1;163;190;196.8;21.8;21.8;40;39.3;27.5;-1.0;
20/02/2025 07:03:32;117;0;145.80;-4;29.26;8.67;6.5;19.50;77079;2837.287;-1758.440;1;163;190;196.8;21.8;21.9;40;39.3;27.5;-1.0;
20/02/2025 07:03:52;117;0;146.57;-4;29.73;9.01;3.8;19.50;77081;2837.286;-1758.440;1;163;190;196.8;21.8;21.9;40;39.3;27.5;-1.0;
20/02/2025 07:03:58;115;0;147.97;-4;28.24;9.10;3.0;19.60;77088;2837.285;-1758.440;1;163;500;203.2;100.0;64.2;0;-0.5;27.5;-1.0;
20/02/2025 07:04:08;115;0;135.14;-4;9.98;-12.95;2.2;19.60;77059;2837.285;-1758.439;1;163;500;319.4;100.0;100.1;0;-0.5;27.3;-1.0;
20/02/2025 07:04:18;115;0;132.94;-4;-65.69;-10.83;2.7;19.60;76799;2837.285;-1758.439;1;163;500;441.9;100.0;100.6;0;-0.5;27.3;-1.0;
20/02/2025 07:04:28;115;0;133.23;-4;-75.31;-22.32;2.6;19.60;76536;2837.285;-1758.440;1;163;500;506.5;100.0;100.6;0;-0.5;27.3;-1.0;
20/02/2025 07:04:38;115;0;139.46;-4;-27.00;-10.49;-0.1;19.60;76405;2837.284;-1758.438;1;163;500;506.5;100.0;100.6;0;-0.5;27.5;-1.0;
20/02/2025 07:04:58;119;0;139.09;-4;-54.77;-13.69;0.4;19.60;76421;2837.284;-1758.438;1;163;500;508.1;100.0;100.7;0;-0.5;27.5;-1.0;
20/02/2025 07:05:08;119;0;130.74;-4;-48.79;-11.06;0.3;19.60;76418;2837.237;-1758.396;0;163;500;508.1;100.0;100.7;0;-0.5;27.5;-1.0;
