Timestamp;NavState;SecurityLevel;Heading;Declination;Pitch;Roll;Depth;Temperature;Pa;Lat;Lon;DeadReckoning;DesiredH;BallastCmd;BallastPos;LinCmd;LinPos;AngCmd;AngPos;Voltage;Altitude;
21/02/2025 14:31:09;119;0;220.07;-4;-53.13;-10.97;0.1;17.90;75899;2835.656;-1758.123;0;165;500;506.5;100.0;100.6;0;-0.5;27.3;-1.0;
21/02/2025 14:31:19;116;0;244.68;-4;-52.03;-20.28;0.1;17.90;75917;2835.657;-1758.123;0;165;500;508.1;100.0;100.6;0;-0.5;27.3;-1.0;
21/02/2025 14:31:44;116;0;250.68;-4;-54.73;-11.97;0.0;18.00;75919;2835.659;-1758.123;0;165;500;506.5;100.0;100.6;0;0.0;27.3;-1.0;
21/02/2025 14:32:11;116;0;255.85;-4;-54.34;-21.45;0.1;18.10;75935;2835.659;-1758.124;0;161;500;508.1;100.0;100.6;0;-0.5;27.3;-1.0;
21/02/2025 14:32:33;116;0;245.89;-4;-58.75;-5.89;0.2;18.10;75943;2835.660;-1758.126;0;161;500;508.1;100.0;100.6;0;-0.5;27.3;-1.0;
21/02/2025 14:33:36;116;0;253.70;-4;-51.63;-17.25;0.1;18.30;75966;2835.664;-1758.126;0;161;500;508.1;100.0;100.6;0;-0.5;27.3;-1.0;
21/02/2025 14:35:14;116;0;249.95;-4;-61.30;-20.39;0.1;18.70;75998;2835.667;-1758.124;0;161;500;508.1;100.0;100.6;0;-0.5;27.3;-1.0;
21/02/2025 14:35:34;116;0;253.98;-4;-58.04;-11.24;0.1;18.80;76010;2835.668;-1758.124;0;161;500;508.1;100.0;100.6;0;-0.5;27.3;-1.0;
21/02/2025 14:35:54;116;0;264.81;-4;-57.93;-15.62;0.0;18.90;76006;2835.669;-1758.124;0;161;500;509.7;100.0;100.6;0;-0.5;27.3;-1.0;
21/02/2025 14:36:14;116;0;255.77;-4;-52.82;-17.17;0.1;18.90;76015;2835.671;-1758.124;0;161;500;506.5;100.0;100.6;0;-0.5;27.3;-1.0;
21/02/2025 14:36:34;116;0;263.24;-4;-56.70;-17.19;0.3;19.00;76017;2835.673;-1758.124;0;161;500;506.5;100.0;100.6;0;-0.5;27.3;-1.0;
21/02/2025 14:36:54;116;0;268.71;-4;-55.70;-16.72;0.0;19.10;76027;2835.673;-1758.124;0;161;500;506.5;100.0;100.6;0;-0.5;27.3;-1.0;
21/02/2025 14:37:14;116;0;275.58;-4;-53.09;-13.44;0.1;19.10;76038;2835.675;-1758.125;0;161;500;508.1;100.0;100.6;0;-0.5;27.3;-1.0;
21/02/2025 14:37:34;116;0;275.07;-4;-54.93;-9.24;0.1;19.20;76043;2835.677;-1758.126;0;161;500;508.1;100.0;100.7;0;-0.5;27.3;-1.0;
21/02/2025 14:37:54;116;0;262.12;-4;-55.06;-15.41;0.2;19.30;76043;2835.677;-1758.126;0;161;500;508.1;100.0;100.6;0;-0.5;27.3;-1.0;
21/02/2025 14:38:14;116;0;253.36;-4;-49.72;-11.00;0.1;19.30;76047;2835.680;-1758.126;0;161;500;508.1;100.0;100.6;0;-0.5;27.3;-1.0;
21/02/2025 14:38:34;116;0;252.98;-4;-50.70;-14.81;0.1;19.40;76057;2835.681;-1758.126;0;161;500;508.1;100.0;100.6;0;-0.5;27.3;-1.0;
21/02/2025 14:38:54;116;0;271.27;-4;-55.06;-11.86;0.2;19.40;76053;2835.681;-1758.127;0;161;500;508.1;100.0;100.6;0;-0.5;27.3;-1.0;
21/02/2025 14:39:14;116;0;255.58;-4;-51.22;-14.03;0.2;19.50;76076;2835.683;-1758.127;0;161;500;508.1;100.0;100.6;0;-0.5;27.3;-1.0;
21/02/2025 14:39:34;116;0;229.74;-4;-59.95;-4.21;0.1;19.60;76071;2835.684;-1758.128;0;161;500;508.1;100.0;100.6;0;-0.5;27.3;-1.0;
21/02/2025 14:39:54;116;0;253.60;-4;-55.40;-12.62;0.1;19.60;76079;2835.684;-1758.127;0;161;500;508.1;100.0;100.6;0;-0.5;27.3;-1.0;
21/02/2025 14:40:15;116;0;262.61;-4;-54.30;-11.69;0.1;19.70;76085;2835.685;-1758.127;0;161;500;508.1;100.0;100.6;0;-0.5;27.3;-1.0;
21/02/2025 14:40:35;116;0;254.41;-4;-53.28;-18.89;0.0;19.70;76091;2835.686;-1758.127;0;161;500;508.1;100.0;100.6;0;-0.5;27.3;-1.0;
21/02/2025 14:40:42;116;0;239.60;-4;-54.96;-12.21;0.2;19.70;76088;2835.687;-1758.128;0;161;500;506.5;100.0;100.6;0;-0.5;27.3;-1.0;
21/02/2025 14:41:02;116;0;231.16;-4;-63.51;-8.92;0.1;19.80;76096;2835.688;-1758.128;0;161;500;508.1;100.0;100.6;0;-0.5;27.1;-1.0;
21/02/2025 14:41:12;116;0;247.16;-4;-59.51;-14.02;0.2;19.80;76086;2835.689;-1758.129;0;161;500;508.1;100.0;100.6;0;-0.5;27.3;-1.0;
21/02/2025 14:41:32;116;0;242.69;-4;-57.85;-12.28;0.0;19.90;76100;2835.690;-1758.128;0;161;500;508.1;100.0;100.6;0;-0.5;27.3;-1.0;
21/02/2025 14:41:52;116;0;247.23;-4;-49.58;-17.46;0.2;19.90;76114;2835.692;-1758.130;0;161;500;508.1;100.0;100.6;0;-0.5;27.3;-1.0;
21/02/2025 14:42:12;116;0;246.63;-4;-56.47;-13.72;0.1;20.00;76112;2835.693;-1758.129;0;161;500;508.1;100.0;100.6;0;-0.5;27.3;-1.0;
21/02/2025 14:42:28;116;0;247.96;-4;-59.96;-17.79;0.2;20.00;76121;2835.694;-1758.130;0;161;500;508.1;100.0;100.6;0;-0.5;27.3;-1.0;
21/02/2025 14:42:49;116;0;258.32;-4;-55.03;-7.55;0.2;20.00;76106;2835.695;-1758.130;0;161;500;508.1;100.0;100.6;0;-0.5;27.3;-1.0;
21/02/2025 14:43:52;116;0;255.49;-4;-58.05;-8.46;-0.0;20.20;76130;2835.698;-1758.131;0;161;500;508.1;100.0;100.6;0;-0.5;27.3;-1.0;
21/02/2025 14:44:40;116;0;231.06;-4;-57.25;-10.93;0.1;20.30;76151;2835.701;-1758.134;0;161;500;508.1;100.0;100.6;0;-0.5;27.3;-1.0;
21/02/2025 14:45:00;110;0;259.35;-4;-55.68;-12.75;-0.0;20.40;76144;2835.701;-1758.134;0;161;-70;393.5;100.0;100.6;-7;-7.2;27.3;-1.0;
21/02/2025 14:45:10;110;0;249.11;-4;-59.34;-14.54;0.1;20.40;76488;2835.701;-1758.134;1;161;-70;245.2;100.0;100.7;-7;-7.2;27.3;-1.0;
21/02/2025 14:45:20;110;0;247.46;-4;-60.32;-19.80;0.8;20.40;76738;2835.701;-1758.135;1;161;-70;79.0;100.0;100.6;-7;-7.2;27.3;-1.0;
21/02/2025 14:45:30;110;0;249.76;-4;-67.58;-32.24;1.0;20.40;77085;2835.702;-1758.135;1;161;-70;-69.4;100.0;100.6;-7;-7.2;27.3;-1.0;
21/02/2025 14:45:40;110;0;259.03;-4;-67.44;-29.54;1.3;20.50;77396;2835.702;-1758.136;1;161;-70;-69.4;41.5;41.5;-7;-7.2;27.3;-1.0;
21/02/2025 14:46:00;100;0;277.31;-4;-30.42;-15.83;4.8;20.50;77352;2835.703;-1758.140;1;161;-70;-66.1;41.5;41.2;-7;-7.2;27.3;-1.0;
21/02/2025 14:46:20;100;0;294.22;-4;-15.48;-15.24;7.8;20.50;77345;2835.705;-1758.145;1;161;-70;-62.9;42.9;43.2;70;69.9;27.3;-1.0;
21/02/2025 14:46:40;100;0;290.06;-4;-21.64;23.90;10.4;20.50;77351;2835.707;-1758.149;1;161;-70;-61.3;42.9;43.3;70;70.4;27.3;-1.0;
21/02/2025 14:47:00;100;0;276.01;-4;-23.93;23.84;13.4;20.50;77363;2835.708;-1758.153;1;161;-70;-61.3;41.7;41.7;70;70.4;27.3;0.0;
21/02/2025 14:47:20;100;0;265.50;-4;-20.26;23.30;16.4;20.50;77347;2835.708;-1758.158;1;161;-70;-61.3;41.7;41.5;70;70.4;27.3;0.0;
21/02/2025 14:47:40;100;0;253.26;-4;-19.24;23.91;19.1;20.50;77356;2835.708;-1758.162;1;161;-70;-62.9;41.7;41.5;70;70.4;27.3;0.0;
21/02/2025 14:48:00;100;0;242.08;-4;-19.15;23.66;21.7;20.50;77360;2835.707;-1758.166;1;161;-70;-61.3;41.7;41.5;70;70.4;27.3;0.0;
21/02/2025 14:48:20;100;0;229.49;-4;-19.26;23.63;24.2;20.50;77365;2835.705;-1758.170;1;161;-70;-61.3;41.7;41.4;70;70.4;27.3;0.0;
21/02/2025 14:48:40;100;0;218.42;-4;-18.95;23.58;26.8;20.40;77364;2835.703;-1758.173;1;161;-70;-61.3;42.0;42.0;70;70.4;27.3;0.0;
21/02/2025 14:49:00;100;0;205.89;-4;-19.39;23.76;29.4;20.40;77345;2835.700;-1758.175;1;161;-70;-61.3;42.0;42.0;70;70.4;27.3;0.0;
21/02/2025 14:49:20;100;0;194.25;-4;-19.30;23.90;31.9;20.40;77356;2835.698;-1758.176;1;161;-70;-64.5;42.0;42.0;59;59.1;27.3;0.0;
21/02/2025 14:49:40;100;0;180.81;-4;-19.13;17.37;34.6;20.40;77351;2835.695;-1758.177;1;161;-70;-64.5;42.0;42.0;38;37.9;27.3;0.0;
21/02/2025 14:50:00;100;0;172.39;-4;-18.62;7.06;37.1;20.40;77346;2835.692;-1758.177;1;161;-70;-61.3;42.4;42.6;24;23.9;27.3;0.0;
21/02/2025 14:50:20;100;0;168.57;-4;-19.27;-0.04;39.8;20.40;77351;2835.689;-1758.176;1;161;-70;-61.3;42.4;42.6;19;19.0;27.3;0.0;
21/02/2025 14:50:40;100;0;165.50;-4;-19.13;-2.37;42.5;20.40;77351;2835.686;-1758.176;1;161;-70;-62.9;42.4;42.7;17;16.7;27.3;0.0;
21/02/2025 14:51:00;100;0;164.46;-4;-18.78;-3.52;45.2;20.40;77347;2835.683;-1758.175;1;161;-70;-61.3;42.8;42.9;17;16.2;27.3;0.0;
21/02/2025 14:51:20;100;0;163.92;-4;-19.95;-3.54;47.9;20.40;77350;2835.681;-1758.175;1;161;-70;-61.3;42.8;43.0;17;16.2;27.3;0.0;
21/02/2025 14:51:40;100;0;162.86;-4;-19.88;-3.55;50.7;20.40;77356;2835.678;-1758.174;1;161;-70;-61.3;42.8;43.0;17;16.2;27.3;0.0;
21/02/2025 14:52:00;100;0;162.79;-4;-20.17;-3.45;53.5;20.40;77359;2835.675;-1758.173;1;161;-70;-62.9;42.8;43.0;17;16.2;27.3;0.0;
21/02/2025 14:52:20;100;0;159.37;-4;-19.97;-3.51;56.4;20.40;77359;2835.672;-1758.172;1;161;-70;-62.9;42.8;43.0;15;14.4;27.3;0.0;
21/02/2025 14:52:40;100;0;159.08;-4;-20.04;-4.67;59.2;20.30;77357;2835.669;-1758.171;1;161;-70;-61.3;42.8;43.0;15;14.0;27.3;0.0;
21/02/2025 14:53:00;100;0;157.44;-4;-20.04;-4.64;61.9;20.30;77360;2835.667;-1758.170;1;161;-70;-61.3;42.8;43.0;15;14.0;27.3;0.0;
21/02/2025 14:53:20;100;0;156.78;-4;-20.04;-4.53;64.7;20.30;77349;2835.664;-1758.169;1;161;-70;-59.7;42.8;43.0;15;14.0;27.3;0.0;
21/02/2025 14:53:40;100;0;156.58;-4;-19.91;-4.62;67.4;20.30;77361;2835.661;-1758.168;1;161;-70;-61.3;42.8;43.0;15;14.4;27.3;0.0;
21/02/2025 14:54:00;100;0;155.17;-4;-19.79;-4.65;70.2;20.30;77359;2835.659;-1758.167;1;161;-70;-62.9;42.8;43.2;15;14.0;27.3;0.0;
21/02/2025 14:54:20;100;0;154.64;-4;-19.60;-4.60;73.0;20.30;77362;2835.656;-1758.166;1;161;-70;-61.3;42.8;43.2;15;14.4;27.3;0.0;
21/02/2025 14:54:40;100;0;155.04;-4;-19.70;-4.54;75.7;20.30;77362;2835.653;-1758.165;1;161;-70;-61.3;42.8;43.2;15;14.0;27.3;0.0;
21/02/2025 14:55:00;100;0;154.94;-4;-19.57;-4.64;78.4;20.30;77366;2835.651;-1758.164;1;161;-70;-61.3;42.8;43.2;15;14.0;27.3;0.0;
21/02/2025 14:55:20;100;0;155.58;-4;-19.75;-4.58;81.1;20.30;77366;2835.648;-1758.162;1;161;-70;-62.9;42.8;43.2;15;14.0;27.3;0.0;
21/02/2025 14:55:40;100;0;156.84;-4;-19.71;-4.53;83.9;20.30;77366;2835.645;-1758.161;1;161;-70;-61.3;42.8;43.0;15;14.0;27.3;0.0;
21/02/2025 14:56:00;100;0;158.50;-4;-20.03;-4.57;86.7;20.20;77375;2835.643;-1758.160;1;161;-70;-61.3;42.8;43.2;15;14.0;27.3;0.0;
21/02/2025 14:56:20;100;0;158.18;-4;-20.14;-4.51;89.5;20.20;77363;2835.640;-1758.159;1;161;-70;-62.9;42.8;43.0;15;14.0;27.3;0.0;
21/02/2025 14:56:40;100;0;156.40;-4;-19.92;-4.57;92.2;20.20;77377;2835.637;-1758.158;1;161;-70;-61.3;42.8;43.2;15;14.0;27.3;0.0;
21/02/2025 14:57:00;100;0;155.51;-4;-19.35;-4.61;94.9;20.20;77360;2835.635;-1758.157;1;161;-70;-61.3;42.8;43.0;15;14.4;27.3;0.0;
21/02/2025 14:57:20;100;0;157.66;-4;-19.52;-4.56;97.3;20.20;77352;2835.632;-1758.156;1;161;-70;-61.3;42.8;43.2;15;14.0;27.3;0.0;
21/02/2025 14:57:40;100;0;160.90;-4;-19.66;-4.65;99.9;20.20;77342;2835.630;-1758.156;1;161;-70;-62.9;42.8;43.0;15;14.4;27.3;0.0;
21/02/2025 14:58:00;100;0;164.22;-4;-19.46;-4.67;102.5;20.20;77337;2835.627;-1758.155;1;161;-70;-62.9;42.8;43.0;15;14.0;27.3;0.0;
21/02/2025 14:58:20;100;0;163.11;-4;-19.24;-4.62;104.9;20.10;77324;2835.625;-1758.154;1;161;-70;-61.3;42.8;43.0;15;14.4;27.3;0.0;
21/02/2025 14:58:40;100;0;161.49;-4;-18.92;-4.68;107.2;20.10;77322;2835.622;-1758.154;1;161;-70;-62.9;43.1;43.2;15;14.0;27.3;0.0;
21/02/2025 14:59:00;100;0;158.42;-4;-19.06;-4.71;109.6;20.10;77302;2835.620;-1758.153;1;161;-70;-61.3;43.1;43.0;15;14.0;27.3;0.0;
21/02/2025 14:59:20;100;0;158.12;-4;-19.27;-4.76;111.9;20.10;77282;2835.618;-1758.152;1;161;-70;-61.3;43.1;43.0;15;14.4;27.3;0.0;
21/02/2025 14:59:40;100;0;159.82;-4;-19.40;-4.61;114.2;20.10;77273;2835.615;-1758.151;1;161;-70;-61.3;43.1;43.0;15;14.0;27.3;0.0;
21/02/2025 15:00:00;100;0;162.95;-4;-19.75;-4.51;116.7;20.00;77260;2835.613;-1758.151;1;161;-70;-64.5;43.1;43.0;15;14.0;27.3;0.0;
21/02/2025 15:00:20;100;0;163.12;-4;-19.73;-4.65;119.2;20.00;77253;2835.610;-1758.150;1;161;-70;-61.3;43.1;43.2;15;14.4;27.3;0.0;
21/02/2025 15:00:40;100;0;163.73;-4;-19.35;-4.61;121.7;19.90;77232;2835.608;-1758.150;1;161;-70;-62.9;43.1;43.0;15;14.0;27.3;0.0;
21/02/2025 15:01:00;100;0;167.80;-4;-19.15;-4.62;124.2;19.90;77219;2835.605;-1758.150;1;161;-70;-62.9;43.1;43.0;19;19.0;27.3;0.0;
21/02/2025 15:01:20;100;0;168.55;-4;-19.37;-1.88;126.7;19.90;77212;2835.602;-1758.149;1;161;-70;-61.3;43.1;43.0;19;19.4;27.3;0.0;
21/02/2025 15:01:40;100;0;168.17;-4;-19.45;-1.90;129.2;19.90;77194;2835.600;-1758.149;1;161;-70;-61.3;43.1;43.0;19;19.4;27.3;0.0;
21/02/2025 15:02:00;100;0;165.73;-4;-19.60;-1.88;131.6;19.80;77201;2835.597;-1758.149;1;161;-70;-61.3;43.1;43.2;17;17.1;27.3;0.0;
21/02/2025 15:02:20;100;0;164.85;-4;-19.20;-3.12;134.1;19.80;77191;2835.595;-1758.148;1;161;-70;-61.3;43.1;43.2;17;17.1;27.3;0.0;
21/02/2025 15:02:40;100;0;166.31;-4;-19.22;-3.14;136.5;19.80;77181;2835.592;-1758.148;1;161;-70;-61.3;43.1;43.2;17;17.1;27.3;0.0;
21/02/2025 15:03:00;100;0;167.52;-4;-19.03;-3.09;138.9;19.70;77177;2835.589;-1758.148;1;161;-70;-59.7;43.1;43.0;19;19.0;27.3;0.0;
21/02/2025 15:03:20;100;0;168.12;-4;-19.52;-2.04;141.3;19.70;77175;2835.587;-1758.147;1;161;-70;-62.9;43.1;43.2;19;19.4;27.3;0.0;
21/02/2025 15:03:40;100;0;168.09;-4;-19.63;-2.03;143.8;19.70;77165;2835.585;-1758.147;1;161;-70;-61.3;43.1;43.0;19;19.4;27.3;0.0;
21/02/2025 15:04:00;100;0;167.70;-4;-19.47;-2.01;146.2;19.60;77147;2835.582;-1758.147;1;161;-70;-61.3;43.1;43.2;19;19.4;27.3;0.0;
21/02/2025 15:04:20;100;0;165.80;-4;-19.69;-2.03;148.7;19.60;77143;2835.579;-1758.146;1;161;-70;-61.3;43.1;43.2;19;19.0;27.3;0.0;
21/02/2025 15:04:40;100;0;162.77;-4;-19.58;-2.02;151.2;19.50;77126;2835.577;-1758.146;1;161;-70;-62.9;43.1;43.0;16;15.8;27.3;0.0;
21/02/2025 15:05:00;100;0;160.92;-4;-19.25;-3.85;153.6;19.50;77132;2835.574;-1758.145;1;161;-70;-61.3;43.1;43.2;16;15.8;27.3;0.0;
21/02/2025 15:05:20;100;0;159.39;-4;-19.03;-3.85;156.0;19.50;77115;2835.572;-1758.144;1;161;-70;-61.3;43.1;43.2;16;15.8;27.3;0.0;
21/02/2025 15:05:40;100;0;159.05;-4;-19.48;-3.85;158.3;19.50;77100;2835.570;-1758.144;1;161;-70;-62.9;43.1;43.0;16;15.8;27.3;0.0;
21/02/2025 15:06:00;100;0;159.97;-4;-18.94;-3.82;160.6;19.40;77090;2835.567;-1758.143;1;161;-70;-61.3;43.4;43.4;16;15.8;27.3;0.0;
21/02/2025 15:06:20;100;0;160.88;-4;-19.85;-3.81;163.0;19.40;77075;2835.565;-1758.142;1;161;-70;-62.9;43.4;43.7;16;15.8;27.3;0.0;
21/02/2025 15:06:40;100;0;160.36;-4;-20.08;-3.86;165.4;19.30;77053;2835.563;-1758.142;1;161;-70;-61.3;43.4;43.6;16;15.8;27.3;0.0;
21/02/2025 15:07:00;100;0;159.51;-4;-20.26;-3.81;167.9;19.30;77034;2835.560;-1758.141;1;161;-70;-61.3;43.4;43.6;16;15.8;27.3;0.0;
21/02/2025 15:07:20;100;0;154.21;-4;-19.80;-3.81;170.4;19.20;77021;2835.558;-1758.140;1;161;-70;-62.9;43.4;43.7;16;15.8;27.3;0.0;
21/02/2025 15:07:40;100;0;152.39;-4;-19.85;-3.87;172.8;19.20;77028;2835.556;-1758.139;1;161;-70;-62.9;43.4;43.6;16;15.8;27.3;0.0;
21/02/2025 15:08:00;100;0;152.32;-4;-19.57;-4.03;175.3;19.20;77006;2835.554;-1758.138;1;161;-70;-61.3;43.4;43.6;16;15.8;27.3;0.0;
21/02/2025 15:08:20;100;0;152.66;-4;-20.15;-3.79;177.8;19.10;77001;2835.551;-1758.136;1;161;-70;-62.9;43.4;43.7;16;15.8;27.3;0.0;
21/02/2025 15:08:40;100;0;151.75;-4;-20.09;-3.94;180.4;19.10;76996;2835.549;-1758.135;1;161;-70;-61.3;43.4;43.6;16;15.8;27.3;0.0;
21/02/2025 15:09:00;100;0;155.49;-4;-20.11;-3.80;183.0;19.00;76982;2835.547;-1758.134;1;161;-70;-61.3;43.4;43.7;16;15.8;27.3;0.0;
21/02/2025 15:09:20;100;0;157.38;-4;-19.86;-3.81;185.6;19.00;76964;2835.544;-1758.133;1;161;-70;-61.3;43.4;43.7;16;15.8;27.3;0.0;
21/02/2025 15:09:40;100;0;151.61;-4;-20.48;-3.86;188.4;19.00;76957;2835.541;-1758.132;1;161;-70;-62.9;43.4;43.6;16;15.8;27.3;0.0;
21/02/2025 15:10:00;100;0;149.41;-4;-20.25;-3.78;191.2;18.90;76933;2835.539;-1758.130;1;161;-70;-62.9;43.4;43.6;14;14.0;27.3;0.0;
21/02/2025 15:10:20;100;0;147.12;-4;-20.09;-4.92;194.1;18.90;76924;2835.536;-1758.128;1;161;-70;-61.3;43.4;43.6;12;12.2;27.3;0.0;
21/02/2025 15:10:40;100;0;142.94;-4;-20.46;-5.74;196.9;18.80;76928;2835.534;-1758.126;1;161;-70;-62.9;43.4;43.7;8;8.1;27.3;0.0;
21/02/2025 15:11:00;100;0;141.63;-4;-20.13;-7.85;199.8;18.80;76913;2835.532;-1758.124;1;161;-70;-61.3;43.4;43.6;6;5.9;27.3;0.0;
21/02/2025 15:11:20;100;0;145.48;-4;-19.76;-8.92;202.7;18.70;76878;2835.529;-1758.122;1;161;-70;-61.3;43.4;43.6;11;10.8;27.3;0.0;
21/02/2025 15:11:40;100;0;150.35;-4;-19.93;-6.00;205.7;18.70;76884;2835.526;-1758.121;1;161;-70;-61.3;43.4;43.7;14;14.0;27.3;0.0;
21/02/2025 15:12:00;100;0;149.98;-4;-20.53;-4.39;208.7;18.70;76878;2835.524;-1758.119;1;161;-70;-61.3;43.4;43.7;14;14.4;27.3;0.0;
21/02/2025 15:12:20;100;0;148.05;-4;-20.42;-4.43;211.7;18.60;76866;2835.521;-1758.117;1;161;-70;-61.3;43.4;43.6;14;14.4;27.3;0.0;
21/02/2025 15:12:40;100;0;145.29;-4;-20.38;-4.45;214.7;18.60;76857;2835.519;-1758.115;1;161;-70;-61.3;43.4;43.7;9;9.0;27.3;0.0;
21/02/2025 15:13:00;100;0;144.69;-4;-19.90;-7.30;217.8;18.50;76834;2835.516;-1758.113;1;161;-70;-61.3;43.4;43.7;9;8.6;27.3;0.0;
21/02/2025 15:13:20;100;0;146.71;-4;-19.59;-7.32;220.6;18.50;76825;2835.513;-1758.111;1;161;-70;-61.3;43.4;43.6;12;12.6;27.3;0.0;
21/02/2025 15:13:40;100;0;147.72;-4;-19.91;-5.20;223.5;18.40;76813;2835.511;-1758.110;1;161;-70;-62.9;43.4;43.7;12;13.1;27.3;0.0;
21/02/2025 15:14:00;100;0;147.30;-4;-19.92;-5.17;226.5;18.40;76797;2835.508;-1758.108;1;161;-70;-61.3;43.4;43.7;12;13.1;27.3;0.0;
21/02/2025 15:14:20;100;0;147.89;-4;-19.75;-5.16;229.4;18.30;76786;2835.506;-1758.106;1;161;-70;-61.3;43.4;43.7;12;13.1;27.3;0.0;
21/02/2025 15:14:40;100;0;151.71;-4;-19.52;-5.16;232.2;18.30;76771;2835.503;-1758.105;1;161;-70;-62.9;43.4;43.7;14;14.0;27.3;0.0;
21/02/2025 15:15:00;100;0;154.90;-4;-19.70;-4.28;235.0;18.20;76756;2835.500;-1758.103;1;161;-70;-62.9;43.4;43.7;14;14.4;27.3;0.0;
21/02/2025 15:15:20;100;0;158.39;-4;-19.75;-4.37;237.7;18.20;76755;2835.498;-1758.102;1;161;-70;-62.9;43.4;43.7;14;14.4;27.3;0.0;
21/02/2025 15:15:41;100;0;160.46;-4;-19.72;-4.43;240.6;18.20;76743;2835.495;-1758.102;1;161;-70;-61.3;43.4;43.7;14;14.4;27.3;0.0;
21/02/2025 15:16:01;100;0;163.01;-4;-19.81;-4.23;243.4;18.10;76742;2835.492;-1758.101;1;161;-70;-61.3;43.4;43.6;16;15.8;27.3;0.0;
21/02/2025 15:16:21;100;0;164.92;-4;-19.75;-3.64;246.1;18.10;76732;2835.489;-1758.100;1;161;-70;-61.3;43.4;43.7;16;16.2;27.3;0.0;
21/02/2025 15:16:41;100;0;167.48;-4;-19.39;-3.70;248.8;18.00;76721;2835.486;-1758.100;1;161;-70;-61.3;43.4;43.7;19;19.4;27.3;0.0;
21/02/2025 15:17:01;100;0;169.14;-4;-19.95;-1.83;251.4;18.00;76725;2835.484;-1758.100;1;161;-70;-62.9;43.4;43.7;19;19.4;27.3;0.0;
21/02/2025 15:17:21;100;0;166.16;-4;-20.21;-1.78;254.1;17.90;76717;2835.481;-1758.099;1;161;-70;-61.3;43.4;43.7;19;19.9;27.3;0.0;
21/02/2025 15:17:41;100;0;163.08;-4;-19.93;-1.87;256.7;17.90;76705;2835.478;-1758.099;1;161;-70;-62.9;43.4;43.7;16;15.8;27.3;0.0;
21/02/2025 15:18:01;100;0;164.78;-4;-19.96;-3.87;259.3;17.90;76704;2835.475;-1758.098;1;161;-70;-62.9;43.4;43.7;16;15.8;27.3;0.0;
21/02/2025 15:18:21;100;0;167.37;-4;-20.20;-3.82;262.1;17.80;76694;2835.473;-1758.098;1;161;-70;-61.3;43.4;43.7;19;19.0;27.3;0.0;
21/02/2025 15:18:41;100;0;168.41;-4;-20.08;-1.96;264.9;17.80;76685;2835.470;-1758.098;1;161;-70;-61.3;43.4;43.7;19;19.4;27.3;0.0;
21/02/2025 15:19:01;100;0;164.70;-4;-20.30;-2.01;267.7;17.70;76675;2835.467;-1758.097;1;161;-70;-61.3;43.4;43.7;17;17.1;27.3;0.0;
21/02/2025 15:19:21;100;0;161.45;-4;-20.17;-3.21;270.6;17.70;76654;2835.464;-1758.096;1;161;-70;-61.3;43.4;43.7;17;17.1;27.3;0.0;
21/02/2025 15:19:41;100;0;157.29;-4;-20.04;-3.18;273.6;17.60;76644;2835.461;-1758.095;1;161;-70;-61.3;43.4;43.6;15;14.9;27.3;0.0;
21/02/2025 15:20:01;100;0;155.42;-4;-20.25;-4.28;276.6;17.60;76640;2835.458;-1758.094;1;161;-70;-61.3;43.4;43.7;15;14.9;27.3;0.0;
21/02/2025 15:20:21;100;0;154.65;-4;-19.76;-4.23;279.6;17.50;76631;2835.455;-1758.092;1;161;-70;-64.5;43.4;43.7;15;14.9;27.3;0.0;
21/02/2025 15:20:41;100;0;153.18;-4;-19.98;-4.30;282.5;17.50;76629;2835.452;-1758.091;1;161;-70;-61.3;43.4;43.7;15;14.9;27.3;0.0;
21/02/2025 15:21:01;100;0;152.53;-4;-20.12;-4.24;285.5;17.50;76619;2835.449;-1758.089;1;161;-70;-62.9;43.4;43.7;15;14.9;27.3;0.0;
21/02/2025 15:21:21;100;0;151.62;-4;-20.18;-4.26;288.6;17.40;76619;2835.446;-1758.088;1;161;-70;-61.3;43.4;43.7;15;14.9;27.3;0.0;
21/02/2025 15:21:41;100;0;151.50;-4;-20.11;-4.28;291.6;17.40;76609;2835.444;-1758.086;1;161;-70;-61.3;43.4;43.7;15;14.9;27.3;0.0;
21/02/2025 15:22:01;100;0;149.96;-4;-19.90;-4.28;294.6;17.30;76606;2835.441;-1758.085;1;161;-70;-61.3;43.4;43.6;15;14.9;27.3;0.0;
21/02/2025 15:22:21;100;0;147.17;-4;-19.71;-4.34;297.5;17.30;76590;2835.438;-1758.083;1;161;-70;-61.3;43.4;43.7;12;12.2;27.3;0.0;
21/02/2025 15:22:41;100;0;149.90;-4;-19.32;-5.65;300.4;17.30;76589;2835.436;-1758.081;1;161;-70;-61.3;43.4;43.7;14;14.4;27.3;0.0;
21/02/2025 15:23:01;100;0;150.27;-4;-19.50;-4.32;303.2;17.20;76577;2835.433;-1758.079;1;161;-70;-61.3;43.4;43.7;14;14.9;27.3;0.0;
21/02/2025 15:23:21;100;0;151.42;-4;-19.58;-4.32;306.0;17.20;76560;2835.430;-1758.078;1;161;-70;-62.9;43.4;43.7;14;14.4;27.3;0.0;
21/02/2025 15:23:41;100;0;150.98;-4;-19.66;-4.30;308.9;17.10;76558;2835.428;-1758.077;1;161;-70;-61.3;43.4;43.7;14;14.4;27.3;0.0;
21/02/2025 15:24:01;100;0;153.34;-4;-19.50;-4.29;311.7;17.10;76543;2835.425;-1758.075;1;161;-70;-59.7;43.4;43.7;14;14.4;27.3;0.0;
21/02/2025 15:24:21;100;0;153.15;-4;-19.46;-4.31;314.5;17.10;76537;2835.422;-1758.074;1;161;-70;-61.3;43.4;43.7;14;14.9;27.3;0.0;
21/02/2025 15:24:41;100;0;153.30;-4;-19.54;-4.26;317.3;17.00;76530;2835.420;-1758.072;1;161;-70;-61.3;43.4;43.7;14;14.9;27.3;0.0;
21/02/2025 15:25:01;100;0;151.17;-4;-19.49;-4.35;320.0;17.00;76515;2835.417;-1758.071;1;161;-70;-61.3;43.4;43.7;14;14.9;27.3;0.0;
21/02/2025 15:25:21;100;0;149.07;-4;-19.88;-4.35;322.8;17.00;76511;2835.415;-1758.069;1;161;-70;-61.3;43.4;43.7;14;14.4;27.3;0.0;
21/02/2025 15:25:41;100;0;147.54;-4;-19.48;-4.30;325.5;16.90;76493;2835.412;-1758.068;1;161;-70;-62.9;43.4;43.7;12;12.2;27.3;0.0;
21/02/2025 15:26:01;100;0;148.49;-4;-19.58;-5.71;328.1;16.90;76492;2835.410;-1758.066;1;161;-70;-61.3;43.4;43.7;12;11.7;27.3;0.0;
21/02/2025 15:26:21;100;0;149.15;-4;-19.46;-5.71;330.8;16.80;76492;2835.407;-1758.065;1;161;-70;-61.3;43.4;43.7;12;11.7;27.3;0.0;
21/02/2025 15:26:41;100;0;151.33;-4;-19.23;-5.79;333.5;16.80;76474;2835.405;-1758.063;1;161;-70;-64.5;43.4;43.7;14;14.0;27.3;0.0;
21/02/2025 15:27:01;100;0;151.80;-4;-19.51;-4.43;336.2;16.70;76473;2835.402;-1758.062;1;161;-70;-61.3;43.4;43.7;14;14.4;27.3;0.0;
21/02/2025 15:27:21;100;0;150.39;-4;-19.09;-4.50;338.9;16.70;76469;2835.400;-1758.060;1;161;-70;-61.3;43.4;43.6;14;14.4;27.3;0.0;
21/02/2025 15:27:41;100;0;148.17;-4;-19.32;-4.64;341.4;16.70;76465;2835.397;-1758.059;1;161;-70;-61.3;43.4;43.7;12;12.2;27.3;0.0;
21/02/2025 15:28:01;100;0;147.44;-4;-19.49;-5.65;344.0;16.60;76458;2835.395;-1758.057;1;161;-70;-62.9;43.4;43.7;12;12.2;27.3;0.0;
21/02/2025 15:28:21;100;0;148.06;-4;-19.38;-5.67;346.6;16.60;76455;2835.393;-1758.056;1;161;-70;-61.3;43.4;43.7;12;12.2;27.3;0.0;
21/02/2025 15:28:41;100;0;146.93;-4;-19.46;-5.59;349.1;16.60;76442;2835.391;-1758.054;1;161;-70;-62.9;43.4;43.6;12;12.2;27.3;0.0;
21/02/2025 15:29:01;100;0;146.11;-4;-19.46;-5.58;351.7;16.50;76429;2835.388;-1758.052;1;161;-70;-61.3;43.4;43.7;12;12.2;27.3;0.0;
21/02/2025 15:29:21;100;0;144.91;-4;-19.42;-5.63;354.2;16.50;76426;2835.386;-1758.051;1;161;-70;-61.3;43.4;43.7;9;9.0;27.3;0.0;
21/02/2025 15:29:41;100;0;147.56;-4;-19.14;-6.93;356.7;16.50;76413;2835.384;-1758.049;1;161;-70;-62.9;43.4;43.7;12;12.2;27.3;0.0;
21/02/2025 15:30:01;100;0;149.55;-4;-19.47;-5.37;359.1;16.40;76413;2835.382;-1758.048;1;161;-70;-61.3;43.4;43.7;12;12.2;27.3;0.0;
21/02/2025 15:30:21;100;0;150.26;-4;-19.62;-5.33;361.5;16.40;76401;2835.380;-1758.047;1;161;-70;-61.3;43.4;43.7;12;12.2;27.3;0.0;
21/02/2025 15:30:41;100;0;150.92;-4;-19.54;-5.36;364.0;16.30;76405;2835.377;-1758.045;1;161;-70;-61.3;43.4;43.7;14;14.0;27.3;0.0;
21/02/2025 15:31:01;100;0;151.59;-4;-19.60;-4.39;366.5;16.30;76401;2835.375;-1758.044;1;161;-70;-62.9;43.4;43.7;14;14.4;27.3;0.0;
21/02/2025 15:31:21;100;0;155.84;-4;-19.34;-4.35;368.9;16.30;76386;2835.373;-1758.043;1;161;-70;-62.9;43.4;43.6;14;14.4;27.3;0.0;
21/02/2025 15:31:41;100;0;158.69;-4;-19.68;-4.37;371.2;16.20;76375;2835.371;-1758.042;1;161;-70;-61.3;43.4;43.7;14;14.4;27.3;0.0;
21/02/2025 15:32:01;100;0;160.14;-4;-19.54;-4.41;373.6;16.20;76377;2835.368;-1758.042;1;161;-70;-61.3;43.4;43.6;14;14.4;27.3;0.0;
21/02/2025 15:32:21;100;0;161.92;-4;-19.75;-4.35;376.0;16.20;76366;2835.366;-1758.041;1;161;-70;-62.9;43.4;43.7;14;14.4;27.3;0.0;
21/02/2025 15:32:41;100;0;161.43;-4;-19.58;-4.37;378.4;16.10;76371;2835.364;-1758.041;1;161;-70;-61.3;43.4;43.7;14;14.4;27.3;0.0;
21/02/2025 15:33:01;100;0;160.59;-4;-19.54;-4.43;380.7;16.10;76353;2835.361;-1758.040;1;161;-70;-66.1;43.4;43.6;14;14.4;27.3;0.0;
21/02/2025 15:33:21;100;0;160.91;-4;-19.71;-4.40;383.1;16.10;76346;2835.359;-1758.039;1;161;-70;-61.3;43.4;43.7;14;14.4;27.3;0.0;
21/02/2025 15:33:41;100;0;161.08;-4;-19.54;-4.38;385.4;16.00;76342;2835.357;-1758.039;1;161;-70;-61.3;43.4;43.7;14;14.4;27.3;0.0;
21/02/2025 15:34:01;100;0;160.63;-4;-19.42;-4.39;387.8;16.00;76338;2835.354;-1758.038;1;161;-70;-61.3;43.4;43.7;14;14.4;27.3;0.0;
21/02/2025 15:34:21;100;0;161.15;-4;-19.22;-4.38;390.1;16.00;76335;2835.352;-1758.037;1;161;-70;-61.3;43.4;43.7;14;14.4;27.3;0.0;
21/02/2025 15:34:41;100;0;161.55;-4;-19.35;-4.39;392.3;15.90;76341;2835.350;-1758.037;1;161;-70;-61.3;43.4;43.7;14;14.4;27.3;0.0;
21/02/2025 15:35:01;100;0;161.81;-4;-19.52;-4.39;394.5;15.90;76326;2835.348;-1758.036;1;161;-70;-61.3;43.4;43.7;14;14.4;27.3;0.0;
21/02/2025 15:35:21;100;0;161.70;-4;-19.49;-4.37;396.7;15.90;76320;2835.346;-1758.036;1;161;-70;-62.9;43.4;43.6;14;14.4;27.3;0.0;
21/02/2025 15:35:41;100;0;161.03;-4;-19.38;-4.37;399.0;15.80;76315;2835.343;-1758.035;1;161;-70;-61.3;43.4;43.7;14;14.4;27.3;0.0;
21/02/2025 15:36:01;100;0;160.11;-4;-19.47;-4.36;401.2;15.80;76311;2835.341;-1758.035;1;161;-70;-61.3;43.4;43.7;14;14.4;27.3;0.0;
21/02/2025 15:36:21;100;0;159.74;-4;-19.39;-4.40;403.5;15.80;76310;2835.339;-1758.034;1;161;-70;-62.9;43.4;43.7;14;14.4;27.3;0.0;
21/02/2025 15:36:41;100;0;158.52;-4;-19.35;-4.44;405.7;15.80;76297;2835.337;-1758.033;1;161;-70;-61.3;43.4;43.7;14;14.9;27.3;0.0;
21/02/2025 15:37:01;100;0;157.53;-4;-19.32;-4.41;408.0;15.70;76293;2835.334;-1758.032;1;161;-70;-61.3;43.4;43.7;14;14.4;27.3;0.0;
21/02/2025 15:37:21;100;0;159.03;-4;-19.27;-4.42;410.2;15.70;76286;2835.332;-1758.032;1;161;-70;-61.3;43.4;43.7;14;14.4;27.3;0.0;
21/02/2025 15:37:41;100;0;159.75;-4;-19.22;-4.41;412.4;15.70;76281;2835.330;-1758.031;1;161;-70;-61.3;43.4;43.7;14;14.4;27.3;0.0;
21/02/2025 15:38:01;100;0;161.26;-4;-19.26;-4.44;414.7;15.60;76277;2835.328;-1758.030;1;161;-70;-61.3;43.4;43.7;14;14.4;27.3;0.0;
21/02/2025 15:38:21;100;0;162.28;-4;-19.32;-4.37;417.0;15.60;76265;2835.325;-1758.030;1;161;-70;-61.3;43.4;43.7;14;14.4;27.3;0.0;
21/02/2025 15:38:41;100;0;164.26;-4;-19.31;-4.42;419.3;15.60;76267;2835.323;-1758.029;1;161;-70;-64.5;43.4;43.6;16;16.2;27.3;0.0;
21/02/2025 15:39:01;100;0;163.97;-4;-19.44;-3.18;421.5;15.60;76259;2835.321;-1758.029;1;161;-70;-62.9;43.4;43.7;16;17.1;27.3;0.0;
21/02/2025 15:39:21;100;0;164.33;-4;-19.52;-3.13;423.9;15.50;76247;2835.318;-1758.029;1;161;-70;-61.3;43.4;43.7;16;16.7;27.3;0.0;
21/02/2025 15:39:41;100;0;166.34;-4;-19.04;-3.15;426.2;15.50;76253;2835.316;-1758.028;1;161;-70;-62.9;43.4;43.7;16;17.1;27.3;0.0;
21/02/2025 15:40:01;100;0;165.55;-4;-19.10;-3.22;428.3;15.50;76240;2835.314;-1758.028;1;161;-70;-62.9;43.4;43.7;18;18.1;27.3;0.0;
21/02/2025 15:40:21;100;0;162.50;-4;-19.60;-2.43;430.5;15.40;76233;2835.312;-1758.028;1;161;-70;-61.3;43.4;43.6;16;15.3;27.3;0.0;
21/02/2025 15:40:41;100;0;160.62;-4;-19.34;-4.13;432.7;15.40;76215;2835.310;-1758.027;1;161;-70;-62.9;43.4;43.7;16;15.3;27.3;0.0;
21/02/2025 15:41:01;100;0;159.29;-4;-19.24;-4.09;435.0;15.40;76210;2835.307;-1758.026;1;161;-70;-61.3;43.4;43.7;16;15.3;27.3;0.0;
21/02/2025 15:41:21;100;0;158.71;-4;-19.27;-4.14;437.3;15.30;76209;2835.305;-1758.026;1;161;-70;-61.3;43.4;43.7;16;15.3;27.3;0.0;
21/02/2025 15:41:41;100;0;157.67;-4;-19.23;-4.11;439.5;15.30;76189;2835.303;-1758.025;1;161;-70;-62.9;43.4;43.7;16;15.3;27.3;0.0;
21/02/2025 15:42:01;100;0;158.71;-4;-19.23;-4.11;441.9;15.30;76190;2835.301;-1758.024;1;161;-70;-61.3;43.4;43.6;16;15.3;27.3;0.0;
21/02/2025 15:42:21;100;0;160.24;-4;-19.35;-4.11;444.2;15.20;76184;2835.298;-1758.023;1;161;-70;-61.3;43.4;43.7;16;15.3;27.3;0.0;
21/02/2025 15:42:41;100;0;161.31;-4;-19.19;-4.11;446.5;15.20;76176;2835.296;-1758.023;1;161;-70;-61.3;43.4;43.7;16;15.3;27.3;0.0;
21/02/2025 15:43:01;100;0;160.26;-4;-19.35;-4.13;449.0;15.20;76177;2835.293;-1758.022;1;161;-70;-61.3;43.4;43.7;16;15.3;27.3;0.0;
21/02/2025 15:43:21;100;0;160.34;-4;-19.36;-4.03;451.5;15.20;76162;2835.291;-1758.021;1;161;-70;-61.3;43.4;43.6;16;15.3;27.3;0.0;
21/02/2025 15:43:41;100;0;161.62;-4;-19.26;-4.03;453.9;15.10;76152;2835.288;-1758.020;1;161;-70;-61.3;43.4;43.7;16;15.3;27.3;0.0;
21/02/2025 15:44:01;100;0;162.51;-4;-19.32;-4.08;456.5;15.10;76151;2835.286;-1758.020;1;161;-70;-62.9;43.4;43.7;16;15.3;27.3;0.0;
21/02/2025 15:44:21;100;0;163.59;-4;-19.25;-4.07;458.9;15.10;76147;2835.283;-1758.019;1;161;-70;-62.9;43.4;43.7;16;15.3;27.3;0.0;
21/02/2025 15:44:41;100;0;163.57;-4;-19.15;-4.08;461.4;15.00;76140;2835.280;-1758.019;1;161;-70;-61.3;43.4;43.7;16;15.3;27.3;0.0;
21/02/2025 15:45:01;100;0;164.51;-4;-19.23;-4.08;463.9;15.00;76141;2835.278;-1758.018;1;161;-70;-62.9;43.4;43.7;16;15.3;27.3;0.0;
21/02/2025 15:45:21;100;0;165.33;-4;-19.11;-4.11;466.5;15.00;76140;2835.275;-1758.018;1;161;-70;-61.3;43.4;43.7;16;15.3;27.3;0.0;
21/02/2025 15:45:41;100;0;166.63;-4;-19.02;-4.13;468.9;15.00;76133;2835.272;-1758.017;1;161;-70;-61.3;43.4;43.6;18;18.1;27.3;0.0;
21/02/2025 15:46:01;100;0;167.02;-4;-19.34;-2.61;471.5;14.90;76135;2835.270;-1758.017;1;161;-70;-61.3;43.4;43.7;18;18.1;27.3;0.0;
21/02/2025 15:46:21;100;0;166.05;-4;-19.27;-2.53;474.1;14.90;76124;2835.267;-1758.017;1;161;-70;-61.3;43.4;43.7;18;18.1;27.3;0.0;
21/02/2025 15:46:41;100;0;164.31;-4;-19.24;-2.53;476.6;14.90;76126;2835.264;-1758.016;1;161;-70;-61.3;43.4;43.7;18;18.1;27.3;0.0;
21/02/2025 15:47:01;100;0;165.17;-4;-19.12;-2.58;479.1;14.90;76111;2835.262;-1758.016;1;161;-70;-62.9;43.4;43.7;18;18.1;27.3;0.0;
21/02/2025 15:47:21;100;0;162.34;-4;-19.33;-2.55;481.6;14.80;76103;2835.259;-1758.015;1;161;-70;-61.3;43.4;43.7;16;15.3;27.3;0.0;
21/02/2025 15:47:41;100;0;156.32;-4;-18.95;-3.87;484.1;14.80;76109;2835.257;-1758.014;1;161;-70;-61.3;43.8;43.7;16;15.3;27.3;0.0;
21/02/2025 15:48:01;100;0;152.09;-4;-18.84;-4.11;486.6;14.80;76092;2835.254;-1758.013;1;161;-70;-61.3;44.1;44.0;16;15.3;27.3;0.0;
21/02/2025 15:48:21;100;0;149.63;-4;-19.90;-3.96;489.2;14.80;76084;2835.252;-1758.011;1;161;-70;-59.7;44.1;44.3;14;14.0;27.3;0.0;
21/02/2025 15:48:41;100;0;148.87;-4;-20.21;-4.79;491.9;14.70;76078;2835.250;-1758.010;1;161;-70;-61.3;44.1;44.2;14;14.0;27.3;0.0;
21/02/2025 15:49:01;100;0;146.50;-4;-20.17;-4.82;494.5;14.70;76073;2835.247;-1758.008;1;161;-70;-62.9;44.1;44.3;12;11.7;27.3;0.0;
21/02/2025 15:49:21;100;0;146.05;-4;-20.09;-5.79;497.1;14.70;76066;2835.245;-1758.007;1;161;-70;-62.9;44.1;44.3;12;11.7;27.3;0.0;
21/02/2025 15:49:41;100;0;143.78;-4;-20.15;-5.76;499.8;14.60;76065;2835.243;-1758.005;1;161;-70;-64.5;44.1;44.2;9;9.0;27.3;0.0;
21/02/2025 15:50:01;100;0;143.76;-4;-19.68;-7.06;502.4;14.60;76062;2835.241;-1758.003;1;161;-70;-61.3;44.1;44.3;9;9.0;27.3;0.0;
21/02/2025 15:50:22;100;0;144.46;-4;-19.64;-7.19;504.9;14.60;76047;2835.239;-1758.001;1;161;-70;-61.3;44.1;44.3;9;9.0;27.3;0.0;
21/02/2025 15:50:42;100;0;146.45;-4;-19.76;-7.14;507.4;14.60;76046;2835.237;-1758.000;1;161;-70;-62.9;44.1;44.3;12;12.2;27.3;0.0;
21/02/2025 15:51:02;100;0;145.86;-4;-19.97;-5.38;509.9;14.60;76038;2835.235;-1757.998;1;161;-70;-61.3;44.1;44.3;12;12.6;27.3;0.0;
21/02/2025 15:51:22;100;0;146.92;-4;-20.14;-5.41;512.5;14.50;76034;2835.232;-1757.997;1;161;-70;-61.3;44.1;44.3;12;12.6;27.3;0.0;
21/02/2025 15:51:42;100;0;149.55;-4;-20.10;-5.35;515.0;14.50;76022;2835.230;-1757.995;1;161;-70;-61.3;44.1;44.3;14;14.0;27.3;0.0;
21/02/2025 15:52:02;100;0;153.42;-4;-19.92;-4.44;517.6;14.50;76010;2835.228;-1757.994;1;161;-70;-61.3;44.1;44.3;14;14.4;27.3;0.0;
21/02/2025 15:52:22;100;0;156.07;-4;-20.03;-4.44;520.0;14.40;76013;2835.226;-1757.993;1;161;-70;-61.3;44.1;44.3;14;14.4;27.3;0.0;
21/02/2025 15:52:42;100;0;157.36;-4;-20.11;-4.42;522.5;14.40;76004;2835.223;-1757.992;1;161;-70;-62.9;44.1;44.3;14;14.4;27.3;0.0;
21/02/2025 15:53:02;100;0;158.02;-4;-20.14;-4.41;525.1;14.40;75995;2835.221;-1757.992;1;161;-70;-61.3;44.1;44.3;14;14.4;27.3;0.0;
21/02/2025 15:53:22;100;0;158.78;-4;-20.11;-4.40;527.5;14.40;76004;2835.218;-1757.991;1;161;-70;-61.3;44.1;44.3;14;14.4;27.3;0.0;
21/02/2025 15:53:42;100;0;159.23;-4;-20.12;-4.43;530.1;14.30;75997;2835.216;-1757.990;1;161;-70;-61.3;44.1;44.3;14;14.4;27.3;0.0;
21/02/2025 15:54:02;100;0;158.36;-4;-20.08;-4.42;532.6;14.30;75992;2835.213;-1757.989;1;161;-70;-61.3;44.1;44.3;14;14.4;27.3;0.0;
21/02/2025 15:54:22;100;0;159.36;-4;-20.05;-4.41;535.2;14.30;75984;2835.211;-1757.988;1;161;-70;-61.3;44.1;44.3;14;14.4;27.3;0.0;
21/02/2025 15:54:42;100;0;161.08;-4;-20.03;-4.42;537.7;14.30;75993;2835.208;-1757.988;1;161;-70;-61.3;44.1;44.3;14;14.4;27.3;0.0;
21/02/2025 15:55:02;100;0;164.50;-4;-19.99;-4.49;540.3;14.20;75973;2835.206;-1757.987;1;161;-70;-62.9;44.1;44.3;16;15.8;27.3;0.0;
21/02/2025 15:55:22;100;0;161.91;-4;-19.90;-3.49;542.9;14.20;75982;2835.203;-1757.986;1;161;-70;-61.3;44.1;44.2;16;16.2;27.3;0.0;
21/02/2025 15:55:42;100;0;158.14;-4;-20.28;-3.53;545.5;14.20;75966;2835.201;-1757.985;1;161;-70;-62.9;44.1;44.3;16;16.2;27.3;0.0;
21/02/2025 15:56:02;100;0;156.09;-4;-20.32;-3.45;548.1;14.20;75956;2835.198;-1757.984;1;161;-70;-62.9;44.1;44.3;16;16.2;27.3;0.0;
21/02/2025 15:56:22;100;0;153.98;-4;-20.06;-3.46;550.8;14.20;75963;2835.196;-1757.983;1;161;-70;-61.3;44.1;44.3;16;16.2;27.3;0.0;
21/02/2025 15:56:42;100;0;154.16;-4;-20.09;-3.48;553.4;14.10;75953;2835.193;-1757.982;1;161;-70;-62.9;44.1;44.3;16;16.2;27.3;0.0;
21/02/2025 15:57:02;100;0;152.26;-4;-20.44;-3.47;556.0;14.10;75948;2835.191;-1757.981;1;161;-70;-61.3;44.1;44.3;16;16.2;27.3;0.0;
21/02/2025 15:57:22;100;0;149.53;-4;-19.57;-3.50;558.7;14.10;75941;2835.188;-1757.979;1;161;-70;-62.9;44.1;44.3;14;14.0;27.3;0.0;
21/02/2025 15:57:42;100;0;150.03;-4;-19.43;-4.97;561.3;14.00;75935;2835.186;-1757.978;1;161;-70;-62.9;44.1;44.3;14;14.0;27.3;0.0;
21/02/2025 15:58:02;100;0;151.38;-4;-19.51;-4.92;563.8;14.00;75932;2835.184;-1757.977;1;161;-70;-61.3;44.1;44.3;14;13.5;27.3;0.0;
21/02/2025 15:58:22;100;0;151.96;-4;-19.62;-4.84;566.3;14.00;75931;2835.181;-1757.975;1;161;-70;-61.3;44.1;44.3;14;13.5;27.3;0.0;
21/02/2025 15:58:42;100;0;153.39;-4;-19.88;-4.90;568.9;14.00;75921;2835.179;-1757.974;1;161;-70;-61.3;44.1;44.2;14;13.5;27.3;0.0;
21/02/2025 15:59:02;100;0;153.93;-4;-19.85;-4.84;571.7;13.90;75917;2835.176;-1757.973;1;161;-70;-61.3;44.1;44.3;14;14.0;27.3;0.0;
21/02/2025 15:59:22;100;0;153.40;-4;-19.82;-4.87;574.5;13.90;75910;2835.174;-1757.972;1;161;-70;-62.9;44.1;44.3;14;13.5;27.3;0.0;
21/02/2025 15:59:42;100;0;152.59;-4;-19.81;-4.86;577.1;13.90;75905;2835.171;-1757.970;1;161;-70;-61.3;44.1;44.2;14;13.5;27.3;0.0;
21/02/2025 16:00:02;100;0;151.95;-4;-19.98;-4.91;579.7;13.90;75912;2835.169;-1757.969;1;161;-70;-61.3;44.1;44.2;14;13.5;27.3;0.0;
21/02/2025 16:00:22;100;0;151.17;-4;-19.87;-4.90;582.4;13.90;75893;2835.167;-1757.968;1;161;-70;-61.3;44.1;44.3;14;14.0;27.3;0.0;
21/02/2025 16:00:42;100;0;154.74;-4;-19.78;-4.86;585.1;13.80;75889;2835.164;-1757.967;1;161;-70;-62.9;44.1;44.3;14;13.5;27.3;0.0;
21/02/2025 16:01:02;100;0;156.39;-4;-19.86;-4.84;587.7;13.80;75890;2835.162;-1757.966;1;161;-70;-61.3;44.1;44.3;14;13.5;27.3;0.0;
21/02/2025 16:01:22;100;0;163.81;-4;-19.45;-4.86;590.3;13.80;75883;2835.159;-1757.965;1;161;-70;-61.3;44.1;44.3;16;15.8;27.3;0.0;
21/02/2025 16:01:42;100;0;165.35;-4;-19.81;-3.72;592.8;13.80;75871;2835.156;-1757.965;1;161;-70;-61.3;44.1;44.3;16;16.2;27.3;0.0;
21/02/2025 16:02:02;100;0;166.35;-4;-19.19;-3.51;595.2;13.70;75869;2835.154;-1757.964;1;161;-70;-61.3;44.1;44.3;16;16.2;27.3;0.0;
21/02/2025 16:02:22;100;0;166.75;-4;-19.50;-3.73;597.5;13.70;75860;2835.151;-1757.964;1;161;-70;-62.9;44.1;44.3;18;18.1;27.3;0.0;
21/02/2025 16:02:42;100;0;167.09;-4;-19.74;-2.48;600.0;13.70;75856;2835.149;-1757.964;1;161;-70;-61.3;44.1;44.3;18;18.5;27.3;0.0;
21/02/2025 16:03:02;100;0;165.85;-4;-19.93;-2.47;602.4;13.70;75863;2835.147;-1757.963;1;161;-70;-59.7;44.1;44.3;18;18.5;27.3;0.0;
21/02/2025 16:03:22;100;0;165.02;-4;-19.86;-2.44;604.7;13.60;75846;2835.144;-1757.963;1;161;-70;-61.3;44.1;44.3;18;18.5;27.3;0.0;
21/02/2025 16:03:42;100;0;164.38;-4;-19.92;-2.39;607.2;13.60;75845;2835.142;-1757.962;1;161;-70;-62.9;44.1;44.3;16;15.8;27.3;0.0;
21/02/2025 16:04:02;100;0;165.04;-4;-19.61;-3.71;609.7;13.60;75846;2835.139;-1757.962;1;161;-70;-61.3;44.1;44.3;16;15.8;27.3;0.0;
21/02/2025 16:04:22;100;0;165.95;-4;-19.57;-3.84;612.1;13.60;75844;2835.137;-1757.962;1;161;-70;-61.3;44.1;44.3;16;15.8;27.3;0.0;
21/02/2025 16:04:42;100;0;166.96;-4;-19.63;-3.89;614.5;13.60;75839;2835.134;-1757.961;1;161;-70;-61.3;44.1;44.3;18;18.5;27.3;0.0;
21/02/2025 16:05:02;100;0;166.68;-4;-19.60;-2.18;616.9;13.50;75835;2835.132;-1757.961;1;161;-70;-61.3;44.1;44.3;18;18.5;27.3;0.0;
21/02/2025 16:05:22;100;0;167.56;-4;-19.86;-2.38;619.2;13.50;75835;2835.130;-1757.961;1;161;-70;-61.3;44.1;44.3;18;18.5;27.3;0.0;
21/02/2025 16:05:42;100;0;168.67;-4;-19.86;-2.38;621.8;13.50;75837;2835.127;-1757.961;1;161;-70;-61.3;44.1;44.3;20;20.3;27.3;0.0;
21/02/2025 16:06:02;100;0;168.30;-4;-20.06;-1.47;624.2;13.50;75829;2835.125;-1757.961;1;161;-70;-61.3;44.1;44.3;20;20.3;27.3;0.0;
21/02/2025 16:06:22;100;0;167.51;-4;-19.97;-1.51;626.7;13.50;75825;2835.122;-1757.960;1;161;-70;-62.9;44.1;44.3;20;20.3;27.3;0.0;
21/02/2025 16:06:42;100;0;166.24;-4;-19.76;-1.54;629.2;13.40;75818;2835.119;-1757.960;1;161;-70;-62.9;44.1;44.3;18;18.1;27.3;0.0;
21/02/2025 16:07:02;100;0;166.77;-4;-19.68;-2.89;631.5;13.40;75832;2835.117;-1757.960;1;161;-70;-61.3;44.1;44.3;18;17.6;27.3;0.0;
21/02/2025 16:07:22;100;0;168.55;-4;-19.59;-2.91;634.0;13.40;75803;2835.115;-1757.959;1;161;-70;-59.7;44.1;44.3;20;19.9;27.3;0.0;
21/02/2025 16:07:42;100;0;165.61;-4;-19.88;-1.61;636.3;13.40;75796;2835.112;-1757.959;1;161;-70;-62.9;44.1;44.3;18;18.1;27.3;0.0;
21/02/2025 16:08:02;100;0;161.23;-4;-19.79;-2.80;638.8;13.30;75777;2835.110;-1757.958;1;161;-70;-61.3;44.1;44.3;16;15.3;27.3;0.0;
21/02/2025 16:08:22;100;0;158.67;-4;-19.67;-3.83;641.1;13.30;75783;2835.108;-1757.958;1;161;-70;-61.3;44.1;44.3;16;15.8;27.3;0.0;
21/02/2025 16:08:42;100;0;155.80;-4;-19.57;-3.80;643.5;13.30;75771;2835.105;-1757.957;1;161;-70;-61.3;44.1;44.3;16;15.8;27.3;0.0;
21/02/2025 16:09:02;100;0;151.68;-4;-19.81;-3.89;645.8;13.30;75759;2835.103;-1757.956;1;161;-70;-62.9;44.1;44.3;16;15.8;27.3;0.0;
21/02/2025 16:09:22;100;0;148.87;-4;-19.73;-3.85;648.0;13.20;75760;2835.101;-1757.954;1;161;-70;-62.9;44.1;44.3;14;14.0;27.3;0.0;
21/02/2025 16:09:42;100;0;150.37;-4;-19.63;-4.27;650.4;13.20;75754;2835.099;-1757.953;1;161;-70;-62.9;44.1;44.3;14;14.4;27.3;0.0;
21/02/2025 16:10:02;100;0;149.04;-4;-19.59;-4.23;652.7;13.20;75749;2835.097;-1757.952;1;161;-70;-62.9;44.1;44.2;14;14.9;27.3;0.0;
21/02/2025 16:10:22;100;0;147.52;-4;-19.86;-4.26;655.1;13.20;75745;2835.095;-1757.951;1;161;-70;-61.3;44.1;44.3;14;14.9;27.3;0.0;
21/02/2025 16:10:42;100;0;145.98;-4;-19.62;-4.35;657.4;13.20;75748;2835.094;-1757.949;1;161;-70;-61.3;44.1;44.2;11;10.8;27.3;0.0;
21/02/2025 16:11:02;100;0;145.86;-4;-19.58;-6.37;659.8;13.10;75746;2835.092;-1757.948;1;161;-70;-61.3;44.1;44.3;11;10.8;27.3;0.0;
21/02/2025 16:11:22;100;0;145.48;-4;-19.30;-6.32;662.1;13.10;75732;2835.090;-1757.946;1;161;-70;-61.3;44.1;44.3;11;10.8;27.3;0.0;
21/02/2025 16:11:42;100;0;144.74;-4;-19.33;-6.37;664.4;13.10;75723;2835.088;-1757.945;1;161;-70;-61.3;44.1;44.3;11;10.8;27.3;0.0;
21/02/2025 16:12:02;100;0;145.20;-4;-19.32;-6.42;666.7;13.10;75725;2835.086;-1757.943;1;161;-70;-59.7;44.1;44.3;11;10.8;27.3;0.0;
21/02/2025 16:12:22;100;0;142.85;-4;-19.83;-6.36;669.1;13.00;75713;2835.084;-1757.942;1;161;-70;-61.3;44.1;44.3;9;8.6;27.3;0.0;
21/02/2025 16:12:42;100;0;141.88;-4;-19.25;-6.85;671.5;13.00;75716;2835.082;-1757.940;1;161;-70;-61.3;44.1;44.3;6;5.4;27.3;0.0;
21/02/2025 16:13:02;100;0;144.40;-4;-19.04;-9.15;673.8;13.00;75702;2835.080;-1757.939;1;161;-70;-62.9;44.1;44.3;9;9.0;27.3;0.0;
21/02/2025 16:13:22;100;0;146.37;-4;-19.09;-6.72;676.2;13.00;75700;2835.078;-1757.937;1;161;-70;-62.9;44.1;44.2;11;10.8;27.3;0.0;
21/02/2025 16:13:42;100;0;146.97;-4;-19.19;-5.97;678.5;13.00;75692;2835.076;-1757.936;1;161;-70;-61.3;44.1;44.3;11;11.3;27.3;0.0;
21/02/2025 16:14:02;100;0;147.36;-4;-19.05;-6.03;680.8;12.90;75688;2835.074;-1757.934;1;161;-70;-61.3;44.1;44.2;11;11.3;27.3;0.0;
21/02/2025 16:14:22;100;0;148.91;-4;-18.97;-5.94;683.1;12.90;75688;2835.072;-1757.933;1;161;-70;-61.3;44.4;44.8;13;13.5;27.3;0.0;
21/02/2025 16:14:42;100;0;152.39;-4;-20.48;-4.86;685.4;12.90;75681;2835.070;-1757.932;1;161;-70;-61.3;44.4;44.8;15;15.3;27.3;0.0;
21/02/2025 16:15:02;100;0;155.29;-4;-20.25;-3.69;687.8;12.90;75671;2835.068;-1757.931;1;161;-70;-61.3;44.4;44.9;15;16.2;27.3;0.0;
21/02/2025 16:15:22;100;0;155.64;-4;-20.32;-3.70;690.2;12.90;75677;2835.065;-1757.930;1;161;-70;-61.3;44.4;44.9;15;16.2;27.3;0.0;
21/02/2025 16:15:42;100;0;156.93;-4;-20.06;-3.74;692.5;12.80;75668;2835.063;-1757.929;1;161;-70;-61.3;44.4;44.9;15;16.2;27.3;0.0;
21/02/2025 16:16:02;100;0;158.66;-4;-20.52;-3.69;694.8;12.80;75658;2835.061;-1757.929;1;161;-70;-61.3;44.4;44.9;15;16.2;27.3;0.0;
21/02/2025 16:16:22;100;0;160.03;-4;-20.52;-3.66;697.2;12.80;75644;2835.059;-1757.928;1;161;-70;-62.9;44.4;44.9;15;16.2;27.3;0.0;
21/02/2025 16:16:42;100;0;161.78;-4;-20.43;-3.59;699.6;12.80;75647;2835.057;-1757.927;1;161;-70;-61.3;44.4;44.9;15;16.2;27.3;0.0;
21/02/2025 16:17:02;100;0;163.20;-4;-20.26;-3.65;702.0;12.70;75645;2835.054;-1757.927;1;161;-70;-61.3;44.4;44.8;15;16.2;27.3;0.0;
21/02/2025 16:17:22;100;0;163.91;-4;-20.26;-3.68;704.4;12.70;75633;2835.052;-1757.926;1;161;-70;-62.9;44.4;44.9;15;16.2;27.3;0.0;
21/02/2025 16:17:42;100;0;166.12;-4;-20.28;-3.63;706.7;12.70;75636;2835.050;-1757.926;1;161;-70;-61.3;44.4;44.9;17;17.1;27.3;0.0;
21/02/2025 16:18:02;100;0;168.87;-4;-20.47;-3.01;709.0;12.70;75624;2835.047;-1757.926;1;161;-70;-61.3;44.4;44.9;21;21.2;27.3;0.0;
21/02/2025 16:18:22;100;0;169.95;-4;-20.73;-0.85;711.4;12.60;75614;2835.045;-1757.926;1;161;-70;-61.3;44.4;44.9;21;21.7;27.3;0.0;
21/02/2025 16:18:42;100;0;170.07;-4;-20.72;-0.89;713.8;12.60;75617;2835.043;-1757.926;1;161;-70;-62.9;44.4;44.9;23;23.0;27.3;0.0;
21/02/2025 16:19:02;100;0;170.55;-4;-20.68;0.03;716.2;12.60;75608;2835.040;-1757.926;1;161;-70;-61.3;44.4;44.9;23;23.5;27.3;0.0;
21/02/2025 16:19:22;100;0;167.18;-4;-20.63;0.04;718.5;12.60;75600;2835.038;-1757.926;1;161;-70;-61.3;44.4;44.9;19;19.0;27.3;0.0;
21/02/2025 16:19:42;100;0;165.24;-4;-20.66;-2.18;720.8;12.60;75587;2835.036;-1757.925;1;161;-70;-61.3;44.4;44.9;19;19.4;27.3;0.0;
21/02/2025 16:20:02;100;0;163.66;-4;-20.77;-2.17;723.3;12.50;75583;2835.033;-1757.925;1;161;-70;-61.3;44.4;44.9;16;15.8;27.3;0.0;
21/02/2025 16:20:22;100;0;163.08;-4;-20.03;-3.95;725.6;12.50;75582;2835.031;-1757.924;1;161;-70;-61.3;44.4;44.9;16;15.8;27.3;0.0;
21/02/2025 16:20:42;100;0;162.75;-4;-20.88;-4.01;727.9;12.50;75587;2835.029;-1757.924;1;161;-70;-61.3;44.4;44.8;16;15.3;27.3;0.0;
21/02/2025 16:21:02;100;0;161.05;-4;-20.64;-3.98;730.4;12.50;75570;2835.027;-1757.923;1;161;-70;-61.3;44.4;44.9;16;15.8;27.3;0.0;
21/02/2025 16:21:22;100;0;160.62;-4;-20.82;-3.88;732.8;12.40;75576;2835.024;-1757.923;1;161;-70;-62.9;44.4;44.9;16;15.8;27.3;0.0;
21/02/2025 16:21:42;100;0;159.34;-4;-20.59;-3.87;735.4;12.40;75563;2835.022;-1757.922;1;161;-70;-62.9;44.4;44.9;16;15.3;27.3;0.0;
21/02/2025 16:22:02;100;0;156.82;-4;-20.47;-3.93;737.9;12.40;75557;2835.020;-1757.921;1;161;-70;-61.3;44.4;44.8;16;15.3;27.3;0.0;
21/02/2025 16:22:22;100;0;156.25;-4;-20.53;-3.97;740.4;12.40;75564;2835.017;-1757.920;1;161;-70;-61.3;44.4;44.9;16;15.8;27.3;0.0;
21/02/2025 16:22:42;100;0;154.46;-4;-20.86;-3.90;743.0;12.30;75554;2835.015;-1757.919;1;161;-70;-61.3;44.4;44.9;16;15.8;27.3;0.0;
21/02/2025 16:23:02;100;0;151.64;-4;-20.61;-3.96;745.6;12.30;75549;2835.013;-1757.918;1;161;-70;-61.3;44.4;44.9;16;15.8;27.3;0.0;
21/02/2025 16:23:22;100;0;150.59;-4;-20.62;-3.96;748.2;12.30;75549;2835.011;-1757.916;1;161;-70;-61.3;44.4;44.9;14;14.0;27.3;0.0;
21/02/2025 16:23:42;100;0;148.80;-4;-20.61;-4.73;750.8;12.30;75545;2835.008;-1757.915;1;161;-70;-62.9;44.4;44.9;14;14.0;27.3;0.0;
21/02/2025 16:24:02;100;0;147.78;-4;-20.54;-4.69;753.4;12.30;75538;2835.006;-1757.914;1;161;-70;-61.3;44.4;44.9;14;14.0;27.3;0.0;
21/02/2025 16:24:22;100;0;147.01;-4;-20.43;-4.70;755.9;12.30;75528;2835.004;-1757.912;1;161;-70;-61.3;44.4;44.9;12;12.2;27.3;0.0;
21/02/2025 16:24:42;100;0;147.14;-4;-19.91;-5.64;758.5;12.20;75523;2835.002;-1757.911;1;161;-70;-62.9;44.4;44.9;12;12.2;27.3;0.0;
21/02/2025 16:25:03;100;0;147.36;-4;-20.19;-5.68;761.0;12.20;75525;2835.000;-1757.909;1;161;-70;-61.3;44.4;44.9;12;12.2;27.3;0.0;
21/02/2025 16:25:23;100;0;147.60;-4;-20.17;-5.74;763.5;12.20;75525;2834.998;-1757.908;1;161;-70;-61.3;44.4;44.9;12;12.2;27.3;0.0;
21/02/2025 16:25:43;100;0;147.91;-4;-20.23;-5.74;766.0;12.20;75525;2834.996;-1757.906;1;161;-70;-62.9;44.4;44.8;12;11.7;27.3;0.0;
21/02/2025 16:26:03;100;0;148.41;-4;-20.16;-5.72;768.5;12.10;75509;2834.993;-1757.905;1;161;-70;-59.7;44.4;44.9;12;12.2;27.3;0.0;
21/02/2025 16:26:23;100;0;149.98;-4;-20.12;-5.72;771.0;12.10;75513;2834.991;-1757.903;1;161;-70;-62.9;44.4;44.9;14;14.0;27.3;0.0;
21/02/2025 16:26:43;100;0;149.90;-4;-20.61;-4.47;773.5;12.10;75513;2834.989;-1757.902;1;161;-70;-61.3;44.4;44.9;14;14.4;27.3;0.0;
21/02/2025 16:27:03;100;0;150.32;-4;-20.26;-4.52;776.1;12.10;75504;2834.987;-1757.901;1;161;-70;-61.3;44.4;44.8;14;14.4;27.3;0.0;
21/02/2025 16:27:23;100;0;151.57;-4;-20.32;-4.55;778.6;12.10;75502;2834.984;-1757.900;1;161;-70;-61.3;44.4;44.9;14;14.4;27.3;0.0;
21/02/2025 16:27:43;100;0;152.73;-4;-20.31;-4.53;781.1;12.00;75489;2834.982;-1757.898;1;161;-70;-61.3;44.4;44.9;14;14.4;27.3;0.0;
21/02/2025 16:28:03;100;0;153.44;-4;-20.33;-4.48;783.7;12.00;75489;2834.980;-1757.897;1;161;-70;-61.3;44.4;44.9;14;14.4;27.3;0.0;
21/02/2025 16:28:23;100;0;153.66;-4;-20.37;-4.45;786.2;12.00;75483;2834.977;-1757.896;1;161;-70;-61.3;44.4;44.9;14;14.4;27.3;0.0;
21/02/2025 16:28:43;100;0;153.73;-4;-20.55;-4.53;788.8;12.00;75471;2834.975;-1757.895;1;161;-70;-61.3;44.4;44.9;14;14.4;27.3;0.0;
21/02/2025 16:29:03;100;0;153.50;-4;-20.44;-4.52;791.4;12.00;75474;2834.973;-1757.894;1;161;-70;-61.3;44.4;44.9;14;14.4;27.3;0.0;
21/02/2025 16:29:23;100;0;154.74;-4;-20.14;-4.59;793.9;11.90;75470;2834.971;-1757.893;1;161;-70;-61.3;44.4;44.9;14;14.4;27.3;0.0;
21/02/2025 16:29:43;100;0;156.89;-4;-20.05;-4.53;796.3;11.90;75465;2834.968;-1757.892;1;161;-70;-61.3;44.4;44.9;14;14.4;27.3;0.0;
21/02/2025 16:30:03;100;0;156.07;-4;-20.07;-4.52;798.7;11.90;75448;2834.966;-1757.891;1;161;-70;-62.9;44.4;44.9;14;14.4;27.3;0.0;
21/02/2025 16:30:23;100;0;155.36;-4;-20.16;-4.59;801.2;11.90;75446;2834.964;-1757.890;1;161;-70;-61.3;44.4;44.9;14;14.4;27.3;0.0;
21/02/2025 16:30:43;100;0;156.38;-4;-20.14;-4.44;803.7;11.90;75438;2834.961;-1757.889;1;161;-70;-61.3;44.4;44.9;14;14.4;27.3;0.0;
21/02/2025 16:31:03;100;0;157.31;-4;-20.07;-4.50;806.0;11.80;75431;2834.959;-1757.888;1;161;-70;-61.3;44.4;44.9;14;14.4;27.3;0.0;
21/02/2025 16:31:23;100;0;158.73;-4;-20.15;-4.52;808.4;11.80;75426;2834.957;-1757.887;1;161;-70;-61.3;44.4;44.9;14;14.4;27.3;0.0;
21/02/2025 16:31:43;100;0;159.52;-4;-20.27;-4.38;810.9;11.80;75424;2834.954;-1757.887;1;161;-70;-61.3;44.4;45.1;14;14.4;27.3;0.0;
21/02/2025 16:32:03;100;0;161.41;-4;-19.97;-4.51;813.3;11.80;75417;2834.952;-1757.886;1;161;-70;-59.7;44.4;44.9;14;14.4;27.3;0.0;
21/02/2025 16:32:23;100;0;162.41;-4;-19.90;-4.53;815.8;11.80;75410;2834.950;-1757.886;1;161;-70;-62.9;44.4;44.9;14;14.4;27.3;0.0;
21/02/2025 16:32:43;100;0;163.91;-4;-20.13;-4.57;818.2;11.70;75408;2834.947;-1757.885;1;161;-70;-61.3;44.4;44.9;16;15.8;27.3;0.0;
21/02/2025 16:33:03;100;0;164.71;-4;-20.41;-3.41;820.6;11.70;75404;2834.945;-1757.885;1;161;-70;-62.9;44.4;44.9;16;16.2;27.3;0.0;
21/02/2025 16:33:23;100;0;164.81;-4;-20.45;-3.38;823.2;11.70;75392;2834.942;-1757.884;1;161;-70;-61.3;44.4;44.9;16;16.7;27.3;0.0;
21/02/2025 16:33:43;100;0;167.16;-4;-20.60;-3.34;825.8;11.70;75396;2834.940;-1757.884;1;161;-70;-62.9;44.4;44.9;18;19.0;27.3;0.0;
21/02/2025 16:34:03;100;0;168.05;-4;-20.38;-1.97;828.4;11.70;75383;2834.937;-1757.884;1;161;-70;-59.7;44.4;44.9;18;19.4;27.3;0.0;
21/02/2025 16:34:23;100;0;168.29;-4;-20.26;-1.93;831.0;11.60;75384;2834.934;-1757.883;1;161;-70;-61.3;44.4;44.9;18;19.4;27.3;0.0;
21/02/2025 16:34:43;100;0;169.45;-4;-20.44;-2.03;833.6;11.60;75383;2834.932;-1757.883;1;161;-70;-61.3;44.4;44.8;21;21.2;27.3;0.0;
21/02/2025 16:35:03;100;0;168.45;-4;-20.76;-0.88;836.2;11.60;75381;2834.929;-1757.883;1;161;-70;-61.3;44.4;44.9;21;21.7;27.3;0.0;
21/02/2025 16:35:23;100;0;163.98;-4;-21.03;-0.98;838.7;11.60;75374;2834.926;-1757.882;1;161;-70;-62.9;44.4;45.1;16;15.8;27.3;0.0;
21/02/2025 16:35:43;100;0;161.91;-4;-20.19;-3.64;841.2;11.50;75375;2834.924;-1757.882;1;161;-70;-61.3;44.4;44.9;16;16.2;27.3;0.0;
21/02/2025 16:36:03;100;0;162.93;-4;-19.70;-3.63;843.7;11.50;75362;2834.922;-1757.881;1;161;-70;-61.3;44.4;44.9;16;16.2;27.3;0.0;
21/02/2025 16:36:23;100;0;160.99;-4;-19.97;-3.59;846.2;11.50;75361;2834.919;-1757.881;1;161;-70;-61.3;44.4;44.9;16;16.7;27.3;0.0;
21/02/2025 16:36:43;100;0;157.23;-4;-20.05;-3.62;848.5;11.50;75367;2834.917;-1757.880;1;161;-70;-62.9;44.4;44.9;16;16.2;27.3;0.0;
21/02/2025 16:37:03;100;0;156.08;-4;-20.18;-3.61;850.9;11.50;75354;2834.915;-1757.879;1;161;-70;-62.9;44.4;44.9;16;16.7;27.3;0.0;
21/02/2025 16:37:23;100;0;154.49;-4;-20.47;-3.60;853.3;11.40;75353;2834.913;-1757.878;1;161;-70;-61.3;44.4;44.9;16;16.2;27.3;0.0;
21/02/2025 16:37:43;100;0;152.89;-4;-20.05;-3.56;855.9;11.40;75361;2834.910;-1757.877;1;161;-70;-59.7;44.4;44.9;16;16.2;27.3;0.0;
21/02/2025 16:38:03;100;0;152.81;-4;-19.61;-3.73;858.1;11.40;75346;2834.908;-1757.876;1;161;-70;-61.3;44.4;44.9;16;16.2;27.3;0.0;
21/02/2025 16:38:23;100;0;153.62;-4;-19.53;-3.54;860.5;11.40;75338;2834.906;-1757.875;1;161;-70;-61.3;44.4;44.9;16;16.2;27.3;0.0;
21/02/2025 16:38:43;100;0;152.11;-4;-19.80;-3.66;862.8;11.40;75336;2834.904;-1757.874;1;161;-70;-61.3;44.4;44.9;16;16.2;27.3;0.0;
21/02/2025 16:39:03;100;0;151.02;-4;-20.13;-3.62;865.0;11.30;75335;2834.902;-1757.873;1;161;-70;-61.3;44.4;44.9;16;16.2;27.3;0.0;
21/02/2025 16:39:23;100;0;151.91;-4;-20.48;-3.10;867.6;11.30;75333;2834.900;-1757.871;1;161;-70;-61.3;44.4;44.9;16;16.2;27.3;0.0;
21/02/2025 16:39:43;100;0;149.50;-4;-20.12;-3.63;869.9;11.30;75315;2834.898;-1757.870;1;161;-70;-61.3;44.4;44.9;14;14.0;27.3;0.0;
21/02/2025 16:40:03;100;0;149.83;-4;-20.03;-4.76;872.2;11.30;75314;2834.896;-1757.869;1;161;-70;-61.3;44.4;44.9;14;14.0;27.3;0.0;
21/02/2025 16:40:23;100;0;153.83;-4;-20.31;-4.70;874.6;11.30;75333;2834.894;-1757.868;1;161;-70;-62.9;44.4;44.9;14;14.0;27.3;0.0;
21/02/2025 16:40:43;100;0;155.25;-4;-20.05;-4.74;877.0;11.20;75314;2834.891;-1757.867;1;161;-70;-64.5;44.4;44.9;14;14.0;27.3;0.0;
21/02/2025 16:41:03;100;0;155.47;-4;-19.96;-4.74;879.4;11.20;75309;2834.889;-1757.866;1;161;-70;-61.3;44.4;44.9;14;14.0;27.3;0.0;
21/02/2025 16:41:23;100;0;151.86;-4;-20.21;-4.82;881.8;11.20;75295;2834.887;-1757.865;1;161;-70;-61.3;44.4;44.9;14;14.0;27.3;0.0;
21/02/2025 16:41:43;100;0;151.57;-4;-20.00;-4.72;884.1;11.20;75298;2834.885;-1757.864;1;161;-70;-61.3;44.4;44.9;14;14.4;27.3;0.0;
21/02/2025 16:42:03;100;0;152.05;-4;-19.69;-4.77;886.5;11.20;75283;2834.883;-1757.863;1;161;-70;-61.3;44.4;44.8;14;14.0;27.3;0.0;
21/02/2025 16:42:23;100;0;152.61;-4;-19.68;-4.83;888.8;11.20;75280;2834.881;-1757.862;1;161;-70;-62.9;44.4;44.9;14;14.0;27.3;0.0;
21/02/2025 16:42:43;100;0;152.37;-4;-20.01;-4.88;891.0;11.10;75279;2834.879;-1757.861;1;161;-70;-61.3;44.4;44.9;14;14.0;27.3;0.0;
21/02/2025 16:43:03;100;0;152.33;-4;-19.85;-4.79;893.1;11.10;75280;2834.877;-1757.860;1;161;-70;-62.9;44.4;44.9;14;14.0;27.3;0.0;
21/02/2025 16:43:23;100;0;153.27;-4;-19.90;-4.75;895.5;11.10;75261;2834.875;-1757.859;1;161;-70;-62.9;44.4;44.9;14;14.0;27.3;0.0;
21/02/2025 16:43:43;100;0;154.18;-4;-20.03;-4.79;897.8;11.10;75271;2834.873;-1757.858;1;161;-70;-61.3;44.4;44.8;14;14.0;27.3;0.0;
21/02/2025 16:44:03;100;0;154.75;-4;-19.88;-4.70;899.9;11.00;75259;2834.871;-1757.857;1;161;-70;-59.7;44.4;44.9;14;14.0;27.3;0.0;
21/02/2025 16:44:23;100;0;155.42;-4;-20.14;-4.76;902.2;11.00;75262;2834.869;-1757.856;1;161;-70;-61.3;44.4;44.9;14;14.0;27.3;0.0;
21/02/2025 16:44:43;100;0;157.34;-4;-20.24;-4.72;904.7;11.00;75270;2834.866;-1757.855;1;161;-70;-61.3;44.4;44.9;14;14.0;27.3;0.0;
21/02/2025 16:45:03;100;0;160.82;-4;-20.23;-4.70;906.9;11.00;75248;2834.864;-1757.854;1;161;-70;-61.3;44.4;44.9;14;14.0;27.3;0.0;
21/02/2025 16:45:23;100;0;163.01;-4;-20.07;-4.70;909.3;11.00;75255;2834.862;-1757.854;1;161;-70;-61.3;44.4;44.9;16;16.7;27.3;0.0;
21/02/2025 16:45:43;100;0;162.95;-4;-20.07;-3.12;911.7;11.00;75252;2834.860;-1757.853;1;161;-70;-61.3;44.4;44.9;16;17.1;27.3;0.0;
21/02/2025 16:46:03;100;0;164.81;-4;-20.05;-3.05;914.1;10.90;75242;2834.857;-1757.853;1;161;-70;-59.7;44.4;44.9;16;17.1;27.3;0.0;
21/02/2025 16:46:23;100;0;164.23;-4;-20.00;-3.10;916.4;10.90;75238;2834.855;-1757.853;1;161;-70;-61.3;44.4;44.9;16;17.1;27.3;0.0;
21/02/2025 16:46:43;100;0;163.88;-4;-19.99;-3.10;918.7;10.90;75239;2834.853;-1757.852;1;161;-70;-59.7;44.4;44.9;16;17.1;27.3;0.0;
21/02/2025 16:47:03;100;0;163.17;-4;-19.81;-3.11;921.0;10.90;75232;2834.850;-1757.852;1;161;-70;-61.3;44.4;44.9;16;17.1;27.3;0.0;
21/02/2025 16:47:23;100;0;162.68;-4;-19.97;-3.15;923.3;10.90;75236;2834.848;-1757.851;1;161;-70;-59.7;44.4;44.9;16;17.1;27.3;0.0;
21/02/2025 16:47:43;100;0;163.03;-4;-19.92;-3.14;925.5;10.80;75231;2834.846;-1757.851;1;161;-70;-59.7;44.4;44.9;16;17.1;27.3;0.0;
21/02/2025 16:48:03;100;0;164.21;-4;-20.10;-3.09;927.9;10.80;75219;2834.844;-1757.850;1;161;-70;-59.7;44.4;44.9;16;17.6;27.3;0.0;
21/02/2025 16:48:23;100;0;163.97;-4;-20.02;-3.17;930.3;10.80;75229;2834.841;-1757.850;1;161;-70;-61.3;44.4;45.1;16;17.1;27.3;0.0;
21/02/2025 16:48:43;100;0;163.02;-4;-19.86;-3.16;932.6;10.80;75231;2834.839;-1757.849;1;161;-70;-61.3;44.4;44.9;16;17.1;27.3;0.0;
21/02/2025 16:49:03;100;0;162.38;-4;-19.95;-3.08;934.9;10.80;75223;2834.837;-1757.849;1;161;-70;-61.3;44.4;45.1;16;17.1;27.3;0.0;
21/02/2025 16:49:23;100;0;161.96;-4;-19.76;-3.04;937.2;10.80;75217;2834.835;-1757.848;1;161;-70;-61.3;44.4;44.9;16;17.1;27.3;0.0;
21/02/2025 16:49:43;100;0;161.55;-4;-19.93;-3.11;939.6;10.70;75215;2834.832;-1757.848;1;161;-70;-61.3;44.4;44.9;16;17.1;27.3;0.0;
21/02/2025 16:50:03;100;0;158.11;-4;-19.85;-3.11;941.9;10.70;75231;2834.830;-1757.847;1;161;-70;-61.3;44.4;44.9;16;17.6;27.3;0.0;
21/02/2025 16:50:23;100;0;156.91;-4;-19.91;-3.11;944.3;10.70;75218;2834.828;-1757.846;1;161;-70;-59.7;44.4;44.9;16;17.1;27.3;0.0;
21/02/2025 16:50:43;100;0;154.39;-4;-19.71;-3.14;946.6;10.70;75219;2834.826;-1757.845;1;161;-70;-61.3;44.4;44.9;16;17.1;27.3;0.0;
21/02/2025 16:51:03;100;0;152.26;-4;-19.83;-3.31;949.1;10.70;75200;2834.823;-1757.844;1;161;-70;-61.3;44.4;44.9;16;17.1;27.3;0.0;
21/02/2025 16:51:23;100;0;149.88;-4;-18.99;-3.15;951.4;10.70;75210;2834.821;-1757.843;1;161;-70;-61.3;44.7;44.6;14;14.0;27.3;0.0;
21/02/2025 16:51:43;100;0;150.66;-4;-19.19;-5.07;953.6;10.70;75203;2834.819;-1757.842;1;161;-70;-61.3;44.7;44.6;14;14.0;27.3;0.0;
21/02/2025 16:52:03;100;0;152.63;-4;-19.28;-4.87;955.9;10.60;75196;2834.817;-1757.841;1;161;-70;-61.3;44.7;44.8;14;14.0;27.3;0.0;
21/02/2025 16:52:23;100;0;154.42;-4;-19.43;-4.99;958.2;10.60;75183;2834.815;-1757.840;1;161;-70;-59.7;44.7;44.6;14;14.0;27.3;0.0;
21/02/2025 16:52:43;100;0;154.37;-4;-19.17;-4.91;960.5;10.60;75188;2834.813;-1757.839;1;161;-70;-59.7;44.7;44.6;14;13.5;27.2;0.0;
21/02/2025 16:53:03;100;0;154.16;-4;-19.05;-4.88;962.7;10.60;75186;2834.811;-1757.838;1;161;-70;-59.7;44.7;44.8;14;14.0;27.3;0.0;
21/02/2025 16:53:23;100;0;155.59;-4;-19.13;-4.93;964.9;10.60;75187;2834.809;-1757.837;1;161;-70;-61.3;44.7;44.8;14;14.0;27.3;0.0;
21/02/2025 16:53:43;100;0;156.55;-4;-19.35;-5.07;967.1;10.50;75177;2834.807;-1757.836;1;161;-70;-59.7;44.7;44.8;14;13.5;27.3;0.0;
21/02/2025 16:54:03;100;0;159.03;-4;-19.25;-4.99;969.2;10.50;75178;2834.805;-1757.835;1;161;-70;-59.7;44.7;44.6;14;14.0;27.3;0.0;
21/02/2025 16:54:23;100;0;160.91;-4;-19.26;-4.90;971.3;10.50;75171;2834.803;-1757.835;1;161;-70;-59.7;44.7;44.6;16;16.2;27.3;0.0;
21/02/2025 16:54:43;100;0;161.49;-4;-19.53;-3.31;973.4;10.50;75172;2834.801;-1757.834;1;161;-70;-61.3;44.7;44.6;16;17.1;27.3;0.0;
21/02/2025 16:55:03;100;0;163.32;-4;-19.72;-3.35;975.5;10.50;75166;2834.799;-1757.834;1;161;-70;-62.9;44.7;44.8;16;17.1;27.3;0.0;
21/02/2025 16:55:23;100;0;162.86;-4;-19.37;-3.26;977.5;10.50;75173;2834.797;-1757.834;1;161;-70;-59.7;44.7;44.8;16;17.1;27.3;0.0;
21/02/2025 16:55:43;100;0;161.58;-4;-19.63;-3.34;979.6;10.50;75155;2834.795;-1757.833;1;161;-70;-58.1;44.7;44.6;16;16.7;27.3;0.0;
21/02/2025 16:56:03;100;0;161.08;-4;-19.64;-3.25;981.6;10.50;75168;2834.793;-1757.833;1;161;-70;-59.7;44.7;44.8;16;17.1;27.3;0.0;
21/02/2025 16:56:23;100;0;160.14;-4;-19.26;-3.25;983.6;10.40;75154;2834.791;-1757.832;1;161;-90;-91.9;44.7;44.6;16;17.1;27.3;0.0;
21/02/2025 16:56:43;100;0;159.62;-4;-18.49;-3.19;985.6;10.40;75237;2834.789;-1757.832;1;161;-90;-95.2;45.2;45.2;16;16.7;27.3;0.0;
21/02/2025 16:57:03;100;0;158.73;-4;-19.79;-3.10;987.8;10.40;75233;2834.787;-1757.831;1;161;-90;-96.8;45.2;45.4;16;17.1;27.3;0.0;
21/02/2025 16:57:23;100;0;159.63;-4;-20.11;-3.08;989.9;10.40;75239;2834.785;-1757.830;1;161;-90;-98.4;45.2;45.4;16;17.1;27.3;0.0;
21/02/2025 16:57:43;100;0;156.98;-4;-20.60;-3.03;992.1;10.40;75242;2834.783;-1757.830;1;161;-90;-100.0;45.2;45.4;16;17.1;27.3;0.0;
21/02/2025 16:58:03;100;0;155.70;-4;-20.90;-3.01;994.5;10.40;75243;2834.781;-1757.829;1;161;-90;-101.6;45.2;45.4;16;17.1;27.3;0.0;
21/02/2025 16:58:23;100;0;155.75;-4;-20.26;-3.04;996.7;10.30;75247;2834.779;-1757.828;1;161;-90;-101.6;45.2;45.5;16;17.1;27.3;0.0;
21/02/2025 16:58:44;100;0;155.60;-4;-21.16;-3.36;999.1;10.30;75242;2834.777;-1757.827;1;161;-90;-101.6;45.2;45.4;16;17.1;27.3;0.0;
21/02/2025 16:58:46;118;0;155.59;-4;-20.96;-3.22;999.3;10.30;75239;2834.776;-1757.827;1;161;270;-100.0;25.7;25.6;7;7.2;27.3;0.0;
21/02/2025 16:58:56;118;0;122.02;-4;-7.18;-9.00;1000.3;10.30;75216;2834.776;-1757.826;1;161;270;25.8;25.7;25.5;7;7.2;26.0;-1.0;
21/02/2025 16:59:06;118;0;107.08;-4;15.50;-8.69;1000.3;10.30;74951;2834.776;-1757.826;1;161;270;151.6;25.7;25.0;7;7.2;25.7;-1.0;
21/02/2025 16:59:16;118;0;102.42;-4;22.05;-9.51;999.5;10.30;74706;2834.776;-1757.825;1;161;270;272.6;25.7;25.6;7;6.8;25.9;-1.0;
21/02/2025 16:59:26;118;0;150.16;-4;21.19;-7.71;998.4;10.30;74480;2834.775;-1757.825;1;161;270;272.6;25.7;25.8;7;7.2;27.2;-1.0;
21/02/2025 16:59:36;118;0;153.33;-4;19.85;-8.57;997.1;10.30;74483;2834.774;-1757.824;1;161;270;272.6;25.7;25.8;7;7.2;27.3;-1.0;
21/02/2025 16:59:56;117;0;150.67;-4;18.72;-8.35;994.7;10.40;74478;2834.772;-1757.823;1;161;270;271.0;25.7;25.8;7;7.2;27.3;-1.0;
21/02/2025 17:00:16;117;0;149.26;-4;19.92;-8.78;992.2;10.40;74474;2834.770;-1757.821;1;161;270;272.6;25.7;25.8;31;31.1;27.2;-1.0;
21/02/2025 17:00:36;117;0;149.94;-4;21.19;4.33;989.9;10.40;74474;2834.768;-1757.820;1;161;270;272.6;25.7;25.8;31;31.6;27.3;-1.0;
21/02/2025 17:00:56;117;0;151.09;-4;21.42;4.36;987.1;10.40;74473;2834.765;-1757.819;1;161;270;272.6;25.7;25.8;31;31.6;27.3;-1.0;
21/02/2025 17:01:16;117;0;151.81;-4;21.07;4.51;984.5;10.40;74460;2834.763;-1757.818;1;161;270;271.0;25.7;25.8;31;31.6;27.3;-1.0;
21/02/2025 17:01:36;117;0;153.47;-4;21.65;4.55;981.8;10.40;74469;2834.761;-1757.817;1;161;270;272.6;25.7;25.8;31;31.6;27.3;-1.0;
21/02/2025 17:01:56;117;0;154.34;-4;21.38;4.51;979.0;10.40;74458;2834.758;-1757.815;1;161;270;272.6;25.7;25.8;31;31.6;27.3;-1.0;
21/02/2025 17:02:16;117;0;154.55;-4;21.23;4.50;976.3;10.40;74464;2834.756;-1757.814;1;161;270;272.6;25.7;25.8;31;31.6;27.3;-1.0;
21/02/2025 17:02:36;117;0;155.36;-4;21.42;4.59;973.7;10.40;74462;2834.753;-1757.813;1;161;270;271.0;25.7;25.8;31;31.6;27.3;-1.0;
21/02/2025 17:02:56;117;0;156.90;-4;21.63;4.53;970.9;10.30;74457;2834.751;-1757.812;1;161;270;272.6;25.7;25.8;31;31.6;27.3;-1.0;
21/02/2025 17:03:16;117;0;157.28;-4;21.46;4.78;968.1;10.30;74463;2834.748;-1757.811;1;161;270;272.6;25.7;25.8;31;31.6;27.3;-1.0;
21/02/2025 17:03:37;117;0;157.07;-4;20.82;4.44;965.4;10.30;74464;2834.746;-1757.810;1;161;270;271.0;25.7;25.6;31;31.6;27.3;-1.0;
21/02/2025 17:03:57;117;0;158.15;-4;21.51;4.54;962.7;10.30;74444;2834.743;-1757.809;1;161;270;272.6;25.7;25.8;31;31.6;27.3;-1.0;
21/02/2025 17:04:17;117;0;158.49;-4;21.19;4.54;959.9;10.30;74442;2834.741;-1757.808;1;161;270;272.6;25.7;25.8;31;31.6;27.3;-1.0;
21/02/2025 17:04:37;117;0;159.74;-4;22.06;4.62;957.1;10.30;74444;2834.738;-1757.808;1;161;270;272.6;26.3;26.2;31;31.6;27.3;-1.0;
21/02/2025 17:04:57;117;0;161.79;-4;19.81;4.61;954.3;10.30;74440;2834.735;-1757.807;1;161;270;272.6;26.3;26.5;29;28.9;27.3;-1.0;
21/02/2025 17:05:17;117;0;162.84;-4;19.50;2.67;951.8;10.30;74435;2834.733;-1757.806;1;161;270;272.6;26.3;26.4;29;28.4;27.3;-1.0;
