Timestamp;NavState;SecurityLevel;Heading;Declination;Pitch;Roll;Depth;Temperature;Pa;Lat;Lon;DeadReckoning;DesiredH;BallastCmd;BallastPos;LinCmd;LinPos;AngCmd;AngPos;Voltage;Altitude;
05/03/2025 11:20:06;119;0;145.57;-4;-48.68;-14.64;-0.1;20.80;76606;2838.023;-1757.897;0;135;500;504.8;100.0;100.9;0;-0.5;24.7;-1.0;
05/03/2025 11:20:16;116;0;146.15;-4;-53.04;-10.02;-0.2;20.80;76604;2838.028;-1757.898;0;135;500;506.5;100.0;100.7;0;-0.5;24.7;-1.0;
05/03/2025 11:20:41;116;0;158.22;-4;-47.77;-10.42;-0.2;20.80;76616;2838.031;-1757.898;0;135;500;506.5;100.0;100.9;0;-0.5;24.7;-1.0;
05/03/2025 11:20:58;116;0;171.24;-4;-50.45;-13.07;-0.1;20.90;76616;2838.032;-1757.898;0;138;500;506.5;100.0;100.9;0;-0.5;24.7;-1.0;
05/03/2025 11:21:21;116;0;193.10;-4;-50.88;-13.72;0.0;20.90;76628;2838.035;-1757.899;0;138;500;504.8;100.0;100.7;0;-0.5;24.7;-1.0;
05/03/2025 11:21:41;116;0;203.13;-4;-55.17;-16.06;-0.1;20.90;76618;2838.037;-1757.901;0;138;500;506.5;100.0;100.9;0;-0.5;24.7;-1.0;
05/03/2025 11:22:16;116;0;187.84;-4;-56.58;-17.82;0.1;20.90;76626;2838.043;-1757.903;0;138;500;506.5;100.0;100.7;0;-0.5;24.7;-1.0;
05/03/2025 11:22:29;116;0;190.88;-4;-53.28;-15.03;-0.1;20.90;76621;2838.045;-1757.903;0;138;500;506.5;100.0;100.7;0;-0.5;24.7;-1.0;
05/03/2025 11:23:09;116;0;203.49;-4;-52.34;-8.11;-0.1;21.00;76634;2838.052;-1757.905;0;138;500;506.5;100.0;100.9;0;-0.5;24.7;-1.0;
05/03/2025 11:23:20;116;0;203.63;-4;-56.97;-18.97;-0.1;21.00;76633;2838.054;-1757.906;0;138;500;506.5;100.0;100.7;0;-0.5;24.7;-1.0;
05/03/2025 11:23:40;110;0;210.43;-4;-57.41;-13.02;-0.0;21.00;76632;2838.054;-1757.906;0;138;-500;388.7;100.0;99.9;-12;-12.6;24.7;-1.0;
05/03/2025 11:23:50;110;0;202.08;-4;-53.97;-13.12;0.3;21.10;76998;2838.055;-1757.906;1;138;-500;237.1;100.0;99.9;-12;-12.6;24.7;-1.0;
05/03/2025 11:24:00;110;0;199.47;-4;-58.00;-6.30;0.7;21.10;77243;2838.055;-1757.906;1;138;-500;79.0;100.0;100.0;-12;-12.6;24.7;-1.0;
05/03/2025 11:24:10;110;0;195.22;-4;-65.64;-16.34;0.9;21.10;77582;2838.056;-1757.907;1;138;-500;-80.6;100.0;99.9;-12;-12.6;24.7;-1.0;
05/03/2025 11:24:20;110;0;197.51;-4;-65.14;-17.03;1.2;21.10;77920;2838.057;-1757.907;1;138;-500;-254.8;55.8;55.8;-12;-12.6;24.6;-1.0;
05/03/2025 11:24:30;110;0;205.66;-4;-56.67;-17.40;2.8;21.10;78311;2838.058;-1757.908;1;138;-500;-490.3;55.8;55.8;-12;-12.6;24.7;-1.0;
05/03/2025 11:24:40;110;0;214.03;-4;-44.62;-13.55;6.4;21.10;78832;2838.057;-1757.910;1;138;-500;-498.4;55.8;55.5;-12;-12.6;24.7;-1.0;
05/03/2025 11:25:00;100;0;233.78;-4;-41.98;-12.75;17.3;21.20;78806;2838.056;-1757.916;1;138;-500;-501.6;55.8;55.5;-12;-12.6;24.7;-1.0;
05/03/2025 11:25:20;100;0;240.86;-4;-41.73;-12.85;30.6;21.20;78777;2838.054;-1757.925;1;138;-500;-500.0;53.7;53.6;70;69.9;24.7;0.0;
05/03/2025 11:25:40;100;0;225.51;-4;-38.98;28.02;42.7;21.20;78791;2838.051;-1757.932;1;138;-500;-506.5;52.5;52.6;70;70.4;24.7;0.0;
05/03/2025 11:26:00;100;0;200.47;-4;-33.12;26.89;53.2;21.20;78800;2838.045;-1757.936;1;138;-500;-506.5;53.1;53.2;70;70.4;24.7;0.0;
05/03/2025 11:26:20;100;0;177.66;-4;-31.83;26.48;62.3;21.20;78791;2838.040;-1757.937;1;138;-500;-506.5;54.1;54.2;50;49.6;24.7;0.0;
05/03/2025 11:26:40;100;0;160.59;-4;-32.71;15.38;71.2;21.10;78784;2838.036;-1757.935;1;138;-500;-508.1;54.7;54.9;21;21.2;24.7;0.0;
05/03/2025 11:27:00;100;0;150.28;-4;-35.73;2.56;80.7;21.10;78793;2838.032;-1757.932;1;138;-500;-506.5;54.7;55.1;13;13.1;24.7;0.0;
05/03/2025 11:27:20;100;0;145.45;-4;-38.36;-1.65;90.5;21.10;78776;2838.029;-1757.928;1;138;-500;-506.5;53.7;53.8;13;12.6;24.7;0.0;
05/03/2025 11:27:36;118;0;140.75;-4;-38.61;-1.28;99.0;21.10;78782;2838.026;-1757.925;1;138;500;-504.8;14.5;17.4;13;12.6;24.7;0.0;
05/03/2025 11:27:46;118;0;129.13;-4;-32.85;-1.82;103.1;21.10;78760;2838.025;-1757.923;1;138;500;-379.0;14.5;14.3;13;12.6;24.3;-1.0;
05/03/2025 11:27:56;118;0;124.59;-4;-12.47;-2.93;106.5;21.10;78484;2838.023;-1757.918;1;138;500;-245.2;14.5;14.1;13;12.6;24.3;-1.0;
05/03/2025 11:28:06;118;0;120.61;-4;9.81;-4.14;107.1;21.10;78213;2838.024;-1757.918;1;138;500;-116.1;14.5;13.8;13;12.6;24.3;-1.0;
05/03/2025 11:28:16;118;0;115.96;-4;31.67;-5.38;106.1;21.10;77938;2838.025;-1757.918;1;138;500;8.1;14.5;14.6;13;12.6;24.4;-1.0;
05/03/2025 11:28:26;118;0;116.00;-4;44.38;-6.33;105.2;21.10;77671;2838.025;-1757.917;1;138;500;129.0;14.5;14.7;13;12.6;24.3;-1.0;
05/03/2025 11:28:36;118;0;117.23;-4;42.81;-6.42;104.3;21.10;77417;2838.026;-1757.917;1;138;500;248.4;14.5;14.7;13;12.6;24.3;-1.0;
05/03/2025 11:28:46;118;0;117.12;-4;39.16;-6.58;103.2;21.10;77164;2838.027;-1757.917;1;138;500;374.2;14.5;14.7;13;12.6;24.3;-1.0;
05/03/2025 11:28:56;118;0;115.48;-4;38.70;-5.85;101.6;21.10;76895;2838.028;-1757.916;1;138;500;479.0;14.5;14.7;13;12.6;24.3;-1.0;
05/03/2025 11:29:06;118;0;114.12;-4;36.97;-5.48;99.1;21.10;76643;2838.028;-1757.915;1;138;500;504.8;14.5;14.6;13;12.6;24.3;-1.0;
05/03/2025 11:29:16;118;0;132.51;-4;35.06;-5.15;96.0;21.10;76612;2838.028;-1757.913;1;138;500;504.8;14.5;14.7;13;12.6;24.7;-1.0;
05/03/2025 11:29:36;117;0;122.20;-4;33.38;-4.71;89.3;21.10;76615;2838.027;-1757.909;1;138;500;504.8;14.5;14.7;13;12.6;24.7;-1.0;
05/03/2025 11:29:56;117;0;111.37;-4;32.49;-4.89;82.1;21.10;76615;2838.027;-1757.904;1;138;500;504.8;13.7;13.4;70;69.9;24.7;-1.0;
05/03/2025 11:30:16;117;0;111.09;-4;35.91;27.39;75.2;21.10;76614;2838.028;-1757.899;1;138;500;504.8;13.7;13.4;70;69.9;24.7;-1.0;
05/03/2025 11:30:36;117;0;114.47;-4;37.54;28.53;67.6;21.00;76621;2838.028;-1757.895;1;138;500;504.8;14.5;14.4;70;69.9;24.7;-1.0;
05/03/2025 11:30:56;117;0;117.78;-4;36.31;28.12;59.8;21.00;76614;2838.027;-1757.890;1;138;500;504.8;14.5;14.6;70;69.9;24.7;-1.0;
05/03/2025 11:31:16;117;0;123.48;-4;36.20;28.69;52.3;21.00;76625;2838.027;-1757.886;1;138;500;504.8;14.5;14.6;61;60.9;24.7;-1.0;
05/03/2025 11:31:36;117;0;127.00;-4;36.15;22.56;44.7;21.00;76627;2838.025;-1757.882;1;138;500;506.5;14.5;14.6;55;55.1;24.7;-1.0;
05/03/2025 11:31:56;117;0;127.86;-4;35.90;19.06;37.2;21.00;76615;2838.024;-1757.878;1;138;500;504.8;14.5;14.6;55;54.6;24.7;-1.0;
05/03/2025 11:32:16;117;0;128.53;-4;35.98;19.08;29.9;21.00;76608;2838.023;-1757.874;1;138;500;504.8;14.5;14.6;53;52.8;24.7;-1.0;
05/03/2025 11:32:36;117;0;130.57;-4;35.66;17.93;22.7;21.00;76621;2838.022;-1757.870;1;138;500;504.8;14.5;14.6;49;49.2;24.7;-1.0;
05/03/2025 11:32:56;117;0;131.40;-4;35.58;15.81;15.8;21.00;76619;2838.021;-1757.867;1;138;500;504.8;14.5;14.6;49;48.7;24.7;-1.0;
05/03/2025 11:33:16;117;0;132.63;-4;34.88;15.59;8.7;20.90;76623;2838.020;-1757.863;1;138;500;504.8;14.5;14.6;46;46.0;24.7;-1.0;
05/03/2025 11:33:31;115;0;133.78;-4;34.64;14.45;3.7;20.90;76617;2838.019;-1757.861;1;138;500;504.8;100.0;50.4;0;-0.5;24.7;-1.0;
05/03/2025 11:33:41;115;0;125.03;-4;26.35;-12.00;1.2;20.90;76613;2838.018;-1757.858;1;138;500;504.8;100.0;100.1;0;-0.5;24.7;-1.0;
05/03/2025 11:33:51;115;0;117.78;-4;-28.46;-12.31;0.4;20.90;76604;2838.019;-1757.858;1;138;500;503.2;100.0;100.4;0;-0.5;24.7;-1.0;
05/03/2025 11:34:11;119;0;120.18;-4;-37.82;-3.82;-0.3;20.90;76633;2838.019;-1757.858;1;138;500;506.5;100.0;100.9;0;-0.5;24.7;-1.0;
05/03/2025 11:34:21;119;0;139.51;-4;-54.57;-16.05;-0.0;20.90;76622;2838.037;-1757.874;0;138;500;504.8;100.0;100.7;0;-0.5;24.7;-1.0;
