Timestamp;NavState;SecurityLevel;Heading;Declination;Pitch;Roll;Depth;Temperature;Pa;Lat;Lon;DeadReckoning;DesiredH;BallastCmd;BallastPos;LinCmd;LinPos;AngCmd;AngPos;Voltage;Altitude;
20/02/2025 15:15:15;119;0;279.98;-4;-53.26;-13.72;-0.2;17.30;75731;2835.307;-1758.814;0;152;500;506.5;100.0;100.7;0;-0.5;27.5;-1.0;
20/02/2025 15:15:25;116;0;310.17;-4;-50.33;-6.02;-0.1;17.30;75723;2835.305;-1758.811;0;153;500;508.1;100.0;100.7;0;-0.5;27.4;-1.0;
20/02/2025 15:15:51;116;0;314.29;-4;-54.57;-4.69;-0.2;17.40;75750;2835.305;-1758.811;0;153;500;508.1;100.0;100.7;0;-0.5;27.4;-1.0;
20/02/2025 15:16:09;116;0;311.39;-4;-52.59;-11.35;-0.1;17.50;75764;2835.304;-1758.810;0;-9999;500;508.1;100.0;100.7;0;-0.5;27.5;-1.0;
20/02/2025 15:16:31;116;0;314.98;-4;-55.22;-9.88;-0.1;17.60;75769;2835.302;-1758.809;0;105;500;508.1;100.0;100.7;0;-0.5;27.5;-1.0;
20/02/2025 15:16:51;116;0;312.70;-4;-54.07;-21.04;-0.1;17.60;75772;2835.301;-1758.809;0;105;500;508.1;100.0;100.7;0;-0.5;27.5;-1.0;
20/02/2025 15:17:54;116;0;311.48;-4;-48.19;-8.02;-0.1;17.80;75806;2835.300;-1758.808;0;105;500;508.1;100.0;100.7;0;-0.5;27.5;-1.0;
20/02/2025 15:19:24;116;0;307.23;-4;-53.67;-8.87;-0.0;18.20;75834;2835.297;-1758.806;0;105;500;508.1;100.0;100.7;0;-0.5;27.5;-1.0;
20/02/2025 15:20:37;116;0;314.76;-4;-51.59;-9.99;-0.1;18.60;75868;2835.296;-1758.805;0;105;500;508.1;100.0;100.7;0;-0.5;27.5;-1.0;
20/02/2025 15:20:48;116;0;310.36;-4;-52.58;-13.05;-0.2;18.70;75868;2835.296;-1758.805;0;105;500;508.1;100.0;100.7;0;-0.5;27.5;-1.0;
20/02/2025 15:21:08;110;0;302.02;-4;-52.63;-12.84;0.1;18.80;75876;2835.296;-1758.805;0;105;-70;395.2;100.0;99.9;-10;-9.9;27.5;-1.0;
20/02/2025 15:21:18;110;0;298.73;-4;-50.65;-15.67;0.4;18.80;76229;2835.296;-1758.805;1;105;-70;240.3;100.0;99.9;-10;-10.4;27.4;-1.0;
20/02/2025 15:21:28;110;0;295.59;-4;-67.82;-27.32;0.8;18.80;76468;2835.296;-1758.806;1;105;-70;82.3;100.0;100.0;-10;-10.4;27.4;-1.0;
20/02/2025 15:21:38;110;0;296.51;-4;-65.42;-14.11;0.8;18.90;76802;2835.297;-1758.806;1;105;-70;-69.4;100.0;99.9;-10;-10.4;27.4;-1.0;
20/02/2025 15:21:48;110;0;314.33;-4;-60.13;-18.07;1.3;18.90;77115;2835.297;-1758.806;1;105;-70;-69.4;43.7;43.7;-10;-10.4;27.5;-1.0;
20/02/2025 15:22:08;100;0;325.59;-4;-30.45;-17.27;4.9;19.00;77076;2835.300;-1758.809;1;105;-70;-67.7;43.7;43.4;-10;-10.4;27.5;-1.0;
20/02/2025 15:22:28;100;0;335.78;-4;-22.20;-17.06;8.2;19.10;77087;2835.304;-1758.811;1;105;-70;-64.5;43.1;42.6;-70;-69.9;27.5;-1.0;
20/02/2025 15:22:48;100;0;345.58;-4;-18.35;-45.58;10.9;19.10;77090;2835.308;-1758.812;1;105;-70;-62.9;43.6;43.7;-70;-70.4;27.5;-1.0;
20/02/2025 15:23:08;100;0;357.06;-4;-20.08;-45.41;13.6;19.20;77087;2835.312;-1758.812;1;105;-70;-64.5;43.6;43.9;-70;-70.4;27.5;0.0;
20/02/2025 15:23:28;100;0;8.13;-4;-20.21;-45.26;16.4;19.20;77088;2835.316;-1758.812;1;105;-70;-62.9;43.6;43.9;-70;-70.4;27.5;0.0;
20/02/2025 15:23:48;100;0;19.00;-4;-20.58;-45.58;19.1;19.30;77090;2835.320;-1758.811;1;105;-70;-62.9;43.6;43.9;-70;-70.4;27.5;0.0;
20/02/2025 15:24:08;100;0;29.24;-4;-19.70;-45.86;22.0;19.30;77100;2835.324;-1758.809;1;106;-70;-62.9;43.6;43.9;-70;-70.4;27.5;0.0;
20/02/2025 15:24:28;100;0;42.19;-4;-20.36;-45.48;24.7;19.30;77103;2835.327;-1758.807;1;106;-70;-62.9;43.6;44.0;-70;-70.4;27.5;0.0;
20/02/2025 15:24:48;100;0;53.14;-4;-19.89;-45.79;27.6;19.40;77113;2835.329;-1758.804;1;106;-70;-62.9;43.6;43.9;-60;-60.0;27.5;0.0;
20/02/2025 15:25:08;100;0;65.37;-4;-19.95;-40.10;30.4;19.40;77110;2835.331;-1758.800;1;106;-70;-62.9;43.6;44.0;-46;-46.0;27.5;0.0;
20/02/2025 15:25:28;100;0;77.38;-4;-20.08;-33.18;33.2;19.40;77115;2835.333;-1758.796;1;106;-70;-62.9;43.6;44.0;-29;-28.9;27.5;0.0;
20/02/2025 15:25:48;100;0;85.85;-4;-20.55;-24.54;35.9;19.40;77124;2835.333;-1758.793;1;106;-70;-62.9;43.6;44.0;-18;-18.1;27.5;0.0;
20/02/2025 15:26:08;100;0;92.60;-4;-21.40;-19.34;38.9;19.40;77132;2835.334;-1758.789;1;106;-70;-62.9;43.6;44.2;-5;-5.0;27.5;0.0;
20/02/2025 15:26:28;100;0;97.58;-4;-21.75;-13.44;41.8;19.40;77125;2835.334;-1758.785;1;106;-70;-62.9;43.6;43.4;1;0.9;27.5;0.0;
20/02/2025 15:26:48;100;0;100.20;-4;-21.21;-10.73;44.8;19.40;77131;2835.334;-1758.781;1;106;-70;-61.3;43.6;43.4;6;5.9;27.5;0.0;
20/02/2025 15:27:08;100;0;101.26;-4;-21.36;-8.45;47.8;19.40;77134;2835.333;-1758.778;1;106;-70;-62.9;43.6;43.6;6;5.9;27.5;0.0;
20/02/2025 15:27:28;100;0;103.04;-4;-21.46;-8.35;50.8;19.40;77128;2835.333;-1758.774;1;106;-70;-62.9;43.6;43.4;8;8.1;27.4;0.0;
20/02/2025 15:27:48;100;0;104.18;-4;-21.19;-7.11;53.8;19.40;77136;2835.333;-1758.770;1;106;-70;-61.3;43.6;43.4;8;8.6;27.5;0.0;
20/02/2025 15:28:08;100;0;105.47;-4;-21.54;-7.04;56.7;19.40;77139;2835.332;-1758.766;1;106;-70;-62.9;43.6;43.4;8;8.6;27.5;0.0;
20/02/2025 15:28:28;100;0;106.23;-4;-21.51;-7.07;59.7;19.40;77142;2835.332;-1758.763;1;106;-70;-62.9;43.6;43.4;10;9.9;27.4;0.0;
20/02/2025 15:28:48;100;0;104.87;-4;-21.56;-6.36;62.5;19.40;77145;2835.331;-1758.759;1;106;-70;-62.9;43.6;43.4;8;8.1;27.5;0.0;
20/02/2025 15:29:08;100;0;104.44;-4;-21.46;-7.49;65.5;19.40;77148;2835.331;-1758.755;1;106;-70;-62.9;43.6;43.4;8;8.1;27.5;0.0;
20/02/2025 15:29:28;100;0;104.44;-4;-21.29;-7.56;68.4;19.40;77148;2835.330;-1758.752;1;106;-70;-64.5;43.6;43.4;8;8.1;27.5;0.0;
20/02/2025 15:29:48;100;0;104.20;-4;-21.40;-7.52;71.4;19.40;77151;2835.330;-1758.748;1;106;-70;-62.9;43.6;43.4;8;8.1;27.4;0.0;
20/02/2025 15:30:08;100;0;105.33;-4;-21.03;-7.52;74.3;19.40;77151;2835.330;-1758.744;1;106;-70;-64.5;43.6;43.4;8;8.1;27.4;0.0;
20/02/2025 15:30:28;100;0;104.70;-4;-21.27;-7.59;77.2;19.40;77164;2835.329;-1758.740;1;106;-70;-62.9;43.6;43.4;8;8.1;27.5;0.0;
20/02/2025 15:30:48;100;0;107.22;-4;-21.45;-7.49;80.1;19.40;77167;2835.329;-1758.737;1;106;-70;-62.9;43.6;43.4;10;10.4;27.5;0.0;
20/02/2025 15:31:08;100;0;102.38;-4;-21.60;-6.19;83.1;19.40;77170;2835.328;-1758.733;1;106;-70;-66.1;43.6;43.4;7;7.2;27.5;0.0;
20/02/2025 15:31:28;100;0;101.90;-4;-21.14;-8.20;85.9;19.40;77164;2835.328;-1758.729;1;106;-70;-62.9;43.6;43.4;7;6.8;27.5;0.0;
20/02/2025 15:31:48;100;0;105.60;-4;-20.62;-8.25;88.8;19.40;77162;2835.328;-1758.726;1;106;-70;-62.9;43.6;43.4;9;9.0;27.5;0.0;
20/02/2025 15:32:08;100;0;109.27;-4;-20.70;-6.86;91.3;19.40;77165;2835.327;-1758.723;1;106;-70;-62.9;43.6;43.4;9;9.5;27.5;0.0;
20/02/2025 15:32:28;100;0;113.40;-4;-20.83;-6.82;93.9;19.40;77170;2835.326;-1758.719;1;106;-70;-62.9;43.6;43.4;9;9.5;27.5;0.0;
20/02/2025 15:32:48;100;0;115.68;-4;-20.75;-6.84;96.6;19.40;77145;2835.325;-1758.716;1;106;-70;-62.9;43.6;43.4;9;9.5;27.5;0.0;
20/02/2025 15:33:08;100;0;116.63;-4;-21.08;-6.86;99.2;19.40;77134;2835.324;-1758.713;1;106;-70;-62.9;43.6;43.4;9;9.0;27.5;0.0;
20/02/2025 15:33:28;100;0;117.33;-4;-21.11;-6.75;101.9;19.40;77139;2835.323;-1758.710;1;106;-70;-62.9;43.6;43.4;11;10.8;27.5;0.0;
20/02/2025 15:33:48;100;0;116.15;-4;-20.63;-5.88;104.6;19.40;77116;2835.322;-1758.707;1;106;-70;-62.9;43.6;43.4;11;11.3;27.5;0.0;
20/02/2025 15:34:08;100;0;114.38;-4;-20.02;-5.87;107.0;19.40;77118;2835.321;-1758.704;1;106;-70;-62.9;43.6;43.4;11;11.7;27.5;0.0;
20/02/2025 15:34:29;100;0;116.14;-4;-20.70;-5.93;109.2;19.30;77094;2835.321;-1758.702;1;106;-70;-64.5;43.6;43.4;11;11.7;27.5;0.0;
20/02/2025 15:34:49;100;0;117.11;-4;-20.34;-5.92;111.5;19.30;77070;2835.320;-1758.699;1;106;-70;-62.9;43.6;43.4;11;11.7;27.5;0.0;
20/02/2025 15:35:09;100;0;122.55;-4;-20.75;-5.93;113.8;19.30;77040;2835.319;-1758.696;1;106;-70;-64.5;43.6;43.4;11;11.3;27.5;0.0;
20/02/2025 15:35:29;100;0;123.73;-4;-21.11;-5.75;116.2;19.30;77026;2835.318;-1758.694;1;106;-70;-64.5;43.6;43.4;13;13.1;27.5;0.0;
20/02/2025 15:35:49;100;0;125.77;-4;-21.08;-4.71;118.7;19.20;77019;2835.316;-1758.691;1;106;-70;-64.5;43.6;43.4;16;15.8;27.5;0.0;
20/02/2025 15:36:09;100;0;126.05;-4;-21.38;-3.41;121.1;19.20;77010;2835.315;-1758.689;1;106;-70;-64.5;43.6;43.4;16;16.2;27.5;0.0;
20/02/2025 15:36:29;100;0;125.95;-4;-21.29;-3.37;123.6;19.20;76989;2835.314;-1758.686;1;106;-70;-62.9;43.6;43.4;16;16.2;27.5;0.0;
20/02/2025 15:36:49;100;0;125.85;-4;-20.81;-3.45;125.9;19.20;76984;2835.313;-1758.684;1;106;-70;-62.9;43.6;43.4;16;16.2;27.5;0.0;
20/02/2025 15:37:09;100;0;126.29;-4;-21.10;-3.49;128.1;19.10;76978;2835.311;-1758.681;1;106;-70;-62.9;43.6;43.4;16;16.2;27.5;0.0;
20/02/2025 15:37:29;100;0;127.88;-4;-21.01;-3.51;130.4;19.10;76970;2835.310;-1758.679;1;106;-70;-62.9;43.6;43.4;18;18.5;27.5;0.0;
20/02/2025 15:37:49;100;0;130.79;-4;-20.88;-2.29;132.6;19.10;76957;2835.309;-1758.677;1;106;-70;-62.9;43.6;43.6;22;22.1;27.5;0.0;
20/02/2025 15:38:09;100;0;131.31;-4;-21.10;-0.42;134.8;19.00;76942;2835.308;-1758.675;1;106;-70;-62.9;43.6;43.4;22;22.6;27.5;0.0;
20/02/2025 15:38:29;100;0;129.51;-4;-21.04;-0.42;137.0;19.00;76941;2835.306;-1758.673;1;106;-70;-62.9;43.6;43.4;19;19.0;27.5;0.0;
20/02/2025 15:38:49;100;0;125.59;-4;-20.96;-2.30;139.2;19.00;76919;2835.305;-1758.670;1;106;-70;-64.5;43.6;43.4;14;14.0;27.5;0.0;
20/02/2025 15:39:09;100;0;126.74;-4;-20.58;-4.82;141.4;19.00;76906;2835.304;-1758.668;1;106;-70;-62.9;43.6;43.4;16;15.8;27.5;0.0;
20/02/2025 15:39:29;100;0;127.13;-4;-20.13;-3.81;143.5;18.90;76890;2835.303;-1758.666;1;106;-70;-62.9;43.6;43.4;16;15.8;27.5;0.0;
20/02/2025 15:39:49;100;0;125.25;-4;-20.17;-3.83;145.5;18.90;76878;2835.302;-1758.664;1;106;-90;-90.3;43.6;43.4;14;14.0;27.5;0.0;
20/02/2025 15:40:09;100;0;124.46;-4;-19.76;-4.84;147.6;18.80;76923;2835.301;-1758.662;1;106;-90;-91.9;43.6;43.4;14;13.5;27.5;0.0;
20/02/2025 15:40:29;100;0;126.81;-4;-20.13;-4.84;149.9;18.80;76921;2835.300;-1758.659;1;106;-90;-90.3;43.6;43.4;17;17.1;27.4;0.0;
20/02/2025 15:40:49;100;0;125.73;-4;-20.66;-2.58;152.5;18.80;76907;2835.298;-1758.656;1;106;-90;-93.5;43.6;43.4;17;18.1;27.5;0.0;
20/02/2025 15:41:09;100;0;125.70;-4;-20.64;-2.50;155.2;18.70;76891;2835.297;-1758.654;1;106;-90;-93.5;43.6;43.4;17;17.6;27.5;0.0;
20/02/2025 15:41:29;100;0;124.61;-4;-20.66;-2.52;157.9;18.70;76884;2835.295;-1758.651;1;106;-90;-93.5;43.6;43.4;17;17.6;27.5;0.0;
20/02/2025 15:41:49;100;0;120.93;-4;-20.04;-2.55;160.6;18.70;76886;2835.294;-1758.648;1;106;-90;-93.5;43.6;43.4;13;13.1;27.5;0.0;
20/02/2025 15:42:09;100;0;122.31;-4;-20.21;-5.13;163.3;18.60;76861;2835.293;-1758.645;1;106;-90;-93.5;43.6;43.3;13;12.6;27.5;0.0;
20/02/2025 15:42:29;100;0;123.90;-4;-20.18;-5.15;166.1;18.60;76850;2835.291;-1758.641;1;106;-90;-91.9;43.6;43.4;16;15.8;27.5;0.0;
20/02/2025 15:42:49;100;0;122.28;-4;-20.27;-3.25;169.0;18.50;76847;2835.290;-1758.638;1;106;-90;-96.8;43.6;43.4;16;16.2;27.5;0.0;
20/02/2025 15:43:09;100;0;119.90;-4;-20.06;-3.37;171.8;18.50;76832;2835.288;-1758.635;1;106;-90;-93.5;43.6;43.4;12;12.2;27.5;0.0;
20/02/2025 15:43:29;100;0;117.60;-4;-19.93;-5.67;174.6;18.50;76823;2835.287;-1758.631;1;106;-90;-93.5;43.6;43.4;12;11.7;27.5;0.0;
20/02/2025 15:43:49;100;0;114.80;-4;-20.00;-5.61;177.5;18.40;76819;2835.286;-1758.628;1;106;-90;-93.5;43.6;43.4;12;11.7;27.5;0.0;
20/02/2025 15:44:09;100;0;112.26;-4;-20.07;-5.65;180.3;18.40;76810;2835.285;-1758.624;1;106;-90;-93.5;43.6;43.4;12;11.7;27.5;0.0;
20/02/2025 15:44:29;100;0;111.43;-4;-20.20;-5.55;183.2;18.40;76794;2835.284;-1758.621;1;106;-90;-93.5;43.6;43.4;12;11.7;27.5;0.0;
20/02/2025 15:44:49;100;0;110.06;-4;-20.54;-5.64;186.3;18.30;76784;2835.284;-1758.617;1;106;-90;-93.5;43.6;43.4;12;11.7;27.5;0.0;
20/02/2025 15:45:09;100;0;109.52;-4;-20.39;-5.58;189.5;18.30;76786;2835.283;-1758.613;1;106;-90;-93.5;43.6;43.4;12;11.7;27.5;0.0;
20/02/2025 15:45:29;100;0;110.49;-4;-20.35;-5.53;192.7;18.20;76775;2835.282;-1758.608;1;106;-90;-93.5;43.6;43.4;12;11.7;27.4;0.0;
20/02/2025 15:45:49;100;0;113.65;-4;-20.32;-5.73;195.9;18.20;76771;2835.281;-1758.604;1;106;-90;-95.2;43.6;43.4;12;11.7;27.5;0.0;
20/02/2025 15:46:09;100;0;116.02;-4;-20.34;-5.50;199.1;18.20;76764;2835.279;-1758.600;1;106;-90;-93.5;43.6;43.4;12;11.7;27.5;0.0;
20/02/2025 15:46:29;100;0;118.33;-4;-20.40;-5.48;202.3;18.10;76748;2835.278;-1758.597;1;106;-90;-93.5;43.6;43.4;12;11.7;27.5;0.0;
20/02/2025 15:46:49;100;0;121.17;-4;-20.07;-5.55;205.5;18.10;76747;2835.276;-1758.593;1;106;-90;-93.5;43.6;43.4;14;14.0;27.5;0.0;
20/02/2025 15:47:09;100;0;118.95;-4;-20.03;-4.30;208.5;18.00;76732;2835.275;-1758.589;1;106;-90;-93.5;43.6;43.4;14;14.4;27.5;0.0;
20/02/2025 15:47:29;100;0;117.01;-4;-19.98;-4.29;211.6;18.00;76724;2835.273;-1758.585;1;106;-90;-93.5;43.6;43.4;12;12.2;27.5;0.0;
20/02/2025 15:47:49;100;0;118.62;-4;-19.61;-5.40;214.7;18.00;76702;2835.272;-1758.582;1;106;-90;-95.2;43.6;43.4;12;12.2;27.5;0.0;
20/02/2025 15:48:09;100;0;117.04;-4;-19.67;-5.49;217.7;17.90;76703;2835.271;-1758.578;1;106;-90;-95.2;43.6;43.4;12;12.2;27.5;0.0;
20/02/2025 15:48:29;100;0;116.44;-4;-19.61;-5.43;220.6;17.90;76689;2835.270;-1758.575;1;106;-90;-93.5;43.6;43.4;12;12.2;27.5;0.0;
20/02/2025 15:48:49;100;0;117.48;-4;-19.67;-5.52;223.4;17.80;76674;2835.268;-1758.571;1;106;-90;-93.5;43.6;43.4;12;12.2;27.5;0.0;
20/02/2025 15:49:09;100;0;122.94;-4;-19.68;-5.42;226.4;17.80;76673;2835.267;-1758.568;1;106;-90;-96.8;43.6;43.4;16;15.8;27.5;0.0;
20/02/2025 15:49:29;100;0;125.00;-4;-19.90;-3.28;229.3;17.70;76652;2835.265;-1758.565;1;106;-90;-93.5;43.6;43.4;18;18.1;27.5;0.0;
20/02/2025 15:49:49;100;0;126.60;-4;-20.22;-2.05;232.2;17.70;76644;2835.263;-1758.561;1;106;-90;-93.5;43.6;43.4;20;19.9;27.5;0.0;
20/02/2025 15:50:09;100;0;127.77;-4;-20.35;-1.32;235.1;17.60;76635;2835.262;-1758.558;1;106;-90;-93.5;43.6;43.4;22;22.1;27.5;0.0;
20/02/2025 15:50:29;100;0;127.45;-4;-20.83;-0.02;238.2;17.60;76628;2835.260;-1758.555;1;106;-90;-93.5;43.6;43.4;22;22.6;27.5;0.0;
20/02/2025 15:50:49;100;0;126.19;-4;-20.07;0.18;241.1;17.60;76630;2835.258;-1758.552;1;106;-90;-93.5;43.6;43.4;20;19.9;27.5;0.0;
20/02/2025 15:51:09;100;0;126.89;-4;-20.28;-1.70;244.1;17.50;76610;2835.256;-1758.549;1;105;-90;-93.5;43.6;43.4;22;22.1;27.5;0.0;
20/02/2025 15:51:29;100;0;124.56;-4;-20.46;-0.27;247.0;17.50;76601;2835.255;-1758.545;1;105;-90;-93.5;43.6;43.3;19;19.0;27.5;0.0;
20/02/2025 15:51:49;100;0;121.89;-4;-20.53;-1.71;250.0;17.40;76603;2835.253;-1758.542;1;105;-90;-93.5;43.6;43.3;16;15.8;27.5;0.0;
20/02/2025 15:52:09;100;0;120.91;-4;-20.64;-3.58;253.0;17.40;76594;2835.252;-1758.539;1;105;-90;-93.5;43.6;43.4;16;15.3;27.5;0.0;
20/02/2025 15:52:29;100;0;121.78;-4;-19.91;-3.65;256.0;17.40;76593;2835.250;-1758.535;1;105;-90;-93.5;43.6;43.4;16;15.3;27.4;0.0;
20/02/2025 15:52:49;100;0;120.69;-4;-19.87;-3.68;258.9;17.30;76592;2835.249;-1758.532;1;105;-90;-93.5;43.6;43.4;14;13.5;27.5;0.0;
20/02/2025 15:53:09;100;0;115.52;-4;-19.65;-4.85;261.6;17.30;76574;2835.248;-1758.528;1;105;-90;-93.5;43.6;43.4;12;12.2;27.5;0.0;
20/02/2025 15:53:29;100;0;113.69;-4;-19.73;-5.74;264.3;17.20;76570;2835.247;-1758.525;1;105;-90;-93.5;43.6;43.4;12;11.7;27.5;0.0;
20/02/2025 15:53:49;100;0;112.89;-4;-19.75;-5.68;267.0;17.20;76569;2835.246;-1758.522;1;105;-90;-96.8;43.6;43.4;12;11.7;27.5;0.0;
20/02/2025 15:54:09;100;0;110.19;-4;-19.55;-5.68;269.7;17.20;76535;2835.245;-1758.518;1;105;-90;-93.5;43.6;43.4;12;11.7;27.5;0.0;
20/02/2025 15:54:29;100;0;110.14;-4;-19.76;-5.64;272.4;17.10;76533;2835.245;-1758.515;1;105;-90;-95.2;43.6;43.4;12;11.7;27.5;0.0;
20/02/2025 15:54:49;100;0;111.18;-4;-19.80;-5.60;275.2;17.10;76532;2835.244;-1758.511;1;105;-90;-93.5;43.6;43.4;12;11.7;27.5;0.0;
20/02/2025 15:55:09;100;0;109.43;-4;-19.80;-5.65;277.9;17.10;76526;2835.243;-1758.508;1;105;-90;-95.2;43.6;43.4;12;11.7;27.5;0.0;
20/02/2025 15:55:29;100;0;109.48;-4;-19.68;-5.63;280.7;17.00;76508;2835.242;-1758.504;1;105;-90;-95.2;43.6;43.4;12;11.7;27.4;0.0;
20/02/2025 15:55:49;100;0;110.56;-4;-19.45;-5.65;283.4;17.00;76512;2835.242;-1758.501;1;105;-90;-95.2;43.6;43.4;12;11.7;27.5;0.0;
20/02/2025 15:56:09;100;0;110.13;-4;-19.32;-5.63;286.1;16.90;76493;2835.241;-1758.497;1;105;-90;-95.2;43.6;43.4;12;11.7;27.4;0.0;
20/02/2025 15:56:29;100;0;110.86;-4;-19.46;-5.71;288.8;16.90;76505;2835.240;-1758.493;1;105;-90;-93.5;43.6;43.4;12;11.7;27.4;0.0;
20/02/2025 15:56:49;100;0;112.48;-4;-19.28;-5.70;291.6;16.90;76473;2835.239;-1758.490;1;105;-90;-95.2;43.6;43.4;12;11.7;27.5;0.0;
20/02/2025 15:57:09;100;0;111.57;-4;-19.81;-5.70;294.3;16.80;76471;2835.238;-1758.486;1;105;-90;-95.2;43.6;43.4;12;11.7;27.5;0.0;
20/02/2025 15:57:29;100;0;111.89;-4;-19.95;-5.61;297.1;16.80;76465;2835.238;-1758.483;1;105;-90;-95.2;43.6;43.4;12;11.7;27.5;0.0;
20/02/2025 15:57:49;100;0;112.87;-4;-19.83;-5.55;300.1;16.70;76456;2835.237;-1758.479;1;105;-90;-93.5;43.6;43.4;12;11.7;27.5;0.0;
20/02/2025 15:58:09;100;0;113.22;-4;-19.87;-5.61;303.1;16.70;76443;2835.235;-1758.475;1;105;-90;-95.2;43.6;43.4;12;11.7;27.5;0.0;
20/02/2025 15:58:29;100;0;114.30;-4;-19.31;-5.63;306.0;16.70;76426;2835.234;-1758.471;1;105;-90;-95.2;43.6;43.4;12;11.7;27.5;0.0;
20/02/2025 15:58:49;100;0;114.38;-4;-19.29;-5.66;308.9;16.60;76417;2835.233;-1758.468;1;105;-90;-91.9;43.6;43.4;12;11.7;27.5;0.0;
20/02/2025 15:59:09;100;0;114.69;-4;-19.31;-5.72;311.7;16.60;76415;2835.232;-1758.464;1;105;-90;-93.5;43.6;43.4;12;11.7;27.5;0.0;
20/02/2025 15:59:29;100;0;115.54;-4;-19.37;-5.65;314.6;16.50;76406;2835.231;-1758.460;1;105;-90;-93.5;43.6;43.4;12;11.7;27.5;0.0;
20/02/2025 15:59:49;100;0;116.66;-4;-19.32;-5.61;317.6;16.50;76399;2835.230;-1758.457;1;105;-90;-93.5;43.6;43.4;12;11.7;27.5;0.0;
20/02/2025 16:00:09;100;0;117.46;-4;-18.99;-5.60;320.6;16.50;76396;2835.228;-1758.453;1;105;-90;-93.5;43.9;43.9;12;11.7;27.5;0.0;
20/02/2025 16:00:29;100;0;119.07;-4;-19.82;-5.57;323.5;16.40;76405;2835.227;-1758.449;1;105;-90;-93.5;43.9;44.0;14;14.0;27.5;0.0;
20/02/2025 16:00:49;100;0;118.17;-4;-20.49;-4.38;326.5;16.40;76386;2835.226;-1758.446;1;105;-90;-93.5;43.9;44.0;14;14.4;27.5;0.0;
20/02/2025 16:01:09;100;0;118.25;-4;-20.72;-4.24;329.8;16.30;76378;2835.224;-1758.442;1;105;-90;-95.2;43.9;44.2;14;14.4;27.4;0.0;
20/02/2025 16:01:29;100;0;121.22;-4;-20.39;-4.22;333.1;16.30;76380;2835.223;-1758.438;1;105;-90;-96.8;43.9;44.2;16;15.8;27.5;0.0;
20/02/2025 16:01:49;100;0;120.24;-4;-20.66;-3.28;336.3;16.30;76361;2835.221;-1758.434;1;105;-90;-91.9;43.9;44.2;16;16.2;27.5;0.0;
20/02/2025 16:02:09;100;0;119.75;-4;-20.94;-3.10;339.6;16.30;76351;2835.219;-1758.431;1;105;-90;-93.5;43.9;44.2;14;13.5;27.4;0.0;
20/02/2025 16:02:29;100;0;118.96;-4;-20.69;-4.65;342.9;16.20;76353;2835.218;-1758.427;1;105;-90;-96.8;43.9;44.2;14;13.5;27.5;0.0;
20/02/2025 16:02:49;100;0;119.17;-4;-20.58;-4.70;346.2;16.20;76343;2835.217;-1758.423;1;105;-90;-93.5;43.9;44.2;14;13.5;27.5;0.0;
20/02/2025 16:03:09;100;0;119.24;-4;-20.61;-4.65;349.6;16.10;76324;2835.215;-1758.419;1;105;-90;-93.5;43.9;44.2;14;13.5;27.5;0.0;
20/02/2025 16:03:29;100;0;119.22;-4;-20.62;-4.67;352.8;16.10;76325;2835.214;-1758.415;1;105;-90;-93.5;43.9;44.2;14;13.5;27.4;0.0;
20/02/2025 16:03:49;100;0;119.10;-4;-20.91;-4.69;356.2;16.10;76323;2835.212;-1758.411;1;105;-90;-95.2;43.9;44.2;14;13.5;27.5;0.0;
20/02/2025 16:04:09;100;0;117.11;-4;-20.39;-4.75;359.6;16.00;76312;2835.210;-1758.407;1;105;-90;-93.5;43.9;44.2;14;13.5;27.5;0.0;
20/02/2025 16:04:29;100;0;115.79;-4;-20.12;-4.77;362.8;16.00;76303;2835.209;-1758.403;1;105;-90;-93.5;43.9;44.2;14;13.5;27.5;0.0;
20/02/2025 16:04:49;100;0;113.39;-4;-20.32;-4.72;365.9;16.00;76298;2835.208;-1758.399;1;105;-90;-93.5;43.9;44.2;14;13.5;27.4;0.0;
20/02/2025 16:05:09;100;0;111.47;-4;-20.51;-4.74;369.1;15.90;76275;2835.207;-1758.395;1;105;-90;-93.5;43.9;44.2;14;13.5;27.5;0.0;
20/02/2025 16:05:29;100;0;109.75;-4;-20.52;-4.72;372.4;15.90;76276;2835.206;-1758.391;1;105;-90;-95.2;43.9;44.2;14;13.5;27.4;0.0;
20/02/2025 16:05:49;100;0;108.71;-4;-20.11;-4.71;375.6;15.80;76262;2835.205;-1758.387;1;105;-90;-93.5;43.9;44.2;14;13.5;27.5;0.0;
20/02/2025 16:06:09;100;0;108.82;-4;-19.84;-4.86;378.7;15.80;76261;2835.205;-1758.383;1;105;-90;-93.5;43.9;44.2;14;13.5;27.5;0.0;
20/02/2025 16:06:29;100;0;111.91;-4;-19.99;-4.74;381.8;15.80;76254;2835.204;-1758.379;1;105;-90;-91.9;43.9;44.2;14;13.5;27.5;0.0;
20/02/2025 16:06:49;100;0;115.21;-4;-20.08;-4.78;384.9;15.70;76250;2835.202;-1758.375;1;105;-90;-95.2;43.9;44.2;14;13.5;27.5;0.0;
20/02/2025 16:07:09;100;0;117.28;-4;-20.22;-4.77;388.0;15.70;76240;2835.201;-1758.372;1;105;-90;-93.5;43.9;44.2;14;13.5;27.5;0.0;
20/02/2025 16:07:29;100;0;118.37;-4;-20.11;-4.70;391.2;15.60;76230;2835.200;-1758.368;1;105;-90;-93.5;43.9;44.2;14;13.5;27.5;0.0;
20/02/2025 16:07:49;100;0;120.82;-4;-20.63;-4.79;394.3;15.60;76223;2835.198;-1758.364;1;105;-90;-93.5;43.9;44.2;16;15.8;27.5;0.0;
20/02/2025 16:08:09;100;0;120.17;-4;-20.60;-3.48;397.6;15.60;76223;2835.197;-1758.360;1;105;-90;-93.5;43.9;44.2;16;16.2;27.5;0.0;
20/02/2025 16:08:29;100;0;121.45;-4;-20.43;-3.20;400.7;15.50;76213;2835.195;-1758.357;1;105;-90;-95.2;43.9;44.2;16;16.2;27.5;0.0;
20/02/2025 16:08:49;100;0;122.17;-4;-20.56;-3.54;403.8;15.50;76210;2835.193;-1758.353;1;105;-90;-93.5;43.9;44.2;16;16.2;27.5;0.0;
20/02/2025 16:09:10;100;0;122.47;-4;-20.13;-3.23;407.0;15.50;76208;2835.192;-1758.350;1;105;-90;-95.2;43.9;44.2;16;16.2;27.5;0.0;
20/02/2025 16:09:30;100;0;123.34;-4;-20.07;-3.42;410.0;15.40;76196;2835.190;-1758.346;1;105;-90;-93.5;43.9;44.2;18;18.5;27.5;0.0;
20/02/2025 16:09:50;100;0;123.23;-4;-20.34;-1.94;413.2;15.40;76186;2835.188;-1758.343;1;105;-90;-95.2;43.9;44.2;18;19.0;27.5;0.0;
20/02/2025 16:10:10;100;0;120.68;-4;-20.17;-1.99;416.2;15.40;76188;2835.187;-1758.339;1;105;-90;-95.2;43.9;44.2;16;15.8;27.5;0.0;
20/02/2025 16:10:30;100;0;118.65;-4;-20.16;-3.44;419.3;15.30;76180;2835.185;-1758.335;1;105;-90;-93.5;43.9;44.2;14;13.5;27.5;0.0;
20/02/2025 16:10:50;100;0;117.17;-4;-19.94;-4.81;422.3;15.30;76166;2835.184;-1758.332;1;105;-90;-93.5;43.9;44.2;14;13.5;27.5;0.0;
20/02/2025 16:11:10;100;0;115.73;-4;-20.04;-4.74;425.4;15.30;76165;2835.183;-1758.328;1;105;-90;-95.2;43.9;44.2;14;13.5;27.5;0.0;
20/02/2025 16:11:30;100;0;114.08;-4;-20.01;-4.78;428.5;15.20;76169;2835.182;-1758.324;1;105;-90;-93.5;43.9;44.2;14;13.5;27.5;0.0;
20/02/2025 16:11:50;100;0;112.21;-4;-19.79;-4.71;431.5;15.20;76164;2835.181;-1758.320;1;105;-90;-93.5;43.9;44.2;14;13.5;27.5;0.0;
20/02/2025 16:12:10;100;0;111.31;-4;-19.65;-4.71;434.5;15.20;76152;2835.180;-1758.316;1;105;-90;-93.5;43.9;44.2;14;13.5;27.4;0.0;
20/02/2025 16:12:30;100;0;112.79;-4;-19.81;-4.82;437.4;15.10;76151;2835.179;-1758.313;1;105;-90;-93.5;43.9;44.2;14;13.5;27.5;0.0;
20/02/2025 16:12:50;100;0;114.92;-4;-19.77;-4.79;440.5;15.10;76153;2835.178;-1758.309;1;105;-90;-93.5;43.9;44.2;14;13.5;27.5;0.0;
20/02/2025 16:13:10;100;0;114.68;-4;-19.87;-4.82;443.5;15.10;76146;2835.177;-1758.305;1;105;-90;-93.5;43.9;44.2;14;13.5;27.5;0.0;
20/02/2025 16:13:30;100;0;115.67;-4;-19.84;-4.80;446.4;15.10;76134;2835.175;-1758.301;1;105;-90;-93.5;43.9;44.2;14;13.5;27.4;0.0;
20/02/2025 16:13:50;100;0;114.68;-4;-19.94;-4.73;449.4;15.00;76131;2835.174;-1758.298;1;105;-90;-93.5;43.9;44.2;14;13.5;27.5;0.0;
20/02/2025 16:14:10;100;0;113.10;-4;-19.84;-4.74;452.4;15.00;76121;2835.173;-1758.294;1;105;-90;-96.8;43.9;44.2;14;13.5;27.5;0.0;
20/02/2025 16:14:30;100;0;110.42;-4;-19.98;-4.82;455.3;15.00;76105;2835.172;-1758.290;1;105;-90;-95.2;43.9;44.2;14;13.5;27.5;0.0;
20/02/2025 16:14:50;100;0;108.31;-4;-20.19;-4.74;458.2;14.90;76104;2835.172;-1758.286;1;105;-90;-93.5;43.9;44.2;14;13.5;27.5;0.0;
20/02/2025 16:15:10;100;0;107.84;-4;-20.16;-4.68;461.3;14.90;76106;2835.171;-1758.282;1;105;-90;-93.5;43.9;44.2;14;13.5;27.4;0.0;
20/02/2025 16:15:30;100;0;108.65;-4;-20.01;-4.72;464.2;14.90;76104;2835.170;-1758.279;1;105;-90;-93.5;43.9;44.2;14;13.5;27.5;0.0;
20/02/2025 16:15:50;100;0;108.86;-4;-19.90;-4.67;467.2;14.80;76089;2835.170;-1758.275;1;105;-90;-95.2;43.9;44.2;14;13.5;27.5;0.0;
20/02/2025 16:16:10;100;0;109.92;-4;-19.86;-4.78;470.0;14.80;76095;2835.169;-1758.271;1;105;-90;-93.5;43.9;44.2;14;13.5;27.5;0.0;
20/02/2025 16:16:30;100;0;108.27;-4;-20.17;-4.80;472.9;14.80;76083;2835.168;-1758.267;1;105;-90;-93.5;43.9;44.2;14;13.5;27.5;0.0;
20/02/2025 16:16:50;100;0;108.07;-4;-19.97;-4.77;475.8;14.80;76073;2835.168;-1758.264;1;105;-90;-93.5;43.9;44.0;14;13.5;27.5;0.0;
20/02/2025 16:17:10;100;0;111.04;-4;-19.86;-4.74;478.7;14.70;76067;2835.167;-1758.260;1;105;-90;-95.2;43.9;44.2;14;13.5;27.5;0.0;
20/02/2025 16:17:30;100;0;109.18;-4;-19.86;-4.80;481.4;14.70;76062;2835.166;-1758.256;1;105;-90;-93.5;43.9;44.2;14;13.5;27.5;0.0;
20/02/2025 16:17:50;100;0;106.81;-4;-19.91;-4.81;484.2;14.70;76053;2835.165;-1758.253;1;105;-90;-95.2;43.9;44.0;14;13.5;27.5;0.0;
20/02/2025 16:18:10;100;0;105.71;-4;-19.93;-4.76;487.0;14.60;76048;2835.165;-1758.249;1;105;-90;-95.2;43.9;44.2;12;12.2;27.5;0.0;
20/02/2025 16:18:30;100;0;104.69;-4;-19.61;-5.52;489.7;14.60;76041;2835.165;-1758.245;1;105;-90;-93.5;43.9;44.2;12;11.7;27.5;0.0;
20/02/2025 16:18:50;100;0;103.04;-4;-19.57;-5.64;492.4;14.60;76029;2835.164;-1758.242;1;105;-90;-93.5;43.9;44.2;12;11.7;27.5;0.0;
20/02/2025 16:19:10;100;0;102.33;-4;-19.48;-5.59;495.1;14.60;76030;2835.164;-1758.238;1;105;-90;-93.5;43.9;44.2;10;9.9;27.5;0.0;
20/02/2025 16:19:30;100;0;107.04;-4;-19.45;-6.58;497.7;14.50;76026;2835.163;-1758.235;1;105;-90;-93.5;43.9;44.2;12;12.6;27.5;0.0;
20/02/2025 16:19:50;100;0;108.48;-4;-19.80;-5.08;500.4;14.50;76017;2835.163;-1758.231;1;105;-90;-95.2;43.9;44.2;12;12.6;27.5;0.0;
20/02/2025 16:20:10;100;0;110.16;-4;-19.62;-5.07;503.1;14.50;76015;2835.162;-1758.228;1;105;-90;-95.2;43.9;44.3;12;13.1;27.5;0.0;
20/02/2025 16:20:30;100;0;111.83;-4;-19.73;-5.00;505.8;14.40;76005;2835.161;-1758.224;1;105;-90;-91.9;43.9;44.2;12;12.6;27.5;0.0;
20/02/2025 16:20:50;100;0;112.57;-4;-19.64;-4.98;508.5;14.40;75996;2835.160;-1758.221;1;105;-90;-95.2;43.9;44.2;12;12.6;27.5;0.0;
20/02/2025 16:21:10;100;0;111.47;-4;-19.79;-5.05;511.2;14.40;75995;2835.160;-1758.217;1;105;-90;-93.5;43.9;44.2;12;12.6;27.5;0.0;
20/02/2025 16:21:30;100;0;110.01;-4;-19.69;-5.09;513.9;14.40;75993;2835.159;-1758.214;1;105;-90;-93.5;43.9;44.2;12;12.6;27.5;0.0;
20/02/2025 16:21:50;100;0;114.13;-4;-19.62;-5.01;516.5;14.30;75982;2835.158;-1758.211;1;105;-90;-95.2;43.9;44.2;12;13.1;27.5;0.0;
20/02/2025 16:22:10;100;0;116.81;-4;-19.50;-4.93;519.2;14.30;75977;2835.157;-1758.207;1;105;-90;-93.5;43.9;44.0;12;12.6;27.5;0.0;
20/02/2025 16:22:30;100;0;118.39;-4;-19.55;-5.05;521.9;14.30;75976;2835.156;-1758.204;1;105;-90;-93.5;43.9;44.2;14;14.4;27.5;0.0;
20/02/2025 16:22:50;100;0;119.64;-4;-19.54;-4.04;524.5;14.20;75969;2835.155;-1758.201;1;105;-90;-93.5;43.9;44.2;14;14.9;27.5;0.0;
20/02/2025 16:23:10;100;0;120.10;-4;-19.26;-4.07;527.1;14.20;75958;2835.153;-1758.198;1;105;-90;-93.5;43.9;44.2;14;14.9;27.5;0.0;
20/02/2025 16:23:30;100;0;117.15;-4;-19.59;-4.43;529.5;14.20;75948;2835.153;-1758.195;1;105;-90;-93.5;43.9;44.2;14;14.9;27.5;0.0;
20/02/2025 16:23:50;100;0;119.05;-4;-19.94;-4.05;532.0;14.20;75948;2835.151;-1758.192;1;105;-90;-95.2;43.9;44.2;14;14.9;27.4;0.0;
20/02/2025 16:24:10;100;0;117.46;-4;-19.39;-4.16;534.6;14.10;75943;2835.150;-1758.189;1;105;-90;-93.5;43.9;44.2;14;14.9;27.5;0.0;
20/02/2025 16:24:30;100;0;116.06;-4;-19.60;-4.13;537.1;14.10;75948;2835.149;-1758.186;1;105;-90;-95.2;43.9;44.2;14;14.9;27.5;0.0;
20/02/2025 16:24:50;100;0;115.61;-4;-19.09;-4.07;539.6;14.10;75938;2835.148;-1758.183;1;105;-90;-93.5;43.9;44.2;14;14.4;27.4;0.0;
20/02/2025 16:25:10;100;0;113.59;-4;-19.13;-4.11;542.0;14.10;75936;2835.148;-1758.180;1;105;-90;-93.5;43.9;44.2;14;14.9;27.5;0.0;
20/02/2025 16:25:30;100;0;112.65;-4;-19.51;-4.20;544.3;14.00;75927;2835.147;-1758.177;1;105;-90;-93.5;43.9;44.2;14;14.9;27.5;0.0;
20/02/2025 16:25:50;100;0;112.29;-4;-19.81;-4.07;546.9;14.00;75923;2835.146;-1758.174;1;105;-90;-93.5;43.9;44.2;14;14.9;27.4;0.0;
20/02/2025 16:26:10;100;0;111.43;-4;-19.64;-4.08;549.4;14.00;75925;2835.146;-1758.170;1;105;-90;-95.2;43.9;44.2;14;14.9;27.5;0.0;
20/02/2025 16:26:30;100;0;110.74;-4;-19.51;-4.09;551.8;13.90;75915;2835.145;-1758.167;1;105;-90;-95.2;43.9;44.2;14;14.9;27.5;0.0;
20/02/2025 16:26:50;100;0;109.92;-4;-19.54;-4.08;554.3;13.90;75912;2835.144;-1758.164;1;105;-90;-95.2;43.9;44.2;14;14.9;27.4;0.0;
20/02/2025 16:27:10;100;0;108.12;-4;-19.36;-3.99;556.7;13.90;75900;2835.144;-1758.161;1;105;-90;-93.5;43.9;44.2;14;14.9;27.5;0.0;
20/02/2025 16:27:30;100;0;106.94;-4;-19.78;-4.05;559.1;13.90;75904;2835.143;-1758.158;1;105;-90;-93.5;43.9;44.2;12;11.7;27.5;0.0;
20/02/2025 16:27:50;100;0;107.01;-4;-19.29;-5.87;561.5;13.80;75892;2835.143;-1758.155;1;105;-90;-93.5;43.9;44.2;12;11.7;27.5;0.0;
20/02/2025 16:28:10;100;0;107.30;-4;-19.19;-5.73;563.8;13.80;75895;2835.143;-1758.152;1;105;-90;-96.8;43.9;44.2;12;11.7;27.5;0.0;
20/02/2025 16:28:30;100;0;107.73;-4;-19.13;-5.80;566.1;13.80;75890;2835.142;-1758.149;1;105;-90;-95.2;43.9;44.2;12;11.7;27.5;0.0;
20/02/2025 16:28:50;100;0;108.81;-4;-18.91;-5.79;568.4;13.80;75895;2835.142;-1758.146;1;105;-90;-93.5;44.2;44.2;12;11.3;27.5;0.0;
20/02/2025 16:29:10;100;0;111.98;-4;-19.16;-5.81;570.6;13.80;75893;2835.141;-1758.143;1;105;-90;-95.2;44.2;44.2;12;11.3;27.5;0.0;
20/02/2025 16:29:30;100;0;115.36;-4;-19.35;-5.78;572.9;13.70;75881;2835.140;-1758.140;1;105;-90;-93.5;44.2;44.2;12;11.7;27.5;0.0;
20/02/2025 16:29:50;100;0;119.12;-4;-19.07;-5.79;575.3;13.70;75883;2835.139;-1758.137;1;105;-90;-93.5;44.2;44.0;14;14.0;27.5;0.0;
20/02/2025 16:30:10;100;0;118.83;-4;-19.07;-4.35;577.5;13.70;75877;2835.138;-1758.134;1;105;-90;-93.5;44.2;44.2;14;14.4;27.5;0.0;
20/02/2025 16:30:30;100;0;117.09;-4;-19.42;-4.38;579.9;13.70;75862;2835.137;-1758.131;1;105;-90;-93.5;44.2;44.2;14;14.4;27.5;0.0;
20/02/2025 16:30:50;100;0;114.70;-4;-19.43;-4.27;582.3;13.60;75855;2835.136;-1758.128;1;105;-90;-96.8;44.2;44.2;14;14.4;27.5;0.0;
20/02/2025 16:31:10;100;0;110.57;-4;-19.38;-4.31;584.7;13.60;75853;2835.136;-1758.125;1;105;-90;-96.8;44.2;44.2;14;14.4;27.5;0.0;
20/02/2025 16:31:30;100;0;108.75;-4;-19.59;-4.26;587.1;13.60;75848;2835.135;-1758.122;1;105;-90;-93.5;44.2;44.2;14;14.4;27.4;0.0;
20/02/2025 16:31:50;100;0;109.24;-4;-19.52;-4.29;589.5;13.60;75831;2835.135;-1758.119;1;105;-90;-93.5;44.2;44.2;14;14.4;27.5;0.0;
20/02/2025 16:32:10;100;0;109.99;-4;-19.42;-4.25;591.9;13.50;75834;2835.134;-1758.116;1;105;-90;-93.5;44.2;44.0;14;14.4;27.5;0.0;
20/02/2025 16:32:30;100;0;111.67;-4;-19.34;-4.26;594.3;13.50;75833;2835.133;-1758.113;1;105;-90;-93.5;44.2;44.2;14;14.4;27.5;0.0;
20/02/2025 16:32:50;100;0;117.46;-4;-19.55;-4.39;596.7;13.50;75815;2835.132;-1758.110;1;105;-90;-93.5;44.2;44.2;14;14.4;27.5;0.0;
20/02/2025 16:33:10;100;0;118.05;-4;-19.38;-4.16;599.1;13.50;75816;2835.131;-1758.107;1;105;-90;-95.2;44.2;44.2;14;14.4;27.5;0.0;
20/02/2025 16:33:30;100;0;118.62;-4;-19.27;-4.18;601.5;13.40;75815;2835.130;-1758.104;1;105;-90;-95.2;44.2;44.2;14;14.4;27.4;0.0;
20/02/2025 16:33:50;100;0;119.93;-4;-19.22;-4.30;603.9;13.40;75807;2835.129;-1758.101;1;105;-90;-93.5;44.2;44.2;14;14.4;27.5;0.0;
20/02/2025 16:34:10;100;0;122.58;-4;-19.84;-4.26;606.3;13.40;75808;2835.128;-1758.098;1;105;-90;-93.5;44.2;44.2;16;15.8;27.5;0.0;
20/02/2025 16:34:30;100;0;124.49;-4;-19.35;-3.32;608.9;13.40;75798;2835.127;-1758.095;1;105;-90;-93.5;44.2;44.2;19;19.0;27.4;0.0;
20/02/2025 16:34:50;100;0;126.58;-4;-19.34;-1.62;611.4;13.30;75791;2835.125;-1758.092;1;105;-90;-93.5;44.2;44.2;21;21.2;27.4;0.0;
20/02/2025 16:35:10;100;0;127.02;-4;-19.62;-0.73;613.8;13.30;75791;2835.124;-1758.090;1;105;-90;-93.5;44.2;44.2;21;21.7;27.5;0.0;
20/02/2025 16:35:30;100;0;127.24;-4;-19.66;-0.72;616.2;13.30;75788;2835.122;-1758.087;1;105;-90;-95.2;44.2;44.2;21;21.7;27.5;0.0;
20/02/2025 16:35:50;100;0;127.23;-4;-19.47;-0.77;618.8;13.30;75786;2835.121;-1758.084;1;104;-90;-93.5;44.2;44.2;24;23.9;27.5;0.0;
20/02/2025 16:36:10;100;0;126.84;-4;-19.68;0.67;621.2;13.30;75781;2835.119;-1758.082;1;104;-90;-93.5;44.2;44.2;22;22.1;27.5;0.0;
20/02/2025 16:36:30;100;0;120.15;-4;-19.14;-1.16;623.5;13.30;75778;2835.118;-1758.079;1;104;-90;-93.5;44.2;44.2;15;14.9;27.5;0.0;
20/02/2025 16:36:50;100;0;115.77;-4;-19.17;-4.11;625.8;13.20;75764;2835.118;-1758.076;1;104;-90;-93.5;44.2;44.2;15;14.9;27.5;0.0;
20/02/2025 16:37:10;100;0;112.95;-4;-19.01;-4.24;628.0;13.20;75760;2835.117;-1758.073;1;104;-90;-93.5;44.2;44.2;13;13.1;27.5;0.0;
20/02/2025 16:37:30;100;0;112.66;-4;-18.82;-5.29;630.2;13.20;75751;2835.116;-1758.071;1;104;-90;-93.5;44.5;44.5;13;12.6;27.5;0.0;
20/02/2025 16:37:50;100;0;111.93;-4;-19.80;-5.27;632.4;13.10;75753;2835.116;-1758.068;1;104;-90;-93.5;44.5;44.8;13;12.6;27.5;0.0;
20/02/2025 16:38:10;100;0;109.72;-4;-19.68;-5.35;634.7;13.10;75737;2835.115;-1758.065;1;104;-90;-95.2;44.5;44.6;13;12.6;27.5;0.0;
20/02/2025 16:38:30;100;0;109.11;-4;-19.86;-5.26;637.1;13.10;75738;2835.115;-1758.062;1;104;-90;-95.2;44.5;44.8;13;12.6;27.5;0.0;
20/02/2025 16:38:50;100;0;107.67;-4;-20.03;-5.26;639.3;13.10;75739;2835.114;-1758.059;1;104;-90;-95.2;44.5;44.8;13;12.6;27.5;0.0;
20/02/2025 16:39:10;100;0;104.28;-4;-19.98;-5.27;641.7;13.10;75726;2835.114;-1758.056;1;104;-90;-93.5;44.5;44.8;13;12.6;27.5;0.0;
20/02/2025 16:39:30;100;0;102.30;-4;-20.15;-5.16;644.0;13.00;75716;2835.114;-1758.053;1;104;-90;-93.5;44.5;44.6;10;9.9;27.5;0.0;
20/02/2025 16:39:50;100;0;100.33;-4;-20.39;-6.01;646.4;13.00;75716;2835.114;-1758.050;1;105;-90;-95.2;44.5;44.8;7;7.2;27.4;0.0;
20/02/2025 16:40:10;100;0;99.94;-4;-20.16;-8.06;648.8;13.00;75708;2835.114;-1758.046;1;105;-90;-93.5;44.5;44.8;7;7.2;27.5;0.0;
20/02/2025 16:40:30;100;0;99.46;-4;-20.07;-7.99;651.2;13.00;75710;2835.114;-1758.043;1;105;-90;-95.2;44.5;44.8;7;6.8;27.5;0.0;
20/02/2025 16:40:50;100;0;99.93;-4;-19.94;-8.07;653.7;12.90;75705;2835.114;-1758.040;1;105;-90;-95.2;44.5;44.6;7;6.8;27.5;0.0;
20/02/2025 16:41:10;100;0;99.98;-4;-19.91;-8.06;656.1;12.90;75711;2835.114;-1758.037;1;105;-90;-93.5;44.5;44.8;7;7.2;27.5;0.0;
20/02/2025 16:41:30;100;0;102.58;-4;-19.92;-7.92;658.5;12.90;75693;2835.113;-1758.033;1;105;-90;-93.5;44.5;44.8;10;9.9;27.5;0.0;
20/02/2025 16:41:50;100;0;103.82;-4;-19.97;-6.29;661.0;12.90;75697;2835.113;-1758.030;1;105;-90;-93.5;44.5;44.8;10;10.4;27.4;0.0;
20/02/2025 16:42:10;100;0;105.07;-4;-19.74;-6.31;663.4;12.90;75700;2835.113;-1758.027;1;105;-90;-93.5;44.5;44.8;10;10.4;27.5;0.0;
20/02/2025 16:42:30;100;0;108.63;-4;-19.94;-6.33;665.8;12.80;75685;2835.112;-1758.024;1;105;-90;-95.2;44.5;44.8;13;13.5;27.4;0.0;
20/02/2025 16:42:50;100;0;111.19;-4;-20.15;-4.62;668.2;12.80;75674;2835.112;-1758.021;1;105;-90;-93.5;44.5;44.8;13;14.0;27.5;0.0;
20/02/2025 16:43:10;100;0;112.21;-4;-20.09;-4.69;670.7;12.80;75676;2835.111;-1758.018;1;105;-90;-93.5;44.5;44.8;13;13.5;27.5;0.0;
20/02/2025 16:43:30;100;0;113.14;-4;-20.45;-4.64;673.3;12.80;75660;2835.110;-1758.015;1;105;-90;-95.2;44.5;44.8;13;14.0;27.5;0.0;
20/02/2025 16:43:51;100;0;114.80;-4;-20.04;-4.60;675.9;12.70;75658;2835.109;-1758.011;1;105;-90;-95.2;44.5;44.8;13;14.0;27.5;0.0;
20/02/2025 16:44:11;100;0;116.70;-4;-20.15;-4.68;678.5;12.70;75659;2835.108;-1758.008;1;105;-90;-93.5;44.5;44.8;13;14.0;27.5;0.0;
20/02/2025 16:44:31;100;0;118.18;-4;-20.08;-4.68;681.1;12.70;75647;2835.107;-1758.005;1;105;-90;-95.2;44.5;44.8;13;14.0;27.4;0.0;
20/02/2025 16:44:51;100;0;119.14;-4;-20.14;-4.58;683.8;12.70;75641;2835.106;-1758.002;1;105;-90;-91.9;44.5;44.8;13;13.5;27.5;0.0;
20/02/2025 16:45:11;100;0;120.51;-4;-20.34;-4.59;686.5;12.70;75636;2835.105;-1757.999;1;105;-90;-95.2;44.5;44.6;15;15.3;27.5;0.0;
20/02/2025 16:45:31;100;0;121.58;-4;-20.41;-3.69;689.2;12.60;75640;2835.103;-1757.996;1;105;-90;-95.2;44.5;44.8;15;15.8;27.5;0.0;
20/02/2025 16:45:51;100;0;122.29;-4;-20.32;-3.67;692.0;12.60;75628;2835.102;-1757.992;1;105;-90;-96.8;44.5;44.8;17;18.1;27.5;0.0;
20/02/2025 16:46:11;100;0;123.36;-4;-20.47;-2.07;694.8;12.60;75620;2835.100;-1757.989;1;105;-90;-95.2;44.5;44.8;17;19.0;27.4;0.0;
20/02/2025 16:46:31;100;0;123.72;-4;-20.30;-2.08;697.6;12.60;75613;2835.099;-1757.986;1;104;-90;-95.2;44.5;44.8;19;19.0;27.5;0.0;
20/02/2025 16:46:51;100;0;125.32;-4;-20.22;-2.02;700.4;12.50;75605;2835.097;-1757.983;1;104;-90;-93.5;44.5;44.6;21;21.2;27.5;0.0;
20/02/2025 16:47:11;100;0;123.11;-4;-20.61;-0.73;703.1;12.50;75595;2835.096;-1757.980;1;104;-90;-93.5;44.5;44.8;18;17.6;27.5;0.0;
20/02/2025 16:47:31;100;0;121.00;-4;-20.44;-2.62;705.8;12.50;75591;2835.095;-1757.977;1;104;-90;-93.5;44.5;44.8;16;15.3;27.4;0.0;
20/02/2025 16:47:51;100;0;117.75;-4;-20.33;-3.38;708.6;12.50;75576;2835.093;-1757.974;1;104;-90;-93.5;44.5;44.8;14;13.5;27.5;0.0;
20/02/2025 16:48:11;100;0;116.11;-4;-20.27;-4.69;711.3;12.40;75574;2835.092;-1757.970;1;104;-90;-93.5;44.5;44.8;14;14.0;27.5;0.0;
20/02/2025 16:48:31;100;0;114.84;-4;-20.08;-4.64;714.1;12.40;75562;2835.091;-1757.967;1;104;-90;-93.5;44.5;44.6;14;14.0;27.5;0.0;
20/02/2025 16:48:51;100;0;114.70;-4;-19.92;-4.67;716.8;12.40;75552;2835.090;-1757.964;1;104;-90;-93.5;44.5;44.8;14;14.0;27.5;0.0;
20/02/2025 16:49:11;100;0;115.73;-4;-19.82;-4.69;719.4;12.30;75551;2835.089;-1757.960;1;104;-90;-93.5;44.5;44.8;14;14.0;27.4;0.0;
20/02/2025 16:49:31;100;0;115.32;-4;-19.94;-4.75;722.1;12.30;75554;2835.088;-1757.957;1;104;-90;-93.5;44.5;44.8;14;13.5;27.5;0.0;
20/02/2025 16:49:51;100;0;112.91;-4;-19.78;-4.71;724.8;12.30;75549;2835.088;-1757.954;1;104;-90;-93.5;44.5;44.8;14;13.5;27.5;0.0;
20/02/2025 16:50:11;100;0;110.57;-4;-19.81;-4.71;727.5;12.30;75535;2835.087;-1757.950;1;104;-90;-93.5;44.5;44.8;14;13.5;27.5;0.0;
20/02/2025 16:50:31;100;0;108.77;-4;-20.00;-4.78;730.2;12.30;75541;2835.086;-1757.947;1;104;-90;-95.2;44.5;44.8;14;14.0;27.5;0.0;
20/02/2025 16:50:51;100;0;105.72;-4;-19.91;-4.82;733.0;12.20;75531;2835.086;-1757.943;1;104;-90;-95.2;44.5;44.8;14;14.0;27.4;0.0;
20/02/2025 16:51:11;100;0;104.77;-4;-20.15;-4.70;735.9;12.20;75522;2835.085;-1757.939;1;104;-90;-95.2;44.5;44.8;14;14.0;27.5;0.0;
20/02/2025 16:51:31;100;0;106.36;-4;-20.05;-4.66;738.9;12.20;75515;2835.085;-1757.935;1;104;-90;-93.5;44.5;44.8;14;14.0;27.5;0.0;
20/02/2025 16:51:51;100;0;105.80;-4;-20.03;-4.63;742.0;12.20;75510;2835.084;-1757.931;1;104;-90;-93.5;44.5;44.8;14;14.0;27.4;0.0;
20/02/2025 16:52:11;100;0;106.09;-4;-20.08;-4.62;745.0;12.10;75504;2835.083;-1757.927;1;104;-90;-93.5;44.5;44.8;14;14.0;27.5;0.0;
20/02/2025 16:52:31;100;0;105.61;-4;-19.99;-4.68;748.1;12.10;75499;2835.083;-1757.923;1;104;-90;-93.5;44.5;44.8;14;14.0;27.5;0.0;
20/02/2025 16:52:51;100;0;104.94;-4;-20.00;-4.59;751.2;12.10;75494;2835.082;-1757.919;1;104;-90;-95.2;44.5;44.8;14;14.0;27.5;0.0;
20/02/2025 16:53:11;100;0;104.87;-4;-19.96;-4.66;754.3;12.10;75493;2835.082;-1757.915;1;104;-90;-95.2;44.5;44.8;14;14.0;27.5;0.0;
20/02/2025 16:53:31;100;0;104.03;-4;-19.87;-4.68;757.4;12.00;75486;2835.081;-1757.911;1;104;-90;-93.5;44.5;44.8;14;14.0;27.5;0.0;
20/02/2025 16:53:51;100;0;102.54;-4;-19.78;-4.68;760.5;12.00;75479;2835.081;-1757.907;1;104;-90;-95.2;44.5;44.8;12;12.2;27.5;0.0;
20/02/2025 16:54:11;100;0;102.25;-4;-19.85;-5.73;763.5;12.00;75473;2835.081;-1757.903;1;105;-90;-93.5;44.5;44.8;12;11.7;27.4;0.0;
20/02/2025 16:54:31;100;0;102.94;-4;-19.72;-5.67;766.5;12.00;75461;2835.080;-1757.898;1;105;-90;-93.5;44.5;44.8;12;11.7;27.4;0.0;
20/02/2025 16:54:51;100;0;104.05;-4;-19.72;-5.64;769.5;12.00;75463;2835.080;-1757.894;1;105;-90;-95.2;44.5;44.8;12;11.7;27.5;0.0;
20/02/2025 16:55:11;100;0;105.60;-4;-19.61;-5.65;772.5;11.90;75452;2835.079;-1757.891;1;105;-90;-93.5;44.5;44.6;12;11.7;27.5;0.0;
20/02/2025 16:55:31;100;0;108.30;-4;-19.64;-5.70;775.5;11.90;75448;2835.079;-1757.887;1;105;-90;-93.5;44.5;44.8;12;11.7;27.5;0.0;
20/02/2025 16:55:51;100;0;110.95;-4;-19.68;-5.66;778.4;11.90;75438;2835.078;-1757.883;1;105;-90;-95.2;44.5;44.8;12;11.7;27.5;0.0;
20/02/2025 16:56:11;100;0;114.03;-4;-19.01;-5.65;781.4;11.90;75441;2835.077;-1757.879;1;105;-90;-93.5;44.5;44.8;12;11.7;27.5;0.0;
20/02/2025 16:56:31;100;0;117.92;-4;-20.14;-5.51;784.1;11.80;75434;2835.075;-1757.876;1;105;-90;-95.2;44.5;44.8;14;14.0;27.5;0.0;
20/02/2025 16:56:51;100;0;121.41;-4;-19.63;-4.45;787.0;11.80;75424;2835.074;-1757.872;1;105;-90;-95.2;44.5;44.6;16;15.8;27.5;0.0;
20/02/2025 16:57:11;100;0;125.39;-4;-19.86;-3.52;789.7;11.80;75422;2835.072;-1757.869;1;104;-90;-95.2;44.5;44.8;21;21.2;27.5;0.0;
20/02/2025 16:57:31;100;0;124.94;-4;-19.96;-0.61;792.5;11.80;75415;2835.071;-1757.866;1;104;-90;-93.5;44.5;44.8;21;21.7;27.5;0.0;
20/02/2025 16:57:51;100;0;123.65;-4;-19.90;-0.90;795.4;11.70;75417;2835.069;-1757.863;1;104;-90;-93.5;44.5;44.8;19;19.0;27.4;0.0;
20/02/2025 16:58:11;100;0;124.11;-4;-20.16;-2.16;798.2;11.70;75410;2835.068;-1757.860;1;104;-90;-93.5;44.5;44.8;19;19.0;27.5;0.0;
20/02/2025 16:58:31;100;0;123.74;-4;-19.95;-2.15;801.0;11.70;75396;2835.066;-1757.857;1;104;-90;-93.5;44.5;44.8;19;19.0;27.4;0.0;
20/02/2025 16:58:51;100;0;123.25;-4;-20.37;-2.10;803.7;11.70;75394;2835.065;-1757.854;1;104;-90;-93.5;44.5;44.8;19;19.0;27.5;0.0;
20/02/2025 16:59:11;100;0;124.71;-4;-20.03;-2.20;806.6;11.60;75390;2835.063;-1757.850;1;104;-90;-93.5;44.5;44.8;21;21.2;27.5;0.0;
20/02/2025 16:59:31;100;0;123.89;-4;-20.26;-0.65;809.3;11.60;75385;2835.062;-1757.847;1;104;-90;-96.8;44.5;44.8;21;21.7;27.5;0.0;
20/02/2025 16:59:51;100;0;123.21;-4;-20.25;-0.63;812.2;11.60;75389;2835.060;-1757.844;1;104;-90;-93.5;44.5;44.8;19;19.0;27.4;0.0;
20/02/2025 17:00:11;100;0;123.81;-4;-20.25;-1.98;815.0;11.60;75378;2835.059;-1757.841;1;104;-90;-95.2;44.5;44.8;19;19.0;27.5;0.0;
20/02/2025 17:00:31;100;0;122.96;-4;-20.11;-2.07;817.8;11.50;75369;2835.057;-1757.838;1;104;-90;-93.5;44.5;44.8;19;19.0;27.4;0.0;
20/02/2025 17:00:51;100;0;121.36;-4;-20.16;-2.08;820.7;11.50;75373;2835.056;-1757.834;1;104;-90;-93.5;44.5;44.8;19;19.0;27.5;0.0;
20/02/2025 17:01:11;100;0;121.02;-4;-20.03;-2.08;823.5;11.50;75372;2835.054;-1757.831;1;104;-90;-95.2;44.5;44.8;17;17.1;27.5;0.0;
20/02/2025 17:01:31;100;0;122.13;-4;-20.39;-2.90;826.4;11.50;75367;2835.053;-1757.828;1;104;-90;-93.5;44.5;44.8;19;19.4;27.5;0.0;
20/02/2025 17:01:51;100;0;119.71;-4;-20.44;-1.66;829.4;11.50;75372;2835.052;-1757.824;1;104;-90;-93.5;44.5;44.8;17;17.1;27.5;0.0;
20/02/2025 17:02:11;100;0;117.36;-4;-19.75;-2.65;832.3;11.40;75358;2835.050;-1757.821;1;104;-90;-93.5;44.5;44.8;15;14.9;27.5;0.0;
20/02/2025 17:02:31;100;0;116.45;-4;-19.66;-4.21;835.2;11.40;75343;2835.049;-1757.817;1;104;-90;-93.5;44.5;44.8;15;14.9;27.4;0.0;
20/02/2025 17:02:51;100;0;115.93;-4;-19.78;-4.19;838.0;11.40;75346;2835.048;-1757.814;1;104;-90;-95.2;44.5;44.8;15;14.4;27.4;0.0;
20/02/2025 17:03:11;100;0;116.01;-4;-19.87;-4.08;840.9;11.40;75342;2835.047;-1757.810;1;104;-90;-95.2;44.5;44.8;15;14.9;27.5;0.0;
20/02/2025 17:03:31;100;0;114.50;-4;-19.90;-4.47;843.7;11.40;75345;2835.046;-1757.807;1;104;-90;-91.9;44.5;44.6;15;14.9;27.5;0.0;
20/02/2025 17:03:51;100;0;113.78;-4;-19.59;-4.26;846.6;11.30;75344;2835.045;-1757.803;1;104;-90;-95.2;44.5;44.8;15;14.9;27.5;0.0;
20/02/2025 17:04:11;100;0;112.78;-4;-19.61;-4.29;849.4;11.30;75350;2835.044;-1757.800;1;104;-90;-96.8;44.5;44.8;15;14.9;27.5;0.0;
20/02/2025 17:04:31;100;0;110.72;-4;-19.50;-4.34;852.2;11.30;75340;2835.043;-1757.796;1;104;-90;-93.5;44.5;44.8;15;14.9;27.4;0.0;
20/02/2025 17:04:51;100;0;110.66;-4;-19.64;-4.27;855.0;11.30;75336;2835.042;-1757.792;1;104;-90;-93.5;44.5;44.8;15;14.9;27.5;0.0;
20/02/2025 17:05:11;100;0;110.85;-4;-19.66;-4.34;857.8;11.20;75331;2835.042;-1757.789;1;104;-90;-93.5;44.5;44.8;15;14.9;27.5;0.0;
20/02/2025 17:05:31;100;0;110.43;-4;-20.05;-4.20;860.7;11.20;75316;2835.041;-1757.785;1;104;-90;-93.5;44.5;44.8;15;14.9;27.5;0.0;
20/02/2025 17:05:51;100;0;108.83;-4;-19.67;-4.22;863.7;11.20;75316;2835.040;-1757.781;1;104;-90;-95.2;44.5;44.8;15;14.9;27.5;0.0;
20/02/2025 17:06:11;100;0;107.99;-4;-19.48;-4.36;866.5;11.20;75315;2835.039;-1757.777;1;104;-90;-95.2;44.5;44.8;15;14.9;27.5;0.0;
20/02/2025 17:06:31;100;0;107.28;-4;-19.46;-4.33;869.3;11.20;75321;2835.039;-1757.774;1;104;-90;-93.5;44.5;44.6;15;14.4;27.5;0.0;
20/02/2025 17:06:51;100;0;108.06;-4;-19.58;-4.28;872.1;11.20;75322;2835.038;-1757.770;1;104;-90;-93.5;44.5;44.8;15;14.9;27.5;0.0;
20/02/2025 17:07:11;100;0;109.25;-4;-19.65;-4.19;874.9;11.10;75313;2835.037;-1757.766;1;104;-90;-93.5;44.5;44.8;15;14.9;27.5;0.0;
20/02/2025 17:07:31;100;0;110.59;-4;-19.30;-4.30;877.8;11.10;75304;2835.036;-1757.762;1;104;-90;-93.5;44.5;44.8;15;14.9;27.4;0.0;
20/02/2025 17:07:51;100;0;113.00;-4;-19.29;-4.41;880.5;11.10;75300;2835.036;-1757.759;1;104;-90;-91.9;44.5;44.8;15;14.4;27.5;0.0;
20/02/2025 17:08:11;100;0;114.43;-4;-19.51;-4.23;883.3;11.10;75302;2835.035;-1757.755;1;104;-90;-95.2;44.5;44.8;15;14.9;27.5;0.0;
20/02/2025 17:08:31;100;0;116.78;-4;-19.11;-4.34;886.0;11.00;75283;2835.033;-1757.752;1;104;-90;-93.5;44.5;44.8;15;14.9;27.5;0.0;
20/02/2025 17:08:51;100;0;120.22;-4;-19.83;-4.33;888.8;11.00;75284;2835.032;-1757.749;1;104;-90;-93.5;44.5;44.8;15;14.9;27.4;0.0;
20/02/2025 17:09:11;100;0;120.08;-4;-19.52;-4.27;891.7;11.00;75280;2835.031;-1757.745;1;104;-90;-93.5;44.5;44.8;17;17.6;27.5;0.0;
20/02/2025 17:09:31;100;0;117.90;-4;-19.60;-2.20;894.7;11.00;75269;2835.029;-1757.742;1;104;-90;-93.5;44.5;44.8;17;19.0;27.5;0.0;
20/02/2025 17:09:51;100;0;115.43;-4;-19.57;-2.18;897.5;11.00;75268;2835.028;-1757.738;1;104;-90;-93.5;44.5;44.8;14;14.0;27.5;0.0;
20/02/2025 17:10:11;100;0;115.64;-4;-19.42;-4.51;900.6;11.00;75268;2835.027;-1757.734;1;104;-90;-91.9;44.5;44.8;14;14.0;27.5;0.0;
20/02/2025 17:10:31;100;0;113.57;-4;-19.52;-4.54;903.6;10.90;75269;2835.026;-1757.731;1;104;-90;-93.5;44.5;44.8;14;14.4;27.5;0.0;
20/02/2025 17:10:51;100;0;109.93;-4;-19.47;-4.59;906.6;10.90;75258;2835.025;-1757.726;1;104;-90;-93.5;44.5;44.8;14;14.0;27.4;0.0;
20/02/2025 17:11:11;100;0;108.79;-4;-19.53;-4.46;909.5;10.90;75248;2835.024;-1757.723;1;104;-90;-93.5;44.5;44.8;14;14.0;27.5;0.0;
20/02/2025 17:11:31;100;0;108.14;-4;-19.48;-4.54;912.5;10.90;75255;2835.024;-1757.719;1;104;-90;-93.5;44.5;44.8;14;14.0;27.5;0.0;
20/02/2025 17:11:51;100;0;109.49;-4;-19.23;-4.53;915.5;10.80;75248;2835.023;-1757.715;1;104;-90;-93.5;44.5;44.9;14;14.4;27.5;0.0;
20/02/2025 17:12:11;100;0;111.24;-4;-19.15;-4.54;918.5;10.80;75234;2835.022;-1757.711;1;104;-90;-93.5;44.5;44.8;14;14.0;27.5;0.0;
20/02/2025 17:12:31;100;0;113.41;-4;-19.11;-4.60;921.5;10.80;75232;2835.021;-1757.707;1;104;-90;-95.2;44.5;44.8;14;14.4;27.5;0.0;
20/02/2025 17:12:51;100;0;116.55;-4;-19.13;-4.60;924.5;10.80;75231;2835.019;-1757.703;1;104;-90;-95.2;44.5;44.8;14;14.0;27.5;0.0;
20/02/2025 17:13:11;100;0;116.70;-4;-19.26;-4.48;927.6;10.80;75231;2835.018;-1757.699;1;104;-90;-96.8;44.5;44.8;14;14.4;27.5;0.0;
20/02/2025 17:13:31;100;0;117.76;-4;-19.27;-4.56;930.5;10.80;75227;2835.017;-1757.695;1;103;-90;-91.9;44.5;44.8;16;16.2;27.4;0.0;
20/02/2025 17:13:51;100;0;117.87;-4;-19.49;-3.10;933.4;10.70;75216;2835.015;-1757.692;1;103;-90;-93.5;44.5;44.8;16;17.1;27.4;0.0;
20/02/2025 17:14:11;100;0;117.32;-4;-19.28;-3.12;936.5;10.70;75214;2835.014;-1757.688;1;103;-90;-93.5;44.5;44.8;16;17.1;27.5;0.0;
20/02/2025 17:14:31;100;0;117.03;-4;-19.23;-3.12;939.4;10.70;75217;2835.013;-1757.684;1;103;-90;-93.5;44.5;44.8;16;16.7;27.5;0.0;
20/02/2025 17:14:51;100;0;115.52;-4;-19.07;-3.40;942.2;10.70;75223;2835.012;-1757.681;1;103;-90;-93.5;44.5;44.8;16;17.1;27.5;0.0;
20/02/2025 17:15:11;100;0;113.24;-4;-19.02;-3.08;945.2;10.70;75223;2835.011;-1757.677;1;103;-90;-91.9;44.5;44.8;16;16.7;27.5;0.0;
20/02/2025 17:15:31;100;0;112.73;-4;-18.97;-3.19;947.8;10.60;75210;2835.010;-1757.673;1;103;-90;-95.2;44.9;45.4;14;14.0;27.4;0.0;
20/02/2025 17:15:51;100;0;112.30;-4;-19.37;-4.43;950.5;10.60;75205;2835.009;-1757.670;1;103;-90;-95.2;44.9;45.4;14;14.4;27.5;0.0;
20/02/2025 17:16:11;100;0;112.76;-4;-20.38;-4.55;953.1;10.60;75192;2835.008;-1757.666;1;103;-90;-93.5;44.9;45.4;14;14.4;27.4;0.0;
20/02/2025 17:16:31;100;0;113.21;-4;-20.47;-4.46;956.0;10.60;75184;2835.007;-1757.663;1;103;-90;-95.2;44.9;45.4;14;14.4;27.4;0.0;
20/02/2025 17:16:51;100;0;112.53;-4;-19.99;-4.49;958.5;10.60;75188;2835.006;-1757.660;1;103;-90;-93.5;44.9;45.2;14;14.4;27.4;0.0;
20/02/2025 17:17:11;100;0;113.05;-4;-21.55;-4.48;961.4;10.60;75202;2835.005;-1757.656;1;103;-90;-93.5;44.9;45.2;14;14.4;27.4;0.0;
20/02/2025 17:17:31;100;0;112.48;-4;-19.62;-4.17;964.2;10.50;75197;2835.005;-1757.653;1;103;-90;-95.2;44.9;45.4;14;14.4;27.4;0.0;
20/02/2025 17:17:51;100;0;111.76;-4;-19.65;-4.28;966.9;10.50;75182;2835.004;-1757.649;1;103;-90;-93.5;44.9;45.4;14;14.4;27.5;0.0;
20/02/2025 17:18:11;100;0;113.72;-4;-20.36;-4.14;969.7;10.50;75183;2835.003;-1757.646;1;103;-90;-93.5;44.9;45.4;14;14.4;27.5;0.0;
20/02/2025 17:18:31;100;0;114.73;-4;-21.04;-4.50;972.5;10.50;75183;2835.002;-1757.642;1;103;-90;-93.5;44.9;45.4;14;14.4;27.4;0.0;
20/02/2025 17:18:52;100;0;116.89;-4;-19.92;-4.35;975.2;10.50;75176;2835.001;-1757.639;1;103;-90;-93.5;44.9;45.4;16;15.8;27.4;0.0;
20/02/2025 17:19:12;100;0;118.13;-4;-20.39;-3.50;977.9;10.40;75186;2835.000;-1757.636;1;103;-90;-93.5;44.9;45.4;16;16.2;27.5;0.0;
20/02/2025 17:19:32;100;0;118.07;-4;-20.41;-3.44;980.7;10.40;75181;2834.998;-1757.633;1;103;-90;-93.5;44.9;45.4;16;16.2;27.4;0.0;
20/02/2025 17:19:52;100;0;115.76;-4;-20.51;-3.51;983.4;10.40;75168;2834.997;-1757.630;1;103;-90;-95.2;44.9;45.2;16;16.2;27.5;0.0;
20/02/2025 17:20:12;100;0;114.92;-4;-20.65;-3.49;986.1;10.40;75169;2834.997;-1757.626;1;103;-90;-93.5;44.9;45.4;16;16.2;27.5;0.0;
20/02/2025 17:20:32;100;0;114.33;-4;-20.54;-3.46;989.0;10.40;75172;2834.996;-1757.623;1;103;-90;-93.5;44.9;45.4;16;16.2;27.5;0.0;
20/02/2025 17:20:52;100;0;113.56;-4;-20.36;-3.57;991.8;10.40;75160;2834.995;-1757.619;1;103;-90;-95.2;44.9;45.4;16;16.2;27.5;0.0;
20/02/2025 17:21:12;100;0;112.67;-4;-20.06;-3.45;994.6;10.30;75160;2834.994;-1757.616;1;103;-90;-95.2;44.9;45.4;16;16.2;27.5;0.0;
20/02/2025 17:21:32;100;0;111.41;-4;-20.68;-3.49;997.4;10.30;75159;2834.993;-1757.612;1;103;-90;-95.2;44.9;45.4;16;16.2;27.5;0.0;
20/02/2025 17:21:43;118;0;110.83;-4;-20.40;-3.51;999.0;10.30;75160;2834.992;-1757.610;1;103;230;-88.7;27.6;27.5;8;7.7;27.5;0.0;
20/02/2025 17:21:53;118;0;105.25;-4;-7.88;-8.68;1000.2;10.30;75142;2834.992;-1757.608;1;103;230;37.1;27.6;27.2;8;7.7;26.2;-1.0;
20/02/2025 17:22:03;118;0;94.72;-4;11.66;-8.20;1000.5;10.30;74876;2834.992;-1757.608;1;103;230;161.3;27.6;27.0;8;7.7;26.2;-1.0;
20/02/2025 17:22:13;118;0;92.18;-4;18.17;-8.69;1000.3;10.30;74615;2834.993;-1757.607;1;103;230;232.3;27.6;27.5;8;7.7;26.1;-1.0;
20/02/2025 17:22:23;118;0;118.91;-4;17.45;-8.58;999.5;10.30;74496;2834.992;-1757.606;1;103;230;232.3;27.6;27.7;8;7.7;27.4;-1.0;
20/02/2025 17:22:43;117;0;114.23;-4;15.58;-8.39;998.2;10.30;74494;2834.992;-1757.605;1;103;230;233.9;27.6;27.7;8;7.7;27.4;-1.0;
20/02/2025 17:23:03;117;0;109.93;-4;16.21;-8.34;996.8;10.40;74501;2834.992;-1757.603;1;103;230;232.3;26.4;25.9;32;32.0;27.4;-1.0;
20/02/2025 17:23:23;117;0;110.92;-4;20.29;4.76;995.2;10.40;74496;2834.992;-1757.601;1;103;230;233.9;26.4;25.9;32;32.5;27.4;-1.0;
20/02/2025 17:23:43;117;0;112.29;-4;22.18;4.82;993.4;10.40;74492;2834.991;-1757.599;1;103;230;233.9;27.1;27.1;32;32.5;27.4;-1.0;
20/02/2025 17:24:03;117;0;113.50;-4;19.85;4.84;991.4;10.40;74484;2834.991;-1757.596;1;103;230;233.9;27.1;27.2;30;29.8;27.4;-1.0;
20/02/2025 17:24:23;117;0;114.27;-4;19.54;3.43;989.4;10.30;74489;2834.990;-1757.594;1;103;230;233.9;27.1;27.2;30;29.8;27.4;-1.0;
20/02/2025 17:24:43;117;0;115.08;-4;19.16;3.34;987.5;10.30;74485;2834.989;-1757.592;1;103;230;232.3;27.1;27.2;30;29.8;27.4;-1.0;
20/02/2025 17:25:03;117;0;115.76;-4;19.12;3.41;985.5;10.30;74486;2834.989;-1757.589;1;103;230;233.9;27.1;27.2;30;29.8;27.4;-1.0;
20/02/2025 17:25:23;117;0;116.27;-4;19.18;3.34;983.6;10.30;74482;2834.988;-1757.587;1;103;230;233.9;27.1;27.2;30;29.8;27.5;-1.0;
20/02/2025 17:25:43;117;0;117.12;-4;19.08;3.32;981.6;10.30;74474;2834.987;-1757.584;1;103;230;232.3;27.1;27.2;30;29.8;27.5;-1.0;
20/02/2025 17:26:03;117;0;117.72;-4;19.16;3.25;979.5;10.30;74485;2834.987;-1757.582;1;103;230;233.9;27.1;27.2;30;29.8;27.4;-1.0;
20/02/2025 17:26:23;117;0;117.89;-4;18.95;3.37;977.5;10.30;74475;2834.986;-1757.579;1;103;250;253.2;26.8;26.8;30;29.8;27.4;-1.0;
20/02/2025 17:26:43;117;0;120.45;-4;18.93;3.11;975.6;10.30;74437;2834.985;-1757.577;1;103;270;272.6;26.5;26.2;28;28.0;27.5;-1.0;
20/02/2025 17:27:03;117;0;119.55;-4;20.27;2.29;973.4;10.20;74392;2834.984;-1757.575;1;103;270;271.0;26.5;25.9;28;27.5;27.5;-1.0;
20/02/2025 17:27:23;117;0;120.49;-4;19.59;2.26;971.1;10.20;74379;2834.983;-1757.572;1;103;270;271.0;26.5;25.9;28;28.0;27.4;-1.0;
20/02/2025 17:27:43;117;0;120.72;-4;19.96;2.26;968.9;10.20;74386;2834.982;-1757.569;1;103;270;271.0;26.5;25.9;28;27.5;27.4;-1.0;
20/02/2025 17:28:03;117;0;121.03;-4;20.27;2.32;966.7;10.20;74387;2834.981;-1757.567;1;103;270;271.0;26.5;25.9;28;27.5;27.4;-1.0;
20/02/2025 17:28:23;117;0;120.21;-4;19.59;2.17;964.3;10.20;74389;2834.980;-1757.564;1;103;270;267.7;26.5;25.9;28;28.0;27.4;-1.0;
20/02/2025 17:28:43;117;0;120.57;-4;20.21;2.36;962.0;10.20;74380;2834.979;-1757.561;1;103;270;271.0;26.5;25.9;28;28.0;27.5;-1.0;
20/02/2025 17:29:03;117;0;120.35;-4;19.73;2.25;959.6;10.20;74373;2834.978;-1757.559;1;103;270;271.0;26.5;25.9;28;27.5;27.4;-1.0;
20/02/2025 17:29:23;117;0;121.77;-4;20.13;2.35;957.2;10.20;74378;2834.977;-1757.556;1;103;270;272.6;26.5;25.9;26;25.3;27.4;-1.0;
20/02/2025 17:29:43;117;0;120.92;-4;18.60;1.67;954.9;10.20;74374;2834.976;-1757.553;1;103;270;272.6;26.0;26.1;26;26.2;27.5;-1.0;
20/02/2025 17:30:03;117;0;120.50;-4;19.69;1.64;952.8;10.20;74360;2834.975;-1757.551;1;103;270;272.6;26.0;25.9;28;28.0;27.4;-1.0;
20/02/2025 17:30:23;117;0;121.27;-4;19.92;2.82;950.7;10.10;74352;2834.974;-1757.548;1;103;270;272.6;26.0;25.9;28;28.4;27.5;-1.0;
20/02/2025 17:30:43;117;0;121.53;-4;20.01;2.87;948.6;10.10;74361;2834.973;-1757.546;1;103;270;272.6;26.0;26.1;28;28.4;27.4;-1.0;
20/02/2025 17:31:03;117;0;121.98;-4;20.02;2.89;946.6;10.10;74357;2834.972;-1757.544;1;103;270;271.0;26.0;25.9;28;28.4;27.5;-1.0;
20/02/2025 17:31:23;117;0;121.19;-4;20.19;2.79;944.5;10.10;74358;2834.971;-1757.541;1;102;270;271.0;26.0;26.1;28;28.4;27.5;-1.0;
20/02/2025 17:31:43;117;0;120.83;-4;20.06;2.79;942.4;10.10;74345;2834.970;-1757.539;1;102;270;271.0;26.0;25.9;28;28.4;27.5;-1.0;
20/02/2025 17:32:03;117;0;121.73;-4;19.70;2.71;940.3;10.10;74357;2834.970;-1757.537;1;102;270;271.0;26.0;25.9;26;25.3;27.5;-1.0;
20/02/2025 17:32:23;117;0;122.09;-4;19.85;1.63;938.2;10.10;74351;2834.969;-1757.534;1;102;270;269.4;26.0;25.9;26;26.2;27.4;-1.0;
20/02/2025 17:32:43;117;0;122.26;-4;19.91;1.65;936.3;10.00;74335;2834.968;-1757.532;1;102;290;293.5;26.0;25.9;26;26.2;27.4;-1.0;
20/02/2025 17:33:03;117;0;122.23;-4;19.59;1.60;934.3;10.00;74300;2834.967;-1757.530;1;102;310;312.9;26.0;25.9;26;26.6;27.4;-1.0;
20/02/2025 17:33:23;117;0;121.27;-4;19.09;1.68;932.2;10.00;74261;2834.966;-1757.528;1;102;310;311.3;26.0;25.9;26;26.2;27.4;-1.0;
20/02/2025 17:33:43;117;0;121.10;-4;18.64;1.71;930.1;10.00;74267;2834.965;-1757.525;1;102;310;312.9;25.6;25.5;26;26.2;27.4;-1.0;
20/02/2025 17:34:03;117;0;120.79;-4;20.43;1.66;927.9;10.00;74252;2834.964;-1757.523;1;102;310;312.9;25.6;24.9;26;26.6;27.4;-1.0;
20/02/2025 17:34:23;117;0;120.59;-4;20.88;1.62;925.7;10.00;74260;2834.963;-1757.520;1;102;310;311.3;25.6;24.9;26;26.2;27.4;-1.0;
20/02/2025 17:34:43;117;0;119.88;-4;20.80;1.62;923.2;10.00;74257;2834.962;-1757.517;1;102;310;312.9;25.6;24.9;26;26.6;27.4;-1.0;
20/02/2025 17:35:03;117;0;118.27;-4;20.80;1.58;920.7;10.00;74252;2834.961;-1757.515;1;102;310;311.3;25.6;25.6;28;28.0;27.4;-1.0;
20/02/2025 17:35:23;117;0;118.10;-4;20.19;2.95;918.2;10.00;74244;2834.960;-1757.512;1;102;310;309.7;25.6;25.8;28;28.9;27.5;-1.0;
20/02/2025 17:35:43;117;0;118.77;-4;20.22;2.95;915.7;10.00;74242;2834.959;-1757.509;1;102;310;312.9;25.6;25.8;28;28.9;27.4;-1.0;
20/02/2025 17:36:03;117;0;118.92;-4;20.18;2.88;913.1;10.00;74243;2834.958;-1757.506;1;102;310;312.9;25.6;25.8;26;26.2;27.4;-1.0;
20/02/2025 17:36:23;117;0;119.23;-4;20.06;1.74;910.6;10.00;74243;2834.957;-1757.503;1;102;310;311.3;25.6;25.8;26;26.2;27.4;-1.0;
20/02/2025 17:36:43;117;0;119.20;-4;20.20;1.77;908.0;10.00;74246;2834.956;-1757.499;1;102;310;311.3;25.6;25.8;26;26.2;27.5;-1.0;
20/02/2025 17:37:03;117;0;119.42;-4;20.10;1.73;905.4;9.90;74233;2834.954;-1757.496;1;102;310;311.3;25.6;25.8;26;26.2;27.5;-1.0;
20/02/2025 17:37:23;117;0;120.06;-4;20.03;1.75;902.7;9.90;74236;2834.953;-1757.493;1;102;310;312.9;25.6;25.8;26;26.2;27.5;-1.0;
20/02/2025 17:37:43;117;0;119.97;-4;19.94;1.80;900.2;9.90;74239;2834.952;-1757.490;1;102;310;311.3;25.6;25.8;26;26.2;27.4;-1.0;
20/02/2025 17:38:03;117;0;119.82;-4;19.97;1.81;897.5;9.90;74234;2834.951;-1757.487;1;102;310;311.3;25.6;25.8;26;26.2;27.5;-1.0;
20/02/2025 17:38:23;117;0;119.69;-4;19.76;1.82;894.9;9.90;74232;2834.950;-1757.484;1;102;310;312.9;25.6;25.8;26;26.2;27.4;-1.0;
20/02/2025 17:38:43;117;0;118.89;-4;19.75;1.84;892.4;9.90;74235;2834.949;-1757.481;1;102;310;312.9;25.6;25.6;26;26.2;27.5;-1.0;
20/02/2025 17:39:03;117;0;118.08;-4;19.53;1.88;889.9;9.90;74241;2834.948;-1757.478;1;102;310;312.9;25.6;25.8;26;26.2;27.5;-1.0;
20/02/2025 17:39:23;117;0;118.08;-4;19.74;1.71;887.4;9.90;74243;2834.947;-1757.475;1;102;310;311.3;25.6;25.8;26;26.2;27.5;-1.0;
20/02/2025 17:39:43;117;0;118.09;-4;19.93;1.69;884.8;9.90;74236;2834.945;-1757.472;1;101;310;311.3;25.6;25.8;26;26.2;27.5;-1.0;
20/02/2025 17:40:03;117;0;117.43;-4;19.82;1.72;882.2;9.90;74234;2834.944;-1757.469;1;101;310;311.3;25.6;25.8;26;26.2;27.4;-1.0;
20/02/2025 17:40:23;117;0;116.03;-4;19.65;1.80;879.6;9.90;74232;2834.943;-1757.466;1;101;310;312.9;25.6;25.8;26;26.2;27.4;-1.0;
20/02/2025 17:40:43;117;0;115.06;-4;19.69;1.73;876.9;9.90;74231;2834.942;-1757.463;1;101;310;309.7;25.6;25.8;28;28.0;27.4;-1.0;
20/02/2025 17:41:03;117;0;113.56;-4;19.53;2.81;874.4;9.90;74238;2834.942;-1757.459;1;101;310;312.9;25.6;25.8;28;28.4;27.5;-1.0;
20/02/2025 17:41:23;117;0;113.77;-4;19.94;2.81;871.9;9.90;74232;2834.941;-1757.456;1;101;310;312.9;25.6;25.8;28;28.4;27.4;-1.0;
20/02/2025 17:41:43;117;0;113.91;-4;20.25;2.73;869.3;9.90;74238;2834.940;-1757.453;1;101;310;312.9;25.6;25.8;28;28.4;27.4;-1.0;
20/02/2025 17:42:03;117;0;114.24;-4;19.85;2.74;866.6;9.80;74244;2834.939;-1757.450;1;101;310;311.3;25.6;25.8;28;28.4;27.4;-1.0;
20/02/2025 17:42:23;117;0;113.97;-4;19.94;2.70;864.0;9.80;74236;2834.938;-1757.447;1;101;310;311.3;25.6;25.8;28;28.4;27.5;-1.0;
20/02/2025 17:42:43;117;0;114.04;-4;19.79;2.70;861.4;9.90;74243;2834.937;-1757.443;1;101;310;312.9;25.6;25.8;28;28.4;27.4;-1.0;
20/02/2025 17:43:03;117;0;114.92;-4;19.97;2.76;858.8;9.90;74241;2834.936;-1757.440;1;101;310;311.3;25.6;25.8;28;28.0;27.4;-1.0;
20/02/2025 17:43:23;117;0;115.42;-4;20.10;2.71;856.1;9.80;74241;2834.935;-1757.437;1;101;310;311.3;25.6;25.8;28;28.4;27.5;-1.0;
20/02/2025 17:43:43;117;0;114.59;-4;20.11;2.69;853.4;9.80;74242;2834.934;-1757.433;1;101;310;311.3;25.6;25.8;28;28.4;27.5;-1.0;
20/02/2025 17:44:03;117;0;114.06;-4;19.80;2.68;850.5;9.80;74248;2834.933;-1757.430;1;101;310;312.9;25.6;25.8;28;28.4;27.4;-1.0;
20/02/2025 17:44:23;117;0;114.22;-4;20.11;2.67;847.6;9.80;74245;2834.932;-1757.426;1;101;310;311.3;25.6;25.8;28;28.4;27.5;-1.0;
20/02/2025 17:44:43;117;0;114.51;-4;19.94;2.73;844.6;9.80;74240;2834.931;-1757.422;1;101;310;312.9;25.6;25.8;28;28.4;27.4;-1.0;
20/02/2025 17:45:03;117;0;114.45;-4;19.73;2.79;841.6;9.80;74248;2834.930;-1757.419;1;101;310;309.7;25.6;25.8;28;28.4;27.5;-1.0;
20/02/2025 17:45:23;117;0;114.70;-4;19.59;2.73;838.6;9.80;74248;2834.929;-1757.415;1;101;310;312.9;25.6;25.8;28;28.4;27.4;-1.0;
20/02/2025 17:45:43;117;0;115.10;-4;19.41;2.72;835.6;9.80;74248;2834.928;-1757.411;1;101;310;309.7;25.6;25.8;28;28.4;27.5;-1.0;
20/02/2025 17:46:03;117;0;115.33;-4;19.30;2.74;832.8;9.80;74236;2834.927;-1757.408;1;101;310;311.3;25.6;25.8;28;28.4;27.5;-1.0;
20/02/2025 17:46:23;117;0;115.13;-4;19.51;2.68;830.1;9.80;74236;2834.926;-1757.404;1;101;310;311.3;25.6;25.6;28;28.4;27.5;-1.0;
20/02/2025 17:46:43;117;0;115.45;-4;19.49;2.76;827.4;9.80;74239;2834.925;-1757.401;1;101;310;311.3;25.6;25.8;28;28.4;27.5;-1.0;
20/02/2025 17:47:03;117;0;116.38;-4;19.72;2.74;824.8;9.80;74236;2834.924;-1757.398;1;101;310;311.3;25.6;25.8;26;26.2;27.4;-1.0;
20/02/2025 17:47:23;117;0;116.41;-4;19.57;2.11;822.2;9.80;74245;2834.923;-1757.394;1;101;310;311.3;25.6;25.8;26;27.1;27.5;-1.0;
20/02/2025 17:47:43;117;0;115.90;-4;19.65;2.15;819.5;9.80;74243;2834.922;-1757.391;1;101;310;312.9;25.6;25.8;26;27.1;27.4;-1.0;
20/02/2025 17:48:03;117;0;115.00;-4;19.80;2.16;816.8;9.80;74240;2834.921;-1757.388;1;101;310;311.3;25.6;25.9;26;27.1;27.5;-1.0;
20/02/2025 17:48:23;117;0;115.00;-4;19.76;2.18;814.0;9.80;74234;2834.920;-1757.384;1;101;310;311.3;25.6;25.8;26;27.1;27.5;-1.0;
20/02/2025 17:48:43;117;0;114.35;-4;19.75;2.14;811.2;9.80;74223;2834.919;-1757.381;1;100;310;311.3;25.6;25.8;26;27.1;27.5;-1.0;
20/02/2025 17:49:03;117;0;113.69;-4;19.68;2.08;808.4;9.80;74245;2834.918;-1757.377;1;100;310;311.3;25.6;25.6;26;27.1;27.4;-1.0;
20/02/2025 17:49:23;117;0;112.65;-4;19.12;2.14;805.5;9.80;74234;2834.917;-1757.374;1;100;310;312.9;25.6;25.8;26;27.5;27.4;-1.0;
20/02/2025 17:49:43;117;0;113.04;-4;19.43;2.03;802.8;9.80;74234;2834.916;-1757.370;1;100;310;312.9;25.6;25.8;26;27.1;27.4;-1.0;
