Timestamp;NavState;SecurityLevel;Heading;Declination;Pitch;Roll;Depth;Temperature;Pa;Lat;Lon;DeadReckoning;DesiredH;BallastCmd;BallastPos;LinCmd;LinPos;AngCmd;AngPos;Voltage;Altitude;
16/02/2025 18:58:31;119;0;333.66;-4;-53.83;-13.67;-0.4;19.50;76534;2838.020;-1801.414;0;172;500;508.1;100.0;100.7;0;-0.5;28.4;-1.0;
16/02/2025 18:58:41;116;0;326.78;-4;-46.12;-7.49;-0.3;19.50;76536;2838.021;-1801.414;0;172;500;509.7;100.0;100.7;0;-0.9;28.4;-1.0;
16/02/2025 18:59:06;116;0;333.10;-4;-53.92;-19.19;-0.3;19.60;76551;2838.022;-1801.416;0;172;500;508.1;100.0;100.7;0;-0.5;28.4;-1.0;
16/02/2025 18:59:33;116;0;322.86;-4;-58.02;-13.92;-0.1;19.60;76537;2838.022;-1801.416;0;172;500;508.1;100.0;100.7;0;-0.5;28.4;-1.0;
16/02/2025 18:59:53;116;0;332.91;-4;-51.35;-11.72;-0.1;19.70;76555;2838.024;-1801.417;0;172;500;508.1;100.0;100.7;0;-0.9;28.4;-1.0;
16/02/2025 19:00:04;116;0;320.72;-4;-59.86;6.69;-0.2;19.70;76560;2838.024;-1801.416;0;172;500;508.1;100.0;100.7;0;-0.5;28.4;-1.0;
16/02/2025 19:00:43;116;0;309.27;-4;-56.47;-7.96;-0.1;19.80;76565;2838.026;-1801.416;0;172;500;508.1;100.0;100.7;0;-0.5;28.4;-1.0;
16/02/2025 19:01:28;116;0;313.77;-4;-66.21;-11.14;-0.1;19.90;76584;2838.028;-1801.417;0;172;500;508.1;100.0;100.7;0;-0.9;28.3;-1.0;
16/02/2025 19:01:39;116;0;331.27;-4;-49.15;-23.36;-0.1;19.90;76580;2838.028;-1801.418;0;172;500;509.7;100.0;100.7;0;-0.9;28.3;-1.0;
16/02/2025 19:01:59;110;0;329.86;-4;-54.93;-18.01;0.0;20.00;76583;2838.028;-1801.418;0;172;-50;395.2;100.0;99.9;-14;-14.0;28.4;-1.0;
16/02/2025 19:02:09;110;0;330.50;-4;-58.99;-16.21;0.1;20.00;76931;2838.028;-1801.417;1;172;-50;243.5;100.0;99.7;-14;-14.4;28.3;-1.0;
16/02/2025 19:02:19;110;0;338.21;-4;-59.09;-21.17;0.6;20.00;77196;2838.028;-1801.418;1;172;-50;87.1;100.0;99.7;-14;-14.4;28.3;-1.0;
16/02/2025 19:02:29;110;0;342.85;-4;-64.01;-6.81;0.9;20.00;77508;2838.029;-1801.418;1;172;-50;-50.0;100.0;99.7;-14;-14.4;28.3;-1.0;
16/02/2025 19:02:39;110;0;341.67;-4;-63.59;-8.77;1.4;20.10;77792;2838.029;-1801.418;1;172;-50;-50.0;47.8;47.9;-14;-14.4;28.4;-1.0;
16/02/2025 19:02:59;100;0;10.47;-4;-35.10;-19.37;4.9;20.20;77766;2838.032;-1801.417;1;172;-50;-48.4;47.8;47.7;-14;-14.4;28.4;-1.0;
16/02/2025 19:03:19;100;0;25.10;-4;-31.10;-18.07;8.7;20.20;77772;2838.036;-1801.415;1;172;-50;-46.8;47.8;47.4;-70;-69.9;28.3;-1.0;
16/02/2025 19:03:39;100;0;26.15;-4;-30.80;-44.74;12.0;20.20;77762;2838.039;-1801.414;1;172;-50;-45.2;47.8;47.4;-70;-70.4;28.4;-1.0;
16/02/2025 19:03:59;100;0;33.67;-4;-29.02;-45.05;15.8;20.30;77761;2838.042;-1801.411;1;173;-50;-45.2;47.8;47.4;-70;-70.4;28.4;0.0;
16/02/2025 19:04:19;100;0;45.79;-4;-29.55;-45.28;19.6;20.30;77758;2838.045;-1801.408;1;173;-50;-45.2;47.8;47.4;-70;-70.4;28.4;0.0;
16/02/2025 19:04:39;100;0;56.85;-4;-29.30;-45.10;23.4;20.30;77754;2838.048;-1801.405;1;173;-50;-45.2;47.8;47.4;-70;-70.4;28.4;0.0;
16/02/2025 19:04:59;100;0;68.21;-4;-28.66;-45.20;27.1;20.30;77766;2838.049;-1801.401;1;174;-50;-46.8;48.2;48.3;-70;-70.4;28.4;0.0;
16/02/2025 19:05:19;100;0;77.16;-4;-30.43;-44.93;31.0;20.40;77763;2838.051;-1801.397;1;174;-50;-45.2;48.2;48.5;-70;-70.4;28.4;0.0;
16/02/2025 19:05:39;100;0;89.51;-4;-30.15;-45.21;34.9;20.40;77765;2838.051;-1801.393;1;175;-50;-45.2;48.2;48.5;-70;-70.4;28.3;0.0;
16/02/2025 19:05:59;100;0;102.13;-4;-30.18;-45.40;39.0;20.40;77759;2838.051;-1801.389;1;175;-50;-45.2;48.2;48.5;-70;-70.4;28.4;0.0;
16/02/2025 19:06:19;100;0;113.25;-4;-30.46;-45.39;43.0;20.40;77759;2838.050;-1801.385;1;175;-50;-46.8;48.2;48.5;-67;-66.3;28.4;0.0;
16/02/2025 19:06:39;100;0;123.58;-4;-30.26;-42.74;46.9;20.40;77768;2838.049;-1801.382;1;176;-50;-45.2;48.2;48.5;-56;-56.0;28.4;0.0;
16/02/2025 19:06:59;100;0;132.54;-4;-30.14;-37.89;50.8;20.40;77769;2838.047;-1801.379;1;176;-50;-45.2;48.2;48.5;-45;-45.1;28.4;0.0;
16/02/2025 19:07:19;100;0;140.66;-4;-29.80;-32.20;54.8;20.40;77765;2838.045;-1801.376;1;176;-50;-43.5;48.2;48.6;-35;-35.2;28.4;0.0;
16/02/2025 19:07:39;100;0;149.67;-4;-29.23;-27.78;58.8;20.40;77767;2838.042;-1801.374;1;176;-50;-45.2;48.2;48.5;-21;-20.8;28.4;0.0;
16/02/2025 19:07:59;100;0;157.70;-4;-29.60;-20.74;62.9;20.40;77759;2838.039;-1801.372;1;177;-50;-45.2;48.2;48.6;-9;-9.0;28.3;0.0;
16/02/2025 19:08:19;100;0;162.52;-4;-30.42;-15.44;67.0;20.40;77762;2838.036;-1801.371;1;177;-50;-45.2;48.2;48.6;-1;-0.5;28.4;0.0;
16/02/2025 19:08:39;100;0;163.33;-4;-30.83;-11.58;71.2;20.40;77768;2838.033;-1801.370;1;177;-50;-45.2;48.2;48.6;-1;-0.5;28.4;0.0;
16/02/2025 19:08:59;100;0;162.73;-4;-30.46;-11.55;75.5;20.40;77765;2838.030;-1801.368;1;177;-50;-45.2;48.2;48.6;-1;-0.5;28.4;0.0;
16/02/2025 19:09:19;100;0;164.15;-4;-30.00;-11.56;79.6;20.40;77768;2838.027;-1801.367;1;177;-50;-45.2;48.2;48.6;1;0.9;28.4;0.0;
16/02/2025 19:09:39;100;0;165.94;-4;-30.60;-10.77;83.6;20.40;77776;2838.024;-1801.366;1;177;-50;-45.2;48.2;48.6;3;3.2;28.3;0.0;
16/02/2025 19:09:59;100;0;165.99;-4;-30.06;-9.75;87.7;20.30;77758;2838.021;-1801.365;1;177;-50;-45.2;48.2;48.6;3;3.6;28.4;0.0;
16/02/2025 19:10:20;100;0;165.04;-4;-30.18;-9.56;91.8;20.30;77756;2838.018;-1801.364;1;177;-50;-45.2;48.2;48.6;3;3.6;28.4;0.0;
16/02/2025 19:10:40;100;0;165.86;-4;-30.31;-9.75;96.0;20.30;77763;2838.015;-1801.362;1;177;-50;-45.2;48.2;48.6;3;3.6;28.4;0.0;
16/02/2025 19:11:00;100;0;168.51;-4;-30.26;-9.60;100.0;20.30;77756;2838.012;-1801.362;1;177;-50;-45.2;48.2;48.6;6;5.9;28.4;0.0;
16/02/2025 19:11:20;100;0;169.19;-4;-30.79;-8.47;104.2;20.30;77748;2838.009;-1801.361;1;178;-50;-45.2;48.2;48.7;6;6.3;28.4;0.0;
16/02/2025 19:11:40;100;0;167.99;-4;-31.18;-8.27;108.5;20.30;77728;2838.006;-1801.360;1;178;-50;-45.2;48.2;48.7;4;3.6;28.4;0.0;
16/02/2025 19:12:00;100;0;167.08;-4;-31.09;-9.97;112.8;20.30;77706;2838.003;-1801.359;1;178;-50;-45.2;48.2;48.6;4;3.6;28.4;0.0;
16/02/2025 19:12:20;100;0;169.86;-4;-32.07;-9.95;117.2;20.30;77686;2838.000;-1801.358;1;178;-50;-45.2;47.6;47.6;6;6.3;28.3;0.0;
16/02/2025 19:12:40;100;0;170.02;-4;-29.97;-8.39;121.7;20.30;77676;2837.997;-1801.357;1;178;-50;-45.2;47.6;47.3;6;6.3;28.4;0.0;
16/02/2025 19:13:00;100;0;171.26;-4;-28.70;-8.52;125.9;20.20;77640;2837.993;-1801.356;1;178;-50;-45.2;48.0;48.0;6;6.3;28.4;0.0;
16/02/2025 19:13:20;100;0;181.17;-4;-29.10;-8.46;129.8;20.20;77635;2837.990;-1801.356;1;178;-50;-43.5;48.0;48.3;9;9.0;28.4;0.0;
16/02/2025 19:13:40;100;0;186.71;-4;-28.95;-6.96;133.7;20.20;77614;2837.987;-1801.356;1;178;-50;-45.2;48.3;48.3;9;9.5;28.4;0.0;
16/02/2025 19:14:00;100;0;186.21;-4;-28.68;-7.01;137.4;20.20;77604;2837.984;-1801.357;1;178;-50;-45.2;48.7;48.7;9;9.5;28.3;0.0;
16/02/2025 19:14:20;100;0;180.81;-4;-29.61;-7.00;141.0;20.10;77584;2837.982;-1801.357;1;178;-50;-45.2;48.7;48.9;9;9.5;28.3;0.0;
16/02/2025 19:14:40;100;0;174.62;-4;-30.16;-6.97;144.5;20.10;77572;2837.979;-1801.356;1;178;-50;-45.2;48.7;48.9;9;9.5;28.4;0.0;
16/02/2025 19:15:00;100;0;171.61;-4;-29.96;-6.82;148.2;20.10;77553;2837.976;-1801.355;1;178;-50;-46.8;48.7;49.0;7;7.2;28.4;0.0;
16/02/2025 19:15:20;100;0;169.35;-4;-30.07;-8.59;151.6;20.00;77550;2837.974;-1801.355;1;178;-50;-45.2;48.7;48.9;5;5.0;28.4;0.0;
16/02/2025 19:15:40;100;0;177.15;-4;-29.97;-9.62;155.1;20.00;77521;2837.971;-1801.354;1;178;-50;-45.2;48.7;48.9;9;9.0;28.4;0.0;
16/02/2025 19:16:00;100;0;182.66;-4;-30.85;-7.01;158.8;20.00;77503;2837.969;-1801.354;1;178;-50;-45.2;48.7;49.0;9;9.5;28.4;0.0;
16/02/2025 19:16:20;100;0;185.13;-4;-30.13;-6.91;162.5;19.90;77488;2837.966;-1801.355;1;178;-50;-48.4;48.7;49.0;9;9.5;28.4;0.0;
16/02/2025 19:16:40;100;0;184.24;-4;-31.11;-7.04;166.1;19.90;77483;2837.963;-1801.355;1;178;-50;-45.2;48.7;48.9;9;9.5;28.4;0.0;
16/02/2025 19:17:00;100;0;180.66;-4;-30.29;-6.95;170.1;19.90;77465;2837.960;-1801.355;1;178;-50;-45.2;48.7;49.0;9;9.5;28.3;0.0;
16/02/2025 19:17:20;100;0;181.04;-4;-29.52;-7.02;173.5;19.80;77439;2837.958;-1801.355;1;178;-50;-45.2;48.7;49.0;9;9.5;28.4;0.0;
16/02/2025 19:17:40;100;0;178.31;-4;-29.89;-7.03;176.8;19.80;77420;2837.955;-1801.354;1;178;-50;-45.2;48.7;48.9;9;9.5;28.4;0.0;
16/02/2025 19:18:00;100;0;179.78;-4;-29.34;-7.05;180.2;19.70;77409;2837.953;-1801.354;1;178;-50;-45.2;48.7;49.0;9;9.0;28.4;0.0;
16/02/2025 19:18:20;100;0;187.08;-4;-30.31;-7.10;183.5;19.70;77376;2837.950;-1801.355;1;178;-50;-45.2;48.7;48.9;9;9.5;28.4;0.0;
16/02/2025 19:18:40;100;0;188.13;-4;-30.11;-7.03;187.0;19.70;77369;2837.948;-1801.355;1;178;-50;-45.2;48.7;48.9;11;11.3;28.4;0.0;
16/02/2025 19:19:00;100;0;188.23;-4;-30.68;-5.92;190.5;19.60;77352;2837.945;-1801.355;1;178;-50;-45.2;48.7;48.9;11;11.3;28.3;0.0;
16/02/2025 19:19:20;100;0;189.06;-4;-30.69;-5.84;194.3;19.50;77322;2837.943;-1801.356;1;178;-50;-48.4;48.7;49.0;11;11.3;28.4;0.0;
16/02/2025 19:19:40;100;0;186.51;-4;-30.03;-5.95;197.8;19.50;77327;2837.940;-1801.356;1;178;-50;-45.2;48.7;48.9;11;11.7;28.4;0.0;
16/02/2025 19:19:46;118;0;184.95;-4;-30.17;-5.93;198.9;19.50;77310;2837.939;-1801.356;1;178;210;-40.3;21.6;21.4;14;14.0;28.4;0.0;
16/02/2025 19:19:56;118;0;157.12;-4;-16.17;-5.41;200.2;19.50;77288;2837.938;-1801.355;1;178;210;87.1;21.6;21.1;14;14.4;28.0;-1.0;
16/02/2025 19:20:06;118;0;153.62;-4;12.47;-5.11;200.6;19.50;77001;2837.937;-1801.355;1;178;210;214.5;21.6;21.5;14;14.0;28.0;-1.0;
16/02/2025 19:20:16;118;0;178.06;-4;24.70;-5.14;199.8;19.40;76747;2837.937;-1801.355;1;178;210;212.9;21.6;21.6;14;14.0;28.3;-1.0;
16/02/2025 19:20:26;118;0;185.97;-4;27.30;-5.26;198.6;19.40;76742;2837.936;-1801.355;1;178;210;212.9;21.6;21.6;14;14.0;28.3;-1.0;
16/02/2025 19:20:46;117;0;182.93;-4;28.68;-5.27;196.0;19.40;76749;2837.934;-1801.355;1;178;210;212.9;21.6;21.6;14;14.4;28.4;-1.0;
16/02/2025 19:21:06;117;0;177.57;-4;28.37;-5.23;193.1;19.30;76738;2837.932;-1801.355;1;178;210;214.5;21.1;20.8;38;37.9;28.3;-1.0;
16/02/2025 19:21:26;117;0;176.93;-4;31.28;7.73;190.4;19.30;76740;2837.930;-1801.354;1;178;210;214.5;21.1;20.8;38;38.4;28.4;-1.0;
16/02/2025 19:21:46;117;0;177.46;-4;31.98;7.60;187.4;19.20;76732;2837.928;-1801.354;1;178;210;214.5;21.1;20.8;38;38.4;28.3;-1.0;
16/02/2025 19:22:06;117;0;177.33;-4;32.22;7.75;184.5;19.20;76728;2837.926;-1801.354;1;178;210;214.5;21.7;21.8;38;38.4;28.4;-1.0;
16/02/2025 19:22:26;117;0;174.85;-4;30.84;7.79;181.5;19.10;76722;2837.924;-1801.353;1;178;210;212.9;21.7;21.9;38;37.9;28.4;-1.0;
16/02/2025 19:22:46;117;0;170.06;-4;30.92;7.85;178.4;19.10;76733;2837.922;-1801.353;1;178;210;214.5;21.7;21.9;42;42.0;28.3;-1.0;
16/02/2025 19:23:06;117;0;168.32;-4;31.35;10.18;175.4;19.00;76741;2837.920;-1801.352;1;178;210;214.5;21.7;21.9;44;44.7;28.4;-1.0;
16/02/2025 19:23:26;117;0;171.30;-4;31.01;11.52;172.3;19.00;76737;2837.918;-1801.352;1;178;210;212.9;21.7;21.9;41;41.1;28.3;-1.0;
16/02/2025 19:23:46;117;0;170.18;-4;31.18;9.00;169.1;19.00;76726;2837.916;-1801.351;1;178;210;214.5;21.7;21.9;41;40.6;28.3;-1.0;
16/02/2025 19:24:06;117;0;169.14;-4;30.77;9.06;166.0;19.00;76740;2837.914;-1801.350;1;178;210;214.5;21.7;21.9;43;42.9;28.4;-1.0;
16/02/2025 19:24:26;117;0;171.58;-4;30.29;10.52;162.9;18.90;76753;2837.912;-1801.350;1;178;210;212.9;21.7;21.9;41;41.1;28.4;-1.0;
16/02/2025 19:24:46;117;0;174.31;-4;30.05;8.85;159.9;18.90;76754;2837.909;-1801.349;1;178;210;212.9;21.7;21.9;39;38.8;28.4;-1.0;
16/02/2025 19:25:06;117;0;175.39;-4;30.06;7.51;157.2;18.90;76767;2837.907;-1801.349;1;178;210;212.9;21.7;21.9;39;37.9;28.4;-1.0;
16/02/2025 19:25:26;117;0;175.08;-4;30.15;7.49;154.2;18.90;76765;2837.905;-1801.348;1;179;210;212.9;21.7;21.9;39;37.9;28.4;-1.0;
16/02/2025 19:25:46;117;0;174.67;-4;30.04;7.45;151.4;18.90;76777;2837.903;-1801.348;1;179;210;214.5;21.7;21.9;39;37.9;28.4;-1.0;
16/02/2025 19:26:06;117;0;171.69;-4;30.21;7.56;148.5;18.80;76778;2837.901;-1801.348;1;179;210;212.9;21.7;21.9;42;42.0;28.4;-1.0;
16/02/2025 19:26:26;117;0;170.18;-4;30.31;9.97;145.6;18.80;76768;2837.899;-1801.347;1;179;210;212.9;21.7;21.9;42;42.4;28.4;-1.0;
16/02/2025 19:26:46;117;0;167.68;-4;30.35;10.05;142.8;18.80;76765;2837.897;-1801.346;1;179;210;212.9;21.7;21.9;46;46.0;28.3;-1.0;
16/02/2025 19:27:06;117;0;166.75;-4;30.66;12.31;139.8;18.80;76772;2837.895;-1801.345;1;179;210;212.9;21.7;21.9;48;48.3;28.4;-1.0;
16/02/2025 19:27:26;117;0;167.32;-4;31.01;13.48;136.9;18.80;76782;2837.894;-1801.345;1;179;210;212.9;21.7;21.9;48;48.3;28.4;-1.0;
16/02/2025 19:27:46;117;0;171.64;-4;30.77;13.46;133.9;18.80;76789;2837.891;-1801.344;1;179;210;212.9;21.7;21.9;42;42.0;28.3;-1.0;
16/02/2025 19:28:06;117;0;174.05;-4;30.38;9.49;130.8;18.70;76781;2837.889;-1801.344;1;179;210;214.5;21.7;21.9;40;40.2;28.4;-1.0;
16/02/2025 19:28:26;117;0;177.09;-4;29.79;8.54;128.0;18.70;76792;2837.887;-1801.343;1;179;210;214.5;21.7;21.9;40;39.7;28.4;-1.0;
16/02/2025 19:28:46;117;0;180.91;-4;29.84;8.51;125.2;18.70;76799;2837.885;-1801.343;1;179;210;211.3;21.7;21.9;40;39.7;28.4;-1.0;
16/02/2025 19:29:06;117;0;183.19;-4;30.24;8.57;122.5;18.70;76808;2837.883;-1801.343;1;179;210;212.9;21.7;21.9;40;39.7;28.4;-1.0;
16/02/2025 19:29:26;117;0;174.68;-4;30.43;8.79;119.8;18.70;76819;2837.882;-1801.343;1;179;210;214.5;21.7;21.9;40;39.7;28.3;-1.0;
16/02/2025 19:29:46;117;0;167.36;-4;30.07;8.78;117.0;18.70;76834;2837.880;-1801.342;1;179;210;214.5;21.7;21.9;47;46.9;28.3;-1.0;
16/02/2025 19:30:06;117;0;171.69;-4;30.18;12.67;114.5;18.70;76851;2837.878;-1801.342;1;179;210;214.5;21.7;21.9;42;42.0;28.4;-1.0;
16/02/2025 19:30:26;117;0;172.90;-4;29.46;9.13;112.0;18.70;76868;2837.876;-1801.341;1;179;210;214.5;21.7;21.9;42;41.5;28.3;-1.0;
16/02/2025 19:30:46;117;0;174.46;-4;29.43;9.34;109.7;18.70;76872;2837.875;-1801.341;1;180;210;214.5;21.7;21.9;42;41.5;28.4;-1.0;
16/02/2025 19:31:06;117;0;174.69;-4;29.82;9.38;107.4;18.70;76884;2837.873;-1801.341;1;180;210;214.5;21.7;22.1;42;41.5;28.4;-1.0;
16/02/2025 19:31:26;117;0;173.35;-4;29.17;9.58;105.1;18.70;76900;2837.872;-1801.340;1;180;210;216.1;21.7;21.9;42;41.5;28.4;-1.0;
16/02/2025 19:31:46;117;0;174.23;-4;29.96;9.38;103.0;18.70;76889;2837.870;-1801.340;1;180;210;214.5;21.7;21.9;42;41.5;28.3;-1.0;
16/02/2025 19:32:06;117;0;178.95;-4;30.03;9.37;100.8;18.80;76924;2837.869;-1801.340;1;180;210;211.3;21.7;21.9;39;38.8;28.4;-1.0;
16/02/2025 19:32:26;117;0;183.17;-4;29.33;7.60;98.5;18.80;76932;2837.867;-1801.340;1;180;210;214.5;21.7;21.9;39;38.4;28.4;-1.0;
16/02/2025 19:32:46;117;0;183.38;-4;29.43;7.62;96.3;18.80;76967;2837.866;-1801.340;1;180;210;214.5;21.7;22.1;39;38.4;28.4;-1.0;
16/02/2025 19:33:06;117;0;185.79;-4;29.65;7.60;94.2;18.80;76982;2837.864;-1801.340;1;180;210;212.9;21.7;21.9;39;37.9;28.4;-1.0;
16/02/2025 19:33:26;117;0;186.44;-4;29.54;7.63;91.9;18.80;77006;2837.863;-1801.340;1;180;210;214.5;21.7;21.9;39;38.4;28.4;-1.0;
16/02/2025 19:33:46;117;0;187.77;-4;29.49;7.61;89.7;18.80;77009;2837.861;-1801.340;1;180;210;214.5;21.7;21.9;39;37.9;28.4;-1.0;
16/02/2025 19:34:06;117;0;191.69;-4;29.44;7.68;87.4;18.90;77023;2837.860;-1801.341;1;180;210;214.5;21.7;21.9;37;36.6;28.4;-1.0;
16/02/2025 19:34:26;117;0;194.57;-4;29.42;6.62;85.2;18.90;77039;2837.858;-1801.341;1;180;210;214.5;21.7;21.9;34;33.8;28.4;-1.0;
16/02/2025 19:34:46;117;0;193.51;-4;29.02;4.91;82.9;18.90;77031;2837.857;-1801.341;1;179;210;212.9;21.7;21.9;34;33.4;28.3;-1.0;
16/02/2025 19:35:06;117;0;195.15;-4;29.19;4.90;80.7;18.90;77052;2837.855;-1801.342;1;179;210;214.5;21.7;21.9;32;32.0;28.3;-1.0;
16/02/2025 19:35:26;117;0;194.57;-4;28.99;4.07;78.5;18.90;77047;2837.854;-1801.342;1;179;210;214.5;21.4;21.5;32;31.6;28.3;-1.0;
16/02/2025 19:35:46;117;0;194.54;-4;29.82;3.92;76.2;19.00;77044;2837.852;-1801.343;1;179;210;214.5;21.4;21.4;32;31.6;28.4;-1.0;
16/02/2025 19:36:06;117;0;193.56;-4;29.83;3.98;73.9;19.00;77055;2837.851;-1801.343;1;179;210;214.5;21.4;21.4;34;33.8;28.4;-1.0;
16/02/2025 19:36:26;117;0;195.58;-4;30.02;5.57;71.5;19.00;77065;2837.849;-1801.344;1;179;210;214.5;21.4;21.4;32;31.6;28.4;-1.0;
16/02/2025 19:36:46;117;0;193.80;-4;29.55;3.76;69.1;19.00;77068;2837.848;-1801.344;1;179;210;216.1;21.4;21.4;34;33.8;28.4;-1.0;
16/02/2025 19:37:06;117;0;192.89;-4;30.15;5.66;66.7;19.00;77081;2837.846;-1801.345;1;179;210;214.5;21.4;21.4;34;34.3;28.4;-1.0;
16/02/2025 19:37:26;117;0;191.73;-4;29.90;5.60;64.3;19.00;77074;2837.845;-1801.345;1;179;210;214.5;21.4;21.4;36;36.1;28.4;-1.0;
16/02/2025 19:37:46;117;0;192.10;-4;30.34;6.84;61.8;19.10;77084;2837.843;-1801.345;1;179;210;214.5;21.4;21.4;36;36.6;28.4;-1.0;
16/02/2025 19:38:06;117;0;192.36;-4;29.76;6.76;59.3;19.10;77091;2837.841;-1801.346;1;179;210;214.5;21.4;21.4;36;36.6;28.4;-1.0;
16/02/2025 19:38:26;117;0;192.71;-4;30.14;6.82;56.8;19.10;77088;2837.840;-1801.346;1;179;210;214.5;21.4;21.5;36;36.6;28.3;-1.0;
16/02/2025 19:38:46;117;0;196.94;-4;30.13;6.73;54.2;19.10;77109;2837.838;-1801.347;1;178;210;214.5;21.4;21.4;28;28.0;28.3;-1.0;
16/02/2025 19:39:06;117;0;196.38;-4;29.32;1.89;51.7;19.10;77092;2837.836;-1801.348;1;178;210;214.5;21.4;21.4;28;27.5;28.4;-1.0;
16/02/2025 19:39:26;117;0;196.46;-4;29.39;1.74;49.3;19.20;77108;2837.835;-1801.348;1;178;210;214.5;21.4;21.4;28;27.5;28.3;-1.0;
16/02/2025 19:39:46;117;0;196.02;-4;29.80;1.88;46.8;19.20;77115;2837.833;-1801.349;1;178;210;214.5;21.4;21.4;28;27.5;28.4;-1.0;
16/02/2025 19:40:06;117;0;194.50;-4;29.47;1.83;44.3;19.20;77114;2837.831;-1801.349;1;178;210;214.5;21.4;21.4;31;31.1;28.3;-1.0;
16/02/2025 19:40:26;117;0;193.32;-4;29.76;4.08;41.8;19.20;77117;2837.830;-1801.350;1;178;210;214.5;21.4;21.4;33;33.4;28.4;-1.0;
16/02/2025 19:40:46;117;0;193.72;-4;29.71;5.18;39.3;19.30;77129;2837.828;-1801.350;1;178;210;216.1;21.4;21.4;33;33.4;28.4;-1.0;
16/02/2025 19:41:06;117;0;193.48;-4;30.19;5.24;36.7;19.30;77122;2837.826;-1801.351;1;178;210;214.5;21.4;21.4;33;33.8;28.4;-1.0;
16/02/2025 19:41:26;117;0;192.97;-4;29.31;5.17;34.1;19.30;77117;2837.825;-1801.351;1;178;210;214.5;21.4;21.4;33;33.8;28.3;-1.0;
16/02/2025 19:41:46;117;0;194.57;-4;29.74;5.21;31.6;19.30;77118;2837.823;-1801.352;1;178;210;214.5;21.4;21.4;31;31.1;28.4;-1.0;
16/02/2025 19:42:06;117;0;193.44;-4;30.16;3.60;29.0;19.30;77122;2837.821;-1801.352;1;177;210;214.5;21.4;21.4;31;30.7;28.4;-1.0;
16/02/2025 19:42:26;117;0;191.56;-4;29.25;3.56;26.5;19.40;77129;2837.819;-1801.353;1;177;210;211.3;21.4;21.5;33;33.4;28.4;-1.0;
16/02/2025 19:42:46;117;0;190.70;-4;29.65;5.38;23.9;19.40;77137;2837.818;-1801.353;1;177;210;216.1;21.4;21.4;33;33.8;28.4;-1.0;
16/02/2025 19:43:06;117;0;190.00;-4;29.60;5.16;21.4;19.40;77128;2837.816;-1801.353;1;177;210;214.5;21.4;21.5;35;35.6;28.4;-1.0;
16/02/2025 19:43:26;117;0;191.29;-4;30.22;6.42;18.8;19.40;77138;2837.814;-1801.354;1;177;210;214.5;21.4;21.2;35;35.6;28.3;-1.0;
16/02/2025 19:43:46;117;0;189.66;-4;30.13;6.53;16.1;19.40;77135;2837.812;-1801.354;1;177;210;214.5;21.4;21.4;35;35.6;28.4;-1.0;
16/02/2025 19:44:06;117;0;189.59;-4;30.41;6.50;13.4;19.40;77132;2837.811;-1801.354;1;177;210;214.5;21.4;21.4;35;35.6;28.3;-1.0;
16/02/2025 19:44:26;117;0;188.09;-4;29.92;6.45;10.7;19.40;77148;2837.809;-1801.355;1;177;210;214.5;21.4;21.4;35;36.1;28.3;-1.0;
16/02/2025 19:44:47;117;0;188.44;-4;29.94;6.76;7.9;19.50;77139;2837.807;-1801.355;1;177;210;214.5;21.4;21.4;35;36.1;28.4;-1.0;
16/02/2025 19:45:07;117;0;187.47;-4;30.83;6.72;5.1;19.50;77140;2837.805;-1801.355;1;177;210;214.5;21.4;21.4;35;35.6;28.4;-1.0;
16/02/2025 19:45:22;115;0;185.03;-4;30.28;6.53;3.0;19.50;77151;2837.803;-1801.355;1;177;500;224.2;100.0;65.1;0;-0.9;28.3;-1.0;
16/02/2025 19:45:32;115;0;164.28;-4;8.82;-12.31;1.9;19.50;77119;2837.802;-1801.355;1;177;500;341.9;100.0;100.0;0;-0.9;28.1;-1.0;
16/02/2025 19:45:42;115;0;159.69;-4;-66.80;-14.00;2.3;19.50;76861;2837.802;-1801.354;1;177;500;458.1;100.0;100.6;0;-0.9;28.1;-1.0;
16/02/2025 19:45:52;115;0;120.30;-4;-72.35;1.81;1.6;19.50;76597;2837.802;-1801.354;1;177;500;506.5;100.0;100.6;0;-0.5;28.1;-1.0;
16/02/2025 19:46:02;115;0;113.35;-4;-33.69;-12.41;-0.5;19.60;76529;2837.801;-1801.352;1;177;500;506.5;100.0;100.4;0;-0.5;28.4;-1.0;
16/02/2025 19:46:22;119;0;77.42;-4;-56.12;-12.03;-0.1;19.60;76542;2837.801;-1801.352;1;177;500;506.5;100.0;100.6;0;-0.5;28.4;-1.0;
16/02/2025 19:46:32;119;0;48.07;-4;-52.60;-18.04;-0.3;19.60;76547;2837.814;-1801.307;0;177;500;508.1;100.0;100.6;0;-0.5;28.4;-1.0;
