Timestamp;NavState;SecurityLevel;Heading;Declination;Pitch;Roll;Depth;Temperature;Pa;Lat;Lon;DeadReckoning;DesiredH;BallastCmd;BallastPos;LinCmd;LinPos;AngCmd;AngPos;Voltage;Altitude;
02/03/2025 20:41:24;119;0;66.33;-4;-52.87;-10.07;0.0;16.80;75565;2833.196;-1757.079;0;145;500;506.5;100.0;100.6;0;-0.5;25.2;-1.0;
02/03/2025 20:41:34;116;0;31.95;-4;-54.22;-13.51;0.0;16.90;75575;2833.192;-1757.080;0;145;500;506.5;100.0;100.6;0;-0.5;25.3;-1.0;
02/03/2025 20:42:05;116;0;345.70;-4;-55.34;-7.37;-0.1;16.90;75582;2833.195;-1757.079;0;145;500;506.5;100.0;100.6;0;-0.5;25.2;-1.0;
02/03/2025 20:42:24;116;0;347.27;-4;-53.74;-12.82;-0.1;17.00;75579;2833.195;-1757.079;0;318;500;506.5;100.0;100.6;0;-0.5;25.3;-1.0;
02/03/2025 20:42:46;116;0;346.65;-4;-52.88;-16.89;-0.1;17.10;75590;2833.198;-1757.078;0;318;500;506.5;100.0;100.6;0;-0.5;25.3;-1.0;
02/03/2025 20:43:06;116;0;336.19;-4;-57.80;-6.06;-0.0;17.10;75594;2833.201;-1757.076;0;318;500;506.5;100.0;100.6;0;-0.5;25.2;-1.0;
02/03/2025 20:44:08;116;0;333.56;-4;-51.05;-11.99;-0.1;17.30;75620;2833.212;-1757.072;0;318;500;504.8;100.0;100.6;0;-0.5;25.2;-1.0;
02/03/2025 20:45:39;116;0;345.26;-4;-62.97;-20.57;-0.2;17.70;75646;2833.227;-1757.068;0;318;500;506.5;100.0;100.6;0;-0.5;25.3;-1.0;
02/03/2025 20:47:09;116;0;343.69;-4;-60.37;-14.32;-0.2;18.10;75682;2833.243;-1757.063;0;318;500;506.5;100.0;100.6;0;-0.5;25.2;-1.0;
02/03/2025 20:47:29;110;0;358.91;-4;-62.48;-16.39;0.2;18.20;75678;2833.243;-1757.063;0;318;-110;385.5;100.0;99.7;-8;-8.1;25.2;-1.0;
02/03/2025 20:47:39;110;0;359.56;-4;-53.69;-15.41;0.2;18.20;76037;2833.243;-1757.063;1;318;-110;241.9;100.0;99.9;-8;-8.6;25.2;-1.0;
02/03/2025 20:47:49;110;0;2.78;-4;-58.18;-17.73;0.7;18.30;76272;2833.243;-1757.063;1;318;-110;88.7;100.0;99.9;-8;-8.6;25.2;-1.0;
02/03/2025 20:47:59;110;0;359.70;-4;-65.11;-4.24;0.9;18.30;76582;2833.243;-1757.063;1;318;-110;-66.1;100.0;99.7;-8;-8.6;25.2;-1.0;
02/03/2025 20:48:09;110;0;5.44;-4;-67.72;1.56;1.1;18.40;76930;2833.243;-1757.063;1;318;-110;-108.1;41.2;53.0;-8;-8.1;25.2;-1.0;
02/03/2025 20:48:19;110;0;4.84;-4;-58.30;-16.63;2.1;18.40;76966;2833.244;-1757.063;1;318;-110;-108.1;41.2;41.1;-8;-8.1;25.2;-1.0;
02/03/2025 20:48:39;100;0;15.39;-4;-18.66;-15.80;5.3;18.50;76979;2833.248;-1757.062;1;318;-110;-103.2;41.2;40.6;-8;-8.1;25.3;-1.0;
02/03/2025 20:48:59;100;0;15.53;-4;-14.99;-16.11;7.7;18.50;76978;2833.251;-1757.061;1;318;-110;-101.6;42.7;43.0;70;69.9;25.3;-1.0;
02/03/2025 20:49:19;100;0;14.92;-4;-22.48;23.45;10.1;18.50;76996;2833.254;-1757.060;1;318;-110;-101.6;41.9;42.0;70;69.9;25.3;-1.0;
02/03/2025 20:49:39;100;0;5.45;-4;-21.64;23.20;13.1;18.50;76998;2833.258;-1757.059;1;318;-110;-101.6;41.9;42.0;70;69.9;25.3;0.0;
02/03/2025 20:49:59;100;0;349.04;-4;-21.97;23.69;16.0;18.50;77009;2833.261;-1757.060;1;318;-110;-101.6;41.9;41.8;51;51.0;25.2;0.0;
02/03/2025 20:50:19;100;0;337.55;-4;-20.40;13.48;18.7;18.60;77008;2833.264;-1757.061;1;318;-110;-101.6;41.9;41.8;33;32.9;25.3;0.0;
02/03/2025 20:50:39;100;0;330.47;-4;-20.11;4.59;21.2;18.60;77016;2833.267;-1757.063;1;318;-110;-101.6;41.9;41.8;22;22.1;25.3;0.0;
02/03/2025 20:50:59;100;0;326.99;-4;-19.76;-0.74;23.7;18.60;77016;2833.270;-1757.065;1;318;-110;-101.6;41.9;41.8;18;18.1;25.2;0.0;
02/03/2025 20:51:19;100;0;326.62;-4;-19.49;-2.86;26.1;18.60;77021;2833.273;-1757.067;1;318;-110;-100.0;41.9;41.8;18;18.1;25.3;0.0;
02/03/2025 20:51:39;100;0;325.89;-4;-19.37;-2.88;28.5;18.60;77029;2833.275;-1757.069;1;318;-110;-101.6;41.9;41.8;18;18.1;25.2;0.0;
02/03/2025 20:51:59;100;0;325.33;-4;-19.42;-2.86;30.8;18.70;77036;2833.278;-1757.071;1;318;-110;-101.6;41.9;41.8;18;17.6;25.3;0.0;
02/03/2025 20:52:19;100;0;324.13;-4;-19.42;-2.79;33.4;18.70;77038;2833.281;-1757.073;1;318;-110;-101.6;41.9;41.8;16;15.8;25.3;0.0;
02/03/2025 20:52:39;100;0;322.84;-4;-19.46;-4.11;35.8;18.70;77037;2833.283;-1757.075;1;318;-110;-101.6;41.9;41.8;16;15.3;25.3;0.0;
02/03/2025 20:52:59;100;0;322.91;-4;-19.14;-4.11;38.1;18.70;77048;2833.286;-1757.077;1;318;-110;-101.6;41.9;41.8;16;15.3;25.3;0.0;
02/03/2025 20:53:19;100;0;322.93;-4;-19.07;-4.12;40.5;18.70;77044;2833.288;-1757.079;1;318;-110;-101.6;41.9;41.8;16;15.3;25.2;0.0;
02/03/2025 20:53:39;100;0;322.21;-4;-19.19;-4.15;42.9;18.70;77049;2833.291;-1757.082;1;318;-110;-101.6;41.9;41.8;16;15.3;25.3;0.0;
02/03/2025 20:53:59;100;0;322.46;-4;-19.20;-4.16;45.3;18.80;77055;2833.293;-1757.084;1;318;-110;-101.6;41.9;41.8;16;15.3;25.2;0.0;
02/03/2025 20:54:19;100;0;322.82;-4;-19.11;-4.20;47.7;18.80;77051;2833.296;-1757.086;1;318;-110;-101.6;41.9;41.8;16;15.3;25.2;0.0;
02/03/2025 20:54:39;100;0;322.76;-4;-18.93;-4.16;50.0;18.80;77067;2833.298;-1757.088;1;318;-110;-101.6;42.2;42.3;16;15.3;25.3;0.0;
02/03/2025 20:54:59;100;0;322.22;-4;-19.24;-4.13;52.4;18.80;77067;2833.301;-1757.090;1;318;-110;-101.6;42.2;42.3;16;15.3;25.3;0.0;
02/03/2025 20:55:19;100;0;321.45;-4;-19.17;-4.13;54.8;18.80;77077;2833.303;-1757.092;1;318;-110;-101.6;42.2;42.3;16;15.3;25.3;0.0;
02/03/2025 20:55:39;100;0;321.23;-4;-19.39;-4.16;57.3;18.80;77074;2833.306;-1757.095;1;318;-110;-101.6;42.2;42.3;16;15.3;25.2;0.0;
02/03/2025 20:55:59;100;0;320.81;-4;-19.16;-4.09;59.9;18.80;77079;2833.309;-1757.097;1;318;-110;-101.6;42.2;42.3;16;15.3;25.2;0.0;
02/03/2025 20:56:19;100;0;320.52;-4;-19.23;-4.08;62.3;18.80;77102;2833.311;-1757.099;1;318;-110;-101.6;42.2;42.3;16;15.3;25.2;0.0;
02/03/2025 20:56:39;100;0;319.93;-4;-19.33;-4.15;64.8;18.80;77096;2833.314;-1757.102;1;318;-110;-101.6;42.2;42.3;16;15.3;25.2;0.0;
02/03/2025 20:56:59;100;0;319.00;-4;-19.19;-4.10;67.6;18.80;77101;2833.317;-1757.104;1;318;-110;-101.6;42.2;42.3;16;15.3;25.3;0.0;
02/03/2025 20:57:19;100;0;319.04;-4;-19.23;-4.06;70.1;18.90;77106;2833.319;-1757.107;1;318;-110;-103.2;42.2;42.3;16;15.3;25.3;0.0;
02/03/2025 20:57:39;100;0;316.36;-4;-19.25;-4.15;72.6;18.90;77111;2833.322;-1757.109;1;318;-110;-101.6;42.2;42.3;16;15.3;25.2;0.0;
02/03/2025 20:57:59;100;0;313.71;-4;-19.26;-4.11;75.3;18.90;77111;2833.324;-1757.112;1;318;-110;-101.6;42.2;42.3;16;15.3;25.3;0.0;
02/03/2025 20:58:19;100;0;314.01;-4;-19.39;-4.13;77.9;18.90;77114;2833.327;-1757.115;1;318;-110;-101.6;42.2;42.3;16;15.3;25.3;0.0;
02/03/2025 20:58:39;100;0;314.18;-4;-19.33;-4.08;80.9;18.90;77127;2833.329;-1757.118;1;318;-110;-103.2;42.2;42.3;16;15.3;25.2;0.0;
02/03/2025 20:58:59;100;0;313.75;-4;-19.27;-4.12;83.6;18.90;77121;2833.332;-1757.121;1;318;-110;-100.0;42.2;42.3;16;15.3;25.3;0.0;
02/03/2025 20:59:19;100;0;314.94;-4;-19.23;-4.05;86.7;18.90;77129;2833.335;-1757.124;1;318;-110;-101.6;42.2;42.3;16;15.3;25.2;0.0;
02/03/2025 20:59:39;100;0;313.62;-4;-19.47;-4.12;89.6;18.90;77129;2833.338;-1757.128;1;318;-110;-100.0;42.2;42.3;16;15.3;25.3;0.0;
02/03/2025 20:59:59;100;0;311.98;-4;-19.05;-4.09;92.6;18.90;77128;2833.340;-1757.131;1;318;-110;-101.6;42.2;42.3;16;15.3;25.3;0.0;
02/03/2025 21:00:19;100;0;311.65;-4;-19.08;-4.12;95.5;18.90;77123;2833.343;-1757.134;1;318;-110;-100.0;42.2;42.3;16;15.3;25.3;0.0;
02/03/2025 21:00:39;100;0;309.50;-4;-19.01;-4.20;98.4;18.90;77123;2833.345;-1757.137;1;318;-110;-101.6;42.2;42.3;14;14.0;25.2;0.0;
02/03/2025 21:00:59;100;0;306.96;-4;-19.01;-4.93;101.4;18.90;77118;2833.348;-1757.141;1;318;-110;-101.6;42.2;42.4;12;12.2;25.2;0.0;
02/03/2025 21:01:19;100;0;310.52;-4;-18.80;-5.96;104.3;18.90;77102;2833.350;-1757.144;1;318;-110;-101.6;42.6;42.9;14;14.0;25.2;0.0;
02/03/2025 21:01:39;100;0;316.13;-4;-19.84;-4.37;107.5;18.90;77088;2833.353;-1757.147;1;318;-110;-101.6;42.6;42.9;14;14.4;25.3;0.0;
02/03/2025 21:01:59;100;0;321.24;-4;-20.10;-4.34;110.6;18.90;77068;2833.356;-1757.150;1;318;-110;-101.6;42.6;42.9;14;14.4;25.2;0.0;
02/03/2025 21:02:19;100;0;323.99;-4;-20.20;-4.37;113.7;18.90;77068;2833.360;-1757.153;1;318;-110;-101.6;42.6;42.9;16;16.2;25.3;0.0;
02/03/2025 21:02:39;100;0;325.10;-4;-20.33;-3.37;117.2;18.80;77035;2833.363;-1757.156;1;318;-110;-101.6;42.6;42.9;16;16.2;25.3;0.0;
02/03/2025 21:02:59;100;0;321.06;-4;-20.35;-3.38;120.4;18.80;77027;2833.367;-1757.159;1;318;-110;-104.8;42.6;42.9;16;16.2;25.2;0.0;
02/03/2025 21:03:19;100;0;317.92;-4;-20.23;-3.40;123.7;18.80;77025;2833.370;-1757.162;1;318;-110;-101.6;42.6;42.9;16;16.7;25.3;0.0;
02/03/2025 21:03:39;100;0;318.16;-4;-20.59;-3.39;126.9;18.80;77011;2833.373;-1757.165;1;318;-110;-101.6;42.6;42.9;16;16.2;25.2;0.0;
02/03/2025 21:03:59;100;0;322.41;-4;-20.02;-3.48;129.9;18.80;76990;2833.376;-1757.167;1;318;-110;-101.6;42.6;42.9;16;16.2;25.3;0.0;
02/03/2025 21:04:19;100;0;327.14;-4;-19.79;-3.44;132.9;18.80;76982;2833.379;-1757.170;1;318;-110;-101.6;42.6;42.9;18;18.5;25.3;0.0;
02/03/2025 21:04:39;100;0;329.93;-4;-20.23;-2.30;135.8;18.70;76969;2833.382;-1757.172;1;318;-110;-101.6;42.6;42.9;21;21.2;25.3;0.0;
02/03/2025 21:04:59;100;0;333.54;-4;-20.42;-0.83;138.7;18.70;76964;2833.386;-1757.173;1;318;-110;-101.6;42.6;42.9;26;26.2;25.3;0.0;
02/03/2025 21:05:19;100;0;331.98;-4;-20.72;1.74;141.8;18.70;76954;2833.389;-1757.175;1;318;-110;-101.6;42.6;42.9;24;23.9;25.3;0.0;
02/03/2025 21:05:39;100;0;329.58;-4;-20.57;0.07;144.6;18.70;76943;2833.392;-1757.177;1;318;-110;-101.6;42.6;42.9;21;21.2;25.3;0.0;
02/03/2025 21:05:59;100;0;329.58;-4;-20.62;-1.19;147.4;18.60;76930;2833.395;-1757.179;1;318;-110;-101.6;42.6;42.9;21;20.8;25.2;0.0;
02/03/2025 21:06:19;100;0;326.58;-4;-20.82;-1.25;150.2;18.60;76912;2833.398;-1757.181;1;318;-110;-101.6;42.6;42.9;18;18.1;25.2;0.0;
02/03/2025 21:06:39;100;0;319.25;-4;-19.98;-2.84;153.0;18.60;76907;2833.401;-1757.184;1;318;-110;-101.6;42.6;42.9;16;15.8;25.2;0.0;
02/03/2025 21:06:59;100;0;313.94;-4;-19.59;-4.14;155.7;18.50;76889;2833.403;-1757.187;1;318;-110;-101.6;42.6;42.9;16;15.3;25.3;0.0;
02/03/2025 21:07:19;100;0;316.36;-4;-19.34;-4.11;158.1;18.50;76875;2833.406;-1757.189;1;318;-110;-101.6;42.6;42.9;16;15.3;25.2;0.0;
02/03/2025 21:07:39;100;0;315.41;-4;-19.34;-4.13;160.8;18.50;76870;2833.408;-1757.192;1;318;-110;-101.6;42.6;42.9;16;15.3;25.2;0.0;
02/03/2025 21:07:59;100;0;315.46;-4;-19.43;-4.18;162.9;18.40;76844;2833.410;-1757.194;1;318;-110;-101.6;42.6;42.9;16;15.3;25.2;0.0;
02/03/2025 21:08:19;100;0;319.06;-4;-19.45;-4.11;165.3;18.40;76842;2833.413;-1757.197;1;318;-110;-101.6;42.6;42.9;16;15.3;25.3;0.0;
02/03/2025 21:08:39;100;0;315.12;-4;-19.81;-4.12;167.7;18.40;76840;2833.415;-1757.199;1;318;-110;-100.0;42.6;42.9;16;15.3;25.2;0.0;
02/03/2025 21:08:59;100;0;310.29;-4;-19.29;-4.20;170.2;18.40;76817;2833.417;-1757.202;1;318;-110;-101.6;42.6;42.9;14;14.0;25.2;0.0;
02/03/2025 21:09:19;100;0;312.51;-4;-19.16;-4.88;172.3;18.30;76804;2833.419;-1757.204;1;318;-110;-103.2;42.6;42.9;14;13.5;25.2;0.0;
02/03/2025 21:09:39;100;0;315.14;-4;-19.36;-4.86;174.9;18.30;76795;2833.421;-1757.207;1;318;-110;-101.6;42.6;42.9;14;13.5;25.3;0.0;
02/03/2025 21:09:59;100;0;317.39;-4;-19.20;-4.93;177.3;18.20;76774;2833.424;-1757.209;1;318;-110;-101.6;42.6;42.9;14;13.5;25.2;0.0;
02/03/2025 21:10:19;100;0;317.30;-4;-19.37;-4.88;179.6;18.20;76764;2833.426;-1757.212;1;318;-110;-101.6;42.6;42.9;14;13.5;25.3;0.0;
02/03/2025 21:10:39;100;0;316.82;-4;-19.16;-4.91;182.0;18.20;76766;2833.428;-1757.214;1;318;-110;-101.6;42.6;42.9;14;13.5;25.3;0.0;
02/03/2025 21:10:59;100;0;315.99;-4;-19.48;-4.94;184.3;18.20;76770;2833.431;-1757.216;1;318;-110;-101.6;42.6;42.9;14;13.5;25.2;0.0;
02/03/2025 21:11:19;100;0;314.84;-4;-18.17;-4.98;186.8;18.10;76745;2833.433;-1757.219;1;318;-110;-101.6;43.1;43.2;14;13.5;25.3;0.0;
02/03/2025 21:11:39;100;0;314.85;-4;-20.38;-4.84;189.2;18.10;76744;2833.435;-1757.222;1;318;-110;-100.0;43.1;43.4;14;13.5;25.2;0.0;
02/03/2025 21:11:59;100;0;313.70;-4;-20.06;-4.90;191.8;18.00;76740;2833.438;-1757.224;1;318;-110;-101.6;43.1;43.4;14;13.5;25.2;0.0;
02/03/2025 21:12:19;100;0;310.69;-4;-20.13;-4.92;194.3;18.00;76728;2833.440;-1757.227;1;318;-110;-104.8;43.1;43.4;14;13.5;25.2;0.0;
02/03/2025 21:12:39;100;0;312.68;-4;-20.44;-4.88;196.8;18.00;76734;2833.442;-1757.230;1;318;-110;-101.6;43.1;43.4;14;13.5;25.3;0.0;
02/03/2025 21:12:59;100;0;313.91;-4;-20.46;-4.86;199.5;17.90;76720;2833.444;-1757.232;1;318;-110;-103.2;43.1;43.4;14;13.5;25.3;0.0;
02/03/2025 21:13:19;100;0;314.45;-4;-20.39;-4.93;202.3;17.90;76708;2833.447;-1757.235;1;318;-110;-101.6;43.1;43.4;14;13.5;25.2;0.0;
02/03/2025 21:13:40;100;0;317.73;-4;-20.25;-5.00;205.0;17.90;76711;2833.449;-1757.238;1;318;-110;-101.6;43.1;43.4;14;13.5;25.2;0.0;
02/03/2025 21:14:00;100;0;321.04;-4;-20.34;-4.93;207.6;17.80;76691;2833.452;-1757.240;1;318;-110;-103.2;43.1;43.4;16;15.8;25.2;0.0;
02/03/2025 21:14:20;100;0;323.52;-4;-20.30;-3.66;210.2;17.80;76690;2833.455;-1757.242;1;318;-110;-101.6;43.1;43.4;16;16.2;25.2;0.0;
02/03/2025 21:14:40;100;0;326.75;-4;-20.65;-3.62;213.0;17.80;76683;2833.458;-1757.244;1;318;-110;-101.6;43.1;43.4;18;18.1;25.3;0.0;
02/03/2025 21:15:00;100;0;326.83;-4;-20.92;-2.45;215.6;17.70;76678;2833.461;-1757.246;1;318;-110;-101.6;43.1;43.4;18;18.5;25.3;0.0;
02/03/2025 21:15:20;100;0;327.69;-4;-20.90;-2.44;218.6;17.70;76661;2833.464;-1757.249;1;318;-110;-100.0;43.1;43.4;18;18.5;25.3;0.0;
02/03/2025 21:15:40;100;0;327.68;-4;-20.48;-2.50;221.1;17.70;76657;2833.466;-1757.250;1;318;-110;-101.6;43.1;43.4;18;18.5;25.2;0.0;
02/03/2025 21:16:00;100;0;326.55;-4;-20.95;-2.41;223.9;17.60;76656;2833.469;-1757.253;1;318;-110;-101.6;43.1;43.4;18;18.5;25.3;0.0;
02/03/2025 21:16:20;100;0;327.78;-4;-20.78;-2.45;226.5;17.60;76646;2833.472;-1757.254;1;318;-110;-101.6;43.1;43.4;18;18.5;25.3;0.0;
02/03/2025 21:16:40;100;0;326.88;-4;-20.77;-2.42;229.1;17.50;76629;2833.475;-1757.256;1;318;-110;-101.6;43.1;43.4;18;18.5;25.3;0.0;
02/03/2025 21:17:00;100;0;324.07;-4;-20.66;-2.45;231.9;17.50;76628;2833.478;-1757.259;1;318;-110;-101.6;43.1;43.4;18;18.5;25.3;0.0;
02/03/2025 21:17:20;100;0;321.77;-4;-20.81;-2.48;234.4;17.50;76629;2833.480;-1757.261;1;318;-110;-103.2;43.1;43.4;16;15.8;25.2;0.0;
02/03/2025 21:17:40;100;0;318.41;-4;-20.49;-4.04;237.3;17.40;76607;2833.483;-1757.264;1;318;-110;-101.6;43.1;43.4;16;15.3;25.3;0.0;
02/03/2025 21:18:00;100;0;315.67;-4;-20.35;-4.06;239.8;17.40;76606;2833.485;-1757.266;1;318;-110;-101.6;43.1;43.4;16;15.3;25.2;0.0;
02/03/2025 21:18:20;100;0;316.66;-4;-20.72;-3.99;242.5;17.40;76596;2833.488;-1757.269;1;318;-110;-101.6;43.1;43.3;16;15.3;25.3;0.0;
02/03/2025 21:18:40;100;0;317.83;-4;-20.87;-4.07;245.2;17.30;76598;2833.490;-1757.271;1;318;-110;-101.6;43.1;43.4;16;15.3;25.3;0.0;
02/03/2025 21:19:00;100;0;316.26;-4;-20.77;-4.01;247.6;17.30;76588;2833.492;-1757.273;1;318;-110;-104.8;43.1;43.4;16;15.3;25.3;0.0;
02/03/2025 21:19:20;100;0;313.75;-4;-20.74;-4.02;250.2;17.30;76587;2833.495;-1757.276;1;318;-110;-103.2;43.1;43.4;16;15.3;25.2;0.0;
02/03/2025 21:19:40;100;0;310.84;-4;-20.37;-4.04;252.8;17.20;76572;2833.497;-1757.279;1;318;-110;-101.6;43.1;43.4;16;15.3;25.3;0.0;
02/03/2025 21:20:00;100;0;309.28;-4;-20.40;-4.09;255.5;17.20;76568;2833.499;-1757.282;1;318;-110;-101.6;43.1;43.4;14;14.0;25.2;0.0;
02/03/2025 21:20:20;100;0;306.08;-4;-20.25;-4.80;258.2;17.20;76558;2833.501;-1757.285;1;318;-110;-101.6;43.1;43.4;12;12.2;25.2;0.0;
02/03/2025 21:20:40;100;0;303.44;-4;-20.44;-5.85;260.6;17.10;76557;2833.503;-1757.288;1;318;-110;-101.6;43.1;43.4;9;9.0;25.2;0.0;
02/03/2025 21:21:00;100;0;301.22;-4;-20.71;-7.18;263.1;17.10;76558;2833.504;-1757.291;1;318;-110;-101.6;43.1;43.4;5;5.0;25.3;0.0;
02/03/2025 21:21:20;100;0;302.43;-4;-20.04;-9.36;265.7;17.10;76540;2833.506;-1757.294;1;318;-110;-101.6;43.1;43.4;7;7.7;25.2;0.0;
02/03/2025 21:21:40;100;0;305.34;-4;-19.91;-7.67;268.2;17.00;76539;2833.508;-1757.297;1;318;-110;-101.6;43.1;43.4;11;10.8;25.2;0.0;
02/03/2025 21:22:00;100;0;306.82;-4;-20.12;-6.08;270.8;17.00;76529;2833.510;-1757.300;1;318;-110;-103.2;43.1;43.4;11;10.8;25.3;0.0;
02/03/2025 21:22:20;100;0;308.32;-4;-20.03;-6.08;273.4;16.90;76517;2833.512;-1757.303;1;318;-110;-101.6;43.1;43.4;13;13.1;25.3;0.0;
02/03/2025 21:22:40;100;0;308.78;-4;-20.28;-4.93;275.7;16.90;76516;2833.514;-1757.305;1;318;-110;-100.0;43.1;43.4;13;13.5;25.3;0.0;
02/03/2025 21:23:00;100;0;310.02;-4;-20.40;-4.90;278.1;16.90;76520;2833.516;-1757.308;1;318;-110;-101.6;43.1;43.4;13;13.5;25.3;0.0;
02/03/2025 21:23:20;100;0;311.52;-4;-20.21;-4.90;281.0;16.90;76513;2833.519;-1757.311;1;318;-110;-103.2;43.1;43.4;15;14.9;25.3;0.0;
02/03/2025 21:23:40;100;0;312.47;-4;-19.99;-4.05;283.3;16.80;76494;2833.521;-1757.313;1;318;-110;-101.6;43.1;43.4;15;15.3;25.2;0.0;
02/03/2025 21:24:00;100;0;311.63;-4;-20.04;-4.03;285.6;16.80;76485;2833.523;-1757.316;1;318;-110;-101.6;43.1;43.4;15;15.3;25.3;0.0;
02/03/2025 21:24:20;100;0;312.16;-4;-19.92;-4.06;288.0;16.80;76483;2833.525;-1757.318;1;318;-110;-101.6;43.1;43.4;15;15.3;25.3;0.0;
02/03/2025 21:24:40;100;0;310.48;-4;-19.84;-4.00;290.3;16.70;76476;2833.527;-1757.321;1;318;-110;-101.6;43.1;43.4;15;15.3;25.3;0.0;
02/03/2025 21:25:00;100;0;308.25;-4;-20.02;-4.03;292.4;16.70;76467;2833.528;-1757.323;1;318;-110;-100.0;43.1;43.4;13;13.1;25.2;0.0;
02/03/2025 21:25:20;100;0;306.12;-4;-19.70;-5.34;294.9;16.60;76452;2833.530;-1757.326;1;318;-110;-101.6;43.1;43.4;11;10.4;25.3;0.0;
02/03/2025 21:25:40;100;0;306.04;-4;-19.64;-6.67;297.0;16.60;76448;2833.532;-1757.329;1;318;-110;-103.2;43.1;43.4;11;10.4;25.3;0.0;
02/03/2025 21:26:00;100;0;306.20;-4;-19.78;-6.54;299.3;16.60;76454;2833.534;-1757.331;1;318;-110;-101.6;43.1;43.4;11;9.9;25.3;0.0;
02/03/2025 21:26:20;100;0;304.38;-4;-19.99;-6.83;301.5;16.60;76440;2833.535;-1757.334;1;318;-110;-101.6;43.1;43.4;9;9.0;25.3;0.0;
02/03/2025 21:26:40;100;0;303.20;-4;-19.64;-7.30;303.7;16.50;76430;2833.537;-1757.336;1;318;-110;-101.6;43.1;43.4;9;9.0;25.3;0.0;
02/03/2025 21:27:00;100;0;301.91;-4;-19.73;-7.33;306.1;16.50;76418;2833.539;-1757.339;1;318;-110;-101.6;43.1;43.4;6;5.9;25.3;0.0;
02/03/2025 21:27:20;100;0;301.71;-4;-19.57;-9.05;308.2;16.50;76421;2833.540;-1757.342;1;318;-110;-103.2;43.1;43.4;6;5.4;25.3;0.0;
02/03/2025 21:27:40;100;0;303.08;-4;-19.69;-9.04;310.6;16.40;76415;2833.542;-1757.345;1;318;-110;-101.6;43.1;43.4;6;5.4;25.2;0.0;
02/03/2025 21:28:00;100;0;306.79;-4;-19.94;-8.98;312.7;16.40;76400;2833.543;-1757.347;1;318;-110;-101.6;43.1;43.4;11;10.8;25.3;0.0;
02/03/2025 21:28:20;100;0;311.45;-4;-19.98;-6.15;315.2;16.40;76401;2833.546;-1757.350;1;318;-110;-100.0;43.1;43.4;14;14.0;25.2;0.0;
02/03/2025 21:28:40;100;0;312.52;-4;-20.04;-4.60;317.6;16.30;76394;2833.548;-1757.352;1;318;-110;-101.6;43.1;43.4;14;14.0;25.3;0.0;
02/03/2025 21:29:00;100;0;313.60;-4;-20.14;-4.57;319.9;16.30;76393;2833.550;-1757.355;1;318;-110;-101.6;43.1;43.4;14;14.4;25.3;0.0;
02/03/2025 21:29:20;100;0;314.11;-4;-20.13;-4.55;322.3;16.30;76384;2833.552;-1757.357;1;318;-110;-101.6;43.1;43.4;14;14.0;25.3;0.0;
02/03/2025 21:29:40;100;0;315.20;-4;-20.29;-4.52;324.7;16.20;76382;2833.554;-1757.360;1;318;-110;-101.6;43.1;43.4;14;14.4;25.3;0.0;
02/03/2025 21:30:00;100;0;317.08;-4;-20.33;-4.53;327.3;16.20;76381;2833.557;-1757.362;1;318;-110;-101.6;43.1;43.4;14;14.4;25.3;0.0;
02/03/2025 21:30:20;100;0;320.01;-4;-20.23;-4.47;329.6;16.20;76382;2833.559;-1757.364;1;318;-110;-101.6;43.1;43.4;14;14.0;25.3;0.0;
02/03/2025 21:30:40;100;0;322.37;-4;-20.24;-4.53;332.3;16.10;76376;2833.562;-1757.367;1;318;-110;-101.6;43.1;43.4;14;14.4;25.3;0.0;
02/03/2025 21:31:00;100;0;323.80;-4;-20.12;-4.50;334.7;16.10;76367;2833.564;-1757.369;1;318;-110;-101.6;43.1;43.4;16;15.8;25.2;0.0;
02/03/2025 21:31:20;100;0;326.13;-4;-20.38;-3.62;337.2;16.10;76365;2833.567;-1757.371;1;318;-110;-101.6;43.1;43.4;16;16.2;25.3;0.0;
02/03/2025 21:31:40;100;0;327.47;-4;-20.36;-3.61;339.6;16.10;76358;2833.570;-1757.372;1;318;-110;-101.6;43.1;43.4;18;18.1;25.3;0.0;
02/03/2025 21:32:00;100;0;328.02;-4;-20.43;-2.51;342.2;16.00;76360;2833.572;-1757.374;1;318;-110;-101.6;43.1;43.4;18;18.1;25.3;0.0;
02/03/2025 21:32:20;100;0;328.01;-4;-20.36;-2.39;344.7;16.00;76363;2833.575;-1757.376;1;318;-110;-101.6;43.1;43.4;18;18.5;25.2;0.0;
02/03/2025 21:32:40;100;0;328.21;-4;-20.27;-2.48;347.2;16.00;76356;2833.578;-1757.378;1;318;-110;-101.6;43.1;43.4;18;18.1;25.3;0.0;
02/03/2025 21:33:00;100;0;328.89;-4;-20.41;-2.47;349.7;16.00;76343;2833.581;-1757.380;1;318;-110;-101.6;43.1;43.4;20;19.9;25.2;0.0;
02/03/2025 21:33:20;100;0;329.54;-4;-20.56;-1.59;352.3;15.90;76339;2833.583;-1757.382;1;318;-110;-103.2;43.1;43.4;20;20.3;25.2;0.0;
02/03/2025 21:33:40;100;0;329.16;-4;-20.53;-1.59;354.8;15.90;76329;2833.586;-1757.383;1;318;-110;-103.2;43.1;43.4;20;19.9;25.2;0.0;
02/03/2025 21:34:00;100;0;325.94;-4;-20.54;-1.57;357.4;15.90;76326;2833.589;-1757.385;1;318;-110;-101.6;43.1;43.4;17;17.1;25.2;0.0;
02/03/2025 21:34:20;100;0;322.72;-4;-20.43;-3.19;359.9;15.80;76325;2833.591;-1757.388;1;318;-110;-101.6;43.1;43.4;17;17.1;25.2;0.0;
02/03/2025 21:34:40;100;0;320.12;-4;-20.17;-3.21;362.4;15.80;76328;2833.594;-1757.390;1;318;-110;-101.6;43.1;43.4;15;14.9;25.3;0.0;
02/03/2025 21:35:00;100;0;319.30;-4;-20.04;-4.44;364.7;15.80;76316;2833.596;-1757.392;1;318;-110;-101.6;43.1;43.4;15;14.4;25.3;0.0;
02/03/2025 21:35:20;100;0;323.65;-4;-20.13;-4.42;367.2;15.80;76305;2833.599;-1757.394;1;318;-110;-101.6;43.1;43.4;15;14.4;25.3;0.0;
02/03/2025 21:35:40;100;0;325.70;-4;-20.02;-4.47;369.6;15.70;76301;2833.601;-1757.396;1;318;-110;-101.6;43.1;43.4;17;17.1;25.3;0.0;
02/03/2025 21:36:00;100;0;326.57;-4;-20.14;-3.01;371.9;15.70;76299;2833.604;-1757.398;1;318;-110;-101.6;43.1;43.4;17;17.1;25.3;0.0;
02/03/2025 21:36:20;100;0;327.45;-4;-20.14;-2.99;374.4;15.70;76290;2833.607;-1757.400;1;318;-110;-104.8;43.1;43.4;19;19.0;25.2;0.0;
02/03/2025 21:36:40;100;0;326.98;-4;-20.18;-1.90;376.7;15.60;76282;2833.609;-1757.402;1;318;-110;-101.6;43.1;43.4;19;19.4;25.3;0.0;
02/03/2025 21:37:00;100;0;325.91;-4;-20.15;-1.90;379.1;15.60;76284;2833.612;-1757.403;1;318;-110;-101.6;43.1;43.4;19;19.4;25.2;0.0;
02/03/2025 21:37:20;100;0;325.63;-4;-20.25;-1.93;381.6;15.60;76294;2833.614;-1757.405;1;318;-110;-101.6;43.1;43.4;17;17.1;25.3;0.0;
02/03/2025 21:37:40;100;0;325.20;-4;-20.65;-3.28;383.9;15.60;76278;2833.617;-1757.407;1;318;-110;-103.2;43.1;43.6;17;17.1;25.2;0.0;
02/03/2025 21:38:00;100;0;322.46;-4;-20.74;-3.34;386.4;15.50;76271;2833.619;-1757.409;1;318;-110;-101.6;43.1;43.4;17;17.1;25.3;0.0;
02/03/2025 21:38:20;100;0;322.41;-4;-20.48;-3.17;388.8;15.50;76264;2833.622;-1757.411;1;318;-110;-101.6;43.1;43.3;17;17.1;25.3;0.0;
02/03/2025 21:38:40;100;0;320.52;-4;-19.61;-3.48;391.3;15.50;76262;2833.624;-1757.414;1;318;-110;-101.6;43.1;43.4;17;17.1;25.3;0.0;
02/03/2025 21:39:00;100;0;318.54;-4;-20.13;-3.14;393.8;15.50;76260;2833.627;-1757.416;1;318;-110;-101.6;43.1;43.4;15;14.9;25.3;0.0;
02/03/2025 21:39:20;100;0;317.48;-4;-20.21;-4.49;396.2;15.40;76256;2833.629;-1757.418;1;318;-110;-101.6;43.1;43.4;15;14.4;25.2;0.0;
02/03/2025 21:39:40;100;0;316.67;-4;-20.05;-4.43;398.6;15.40;76249;2833.631;-1757.421;1;318;-110;-101.6;43.1;43.4;15;14.4;25.2;0.0;
02/03/2025 21:40:00;100;0;314.56;-4;-19.99;-4.51;401.0;15.40;76247;2833.633;-1757.423;1;318;-110;-101.6;43.1;43.4;15;14.4;25.2;0.0;
02/03/2025 21:40:20;100;0;312.86;-4;-20.08;-4.51;403.2;15.40;76239;2833.635;-1757.425;1;318;-110;-104.8;43.1;43.4;15;14.4;25.3;0.0;
02/03/2025 21:40:40;100;0;310.88;-4;-19.97;-4.52;405.5;15.30;76243;2833.637;-1757.428;1;318;-110;-101.6;43.1;43.3;15;14.4;25.2;0.0;
02/03/2025 21:41:00;100;0;307.11;-4;-20.02;-4.50;408.0;15.30;76231;2833.639;-1757.431;1;318;-110;-101.6;43.1;43.4;12;12.2;25.2;0.0;
02/03/2025 21:41:20;100;0;306.76;-4;-20.24;-5.67;410.3;15.30;76234;2833.641;-1757.433;1;318;-110;-101.6;43.1;43.4;12;12.2;25.2;0.0;
02/03/2025 21:41:40;100;0;305.50;-4;-19.92;-5.66;412.6;15.30;76224;2833.643;-1757.436;1;318;-110;-101.6;43.1;43.4;12;12.2;25.2;0.0;
02/03/2025 21:42:00;100;0;304.73;-4;-19.78;-5.68;414.9;15.20;76211;2833.644;-1757.439;1;318;-110;-101.6;43.1;43.4;10;9.9;25.3;0.0;
02/03/2025 21:42:20;100;0;303.88;-4;-19.77;-6.86;417.3;15.20;76218;2833.646;-1757.442;1;318;-110;-100.0;43.1;43.4;10;9.5;25.3;0.0;
02/03/2025 21:42:40;100;0;301.75;-4;-19.74;-6.89;419.7;15.20;76200;2833.648;-1757.444;1;318;-110;-101.6;43.1;43.4;6;5.9;25.2;0.0;
02/03/2025 21:43:00;100;0;301.01;-4;-19.64;-8.74;422.0;15.20;76184;2833.649;-1757.447;1;318;-110;-101.6;43.1;43.4;6;5.9;25.3;0.0;
02/03/2025 21:43:20;100;0;302.73;-4;-19.16;-8.78;424.3;15.20;76188;2833.651;-1757.450;1;318;-110;-101.6;43.1;43.4;6;5.9;25.3;0.0;
02/03/2025 21:43:40;100;0;305.83;-4;-19.47;-8.78;426.6;15.10;76178;2833.653;-1757.453;1;318;-110;-101.6;43.1;43.4;11;10.8;25.3;0.0;
02/03/2025 21:44:00;100;0;309.85;-4;-19.50;-6.10;428.9;15.10;76178;2833.655;-1757.455;1;318;-110;-100.0;43.1;43.4;14;14.0;25.2;0.0;
02/03/2025 21:44:20;100;0;313.03;-4;-19.79;-4.54;431.2;15.10;76167;2833.657;-1757.458;1;318;-110;-101.6;43.1;43.4;14;14.4;25.3;0.0;
02/03/2025 21:44:40;100;0;314.46;-4;-20.07;-4.38;433.5;15.00;76160;2833.659;-1757.460;1;318;-110;-101.6;43.1;43.4;14;14.4;25.3;0.0;
02/03/2025 21:45:00;100;0;315.96;-4;-20.21;-4.55;435.8;15.00;76164;2833.661;-1757.463;1;318;-110;-101.6;43.1;43.4;14;14.4;25.2;0.0;
02/03/2025 21:45:20;100;0;317.51;-4;-19.30;-4.38;438.2;15.00;76168;2833.663;-1757.465;1;318;-110;-101.6;43.1;43.4;14;14.4;25.2;0.0;
02/03/2025 21:45:40;100;0;317.75;-4;-19.90;-4.42;440.6;15.00;76162;2833.666;-1757.467;1;318;-110;-101.6;43.1;43.4;14;14.4;25.2;0.0;
02/03/2025 21:46:00;100;0;319.09;-4;-20.13;-4.78;442.9;15.00;76164;2833.668;-1757.469;1;318;-110;-101.6;43.1;43.4;14;14.4;25.3;0.0;
02/03/2025 21:46:20;100;0;320.69;-4;-18.96;-4.30;445.4;14.90;76151;2833.671;-1757.472;1;318;-110;-101.6;43.4;43.4;14;14.4;25.2;0.0;
02/03/2025 21:46:40;100;0;322.04;-4;-19.77;-4.52;447.8;14.90;76149;2833.673;-1757.474;1;318;-110;-101.6;43.4;43.4;14;14.4;25.2;0.0;
02/03/2025 21:47:00;100;0;321.39;-4;-19.55;-4.50;450.0;14.90;76150;2833.675;-1757.476;1;318;-110;-101.6;43.4;43.4;14;14.4;25.2;0.0;
02/03/2025 21:47:20;100;0;320.21;-4;-19.71;-4.45;452.4;14.90;76144;2833.678;-1757.478;1;318;-110;-101.6;43.4;43.4;14;14.4;25.2;0.0;
02/03/2025 21:47:40;100;0;319.97;-4;-19.70;-4.45;454.8;14.80;76128;2833.680;-1757.480;1;318;-110;-100.0;43.4;43.4;14;14.4;25.2;0.0;
02/03/2025 21:48:00;100;0;318.99;-4;-19.56;-4.49;457.2;14.80;76127;2833.682;-1757.482;1;318;-110;-100.0;43.4;43.4;14;14.4;25.3;0.0;
02/03/2025 21:48:20;100;0;317.92;-4;-19.85;-4.46;459.7;14.80;76126;2833.685;-1757.485;1;318;-110;-101.6;43.4;43.4;14;14.4;25.3;0.0;
02/03/2025 21:48:40;100;0;318.16;-4;-19.91;-4.42;462.0;14.80;76135;2833.687;-1757.487;1;318;-110;-103.2;43.4;43.4;14;14.4;25.2;0.0;
02/03/2025 21:49:00;100;0;317.47;-4;-19.52;-4.38;464.5;14.70;76122;2833.690;-1757.489;1;318;-110;-100.0;43.4;43.4;14;14.4;25.3;0.0;
02/03/2025 21:49:21;100;0;318.16;-4;-20.77;-4.60;466.9;14.70;76118;2833.692;-1757.492;1;318;-110;-103.2;43.4;43.4;14;14.4;25.3;0.0;
02/03/2025 21:49:41;100;0;319.91;-4;-20.59;-4.39;469.5;14.70;76103;2833.694;-1757.494;1;318;-110;-103.2;43.4;43.4;14;14.4;25.3;0.0;
02/03/2025 21:50:01;100;0;322.03;-4;-19.96;-4.29;472.3;14.70;76103;2833.697;-1757.496;1;318;-110;-101.6;43.4;43.4;16;15.8;25.3;0.0;
02/03/2025 21:50:21;100;0;322.75;-4;-19.71;-3.45;475.0;14.70;76104;2833.700;-1757.499;1;318;-110;-101.6;43.4;43.4;16;16.2;25.2;0.0;
02/03/2025 21:50:41;100;0;324.64;-4;-19.79;-3.54;477.7;14.60;76092;2833.703;-1757.501;1;318;-110;-101.6;43.4;43.4;16;16.2;25.2;0.0;
02/03/2025 21:51:01;100;0;324.82;-4;-19.93;-3.58;480.1;14.60;76095;2833.705;-1757.503;1;318;-110;-101.6;43.4;43.4;16;16.2;25.2;0.0;
02/03/2025 21:51:21;100;0;325.32;-4;-20.09;-3.61;482.8;14.60;76096;2833.708;-1757.505;1;318;-110;-101.6;43.4;43.4;16;16.2;25.2;0.0;
02/03/2025 21:51:41;100;0;326.92;-4;-19.84;-3.54;485.4;14.60;76089;2833.711;-1757.507;1;318;-110;-101.6;43.4;43.3;18;18.1;25.2;0.0;
02/03/2025 21:52:01;100;0;327.40;-4;-19.70;-2.45;488.3;14.50;76088;2833.714;-1757.509;1;318;-110;-101.6;43.4;43.4;18;18.5;25.3;0.0;
02/03/2025 21:52:21;100;0;326.93;-4;-19.47;-2.47;490.8;14.50;76075;2833.717;-1757.511;1;318;-110;-101.6;43.4;43.4;18;18.5;25.2;0.0;
02/03/2025 21:52:41;100;0;327.09;-4;-19.46;-2.47;493.4;14.50;76068;2833.720;-1757.513;1;318;-110;-101.6;43.4;43.4;18;18.5;25.3;0.0;
02/03/2025 21:53:01;100;0;327.93;-4;-19.64;-2.47;496.1;14.50;76071;2833.723;-1757.515;1;318;-110;-101.6;43.4;43.4;18;18.5;25.3;0.0;
02/03/2025 21:53:21;100;0;327.19;-4;-19.81;-2.45;498.9;14.50;76069;2833.726;-1757.517;1;318;-110;-101.6;43.4;43.6;18;18.5;25.3;0.0;
02/03/2025 21:53:41;100;0;326.69;-4;-19.94;-2.44;501.5;14.40;76063;2833.729;-1757.520;1;318;-110;-101.6;43.4;43.4;18;18.5;25.2;0.0;
02/03/2025 21:54:01;100;0;326.14;-4;-20.24;-2.43;504.4;14.40;76060;2833.732;-1757.522;1;318;-110;-101.6;43.4;43.4;18;18.5;25.2;0.0;
02/03/2025 21:54:21;100;0;326.86;-4;-20.21;-2.43;507.3;14.40;76050;2833.735;-1757.524;1;318;-110;-101.6;43.4;43.4;18;18.5;25.3;0.0;
02/03/2025 21:54:41;100;0;325.22;-4;-20.11;-2.42;510.3;14.40;76053;2833.738;-1757.527;1;318;-110;-103.2;43.4;43.4;18;18.5;25.3;0.0;
02/03/2025 21:55:01;100;0;324.71;-4;-20.56;-2.45;513.2;14.40;76055;2833.741;-1757.529;1;318;-110;-103.2;43.4;43.4;18;18.5;25.3;0.0;
02/03/2025 21:55:21;100;0;322.34;-4;-20.36;-2.43;516.5;14.30;76034;2833.744;-1757.532;1;318;-110;-103.2;43.4;43.4;16;15.8;25.2;0.0;
02/03/2025 21:55:41;100;0;318.65;-4;-19.73;-3.93;519.6;14.30;76036;2833.747;-1757.535;1;318;-110;-101.6;43.4;43.4;16;15.3;25.3;0.0;
02/03/2025 21:56:01;100;0;314.47;-4;-19.75;-4.04;522.6;14.30;76028;2833.750;-1757.538;1;318;-110;-101.6;43.4;43.4;16;15.3;25.2;0.0;
02/03/2025 21:56:21;100;0;314.57;-4;-19.80;-4.00;525.6;14.30;76015;2833.753;-1757.541;1;318;-110;-101.6;43.4;43.4;16;15.3;25.2;0.0;
02/03/2025 21:56:41;100;0;315.45;-4;-19.56;-3.96;528.6;14.20;76015;2833.756;-1757.544;1;318;-110;-101.6;43.4;43.4;16;15.8;25.3;0.0;
02/03/2025 21:57:01;100;0;316.17;-4;-19.23;-3.97;531.5;14.20;76012;2833.759;-1757.547;1;318;-110;-101.6;43.4;43.4;16;15.3;25.3;0.0;
02/03/2025 21:57:21;100;0;317.90;-4;-19.21;-4.08;534.4;14.20;76007;2833.761;-1757.550;1;318;-110;-101.6;43.4;43.4;16;15.8;25.3;0.0;
02/03/2025 21:57:41;100;0;320.88;-4;-19.05;-4.05;537.3;14.20;76008;2833.764;-1757.552;1;318;-110;-101.6;43.4;43.4;16;15.3;25.2;0.0;
02/03/2025 21:58:01;100;0;321.05;-4;-19.13;-4.03;540.1;14.20;75988;2833.767;-1757.555;1;318;-110;-101.6;43.4;43.4;16;15.3;25.2;0.0;
02/03/2025 21:58:21;100;0;318.51;-4;-19.14;-4.03;542.7;14.10;75991;2833.770;-1757.558;1;318;-110;-101.6;43.4;43.4;16;15.3;25.2;0.0;
02/03/2025 21:58:41;100;0;315.09;-4;-19.00;-4.03;545.4;14.10;75979;2833.773;-1757.560;1;318;-110;-101.6;43.8;43.7;16;15.3;25.2;0.0;
02/03/2025 21:59:01;100;0;310.47;-4;-19.88;-4.03;548.3;14.10;75978;2833.775;-1757.563;1;318;-110;-101.6;43.8;44.0;16;15.3;25.3;0.0;
02/03/2025 21:59:21;100;0;308.21;-4;-20.03;-3.99;550.9;14.10;75976;2833.777;-1757.566;1;318;-110;-101.6;43.8;43.9;13;13.1;25.2;0.0;
02/03/2025 21:59:41;100;0;306.99;-4;-20.21;-5.44;553.7;14.00;75969;2833.779;-1757.570;1;318;-110;-101.6;43.8;44.0;13;12.6;25.2;0.0;
02/03/2025 22:00:01;100;0;308.17;-4;-20.16;-5.39;556.6;14.00;75965;2833.782;-1757.573;1;318;-110;-103.2;43.8;44.0;13;12.6;25.3;0.0;
02/03/2025 22:00:21;100;0;309.42;-4;-20.17;-5.46;559.3;14.00;75950;2833.784;-1757.576;1;318;-110;-100.0;43.8;44.0;13;12.6;25.2;0.0;
02/03/2025 22:00:41;100;0;309.74;-4;-20.17;-5.49;562.1;13.90;75951;2833.786;-1757.579;1;318;-110;-101.6;43.8;44.0;13;12.6;25.2;0.0;
02/03/2025 22:01:01;100;0;309.65;-4;-20.20;-5.49;564.7;13.90;75946;2833.788;-1757.582;1;318;-110;-101.6;43.8;43.9;13;12.6;25.2;0.0;
02/03/2025 22:01:21;100;0;308.40;-4;-20.28;-5.48;567.3;13.90;75955;2833.790;-1757.585;1;318;-110;-100.0;43.8;43.9;13;12.6;25.3;0.0;
02/03/2025 22:01:41;100;0;306.38;-4;-20.07;-5.48;570.0;13.90;75945;2833.793;-1757.588;1;318;-110;-101.6;43.8;44.0;13;12.6;25.2;0.0;
02/03/2025 22:02:01;100;0;306.70;-4;-20.49;-5.46;572.6;13.90;75932;2833.795;-1757.591;1;318;-110;-101.6;43.8;44.0;13;12.6;25.3;0.0;
02/03/2025 22:02:21;100;0;307.46;-4;-20.34;-5.46;575.3;13.90;75930;2833.797;-1757.594;1;318;-110;-100.0;43.8;43.9;13;12.6;25.2;0.0;
02/03/2025 22:02:41;100;0;304.22;-4;-20.03;-5.47;577.9;13.80;75934;2833.799;-1757.597;1;318;-110;-101.6;43.8;44.0;9;9.0;25.3;0.0;
02/03/2025 22:03:01;100;0;306.14;-4;-19.86;-7.38;580.4;13.80;75926;2833.801;-1757.600;1;318;-110;-103.2;43.8;44.0;11;10.8;25.2;0.0;
02/03/2025 22:03:21;100;0;308.16;-4;-20.56;-6.04;583.0;13.80;75922;2833.803;-1757.603;1;318;-110;-101.6;43.8;44.0;13;13.1;25.3;0.0;
02/03/2025 22:03:41;100;0;306.98;-4;-20.91;-5.09;585.5;13.80;75924;2833.804;-1757.605;1;318;-110;-101.6;43.8;44.0;13;13.1;25.3;0.0;
02/03/2025 22:04:01;100;0;306.14;-4;-20.20;-5.19;588.1;13.70;75922;2833.806;-1757.608;1;318;-110;-100.0;43.8;44.0;11;10.4;25.2;0.0;
02/03/2025 22:04:21;100;0;308.86;-4;-20.12;-6.73;590.5;13.70;75909;2833.808;-1757.611;1;318;-110;-101.6;43.8;44.0;13;13.1;25.3;0.0;
02/03/2025 22:04:41;100;0;311.59;-4;-19.57;-4.93;592.9;13.70;75916;2833.810;-1757.614;1;318;-110;-101.6;43.8;44.0;15;14.9;25.2;0.0;
02/03/2025 22:05:01;100;0;310.61;-4;-20.54;-4.25;595.3;13.70;75911;2833.812;-1757.616;1;318;-110;-101.6;43.8;44.0;15;15.3;25.3;0.0;
02/03/2025 22:05:21;100;0;311.63;-4;-20.53;-4.16;597.7;13.70;75900;2833.814;-1757.619;1;318;-110;-101.6;43.8;44.0;15;14.9;25.2;0.0;
02/03/2025 22:05:41;100;0;311.26;-4;-20.59;-4.12;600.1;13.70;75906;2833.816;-1757.621;1;318;-110;-101.6;43.8;43.9;15;15.3;25.3;0.0;
02/03/2025 22:06:01;100;0;310.38;-4;-20.69;-4.09;602.5;13.60;75913;2833.818;-1757.624;1;318;-110;-101.6;43.8;44.0;15;15.3;25.2;0.0;
02/03/2025 22:06:21;100;0;310.30;-4;-20.51;-4.12;604.9;13.60;75888;2833.820;-1757.626;1;318;-110;-101.6;43.8;44.0;15;15.3;25.2;0.0;
02/03/2025 22:06:41;100;0;312.52;-4;-20.41;-4.14;607.3;13.60;75897;2833.822;-1757.629;1;318;-110;-101.6;43.8;44.0;15;14.9;25.2;0.0;
02/03/2025 22:07:01;100;0;317.56;-4;-19.76;-4.12;609.7;13.60;75905;2833.825;-1757.631;1;318;-110;-101.6;43.8;44.0;15;15.3;25.3;0.0;
02/03/2025 22:07:21;100;0;320.25;-4;-20.46;-4.11;611.8;13.60;75889;2833.827;-1757.633;1;318;-110;-101.6;43.8;44.0;15;15.3;25.3;0.0;
02/03/2025 22:07:41;100;0;321.16;-4;-20.58;-4.17;613.9;13.50;75874;2833.829;-1757.635;1;318;-110;-101.6;43.8;44.0;15;15.3;25.2;0.0;
02/03/2025 22:08:01;100;0;325.12;-4;-20.49;-4.20;616.1;13.50;75884;2833.831;-1757.637;1;318;-110;-101.6;43.8;44.0;17;17.1;25.2;0.0;
02/03/2025 22:08:21;100;0;328.06;-4;-20.69;-3.07;618.3;13.50;75869;2833.834;-1757.638;1;318;-110;-101.6;43.8;43.9;19;19.0;25.3;0.0;
02/03/2025 22:08:41;100;0;329.23;-4;-20.77;-2.02;620.5;13.50;75867;2833.836;-1757.640;1;318;-110;-101.6;43.8;44.0;19;19.4;25.2;0.0;
02/03/2025 22:09:01;100;0;330.73;-4;-20.43;-1.98;622.8;13.40;75871;2833.839;-1757.641;1;318;-110;-100.0;43.8;44.0;22;22.1;25.3;0.0;
02/03/2025 22:09:21;100;0;330.58;-4;-20.49;-0.47;625.1;13.40;75852;2833.841;-1757.643;1;318;-110;-104.8;43.8;44.0;22;22.6;25.3;0.0;
02/03/2025 22:09:41;100;0;330.03;-4;-20.53;-0.44;627.1;13.40;75850;2833.843;-1757.644;1;318;-110;-101.6;43.8;44.0;22;22.6;25.3;0.0;
02/03/2025 22:10:01;100;0;330.55;-4;-20.68;-0.47;629.4;13.40;75848;2833.846;-1757.646;1;318;-110;-101.6;43.8;44.0;22;22.6;25.2;0.0;
02/03/2025 22:10:21;100;0;331.57;-4;-20.85;-0.46;631.6;13.40;75851;2833.848;-1757.647;1;318;-110;-101.6;43.8;44.0;24;24.4;25.3;0.0;
02/03/2025 22:10:41;100;0;333.01;-4;-20.82;0.56;633.9;13.30;75845;2833.851;-1757.649;1;318;-110;-101.6;43.8;44.0;26;26.2;25.3;0.0;
02/03/2025 22:11:01;100;0;331.65;-4;-21.43;1.66;636.1;13.30;75849;2833.853;-1757.650;1;318;-110;-103.2;43.8;44.0;24;23.9;25.3;0.0;
02/03/2025 22:11:21;100;0;328.18;-4;-21.24;0.20;638.5;13.30;75832;2833.856;-1757.652;1;318;-110;-101.6;43.8;44.0;20;19.9;25.2;0.0;
02/03/2025 22:11:41;100;0;326.83;-4;-20.27;-1.94;641.0;13.30;75833;2833.858;-1757.654;1;318;-110;-101.6;43.8;44.0;18;18.1;25.3;0.0;
02/03/2025 22:12:01;100;0;323.80;-4;-20.31;-2.90;643.1;13.30;75828;2833.861;-1757.655;1;318;-110;-101.6;43.8;44.0;18;17.6;25.3;0.0;
02/03/2025 22:12:21;100;0;318.70;-4;-20.24;-2.88;645.5;13.30;75826;2833.863;-1757.658;1;318;-110;-101.6;43.8;44.0;16;15.3;25.3;0.0;
02/03/2025 22:12:41;100;0;315.42;-4;-19.99;-4.07;647.7;13.20;75814;2833.865;-1757.660;1;318;-110;-101.6;43.8;44.0;16;15.3;25.2;0.0;
02/03/2025 22:13:01;100;0;311.84;-4;-20.31;-4.08;649.9;13.20;75802;2833.867;-1757.662;1;318;-110;-103.2;43.8;44.0;16;15.3;25.2;0.0;
02/03/2025 22:13:21;100;0;311.67;-4;-20.30;-4.08;652.1;13.20;75799;2833.869;-1757.665;1;318;-110;-101.6;43.8;44.0;16;15.3;25.2;0.0;
02/03/2025 22:13:41;100;0;312.58;-4;-20.48;-4.08;654.5;13.20;75801;2833.871;-1757.667;1;318;-110;-101.6;43.8;44.0;16;15.3;25.2;0.0;
02/03/2025 22:14:01;100;0;315.65;-4;-20.34;-4.01;657.0;13.20;75802;2833.873;-1757.670;1;318;-110;-101.6;43.8;44.0;16;15.3;25.3;0.0;
02/03/2025 22:14:21;100;0;316.73;-4;-20.41;-4.04;659.6;13.10;75792;2833.876;-1757.672;1;318;-110;-101.6;43.8;44.0;16;15.3;25.3;0.0;
02/03/2025 22:14:41;100;0;314.79;-4;-20.26;-4.11;662.0;13.10;75797;2833.878;-1757.675;1;318;-110;-101.6;43.8;44.0;16;15.3;25.3;0.0;
02/03/2025 22:15:01;100;0;310.91;-4;-19.60;-4.14;664.5;13.10;75780;2833.880;-1757.677;1;318;-110;-101.6;43.8;44.0;16;15.3;25.2;0.0;
02/03/2025 22:15:21;100;0;313.35;-4;-19.89;-3.97;666.7;13.10;75780;2833.882;-1757.679;1;318;-110;-101.6;43.8;44.2;16;15.3;25.2;0.0;
02/03/2025 22:15:41;100;0;312.88;-4;-19.42;-4.11;669.0;13.00;75773;2833.884;-1757.682;1;318;-110;-101.6;43.8;44.0;16;15.3;25.3;0.0;
02/03/2025 22:16:01;100;0;311.14;-4;-20.03;-3.88;671.2;13.00;75765;2833.886;-1757.684;1;318;-110;-101.6;43.8;44.0;16;15.8;25.2;0.0;
02/03/2025 22:16:21;100;0;313.88;-4;-19.59;-4.12;673.5;13.00;75763;2833.888;-1757.687;1;318;-110;-101.6;43.8;44.0;16;15.8;25.2;0.0;
02/03/2025 22:16:41;100;0;316.21;-4;-19.49;-4.08;675.7;13.00;75758;2833.890;-1757.689;1;318;-110;-101.6;43.8;44.0;16;15.3;25.2;0.0;
02/03/2025 22:17:01;100;0;315.46;-4;-19.27;-4.21;677.7;13.00;75747;2833.892;-1757.691;1;318;-110;-101.6;43.8;44.0;16;15.3;25.2;0.0;
02/03/2025 22:17:21;100;0;320.17;-4;-19.70;-4.28;679.8;13.00;75750;2833.894;-1757.693;1;318;-110;-101.6;43.8;44.0;16;15.3;25.2;0.0;
02/03/2025 22:17:41;100;0;323.74;-4;-20.30;-4.34;681.9;12.90;75736;2833.896;-1757.695;1;318;-110;-100.0;43.8;44.0;16;15.3;25.2;0.0;
02/03/2025 22:18:01;100;0;325.82;-4;-19.37;-4.19;684.3;12.90;75728;2833.899;-1757.697;1;318;-110;-101.6;43.8;44.0;18;18.1;25.3;0.0;
02/03/2025 22:18:21;100;0;325.54;-4;-19.30;-2.51;686.3;12.90;75710;2833.901;-1757.698;1;318;-110;-101.6;43.8;44.0;18;18.1;25.2;0.0;
02/03/2025 22:18:41;100;0;324.22;-4;-19.55;-2.49;688.5;12.90;75711;2833.904;-1757.700;1;318;-110;-101.6;43.8;44.0;18;18.5;25.2;0.0;
02/03/2025 22:19:01;100;0;323.26;-4;-19.90;-2.46;690.6;12.80;75696;2833.906;-1757.702;1;318;-110;-101.6;43.8;44.0;16;15.8;25.2;0.0;
02/03/2025 22:19:21;100;0;321.67;-4;-19.32;-4.03;692.9;12.80;75695;2833.908;-1757.704;1;318;-110;-101.6;43.8;44.0;16;15.3;25.2;0.0;
02/03/2025 22:19:41;100;0;320.91;-4;-19.30;-4.08;695.2;12.80;75689;2833.911;-1757.706;1;318;-110;-101.6;43.8;44.0;16;15.3;25.3;0.0;
02/03/2025 22:20:01;100;0;320.98;-4;-19.67;-4.07;697.0;12.80;75683;2833.913;-1757.708;1;318;-130;-130.6;43.8;44.0;16;15.3;25.2;0.0;
02/03/2025 22:20:21;100;0;321.22;-4;-19.29;-3.96;699.4;12.70;75761;2833.915;-1757.710;1;318;-130;-132.3;43.8;44.0;16;15.8;25.2;0.0;
02/03/2025 22:20:41;100;0;321.16;-4;-19.36;-3.89;701.9;12.70;75753;2833.918;-1757.712;1;318;-130;-132.3;43.8;43.9;16;15.3;25.2;0.0;
02/03/2025 22:21:01;100;0;320.03;-4;-18.83;-3.84;704.3;12.70;75752;2833.920;-1757.715;1;318;-130;-132.3;44.1;44.0;16;15.8;25.3;0.0;
02/03/2025 22:21:21;100;0;318.58;-4;-19.92;-3.86;706.5;12.70;75746;2833.922;-1757.717;1;318;-130;-132.3;44.1;44.0;16;15.3;25.2;0.0;
02/03/2025 22:21:41;100;0;316.55;-4;-19.80;-3.91;709.1;12.70;75742;2833.925;-1757.719;1;318;-130;-133.9;44.1;44.0;16;15.3;25.3;0.0;
02/03/2025 22:22:01;100;0;316.65;-4;-18.68;-3.92;711.8;12.60;75739;2833.927;-1757.722;1;318;-130;-132.3;44.5;44.6;16;15.8;25.2;0.0;
02/03/2025 22:22:21;100;0;316.45;-4;-20.26;-4.04;714.3;12.60;75730;2833.930;-1757.724;1;318;-130;-132.3;44.5;44.6;16;15.8;25.3;0.0;
02/03/2025 22:22:41;100;0;316.33;-4;-20.99;-3.66;716.9;12.60;75731;2833.932;-1757.727;1;318;-130;-132.3;44.5;44.8;16;15.8;25.3;0.0;
02/03/2025 22:23:01;100;0;316.54;-4;-21.36;-3.83;719.6;12.60;75737;2833.935;-1757.729;1;318;-130;-132.3;44.5;44.6;16;15.3;25.3;0.0;
02/03/2025 22:23:21;100;0;314.55;-4;-20.96;-3.77;722.6;12.60;75722;2833.937;-1757.732;1;318;-130;-132.3;44.5;44.6;16;15.3;25.3;0.0;
02/03/2025 22:23:41;100;0;313.40;-4;-20.90;-3.81;725.3;12.50;75728;2833.940;-1757.735;1;318;-130;-133.9;44.5;44.6;16;15.3;25.3;0.0;
02/03/2025 22:24:01;100;0;311.91;-4;-20.97;-3.85;728.1;12.50;75716;2833.942;-1757.738;1;318;-130;-132.3;44.5;44.6;16;15.3;25.3;0.0;
02/03/2025 22:24:22;100;0;310.21;-4;-20.87;-3.84;730.8;12.50;75716;2833.944;-1757.741;1;318;-130;-132.3;44.5;44.8;14;14.0;25.2;0.0;
02/03/2025 22:24:42;100;0;308.57;-4;-21.07;-4.60;733.6;12.50;75713;2833.946;-1757.744;1;318;-130;-132.3;44.5;44.8;14;14.0;25.2;0.0;
02/03/2025 22:25:02;100;0;307.74;-4;-20.96;-4.50;736.3;12.50;75707;2833.948;-1757.747;1;318;-130;-132.3;44.5;44.8;14;14.0;25.3;0.0;
02/03/2025 22:25:22;100;0;304.49;-4;-20.86;-4.47;739.1;12.40;75706;2833.950;-1757.750;1;318;-130;-132.3;44.5;44.6;10;9.9;25.3;0.0;
02/03/2025 22:25:42;100;0;305.33;-4;-20.59;-6.62;741.9;12.40;75699;2833.952;-1757.753;1;318;-130;-132.3;44.5;44.8;10;9.9;25.3;0.0;
02/03/2025 22:26:02;100;0;305.82;-4;-20.98;-6.72;744.6;12.40;75705;2833.954;-1757.756;1;318;-130;-132.3;44.5;44.8;10;9.9;25.3;0.0;
02/03/2025 22:26:22;100;0;305.78;-4;-20.79;-6.63;747.6;12.40;75697;2833.956;-1757.759;1;318;-130;-133.9;44.5;44.8;10;9.9;25.3;0.0;
02/03/2025 22:26:42;100;0;304.86;-4;-21.09;-6.63;750.4;12.40;75696;2833.959;-1757.763;1;318;-130;-132.3;44.5;44.6;10;9.9;25.2;0.0;
02/03/2025 22:27:02;100;0;303.02;-4;-21.50;-6.63;753.1;12.30;75683;2833.960;-1757.766;1;318;-130;-132.3;44.5;44.6;8;8.1;25.2;0.0;
02/03/2025 22:27:22;100;0;300.33;-4;-21.18;-7.68;756.1;12.30;75684;2833.962;-1757.769;1;318;-130;-132.3;44.5;44.8;4;4.1;25.3;0.0;
02/03/2025 22:27:42;100;0;303.57;-4;-20.77;-9.61;758.9;12.30;75673;2833.964;-1757.772;1;318;-130;-132.3;44.5;44.6;8;8.1;25.2;0.0;
02/03/2025 22:28:02;100;0;307.70;-4;-20.45;-7.23;761.8;12.30;75658;2833.966;-1757.776;1;318;-130;-133.9;44.5;44.8;13;13.1;25.3;0.0;
02/03/2025 22:28:22;100;0;310.05;-4;-20.62;-4.94;764.6;12.30;75656;2833.969;-1757.779;1;318;-130;-132.3;44.5;44.8;13;13.5;25.2;0.0;
02/03/2025 22:28:42;100;0;311.32;-4;-20.70;-4.86;767.4;12.20;75652;2833.971;-1757.782;1;318;-130;-130.6;44.5;44.8;13;13.5;25.2;0.0;
02/03/2025 22:29:02;100;0;312.11;-4;-20.79;-4.82;770.3;12.20;75638;2833.973;-1757.785;1;318;-130;-132.3;44.5;44.8;15;15.3;25.2;0.0;
02/03/2025 22:29:22;100;0;313.46;-4;-20.84;-3.82;773.1;12.20;75647;2833.976;-1757.787;1;318;-130;-132.3;44.5;44.8;15;15.8;25.3;0.0;
02/03/2025 22:29:42;100;0;314.00;-4;-20.91;-3.79;776.0;12.20;75631;2833.978;-1757.790;1;318;-130;-132.3;44.5;44.8;15;15.3;25.2;0.0;
02/03/2025 22:30:02;100;0;314.83;-4;-20.78;-3.82;779.0;12.20;75637;2833.981;-1757.793;1;318;-130;-133.9;44.5;44.8;15;15.8;25.2;0.0;
02/03/2025 22:30:22;100;0;315.34;-4;-20.88;-3.76;781.8;12.10;75634;2833.984;-1757.796;1;318;-130;-132.3;44.5;44.8;15;15.8;25.3;0.0;
02/03/2025 22:30:42;100;0;315.08;-4;-20.92;-3.83;784.7;12.10;75632;2833.986;-1757.799;1;318;-130;-132.3;44.5;44.8;15;15.8;25.2;0.0;
02/03/2025 22:31:02;100;0;315.34;-4;-20.86;-3.83;787.7;12.10;75625;2833.989;-1757.802;1;318;-130;-135.5;44.5;44.8;15;15.8;25.2;0.0;
02/03/2025 22:31:22;100;0;315.14;-4;-20.81;-3.85;790.6;12.10;75615;2833.991;-1757.804;1;318;-130;-130.6;44.5;44.8;15;15.8;25.2;0.0;
02/03/2025 22:31:42;100;0;315.10;-4;-20.64;-3.78;793.5;12.00;75618;2833.994;-1757.807;1;318;-130;-132.3;44.5;44.8;15;15.8;25.3;0.0;
02/03/2025 22:32:02;100;0;314.93;-4;-20.65;-3.85;796.3;12.00;75616;2833.996;-1757.810;1;318;-130;-132.3;44.5;44.8;15;15.8;25.2;0.0;
02/03/2025 22:32:22;100;0;314.85;-4;-20.61;-3.86;799.0;12.00;75619;2833.999;-1757.813;1;318;-130;-132.3;44.5;44.8;15;15.3;25.3;0.0;
02/03/2025 22:32:42;100;0;314.74;-4;-20.67;-3.85;801.8;12.00;75607;2834.001;-1757.815;1;318;-130;-132.3;44.5;44.8;15;15.8;25.2;0.0;
02/03/2025 22:33:02;100;0;314.54;-4;-20.75;-3.83;804.7;12.00;75608;2834.004;-1757.818;1;318;-130;-132.3;44.5;44.8;15;15.8;25.2;0.0;
02/03/2025 22:33:22;100;0;313.66;-4;-20.85;-3.74;807.6;11.90;75604;2834.006;-1757.821;1;318;-130;-132.3;44.5;44.8;15;15.3;25.2;0.0;
02/03/2025 22:33:42;100;0;313.09;-4;-20.76;-3.83;810.3;11.90;75610;2834.009;-1757.824;1;318;-130;-132.3;44.5;44.8;15;15.8;25.2;0.0;
02/03/2025 22:34:02;100;0;313.19;-4;-20.71;-3.79;813.1;11.90;75594;2834.011;-1757.827;1;318;-130;-132.3;44.5;44.8;15;15.8;25.2;0.0;
02/03/2025 22:34:22;100;0;313.25;-4;-20.81;-3.83;816.1;11.90;75610;2834.014;-1757.830;1;318;-130;-132.3;44.5;44.8;15;15.8;25.2;0.0;
02/03/2025 22:34:42;100;0;315.21;-4;-20.80;-3.84;818.9;11.90;75588;2834.016;-1757.832;1;318;-130;-132.3;44.5;44.8;15;15.8;25.2;0.0;
02/03/2025 22:35:02;100;0;316.50;-4;-21.36;-3.83;821.8;11.90;75588;2834.019;-1757.835;1;318;-130;-133.9;44.5;44.6;15;15.8;25.3;0.0;
02/03/2025 22:35:22;100;0;320.51;-4;-20.67;-3.85;825.0;11.80;75587;2834.022;-1757.838;1;318;-130;-132.3;44.5;44.6;15;15.8;25.2;0.0;
02/03/2025 22:35:42;100;0;325.36;-4;-20.09;-3.91;827.9;11.80;75590;2834.025;-1757.840;1;318;-130;-132.3;44.5;44.8;17;17.1;25.2;0.0;
02/03/2025 22:36:02;100;0;328.19;-4;-20.34;-2.92;830.9;11.80;75566;2834.028;-1757.843;1;318;-130;-132.3;44.5;44.8;19;19.0;25.2;0.0;
02/03/2025 22:36:22;100;0;329.21;-4;-20.47;-2.07;833.7;11.80;75561;2834.031;-1757.845;1;318;-130;-135.5;44.5;44.8;19;19.4;25.3;0.0;
02/03/2025 22:36:42;100;0;329.67;-4;-20.24;-1.95;836.6;11.80;75566;2834.035;-1757.847;1;318;-130;-129.0;44.5;44.8;21;21.2;25.3;0.0;
02/03/2025 22:37:02;100;0;327.84;-4;-20.02;-0.68;839.3;11.70;75558;2834.037;-1757.849;1;318;-130;-133.9;44.5;44.8;19;19.0;25.3;0.0;
02/03/2025 22:37:22;100;0;324.14;-4;-20.59;-2.43;841.9;11.70;75556;2834.040;-1757.851;1;318;-130;-130.6;44.5;44.8;16;15.3;25.2;0.0;
02/03/2025 22:37:42;100;0;322.21;-4;-20.63;-3.92;844.4;11.70;75542;2834.043;-1757.853;1;318;-130;-132.3;44.5;44.8;16;15.3;25.2;0.0;
02/03/2025 22:38:02;100;0;318.52;-4;-21.09;-4.02;847.2;11.70;75545;2834.045;-1757.855;1;318;-130;-132.3;44.5;44.8;16;15.3;25.2;0.0;
02/03/2025 22:38:22;100;0;319.01;-4;-20.68;-3.45;850.1;11.60;75535;2834.048;-1757.858;1;318;-130;-132.3;44.5;44.8;16;15.3;25.3;0.0;
02/03/2025 22:38:42;100;0;319.67;-4;-20.88;-3.94;853.1;11.60;75523;2834.051;-1757.861;1;318;-130;-133.9;44.5;44.8;16;15.3;25.3;0.0;
02/03/2025 22:39:02;100;0;319.20;-4;-20.76;-3.94;856.0;11.60;75520;2834.054;-1757.863;1;318;-130;-132.3;44.5;44.8;16;15.3;25.3;0.0;
02/03/2025 22:39:22;100;0;316.66;-4;-20.44;-4.06;858.9;11.60;75518;2834.056;-1757.866;1;318;-130;-132.3;44.5;44.8;16;15.3;25.2;0.0;
02/03/2025 22:39:42;100;0;317.55;-4;-21.14;-3.91;861.8;11.60;75503;2834.059;-1757.869;1;318;-130;-133.9;44.5;44.8;16;15.3;25.2;0.0;
02/03/2025 22:40:02;100;0;316.15;-4;-20.84;-3.84;864.8;11.50;75491;2834.062;-1757.872;1;318;-130;-132.3;44.5;44.6;16;15.3;25.3;0.0;
02/03/2025 22:40:22;100;0;316.88;-4;-20.58;-3.93;867.6;11.50;75483;2834.064;-1757.874;1;318;-130;-132.3;44.5;44.8;16;15.3;25.2;0.0;
02/03/2025 22:40:42;100;0;317.60;-4;-20.13;-3.98;870.4;11.50;75488;2834.067;-1757.877;1;318;-130;-132.3;44.5;44.8;16;15.3;25.2;0.0;
02/03/2025 22:41:02;100;0;316.01;-4;-20.44;-3.97;873.1;11.50;75467;2834.069;-1757.880;1;318;-130;-132.3;44.5;44.8;16;15.3;25.2;0.0;
02/03/2025 22:41:22;100;0;314.79;-4;-20.19;-4.00;875.9;11.50;75468;2834.072;-1757.883;1;318;-130;-132.3;44.5;44.8;16;15.3;25.2;0.0;
02/03/2025 22:41:42;100;0;314.44;-4;-20.48;-3.94;878.3;11.40;75459;2834.074;-1757.885;1;318;-130;-132.3;44.5;44.8;16;15.3;25.3;0.0;
02/03/2025 22:42:02;100;0;313.51;-4;-20.81;-3.95;881.0;11.40;75460;2834.077;-1757.888;1;318;-130;-132.3;44.5;44.8;16;15.3;25.2;0.0;
02/03/2025 22:42:22;100;0;314.53;-4;-20.60;-3.86;884.0;11.40;75447;2834.079;-1757.891;1;318;-130;-132.3;44.5;44.8;16;15.3;25.2;0.0;
02/03/2025 22:42:42;100;0;315.10;-4;-20.74;-3.96;886.9;11.40;75442;2834.082;-1757.894;1;318;-130;-132.3;44.5;44.8;16;15.3;25.2;0.0;
02/03/2025 22:43:02;100;0;315.01;-4;-20.63;-3.92;889.7;11.30;75432;2834.084;-1757.896;1;318;-130;-132.3;44.5;44.8;16;15.3;25.2;0.0;
02/03/2025 22:43:22;100;0;315.36;-4;-20.63;-3.94;892.6;11.30;75423;2834.087;-1757.899;1;318;-130;-133.9;44.5;44.8;16;15.8;25.2;0.0;
02/03/2025 22:43:42;100;0;315.79;-4;-19.85;-4.12;895.4;11.30;75421;2834.089;-1757.902;1;318;-130;-133.9;44.5;44.8;16;15.3;25.2;0.0;
02/03/2025 22:44:02;100;0;316.19;-4;-20.23;-3.97;898.1;11.30;75428;2834.092;-1757.905;1;318;-130;-132.3;44.5;44.8;16;15.3;25.2;0.0;
02/03/2025 22:44:22;100;0;318.42;-4;-20.03;-3.92;901.0;11.20;75423;2834.095;-1757.907;1;318;-130;-133.9;44.5;44.8;16;15.3;25.2;0.0;
02/03/2025 22:44:42;100;0;320.02;-4;-20.82;-3.93;903.8;11.20;75421;2834.097;-1757.910;1;318;-130;-135.5;44.5;44.8;16;15.3;25.3;0.0;
02/03/2025 22:45:02;100;0;319.25;-4;-20.36;-3.92;906.6;11.20;75420;2834.100;-1757.912;1;318;-130;-132.3;44.5;44.8;16;15.3;25.3;0.0;
02/03/2025 22:45:22;100;0;318.93;-4;-20.22;-3.94;909.8;11.20;75420;2834.103;-1757.915;1;318;-130;-133.9;44.5;44.8;16;15.3;25.2;0.0;
02/03/2025 22:45:42;100;0;317.43;-4;-20.67;-3.90;912.6;11.20;75406;2834.106;-1757.918;1;318;-130;-132.3;44.5;44.8;16;15.3;25.2;0.0;
02/03/2025 22:46:02;100;0;316.72;-4;-20.57;-3.88;915.6;11.10;75397;2834.109;-1757.921;1;318;-130;-132.3;44.5;44.8;16;15.3;25.2;0.0;
02/03/2025 22:46:22;100;0;317.52;-4;-20.40;-4.01;918.4;11.10;75399;2834.111;-1757.924;1;318;-130;-132.3;44.5;44.8;16;15.3;25.2;0.0;
02/03/2025 22:46:42;100;0;317.32;-4;-20.74;-3.86;921.2;11.10;75379;2834.114;-1757.926;1;318;-130;-132.3;44.5;44.8;16;15.3;25.2;0.0;
02/03/2025 22:47:02;100;0;317.50;-4;-20.55;-3.92;924.0;11.10;75380;2834.116;-1757.929;1;318;-130;-132.3;44.5;44.8;16;15.3;25.2;0.0;
02/03/2025 22:47:22;100;0;317.97;-4;-20.88;-4.02;926.7;11.00;75376;2834.119;-1757.931;1;318;-130;-132.3;44.5;44.6;16;15.3;25.2;0.0;
02/03/2025 22:47:42;100;0;315.18;-4;-20.50;-3.99;929.3;11.00;75371;2834.121;-1757.934;1;318;-130;-132.3;44.5;44.8;16;15.3;25.2;0.0;
02/03/2025 22:48:02;100;0;315.77;-4;-20.52;-3.97;932.1;11.00;75372;2834.124;-1757.937;1;318;-130;-133.9;44.5;44.6;16;15.3;25.2;0.0;
02/03/2025 22:48:22;100;0;316.27;-4;-20.09;-3.94;934.7;11.00;75373;2834.126;-1757.939;1;318;-130;-132.3;44.5;44.8;16;15.3;25.2;0.0;
02/03/2025 22:48:42;100;0;317.09;-4;-20.60;-3.97;937.3;11.00;75361;2834.129;-1757.942;1;318;-130;-132.3;44.5;44.8;16;15.3;25.2;0.0;
02/03/2025 22:49:02;100;0;318.28;-4;-20.15;-3.96;940.1;11.00;75364;2834.131;-1757.944;1;318;-130;-132.3;44.5;44.8;16;15.3;25.2;0.0;
02/03/2025 22:49:22;100;0;317.92;-4;-20.32;-4.01;942.7;10.90;75354;2834.134;-1757.947;1;318;-130;-132.3;44.5;44.8;16;15.3;25.2;0.0;
02/03/2025 22:49:42;100;0;318.62;-4;-20.02;-3.94;945.4;10.90;75353;2834.137;-1757.949;1;318;-130;-132.3;44.5;44.8;16;15.3;25.3;0.0;
02/03/2025 22:50:02;100;0;320.71;-4;-20.12;-3.92;947.9;10.90;75360;2834.139;-1757.952;1;318;-130;-132.3;44.5;44.6;16;15.3;25.2;0.0;
02/03/2025 22:50:22;100;0;323.32;-4;-20.75;-3.92;950.4;10.90;75355;2834.142;-1757.954;1;318;-130;-132.3;44.5;44.6;16;15.3;25.2;0.0;
02/03/2025 22:50:42;100;0;324.96;-4;-20.67;-3.96;953.1;10.80;75339;2834.144;-1757.956;1;318;-130;-132.3;44.5;44.8;16;15.3;25.2;0.0;
02/03/2025 22:51:02;100;0;325.38;-4;-20.43;-3.93;955.6;10.80;75337;2834.147;-1757.958;1;318;-130;-132.3;44.5;44.8;16;15.3;25.2;0.0;
02/03/2025 22:51:22;100;0;326.35;-4;-20.28;-3.96;958.1;10.80;75335;2834.150;-1757.960;1;318;-130;-132.3;44.5;44.8;18;18.1;25.2;0.0;
02/03/2025 22:51:42;100;0;326.67;-4;-20.31;-2.58;960.6;10.80;75337;2834.152;-1757.962;1;318;-130;-132.3;44.5;44.8;18;18.1;25.2;0.0;
02/03/2025 22:52:02;100;0;327.50;-4;-20.27;-2.47;963.1;10.80;75340;2834.155;-1757.964;1;318;-130;-132.3;44.5;44.8;18;18.1;25.2;0.0;
02/03/2025 22:52:22;100;0;327.11;-4;-20.36;-2.51;965.4;10.80;75330;2834.158;-1757.965;1;318;-130;-133.9;44.5;44.8;18;18.1;25.2;0.0;
02/03/2025 22:52:42;100;0;328.06;-4;-20.20;-2.52;967.8;10.70;75328;2834.160;-1757.967;1;318;-130;-132.3;44.5;44.8;18;18.5;25.2;0.0;
02/03/2025 22:53:02;100;0;329.44;-4;-20.25;-2.48;970.2;10.70;75321;2834.163;-1757.969;1;318;-130;-132.3;44.5;44.8;21;21.2;25.2;0.0;
02/03/2025 22:53:22;100;0;326.83;-4;-21.32;-0.84;972.5;10.70;75329;2834.165;-1757.971;1;318;-130;-132.3;44.5;44.8;18;18.1;25.3;0.0;
02/03/2025 22:53:42;100;0;322.19;-4;-20.07;-2.80;975.1;10.70;75312;2834.168;-1757.973;1;318;-130;-132.3;44.5;44.8;16;15.8;25.2;0.0;
02/03/2025 22:54:02;100;0;321.94;-4;-20.60;-3.72;977.4;10.70;75315;2834.170;-1757.975;1;318;-130;-132.3;44.5;44.8;16;15.3;25.2;0.0;
02/03/2025 22:54:22;100;0;320.00;-4;-20.83;-3.98;980.0;10.60;75314;2834.173;-1757.977;1;318;-130;-132.3;44.5;44.8;16;15.3;25.3;0.0;
02/03/2025 22:54:42;100;0;316.69;-4;-18.60;-3.91;982.2;10.60;75296;2834.175;-1757.979;1;318;-130;-132.3;44.9;44.9;16;15.3;25.2;0.0;
02/03/2025 22:55:02;100;0;314.70;-4;-21.30;-4.13;984.3;10.60;75305;2834.177;-1757.981;1;318;-130;-132.3;44.9;45.2;16;15.3;25.2;0.0;
02/03/2025 22:55:22;100;0;311.90;-4;-21.15;-3.99;986.6;10.60;75292;2834.179;-1757.984;1;318;-130;-132.3;44.9;45.2;16;15.3;25.2;0.0;
02/03/2025 22:55:42;100;0;309.59;-4;-21.15;-3.93;989.2;10.60;75289;2834.181;-1757.987;1;318;-130;-132.3;44.9;45.4;14;14.0;25.2;0.0;
02/03/2025 22:56:02;100;0;310.11;-4;-21.22;-4.80;991.7;10.60;75296;2834.183;-1757.989;1;318;-130;-132.3;44.9;45.2;14;13.5;25.2;0.0;
02/03/2025 22:56:22;100;0;311.17;-4;-20.95;-4.82;994.4;10.50;75283;2834.185;-1757.992;1;318;-130;-133.9;44.9;45.2;14;14.0;25.2;0.0;
02/03/2025 22:56:42;100;0;312.18;-4;-21.17;-4.81;997.0;10.50;75279;2834.187;-1757.995;1;318;-130;-133.9;44.9;45.4;14;13.5;25.2;0.0;
02/03/2025 22:56:58;118;0;312.76;-4;-20.92;-4.81;999.1;10.50;75271;2834.189;-1757.997;1;318;450;-129.0;21.9;21.8;7;7.2;25.3;0.0;
02/03/2025 22:57:08;118;0;54.95;-4;-6.91;-8.99;1000.1;10.50;75254;2834.190;-1757.995;1;318;450;-0.0;21.9;21.5;7;6.8;23.6;-1.0;
02/03/2025 22:57:18;118;0;42.28;-4;20.71;-8.71;1000.1;10.50;74989;2834.190;-1757.995;1;318;450;122.6;21.9;21.9;7;7.2;23.9;-1.0;
02/03/2025 22:57:28;118;0;36.50;-4;28.94;-9.21;999.3;10.50;74729;2834.191;-1757.994;1;318;450;246.8;21.9;22.1;7;7.2;23.6;-1.0;
02/03/2025 22:57:38;118;0;35.53;-4;27.93;-8.66;998.0;10.50;74488;2834.192;-1757.994;1;318;450;369.4;21.9;22.2;7;7.2;23.8;-1.0;
02/03/2025 22:57:48;118;0;35.30;-4;25.92;-8.34;996.4;10.50;74252;2834.193;-1757.992;1;318;450;450.0;21.9;22.2;7;7.2;23.8;-1.0;
02/03/2025 22:57:59;118;0;310.81;-4;23.10;-7.75;994.5;10.50;74076;2834.194;-1757.994;1;318;450;451.6;21.9;22.1;7;7.2;25.2;-1.0;
02/03/2025 22:58:19;117;0;303.25;-4;19.73;-7.70;991.1;10.60;74076;2834.197;-1757.998;1;318;450;451.6;21.9;22.1;7;7.2;25.2;-1.0;
02/03/2025 22:58:39;117;0;296.41;-4;19.07;-7.61;987.4;10.60;74076;2834.199;-1758.003;1;318;450;450.0;21.9;22.2;48;48.3;25.2;-1.0;
02/03/2025 22:58:59;117;0;303.94;-4;21.14;13.68;983.9;10.60;74084;2834.202;-1758.007;1;318;450;451.6;21.9;22.1;37;36.6;25.2;-1.0;
02/03/2025 22:59:19;117;0;308.01;-4;20.99;7.68;980.0;10.60;74063;2834.205;-1758.012;1;318;450;451.6;21.9;22.1;33;32.9;25.2;-1.0;
02/03/2025 22:59:39;117;0;310.08;-4;21.72;5.48;976.1;10.70;74076;2834.208;-1758.016;1;318;450;451.6;21.9;22.1;31;31.1;25.2;-1.0;
02/03/2025 22:59:59;117;0;310.96;-4;21.73;4.54;972.2;10.60;74060;2834.211;-1758.020;1;318;450;451.6;21.9;22.1;31;30.7;25.2;-1.0;
02/03/2025 23:00:19;117;0;313.33;-4;21.27;4.40;968.2;10.60;74065;2834.214;-1758.024;1;318;450;450.0;21.9;22.1;31;30.7;25.2;-1.0;
02/03/2025 23:00:39;117;0;316.21;-4;21.02;4.47;964.2;10.60;74064;2834.218;-1758.028;1;318;450;451.6;21.9;22.1;31;30.7;25.2;-1.0;
02/03/2025 23:00:59;117;0;316.93;-4;20.95;4.42;960.3;10.60;74058;2834.221;-1758.031;1;318;450;451.6;21.9;22.1;31;30.7;25.2;-1.0;
02/03/2025 23:01:19;117;0;316.38;-4;20.84;4.35;956.4;10.60;74068;2834.225;-1758.035;1;318;450;451.6;21.9;22.2;31;30.7;25.2;-1.0;
02/03/2025 23:01:39;117;0;315.81;-4;20.80;4.54;952.8;10.60;74066;2834.228;-1758.038;1;318;450;451.6;21.9;22.1;31;30.7;25.2;-1.0;
02/03/2025 23:01:59;117;0;316.48;-4;20.85;4.38;948.9;10.60;74061;2834.231;-1758.042;1;318;450;451.6;21.9;22.1;31;30.7;25.2;-1.0;
02/03/2025 23:02:19;117;0;316.77;-4;20.83;4.46;945.3;10.60;74054;2834.235;-1758.046;1;318;450;451.6;21.9;22.1;31;30.7;25.2;-1.0;
02/03/2025 23:02:39;117;0;317.39;-4;20.91;4.54;941.6;10.50;74062;2834.238;-1758.049;1;318;450;451.6;21.9;22.1;31;30.7;25.2;-1.0;
02/03/2025 23:02:59;117;0;318.32;-4;21.17;4.50;937.9;10.50;74050;2834.242;-1758.052;1;318;450;450.0;21.9;22.1;31;30.7;25.2;-1.0;
02/03/2025 23:03:19;117;0;318.88;-4;20.95;4.54;934.1;10.50;74046;2834.245;-1758.056;1;318;450;451.6;21.9;22.1;31;30.7;25.2;-1.0;
02/03/2025 23:03:39;117;0;319.64;-4;20.82;4.44;930.4;10.50;74046;2834.249;-1758.059;1;318;450;450.0;21.9;22.1;31;30.7;25.2;-1.0;
02/03/2025 23:03:59;117;0;320.32;-4;20.89;4.45;926.7;10.50;74039;2834.252;-1758.062;1;318;450;451.6;21.9;22.1;31;30.7;25.2;-1.0;
02/03/2025 23:04:19;117;0;322.19;-4;21.11;4.41;923.1;10.50;74034;2834.256;-1758.065;1;318;450;451.6;21.9;22.1;31;30.7;25.2;-1.0;
02/03/2025 23:04:39;117;0;323.83;-4;21.11;4.53;919.5;10.40;74050;2834.259;-1758.068;1;318;450;451.6;21.9;22.1;29;28.9;25.2;-1.0;
02/03/2025 23:04:59;117;0;324.08;-4;21.21;3.25;915.9;10.40;74047;2834.263;-1758.071;1;318;450;451.6;21.9;22.1;29;28.4;25.2;-1.0;
02/03/2025 23:05:19;117;0;324.55;-4;21.22;3.30;912.1;10.40;74034;2834.267;-1758.074;1;318;450;451.6;21.9;22.2;29;28.4;25.2;-1.0;
02/03/2025 23:05:39;117;0;325.30;-4;21.05;3.15;908.5;10.40;74043;2834.271;-1758.077;1;318;450;451.6;21.9;22.1;29;28.4;25.2;-1.0;
02/03/2025 23:05:59;117;0;325.49;-4;20.83;3.16;904.8;10.40;74036;2834.274;-1758.080;1;318;450;451.6;21.9;22.1;29;28.4;25.2;-1.0;
02/03/2025 23:06:19;117;0;325.66;-4;20.89;3.20;901.1;10.40;74025;2834.278;-1758.083;1;318;450;451.6;21.9;22.1;29;28.4;25.2;-1.0;
02/03/2025 23:06:39;117;0;325.48;-4;20.90;3.22;897.6;10.40;74031;2834.282;-1758.086;1;318;450;451.6;21.9;22.1;29;28.4;25.2;-1.0;
02/03/2025 23:06:59;117;0;325.20;-4;20.80;3.16;893.8;10.30;74033;2834.286;-1758.089;1;318;450;451.6;21.9;22.1;29;28.4;25.2;-1.0;
02/03/2025 23:07:19;117;0;324.88;-4;20.77;3.24;890.1;10.40;74023;2834.289;-1758.092;1;318;450;453.2;21.9;22.2;29;28.4;25.2;-1.0;
02/03/2025 23:07:39;117;0;324.53;-4;20.79;3.24;886.5;10.30;74028;2834.293;-1758.095;1;318;450;450.0;21.9;22.2;29;28.4;25.2;-1.0;
02/03/2025 23:07:59;117;0;324.38;-4;20.74;3.20;882.8;10.30;74026;2834.297;-1758.097;1;318;450;451.6;21.9;22.1;29;28.4;25.2;-1.0;
02/03/2025 23:08:19;117;0;324.47;-4;20.69;3.24;879.3;10.30;74029;2834.300;-1758.100;1;318;450;451.6;21.9;22.2;29;28.4;25.2;-1.0;
02/03/2025 23:08:39;117;0;324.23;-4;20.89;3.07;875.7;10.30;74013;2834.304;-1758.103;1;318;450;450.0;21.9;22.1;29;28.4;25.2;-1.0;
02/03/2025 23:08:59;117;0;324.16;-4;21.04;3.15;871.9;10.30;74019;2834.308;-1758.106;1;318;450;451.6;21.9;22.1;29;28.4;25.2;-1.0;
02/03/2025 23:09:19;117;0;323.83;-4;21.09;3.12;868.4;10.30;74017;2834.311;-1758.109;1;318;450;451.6;21.9;22.1;29;28.4;25.2;-1.0;
02/03/2025 23:09:39;117;0;324.21;-4;20.92;3.14;864.6;10.30;74020;2834.315;-1758.112;1;318;450;451.6;21.9;22.2;29;28.4;25.2;-1.0;
02/03/2025 23:09:59;117;0;325.71;-4;20.88;3.13;860.8;10.30;74014;2834.319;-1758.115;1;318;450;451.6;21.9;22.1;29;28.4;25.2;-1.0;
02/03/2025 23:10:19;117;0;327.45;-4;20.85;3.14;857.2;10.30;74020;2834.323;-1758.118;1;318;450;451.6;21.9;22.1;26;26.2;25.2;-1.0;
02/03/2025 23:10:39;117;0;327.13;-4;20.69;1.94;853.6;10.30;74026;2834.327;-1758.120;1;318;450;451.6;21.9;22.1;26;25.7;25.2;-1.0;
02/03/2025 23:10:59;117;0;326.80;-4;20.63;1.97;849.9;10.30;74018;2834.331;-1758.123;1;318;450;451.6;21.9;22.1;26;25.7;25.2;-1.0;
02/03/2025 23:11:19;117;0;326.24;-4;20.51;1.95;846.3;10.20;74019;2834.334;-1758.126;1;318;450;451.6;21.9;22.1;26;25.7;25.2;-1.0;
02/03/2025 23:11:39;117;0;325.68;-4;20.57;1.90;842.6;10.20;74024;2834.338;-1758.129;1;318;450;451.6;21.9;22.1;26;26.2;25.2;-1.0;
02/03/2025 23:11:59;117;0;325.05;-4;20.42;1.88;839.1;10.20;74022;2834.342;-1758.132;1;318;450;451.6;21.9;22.1;28;28.0;25.2;-1.0;
02/03/2025 23:12:19;117;0;324.56;-4;20.70;3.24;835.6;10.20;74022;2834.345;-1758.135;1;318;450;451.6;21.9;22.1;28;28.4;25.2;-1.0;
02/03/2025 23:12:39;117;0;324.08;-4;20.66;3.25;832.0;10.20;74026;2834.349;-1758.138;1;318;450;451.6;21.9;22.1;28;28.4;25.2;-1.0;
02/03/2025 23:12:59;117;0;324.65;-4;20.57;3.25;828.6;10.20;74026;2834.352;-1758.140;1;318;450;451.6;21.9;22.1;28;28.4;25.2;-1.0;
02/03/2025 23:13:19;117;0;324.77;-4;20.52;3.27;825.3;10.20;74034;2834.356;-1758.143;1;318;450;451.6;21.9;22.1;28;28.4;25.2;-1.0;
02/03/2025 23:13:39;117;0;325.78;-4;20.46;3.24;821.7;10.20;74028;2834.360;-1758.146;1;318;450;451.6;21.9;22.1;28;28.4;25.2;-1.0;
02/03/2025 23:13:59;117;0;326.45;-4;20.72;3.47;818.5;10.20;74043;2834.363;-1758.148;1;318;450;451.6;21.9;22.1;28;28.4;25.2;-1.0;
