Timestamp;NavState;SecurityLevel;Heading;Declination;Pitch;Roll;Depth;Temperature;Pa;Lat;Lon;DeadReckoning;DesiredH;BallastCmd;BallastPos;LinCmd;LinPos;AngCmd;AngPos;Voltage;Altitude;
27/02/2025 01:26:36;119;0;122.96;-4;-47.56;-15.99;-0.1;16.60;75532;2834.347;-1757.603;0;139;500;506.5;100.0;100.6;0;-0.5;25.9;-1.0;
27/02/2025 01:26:45;116;0;125.94;-4;-56.47;-11.61;-0.1;16.60;75544;2834.337;-1757.601;0;139;500;506.5;100.0;100.7;0;-0.9;25.9;-1.0;
27/02/2025 01:27:10;116;0;139.62;-4;-55.37;-15.41;0.0;16.70;75553;2834.339;-1757.603;0;139;500;506.5;100.0;100.6;0;-0.5;25.9;-1.0;
27/02/2025 01:27:37;116;0;181.64;-4;-57.65;-4.71;-0.1;16.80;75561;2834.339;-1757.603;0;139;500;506.5;100.0;100.6;0;-0.5;25.9;-1.0;
27/02/2025 01:27:57;116;0;215.05;-4;-58.66;-8.56;-0.1;16.90;75564;2834.341;-1757.603;0;315;500;506.5;100.0;100.6;0;-0.5;25.9;-1.0;
27/02/2025 01:28:11;116;0;252.41;-4;-54.42;-12.37;-0.1;16.90;75570;2834.341;-1757.602;0;315;500;506.5;100.0;100.7;0;-0.9;25.9;-1.0;
27/02/2025 01:28:31;116;0;294.72;-4;-50.89;-8.35;-0.1;17.00;75583;2834.342;-1757.602;0;315;500;506.5;100.0;100.6;0;-0.5;25.9;-1.0;
27/02/2025 01:28:51;116;0;289.93;-4;-51.19;-10.75;0.2;17.00;75580;2834.342;-1757.601;0;315;500;506.5;100.0;100.6;0;-0.5;25.8;-1.0;
27/02/2025 01:29:02;116;0;288.25;-4;-47.84;-12.57;0.0;17.10;75581;2834.342;-1757.600;0;315;500;506.5;100.0;100.6;0;-0.5;25.9;-1.0;
27/02/2025 01:30:04;116;0;272.18;-4;-51.84;-15.38;-0.2;17.30;75616;2834.344;-1757.602;0;315;500;506.5;100.0;100.6;0;-0.5;25.9;-1.0;
27/02/2025 01:30:56;116;0;273.33;-4;-52.29;-11.54;-0.1;17.60;75633;2834.344;-1757.604;0;315;500;506.5;100.0;100.6;0;-0.5;25.9;-1.0;
27/02/2025 01:31:59;116;0;280.89;-4;-54.49;-11.64;-0.1;17.80;75656;2834.345;-1757.604;0;315;500;506.5;100.0;100.6;0;-0.5;25.9;-1.0;
27/02/2025 01:33:17;116;0;280.88;-4;-52.70;-8.87;-0.0;18.20;75683;2834.348;-1757.604;0;315;500;506.5;100.0;100.6;0;-0.5;25.9;-1.0;
27/02/2025 01:33:28;116;0;283.53;-4;-51.71;-16.48;-0.2;18.30;75687;2834.348;-1757.604;0;315;500;506.5;100.0;100.7;0;-0.5;25.9;-1.0;
27/02/2025 01:33:48;110;0;283.74;-4;-57.42;-8.84;0.1;18.30;75689;2834.348;-1757.604;0;315;-90;385.5;100.0;99.9;-6;-5.9;25.9;-1.0;
27/02/2025 01:33:58;110;0;278.57;-4;-53.08;-9.96;0.2;18.40;76060;2834.349;-1757.605;1;315;-90;238.7;100.0;99.9;-6;-5.9;25.9;-1.0;
27/02/2025 01:34:08;110;0;290.13;-4;-57.98;-13.24;0.6;18.40;76298;2834.349;-1757.605;1;315;-90;80.6;100.0;99.9;-6;-6.3;25.8;-1.0;
27/02/2025 01:34:18;110;0;300.84;-4;-66.13;-20.05;1.0;18.50;76617;2834.350;-1757.605;1;315;-90;-79.0;100.0;99.9;-6;-5.9;25.9;-1.0;
27/02/2025 01:34:28;110;0;297.64;-4;-63.24;-6.43;1.1;18.50;76961;2834.350;-1757.605;1;315;-90;-90.3;41.5;52.9;-6;-5.9;25.9;-1.0;
27/02/2025 01:34:38;110;0;307.15;-4;-59.67;-16.40;2.2;18.50;76941;2834.351;-1757.606;1;315;-90;-90.3;41.5;41.5;-6;-5.9;25.9;-1.0;
27/02/2025 01:34:58;100;0;324.43;-4;-20.12;-14.82;5.0;18.60;76949;2834.355;-1757.608;1;315;-90;-85.5;41.5;41.2;-6;-5.9;25.9;-1.0;
27/02/2025 01:35:18;100;0;329.12;-4;-16.81;-14.70;7.6;18.70;76958;2834.359;-1757.611;1;315;-90;-83.9;42.4;42.7;39;38.8;25.9;-1.0;
27/02/2025 01:35:38;100;0;327.53;-4;-21.22;7.95;9.8;18.70;76965;2834.362;-1757.612;1;315;-90;-83.9;42.4;42.7;39;39.3;25.9;-1.0;
27/02/2025 01:35:58;100;0;318.75;-4;-19.85;7.92;12.3;18.70;76974;2834.365;-1757.615;1;315;-90;-83.9;42.4;42.7;23;23.0;25.9;-1.0;
27/02/2025 01:36:18;100;0;312.56;-4;-21.23;-0.40;14.7;18.70;76959;2834.368;-1757.617;1;315;-90;-83.9;42.4;42.6;17;17.1;25.9;0.0;
27/02/2025 01:36:38;100;0;312.91;-4;-20.92;-3.39;17.0;18.70;76969;2834.371;-1757.620;1;315;-90;-83.9;42.4;42.7;17;16.7;25.9;0.0;
27/02/2025 01:36:58;100;0;314.28;-4;-20.00;-3.36;19.5;18.70;76974;2834.374;-1757.623;1;315;-90;-85.5;42.4;42.7;17;16.7;25.9;0.0;
27/02/2025 01:37:18;100;0;314.97;-4;-20.13;-3.37;21.9;18.80;76978;2834.377;-1757.625;1;315;-90;-83.9;42.4;42.7;19;19.0;25.9;0.0;
27/02/2025 01:37:38;100;0;314.66;-4;-20.35;-2.04;24.3;18.80;76978;2834.381;-1757.628;1;315;-90;-83.9;42.4;42.7;19;19.0;25.9;0.0;
27/02/2025 01:37:58;100;0;314.02;-4;-20.62;-2.02;26.7;18.80;76982;2834.383;-1757.631;1;315;-90;-83.9;42.4;42.7;19;19.4;25.9;0.0;
27/02/2025 01:38:18;100;0;312.93;-4;-20.45;-2.03;29.2;18.80;76990;2834.387;-1757.633;1;315;-90;-83.9;42.4;42.7;17;17.1;25.9;0.0;
27/02/2025 01:38:38;100;0;312.95;-4;-20.13;-3.18;31.6;18.80;76992;2834.390;-1757.636;1;315;-90;-83.9;42.4;42.7;17;17.1;25.9;0.0;
27/02/2025 01:38:58;100;0;312.48;-4;-20.43;-3.15;34.0;18.80;76998;2834.393;-1757.639;1;315;-90;-85.5;42.4;42.7;17;16.7;25.9;0.0;
27/02/2025 01:39:18;100;0;313.10;-4;-20.53;-3.23;36.5;18.80;76995;2834.396;-1757.641;1;315;-90;-83.9;42.4;42.7;17;17.1;25.9;0.0;
27/02/2025 01:39:38;100;0;312.53;-4;-20.52;-3.15;38.9;18.80;76997;2834.398;-1757.644;1;315;-90;-83.9;42.4;42.7;17;17.1;25.9;0.0;
27/02/2025 01:39:58;100;0;308.41;-4;-20.62;-3.20;41.3;18.90;77004;2834.401;-1757.647;1;315;-90;-83.9;42.4;42.6;17;16.7;25.9;0.0;
27/02/2025 01:40:18;100;0;303.14;-4;-20.52;-3.18;43.7;18.90;77019;2834.404;-1757.650;1;315;-90;-83.9;42.4;42.7;17;17.1;25.9;0.0;
27/02/2025 01:40:38;100;0;302.66;-4;-20.65;-3.16;46.1;18.90;77007;2834.406;-1757.653;1;315;-90;-85.5;42.4;42.7;17;16.7;25.9;0.0;
27/02/2025 01:40:58;100;0;300.77;-4;-19.74;-3.22;48.7;18.90;77010;2834.409;-1757.656;1;315;-90;-83.9;42.4;42.6;15;14.9;25.9;0.0;
27/02/2025 01:41:18;100;0;300.86;-4;-20.01;-4.75;50.9;18.90;77022;2834.411;-1757.659;1;315;-90;-83.9;42.4;42.6;15;14.4;25.9;0.0;
27/02/2025 01:41:38;100;0;301.32;-4;-19.99;-4.58;53.1;18.90;77010;2834.414;-1757.662;1;315;-90;-83.9;42.4;42.7;15;14.4;25.9;0.0;
27/02/2025 01:41:58;100;0;300.29;-4;-19.63;-4.54;55.5;18.90;77021;2834.416;-1757.665;1;315;-90;-83.9;42.4;42.7;15;14.4;25.9;0.0;
27/02/2025 01:42:18;100;0;299.13;-4;-19.50;-4.47;57.7;18.90;77033;2834.418;-1757.668;1;315;-90;-83.9;42.4;42.6;15;14.4;25.9;0.0;
27/02/2025 01:42:38;100;0;300.13;-4;-19.05;-4.73;59.8;18.90;77018;2834.421;-1757.671;1;315;-90;-83.9;42.4;42.7;15;14.4;25.9;0.0;
27/02/2025 01:42:58;100;0;301.79;-4;-19.96;-4.61;61.9;18.90;77024;2834.423;-1757.674;1;315;-90;-85.5;42.4;42.7;15;14.4;25.9;0.0;
27/02/2025 01:43:18;100;0;301.80;-4;-19.53;-4.59;64.0;18.90;77015;2834.425;-1757.676;1;315;-90;-83.9;42.4;42.7;15;14.4;25.9;0.0;
27/02/2025 01:43:38;100;0;300.33;-4;-19.97;-4.51;66.1;18.90;77002;2834.428;-1757.679;1;315;-90;-83.9;42.4;42.6;15;14.4;25.9;0.0;
27/02/2025 01:43:58;100;0;299.08;-4;-20.19;-4.56;68.5;18.90;76972;2834.430;-1757.682;1;315;-90;-83.9;42.4;42.7;15;14.4;25.9;0.0;
27/02/2025 01:44:18;100;0;300.48;-4;-19.98;-4.51;70.8;18.90;76952;2834.432;-1757.685;1;315;-90;-83.9;42.4;42.7;15;14.4;25.9;0.0;
27/02/2025 01:44:38;100;0;303.60;-4;-19.30;-4.61;72.9;18.90;76944;2834.435;-1757.688;1;315;-90;-83.9;42.4;42.6;15;14.4;25.9;0.0;
27/02/2025 01:44:58;100;0;303.63;-4;-18.52;-4.88;75.0;18.90;76927;2834.437;-1757.691;1;315;-90;-83.9;42.9;43.0;15;14.4;25.9;0.0;
27/02/2025 01:45:18;100;0;304.30;-4;-20.27;-4.79;76.9;18.80;76923;2834.440;-1757.693;1;315;-110;-109.7;42.9;43.2;15;14.4;25.9;0.0;
27/02/2025 01:45:38;100;0;301.47;-4;-19.51;-4.45;79.1;18.80;76972;2834.442;-1757.696;1;315;-110;-111.3;42.9;43.3;15;14.4;25.9;0.0;
27/02/2025 01:45:58;100;0;302.24;-4;-20.36;-4.50;81.5;18.80;76970;2834.444;-1757.699;1;315;-110;-114.5;42.9;43.2;15;14.4;25.9;0.0;
27/02/2025 01:46:18;100;0;300.40;-4;-20.24;-4.46;83.8;18.80;76965;2834.447;-1757.702;1;315;-110;-111.3;42.9;43.2;15;14.4;25.9;0.0;
27/02/2025 01:46:38;100;0;296.88;-4;-19.70;-4.55;86.5;18.80;76950;2834.449;-1757.706;1;315;-110;-112.9;42.9;43.2;13;13.1;25.9;0.0;
27/02/2025 01:46:58;100;0;298.70;-4;-19.86;-5.05;88.8;18.80;76939;2834.452;-1757.709;1;315;-110;-111.3;42.9;43.2;15;14.9;25.9;0.0;
27/02/2025 01:47:18;100;0;301.02;-4;-19.97;-3.91;91.5;18.70;76932;2834.454;-1757.712;1;315;-110;-112.9;42.9;43.3;15;15.3;25.9;0.0;
27/02/2025 01:47:38;100;0;302.43;-4;-19.92;-3.91;93.8;18.70;76930;2834.457;-1757.715;1;315;-110;-111.3;42.9;43.2;15;15.3;25.9;0.0;
27/02/2025 01:47:58;100;0;301.25;-4;-20.36;-3.87;96.3;18.70;76922;2834.459;-1757.719;1;315;-110;-112.9;42.9;43.3;15;15.3;25.9;0.0;
27/02/2025 01:48:18;100;0;300.08;-4;-20.51;-3.83;99.0;18.70;76921;2834.462;-1757.722;1;315;-110;-111.3;42.9;43.3;15;15.3;25.9;0.0;
27/02/2025 01:48:38;100;0;297.11;-4;-20.30;-3.85;101.6;18.60;76902;2834.464;-1757.726;1;315;-110;-111.3;42.9;43.2;13;13.1;25.9;0.0;
27/02/2025 01:48:58;100;0;297.44;-4;-20.16;-5.33;104.4;18.60;76906;2834.467;-1757.729;1;315;-110;-111.3;42.9;43.2;13;12.6;25.9;0.0;
27/02/2025 01:49:18;100;0;300.56;-4;-20.22;-5.26;107.2;18.60;76896;2834.470;-1757.733;1;315;-110;-111.3;42.9;43.3;15;14.9;25.9;0.0;
27/02/2025 01:49:38;100;0;302.24;-4;-20.44;-3.91;109.9;18.50;76891;2834.472;-1757.736;1;315;-110;-111.3;42.9;43.4;15;15.3;25.9;0.0;
27/02/2025 01:49:58;100;0;303.65;-4;-20.48;-3.77;112.8;18.50;76884;2834.475;-1757.740;1;315;-110;-111.3;42.9;43.3;15;15.3;25.9;0.0;
27/02/2025 01:50:18;100;0;303.83;-4;-20.58;-3.75;115.6;18.50;76880;2834.478;-1757.744;1;315;-110;-111.3;42.9;43.3;15;15.3;25.9;0.0;
27/02/2025 01:50:38;100;0;303.51;-4;-20.71;-3.78;118.7;18.50;76874;2834.481;-1757.747;1;315;-110;-111.3;42.9;43.2;15;15.3;25.9;0.0;
27/02/2025 01:50:58;100;0;298.61;-4;-20.74;-3.86;121.7;18.50;76866;2834.484;-1757.751;1;315;-110;-111.3;42.9;43.2;15;15.3;25.9;0.0;
27/02/2025 01:51:18;100;0;295.04;-4;-20.60;-3.80;124.8;18.40;76870;2834.486;-1757.755;1;315;-110;-112.9;42.9;43.2;9;9.0;25.9;0.0;
27/02/2025 01:51:38;100;0;295.53;-4;-20.02;-7.19;127.8;18.40;76857;2834.489;-1757.759;1;315;-110;-112.9;42.9;43.3;11;10.8;25.9;0.0;
27/02/2025 01:51:58;100;0;300.49;-4;-20.59;-5.77;131.0;18.40;76853;2834.492;-1757.763;1;315;-110;-111.3;42.9;43.3;14;14.0;25.9;0.0;
27/02/2025 01:52:18;100;0;307.28;-4;-21.04;-4.29;134.4;18.40;76848;2834.495;-1757.767;1;315;-110;-111.3;42.9;43.3;14;14.4;25.9;0.0;
27/02/2025 01:52:38;100;0;307.98;-4;-20.85;-4.16;137.9;18.30;76840;2834.499;-1757.771;1;315;-110;-111.3;42.9;43.2;14;14.4;25.9;0.0;
27/02/2025 01:52:58;100;0;301.71;-4;-20.30;-4.32;141.4;18.30;76825;2834.502;-1757.776;1;315;-110;-111.3;42.9;43.3;14;14.4;25.9;0.0;
27/02/2025 01:53:18;100;0;300.17;-4;-20.21;-4.23;144.6;18.30;76801;2834.505;-1757.780;1;315;-110;-112.9;42.9;43.3;14;14.4;25.9;0.0;
27/02/2025 01:53:38;100;0;301.48;-4;-20.22;-4.28;147.9;18.20;76783;2834.508;-1757.784;1;315;-110;-111.3;42.9;43.2;14;14.4;25.9;0.0;
27/02/2025 01:53:58;100;0;298.96;-4;-20.27;-4.26;151.2;18.20;76767;2834.511;-1757.788;1;315;-110;-111.3;42.9;43.3;14;14.4;25.9;0.0;
27/02/2025 01:54:18;100;0;298.75;-4;-20.17;-4.34;154.3;18.20;76749;2834.514;-1757.792;1;315;-110;-111.3;42.9;43.3;14;14.4;25.9;0.0;
27/02/2025 01:54:38;100;0;299.95;-4;-20.15;-4.25;157.7;18.10;76736;2834.517;-1757.797;1;315;-110;-111.3;42.9;43.3;14;14.4;25.9;0.0;
27/02/2025 01:54:58;100;0;301.84;-4;-20.14;-4.26;160.8;18.10;76732;2834.520;-1757.801;1;315;-110;-111.3;42.9;43.3;14;14.4;25.9;0.0;
27/02/2025 01:55:18;100;0;301.27;-4;-19.65;-4.20;163.8;18.10;76725;2834.523;-1757.805;1;315;-110;-111.3;42.9;43.3;14;14.4;25.9;0.0;
27/02/2025 01:55:38;100;0;298.62;-4;-19.61;-4.30;167.1;18.00;76721;2834.526;-1757.809;1;315;-110;-111.3;42.9;43.3;14;14.4;25.9;0.0;
27/02/2025 01:55:58;100;0;294.70;-4;-19.15;-4.22;170.0;18.00;76711;2834.528;-1757.813;1;315;-110;-111.3;42.9;43.2;11;10.8;25.9;0.0;
27/02/2025 01:56:18;100;0;296.64;-4;-19.46;-6.25;172.9;17.90;76694;2834.531;-1757.817;1;315;-110;-111.3;42.9;43.3;11;10.8;25.9;0.0;
27/02/2025 01:56:38;100;0;295.10;-4;-19.56;-6.26;175.7;17.90;76685;2834.533;-1757.821;1;315;-110;-111.3;42.9;43.3;11;10.8;25.9;0.0;
27/02/2025 01:56:58;100;0;295.40;-4;-19.84;-6.16;178.5;17.90;76689;2834.536;-1757.825;1;315;-110;-111.3;42.9;43.3;11;10.8;25.9;0.0;
27/02/2025 01:57:18;100;0;294.49;-4;-20.05;-6.14;181.6;17.80;76677;2834.538;-1757.829;1;315;-110;-112.9;42.9;43.2;9;9.0;25.9;0.0;
27/02/2025 01:57:38;100;0;295.49;-4;-19.96;-7.10;184.8;17.80;76670;2834.541;-1757.834;1;315;-110;-111.3;42.9;43.3;9;9.0;25.9;0.0;
27/02/2025 01:57:58;100;0;296.09;-4;-19.65;-7.21;187.7;17.70;76658;2834.544;-1757.837;1;315;-110;-111.3;42.9;43.2;12;12.2;25.9;0.0;
27/02/2025 01:58:19;100;0;296.50;-4;-19.80;-5.21;190.8;17.70;76656;2834.546;-1757.842;1;315;-110;-111.3;42.9;43.2;12;12.6;25.9;0.0;
27/02/2025 01:58:39;100;0;295.93;-4;-19.82;-5.23;193.9;17.70;76656;2834.549;-1757.846;1;315;-110;-111.3;42.9;43.2;10;9.9;25.9;0.0;
27/02/2025 01:58:59;100;0;295.45;-4;-19.54;-6.78;196.9;17.60;76658;2834.552;-1757.850;1;315;-110;-111.3;42.9;43.3;10;9.5;25.9;0.0;
27/02/2025 01:59:19;100;0;295.62;-4;-19.41;-6.85;199.8;17.60;76648;2834.554;-1757.854;1;315;-110;-111.3;42.9;43.3;10;9.5;25.9;0.0;
27/02/2025 01:59:39;100;0;299.65;-4;-19.32;-6.78;203.0;17.60;76640;2834.557;-1757.858;1;315;-110;-112.9;42.9;43.2;13;13.5;25.9;0.0;
27/02/2025 01:59:59;100;0;301.20;-4;-19.41;-4.74;205.9;17.50;76628;2834.560;-1757.862;1;315;-110;-112.9;42.9;43.3;13;13.5;25.9;0.0;
27/02/2025 02:00:19;100;0;303.79;-4;-19.33;-4.75;208.8;17.50;76622;2834.563;-1757.866;1;315;-110;-111.3;42.9;43.3;13;13.5;25.9;0.0;
27/02/2025 02:00:39;100;0;304.75;-4;-19.59;-4.59;211.8;17.50;76626;2834.566;-1757.870;1;315;-110;-112.9;42.9;43.2;13;13.5;25.9;0.0;
27/02/2025 02:00:59;100;0;305.67;-4;-19.76;-4.75;214.7;17.40;76607;2834.569;-1757.873;1;315;-110;-112.9;42.9;43.2;13;13.5;25.9;0.0;
27/02/2025 02:01:19;100;0;305.83;-4;-19.75;-4.76;217.7;17.40;76605;2834.572;-1757.877;1;315;-110;-111.3;42.9;43.3;13;13.5;25.9;0.0;
27/02/2025 02:01:39;100;0;302.12;-4;-19.43;-4.78;220.6;17.40;76590;2834.575;-1757.881;1;315;-110;-111.3;42.9;43.3;13;13.5;25.9;0.0;
27/02/2025 02:01:59;100;0;301.23;-4;-19.52;-4.63;223.4;17.30;76595;2834.578;-1757.884;1;315;-110;-111.3;42.9;43.2;13;13.5;25.9;0.0;
27/02/2025 02:02:19;100;0;300.56;-4;-19.48;-4.73;226.5;17.30;76585;2834.581;-1757.889;1;315;-110;-111.3;42.9;43.3;13;13.5;25.9;0.0;
27/02/2025 02:02:39;100;0;300.61;-4;-19.55;-4.74;229.4;17.30;76581;2834.584;-1757.892;1;315;-110;-112.9;42.9;43.3;13;13.5;25.9;0.0;
27/02/2025 02:02:59;100;0;302.72;-4;-19.34;-4.69;232.2;17.20;76572;2834.587;-1757.896;1;315;-110;-111.3;42.9;43.3;13;13.5;25.9;0.0;
27/02/2025 02:03:19;100;0;303.66;-4;-19.50;-4.69;235.1;17.20;76569;2834.590;-1757.900;1;315;-110;-111.3;42.9;43.3;13;13.5;25.9;0.0;
27/02/2025 02:03:39;100;0;305.81;-4;-19.69;-4.68;237.9;17.20;76564;2834.593;-1757.903;1;315;-110;-111.3;42.9;43.3;13;13.5;25.9;0.0;
27/02/2025 02:03:59;100;0;305.59;-4;-20.16;-4.62;240.7;17.10;76560;2834.596;-1757.907;1;315;-110;-111.3;42.9;43.2;13;13.5;25.9;0.0;
27/02/2025 02:04:19;100;0;306.80;-4;-19.56;-4.66;243.6;17.10;76553;2834.599;-1757.910;1;315;-110;-111.3;42.9;43.3;13;13.5;25.9;0.0;
27/02/2025 02:04:39;100;0;306.52;-4;-19.77;-4.68;246.5;17.10;76540;2834.602;-1757.914;1;315;-110;-111.3;42.9;43.2;13;13.5;25.9;0.0;
27/02/2025 02:04:59;100;0;308.19;-4;-19.96;-4.65;249.2;17.00;76539;2834.605;-1757.917;1;315;-110;-111.3;42.9;43.2;13;13.5;25.9;0.0;
27/02/2025 02:05:19;100;0;312.22;-4;-19.63;-4.81;252.1;17.00;76527;2834.609;-1757.920;1;315;-110;-111.3;42.9;43.2;15;14.9;25.9;0.0;
27/02/2025 02:05:39;100;0;313.02;-4;-19.51;-4.08;254.9;17.00;76522;2834.612;-1757.923;1;315;-110;-111.3;42.9;43.3;15;15.3;25.9;0.0;
27/02/2025 02:05:59;100;0;312.67;-4;-19.42;-3.85;257.4;16.90;76524;2834.615;-1757.926;1;315;-110;-111.3;42.9;43.3;15;14.9;25.9;0.0;
27/02/2025 02:06:19;100;0;310.95;-4;-19.51;-4.02;260.2;16.90;76517;2834.618;-1757.929;1;315;-110;-111.3;42.9;43.3;15;15.3;25.9;0.0;
27/02/2025 02:06:39;100;0;311.51;-4;-19.53;-3.98;262.8;16.90;76502;2834.622;-1757.932;1;315;-110;-112.9;42.9;43.3;15;14.9;25.9;0.0;
27/02/2025 02:06:59;100;0;313.33;-4;-19.55;-4.03;265.7;16.80;76491;2834.625;-1757.936;1;315;-110;-111.3;42.9;43.3;15;14.9;25.9;0.0;
27/02/2025 02:07:19;100;0;311.97;-4;-19.65;-4.02;268.2;16.80;76489;2834.628;-1757.938;1;315;-110;-112.9;42.9;43.3;15;14.9;25.9;0.0;
27/02/2025 02:07:39;100;0;310.82;-4;-19.33;-3.97;271.0;16.80;76461;2834.631;-1757.942;1;315;-110;-111.3;42.9;43.3;15;14.9;25.9;0.0;
27/02/2025 02:07:59;100;0;307.44;-4;-19.32;-4.02;273.5;16.70;76451;2834.634;-1757.945;1;315;-110;-111.3;42.9;43.3;15;14.9;25.9;0.0;
27/02/2025 02:08:19;100;0;306.32;-4;-19.31;-4.05;276.1;16.70;76452;2834.637;-1757.948;1;315;-110;-111.3;42.9;43.3;15;14.9;25.9;0.0;
27/02/2025 02:08:39;100;0;306.73;-4;-19.50;-4.04;278.6;16.60;76438;2834.640;-1757.951;1;315;-110;-111.3;42.9;43.2;15;14.9;25.9;0.0;
27/02/2025 02:08:59;100;0;309.20;-4;-19.48;-3.94;281.2;16.60;76437;2834.643;-1757.954;1;315;-110;-111.3;42.9;43.2;15;14.9;25.9;0.0;
27/02/2025 02:09:19;100;0;309.87;-4;-19.82;-4.11;284.2;16.60;76424;2834.646;-1757.958;1;315;-110;-111.3;42.9;43.3;15;14.9;25.9;0.0;
27/02/2025 02:09:39;100;0;310.50;-4;-19.89;-4.11;286.7;16.50;76429;2834.649;-1757.961;1;315;-110;-111.3;42.9;43.3;15;14.9;25.9;0.0;
27/02/2025 02:09:59;100;0;313.82;-4;-19.83;-3.88;289.6;16.50;76421;2834.653;-1757.964;1;315;-110;-111.3;42.9;43.2;15;14.9;25.9;0.0;
27/02/2025 02:10:19;100;0;315.73;-4;-19.49;-3.95;292.3;16.50;76404;2834.656;-1757.967;1;315;-110;-111.3;42.9;43.3;18;18.1;25.9;0.0;
27/02/2025 02:10:39;100;0;315.19;-4;-19.82;-2.28;294.9;16.40;76393;2834.660;-1757.970;1;315;-110;-111.3;42.9;43.3;18;18.5;25.9;0.0;
27/02/2025 02:10:59;100;0;315.01;-4;-19.78;-2.28;297.6;16.40;76389;2834.663;-1757.973;1;315;-110;-111.3;42.9;43.3;18;18.5;25.9;0.0;
27/02/2025 02:11:19;100;0;315.84;-4;-19.78;-2.25;300.4;16.40;76385;2834.667;-1757.976;1;315;-110;-111.3;42.9;43.2;18;18.5;25.9;0.0;
27/02/2025 02:11:39;100;0;316.40;-4;-19.59;-2.37;303.0;16.30;76386;2834.670;-1757.978;1;315;-110;-111.3;42.9;43.3;18;18.5;25.9;0.0;
27/02/2025 02:11:59;100;0;315.05;-4;-19.30;-2.38;305.4;16.30;76378;2834.673;-1757.981;1;315;-110;-111.3;42.9;43.2;18;18.5;25.9;0.0;
27/02/2025 02:12:19;100;0;315.19;-4;-19.56;-2.36;307.9;16.30;76367;2834.676;-1757.984;1;315;-110;-111.3;42.9;43.3;18;18.5;25.9;0.0;
27/02/2025 02:12:39;100;0;315.06;-4;-19.42;-2.39;310.5;16.20;76369;2834.679;-1757.987;1;315;-110;-111.3;42.9;43.3;18;18.5;25.9;0.0;
27/02/2025 02:12:59;100;0;313.23;-4;-19.23;-2.43;312.9;16.20;76359;2834.683;-1757.989;1;315;-110;-111.3;42.9;43.2;18;18.5;25.9;0.0;
27/02/2025 02:13:19;100;0;312.81;-4;-19.26;-2.40;315.3;16.10;76348;2834.686;-1757.992;1;315;-110;-111.3;42.9;43.2;18;18.5;25.9;0.0;
27/02/2025 02:13:39;100;0;313.49;-4;-19.39;-2.44;317.8;16.10;76335;2834.689;-1757.995;1;315;-110;-111.3;42.9;43.3;18;18.5;25.9;0.0;
27/02/2025 02:13:59;100;0;313.87;-4;-19.41;-2.34;320.5;16.10;76336;2834.692;-1757.998;1;315;-110;-111.3;42.9;43.2;18;18.5;25.9;0.0;
27/02/2025 02:14:19;100;0;313.91;-4;-19.45;-2.37;323.0;16.00;76319;2834.695;-1758.001;1;315;-110;-111.3;42.9;43.2;18;18.5;25.9;0.0;
27/02/2025 02:14:39;100;0;312.12;-4;-19.55;-2.33;325.5;16.00;76321;2834.698;-1758.004;1;315;-110;-111.3;42.9;43.2;16;15.8;25.9;0.0;
27/02/2025 02:14:59;100;0;311.57;-4;-19.76;-3.90;328.2;16.00;76316;2834.702;-1758.007;1;315;-110;-111.3;42.9;43.3;16;15.3;25.9;0.0;
27/02/2025 02:15:19;100;0;308.53;-4;-20.06;-3.92;331.1;16.00;76303;2834.705;-1758.010;1;315;-110;-112.9;42.9;43.2;16;15.3;25.9;0.0;
27/02/2025 02:15:39;100;0;305.15;-4;-19.31;-3.96;333.7;15.90;76302;2834.708;-1758.014;1;315;-110;-112.9;42.9;43.3;16;15.3;25.9;0.0;
27/02/2025 02:15:59;100;0;300.04;-4;-18.72;-3.89;336.3;15.90;76287;2834.710;-1758.017;1;315;-110;-114.5;43.2;43.3;14;14.0;25.9;0.0;
27/02/2025 02:16:19;100;0;300.07;-4;-19.41;-4.55;338.9;15.80;76282;2834.713;-1758.021;1;315;-110;-112.9;43.2;43.3;14;14.0;25.9;0.0;
27/02/2025 02:16:39;100;0;300.78;-4;-19.10;-4.72;341.4;15.80;76269;2834.716;-1758.024;1;315;-110;-111.3;43.2;43.4;14;14.0;25.9;0.0;
27/02/2025 02:16:59;100;0;300.67;-4;-18.44;-4.60;344.0;15.80;76270;2834.718;-1758.028;1;315;-110;-111.3;43.7;43.7;14;14.0;25.9;0.0;
27/02/2025 02:17:19;100;0;301.90;-4;-19.66;-4.67;346.5;15.80;76271;2834.721;-1758.031;1;315;-110;-111.3;43.7;44.0;14;14.0;25.9;0.0;
27/02/2025 02:17:39;100;0;302.81;-4;-20.66;-4.71;349.0;15.70;76267;2834.724;-1758.034;1;315;-110;-111.3;43.7;43.9;14;14.0;25.9;0.0;
27/02/2025 02:17:59;100;0;304.11;-4;-20.48;-4.65;351.8;15.70;76255;2834.726;-1758.038;1;315;-110;-112.9;43.7;43.9;14;14.0;25.9;0.0;
27/02/2025 02:18:19;100;0;304.41;-4;-20.70;-4.69;354.5;15.70;76265;2834.729;-1758.041;1;315;-110;-111.3;43.7;43.9;14;14.0;25.9;0.0;
27/02/2025 02:18:39;100;0;304.51;-4;-20.62;-4.61;357.5;15.60;76247;2834.732;-1758.044;1;315;-110;-112.9;43.7;43.9;14;14.0;25.9;0.0;
27/02/2025 02:18:59;100;0;304.36;-4;-20.28;-4.66;360.1;15.60;76246;2834.735;-1758.048;1;315;-110;-111.3;43.7;43.9;14;14.0;25.9;0.0;
27/02/2025 02:19:19;100;0;303.10;-4;-20.69;-4.67;362.8;15.60;76238;2834.738;-1758.051;1;315;-110;-111.3;43.7;44.0;14;14.0;25.9;0.0;
27/02/2025 02:19:39;100;0;302.71;-4;-20.55;-4.58;365.7;15.50;76228;2834.741;-1758.055;1;315;-110;-111.3;43.7;43.9;14;14.0;25.9;0.0;
27/02/2025 02:19:59;100;0;299.73;-4;-20.33;-4.70;368.6;15.50;76224;2834.743;-1758.058;1;315;-110;-111.3;43.7;44.0;14;14.0;25.9;0.0;
27/02/2025 02:20:19;100;0;300.76;-4;-20.33;-4.61;371.1;15.50;76222;2834.746;-1758.062;1;315;-110;-112.9;43.7;43.9;14;14.0;25.9;0.0;
27/02/2025 02:20:39;100;0;302.40;-4;-20.74;-4.61;374.0;15.40;76221;2834.749;-1758.065;1;315;-110;-112.9;43.7;43.9;14;14.0;25.9;0.0;
27/02/2025 02:20:59;100;0;300.49;-4;-20.66;-4.65;376.9;15.40;76212;2834.751;-1758.069;1;315;-110;-111.3;43.7;43.9;14;14.0;25.9;0.0;
27/02/2025 02:21:19;100;0;300.60;-4;-20.96;-4.58;379.7;15.40;76198;2834.754;-1758.072;1;315;-110;-109.7;43.7;43.9;14;13.5;25.9;0.0;
27/02/2025 02:21:39;100;0;302.72;-4;-20.42;-4.59;382.7;15.40;76194;2834.757;-1758.076;1;315;-110;-111.3;43.7;43.9;14;14.0;25.9;0.0;
27/02/2025 02:21:59;100;0;302.35;-4;-20.36;-4.65;385.5;15.30;76185;2834.760;-1758.080;1;315;-110;-111.3;43.7;44.0;14;14.0;25.9;0.0;
27/02/2025 02:22:19;100;0;301.01;-4;-20.45;-4.73;388.2;15.30;76178;2834.763;-1758.083;1;315;-110;-112.9;43.7;44.0;14;14.0;25.9;0.0;
27/02/2025 02:22:39;100;0;298.68;-4;-20.49;-4.70;391.1;15.30;76168;2834.765;-1758.087;1;315;-110;-111.3;43.7;43.9;14;14.0;25.9;0.0;
27/02/2025 02:22:59;100;0;297.85;-4;-20.37;-4.40;394.1;15.20;76161;2834.768;-1758.091;1;315;-110;-112.9;43.7;43.9;12;12.2;25.9;0.0;
27/02/2025 02:23:19;100;0;297.73;-4;-20.14;-5.64;396.9;15.20;76168;2834.771;-1758.095;1;315;-110;-111.3;43.7;44.0;12;11.7;25.9;0.0;
27/02/2025 02:23:39;100;0;299.66;-4;-20.17;-5.60;399.8;15.20;76153;2834.773;-1758.099;1;315;-110;-111.3;43.7;44.0;14;14.0;25.9;0.0;
27/02/2025 02:23:59;100;0;299.86;-4;-20.18;-4.35;402.7;15.10;76160;2834.776;-1758.102;1;315;-110;-111.3;43.7;44.0;14;14.4;25.9;0.0;
27/02/2025 02:24:19;100;0;298.07;-4;-20.27;-4.42;405.4;15.10;76156;2834.779;-1758.106;1;315;-110;-112.9;43.7;43.9;14;14.0;25.9;0.0;
27/02/2025 02:24:39;100;0;294.24;-4;-20.27;-4.38;408.2;15.10;76141;2834.781;-1758.110;1;315;-110;-111.3;43.7;44.0;10;9.9;25.9;0.0;
27/02/2025 02:24:59;100;0;293.95;-4;-20.31;-6.67;411.0;15.00;76129;2834.783;-1758.114;1;315;-110;-111.3;43.7;44.0;10;9.9;25.9;0.0;
27/02/2025 02:25:19;100;0;295.07;-4;-20.10;-6.71;413.8;15.00;76134;2834.786;-1758.118;1;315;-110;-111.3;43.7;44.0;10;9.9;25.9;0.0;
27/02/2025 02:25:39;100;0;293.80;-4;-20.20;-6.75;416.5;15.00;76124;2834.788;-1758.121;1;315;-110;-111.3;43.7;44.0;10;9.5;25.9;0.0;
27/02/2025 02:25:59;100;0;297.60;-4;-20.93;-6.65;419.4;15.00;76119;2834.791;-1758.125;1;315;-110;-111.3;43.7;44.0;13;13.1;25.9;0.0;
27/02/2025 02:26:19;100;0;300.60;-4;-20.96;-4.73;422.2;14.90;76113;2834.793;-1758.129;1;315;-110;-114.5;43.7;44.0;13;13.5;25.9;0.0;
27/02/2025 02:26:39;100;0;298.97;-4;-20.83;-4.82;425.2;14.90;76109;2834.796;-1758.132;1;315;-110;-111.3;43.7;44.0;13;13.5;25.9;0.0;
27/02/2025 02:26:59;100;0;298.21;-4;-20.61;-4.91;428.3;14.90;76104;2834.799;-1758.136;1;315;-110;-111.3;43.7;44.0;13;13.5;25.9;0.0;
27/02/2025 02:27:19;100;0;296.97;-4;-20.75;-4.87;431.1;14.80;76094;2834.801;-1758.140;1;315;-110;-111.3;43.7;43.9;13;13.5;25.9;0.0;
27/02/2025 02:27:39;100;0;300.83;-4;-20.60;-4.90;433.9;14.80;76091;2834.804;-1758.144;1;315;-110;-111.3;43.7;44.0;13;13.5;25.9;0.0;
27/02/2025 02:27:59;100;0;302.92;-4;-20.61;-4.77;436.8;14.80;76081;2834.807;-1758.147;1;315;-110;-112.9;43.7;44.0;13;13.5;25.9;0.0;
27/02/2025 02:28:19;100;0;303.32;-4;-20.85;-4.98;439.6;14.80;76085;2834.810;-1758.151;1;315;-110;-111.3;43.7;44.0;13;13.5;25.9;0.0;
27/02/2025 02:28:39;100;0;306.93;-4;-20.97;-4.91;442.4;14.70;76080;2834.813;-1758.154;1;315;-110;-111.3;43.7;44.2;13;13.5;25.9;0.0;
27/02/2025 02:28:59;100;0;309.19;-4;-20.71;-4.73;445.3;14.70;76065;2834.816;-1758.157;1;315;-110;-114.5;43.7;44.0;13;13.5;25.9;0.0;
27/02/2025 02:29:19;100;0;308.62;-4;-20.72;-4.83;448.3;14.70;76066;2834.819;-1758.160;1;315;-110;-111.3;43.7;44.0;13;13.5;25.9;0.0;
27/02/2025 02:29:39;100;0;308.20;-4;-20.82;-4.76;451.4;14.60;76070;2834.822;-1758.164;1;315;-110;-109.7;43.7;44.0;13;13.5;25.9;0.0;
27/02/2025 02:29:59;100;0;309.57;-4;-20.88;-4.76;454.2;14.60;76061;2834.825;-1758.167;1;315;-110;-111.3;43.7;43.9;13;13.5;25.9;0.0;
27/02/2025 02:30:19;100;0;307.00;-4;-20.27;-4.89;457.0;14.60;76054;2834.828;-1758.171;1;315;-110;-111.3;43.7;44.0;13;13.5;25.9;0.0;
27/02/2025 02:30:39;100;0;306.22;-4;-20.26;-4.88;459.8;14.60;76047;2834.831;-1758.174;1;315;-110;-111.3;43.7;44.0;13;13.5;25.9;0.0;
27/02/2025 02:30:59;100;0;305.23;-4;-20.19;-4.88;462.5;14.50;76042;2834.834;-1758.177;1;315;-110;-112.9;43.7;44.0;13;13.5;25.9;0.0;
27/02/2025 02:31:19;100;0;304.74;-4;-20.21;-4.86;465.3;14.50;76040;2834.837;-1758.181;1;315;-110;-111.3;43.7;44.0;13;13.5;25.9;0.0;
27/02/2025 02:31:39;100;0;304.21;-4;-20.26;-4.91;468.0;14.50;76036;2834.840;-1758.184;1;315;-110;-111.3;43.7;44.0;13;13.5;25.9;0.0;
27/02/2025 02:31:59;100;0;302.81;-4;-20.04;-4.92;470.7;14.50;76032;2834.843;-1758.188;1;315;-110;-111.3;43.7;44.0;13;13.5;25.9;0.0;
27/02/2025 02:32:19;100;0;303.06;-4;-20.40;-4.90;473.4;14.40;76024;2834.846;-1758.191;1;315;-110;-112.9;43.7;44.0;13;13.5;25.9;0.0;
27/02/2025 02:32:39;100;0;304.59;-4;-20.32;-4.87;476.2;14.40;76015;2834.849;-1758.195;1;315;-110;-114.5;43.7;44.0;13;13.5;25.9;0.0;
27/02/2025 02:32:59;100;0;306.05;-4;-20.21;-4.85;479.0;14.40;76016;2834.852;-1758.198;1;315;-110;-111.3;43.7;43.9;13;13.5;25.9;0.0;
27/02/2025 02:33:19;100;0;309.03;-4;-20.57;-4.82;481.7;14.40;76006;2834.855;-1758.201;1;315;-110;-111.3;43.7;44.0;15;14.9;25.9;0.0;
27/02/2025 02:33:40;100;0;310.82;-4;-20.38;-3.97;484.6;14.30;76002;2834.858;-1758.204;1;315;-110;-111.3;43.7;44.0;15;15.3;25.9;0.0;
27/02/2025 02:34:00;100;0;313.77;-4;-20.51;-3.93;487.4;14.30;75996;2834.861;-1758.207;1;315;-110;-111.3;43.7;44.0;15;15.3;25.9;0.0;
27/02/2025 02:34:20;100;0;314.74;-4;-20.46;-3.87;490.2;14.30;75999;2834.865;-1758.210;1;315;-110;-111.3;43.7;44.0;17;17.1;25.9;0.0;
27/02/2025 02:34:40;100;0;316.05;-4;-20.48;-2.79;493.1;14.30;75985;2834.868;-1758.214;1;315;-110;-111.3;43.7;44.0;17;17.6;25.9;0.0;
27/02/2025 02:35:00;100;0;315.13;-4;-20.55;-2.84;495.9;14.20;75987;2834.872;-1758.216;1;315;-110;-112.9;43.7;44.0;17;17.6;25.9;0.0;
27/02/2025 02:35:20;100;0;313.28;-4;-20.36;-2.85;498.7;14.20;75982;2834.875;-1758.219;1;315;-110;-112.9;43.7;44.0;17;17.6;25.9;0.0;
27/02/2025 02:35:40;100;0;310.02;-4;-20.06;-2.92;501.4;14.20;75975;2834.878;-1758.223;1;315;-110;-112.9;43.7;44.0;15;14.9;25.9;0.0;
27/02/2025 02:36:00;100;0;308.80;-4;-19.94;-4.45;504.2;14.20;75967;2834.881;-1758.226;1;315;-110;-112.9;43.7;44.0;15;14.4;25.9;0.0;
27/02/2025 02:36:20;100;0;308.55;-4;-19.83;-4.46;506.6;14.10;75969;2834.884;-1758.229;1;315;-110;-111.3;43.7;44.0;15;14.4;25.9;0.0;
27/02/2025 02:36:40;100;0;305.94;-4;-20.01;-4.49;509.3;14.10;75948;2834.887;-1758.232;1;315;-110;-111.3;43.7;44.0;15;14.4;25.9;0.0;
27/02/2025 02:37:00;100;0;305.41;-4;-19.90;-4.50;512.0;14.10;75950;2834.890;-1758.235;1;315;-110;-112.9;43.7;44.0;15;14.4;25.9;0.0;
27/02/2025 02:37:20;100;0;304.35;-4;-19.93;-4.53;514.5;14.00;75944;2834.893;-1758.239;1;315;-110;-111.3;43.7;44.0;15;14.4;25.9;0.0;
27/02/2025 02:37:40;100;0;303.98;-4;-19.86;-4.42;517.2;14.00;75942;2834.895;-1758.242;1;315;-110;-112.9;43.7;44.0;15;14.4;25.9;0.0;
27/02/2025 02:38:00;100;0;302.10;-4;-20.21;-4.36;519.8;14.00;75932;2834.898;-1758.245;1;315;-110;-111.3;43.7;44.0;15;14.4;25.9;0.0;
27/02/2025 02:38:20;100;0;302.41;-4;-19.79;-4.37;522.4;14.00;75933;2834.901;-1758.249;1;315;-110;-111.3;43.7;44.0;15;14.4;25.9;0.0;
27/02/2025 02:38:40;100;0;304.96;-4;-20.15;-4.46;525.0;13.90;75926;2834.904;-1758.252;1;315;-110;-112.9;43.7;44.0;15;14.4;25.9;0.0;
27/02/2025 02:39:00;100;0;307.89;-4;-20.20;-4.44;527.8;13.90;75924;2834.907;-1758.255;1;315;-110;-111.3;43.7;44.0;15;14.4;25.9;0.0;
27/02/2025 02:39:20;100;0;308.71;-4;-20.21;-4.21;530.4;13.90;75905;2834.910;-1758.258;1;315;-110;-111.3;43.7;44.0;15;14.4;25.9;0.0;
27/02/2025 02:39:40;100;0;310.25;-4;-20.28;-4.33;533.1;13.90;75896;2834.913;-1758.262;1;315;-110;-111.3;43.7;44.0;15;14.4;25.9;0.0;
27/02/2025 02:40:00;100;0;311.07;-4;-20.10;-4.31;535.8;13.80;75900;2834.916;-1758.265;1;315;-110;-111.3;43.7;44.0;15;14.4;25.9;0.0;
27/02/2025 02:40:20;100;0;313.32;-4;-20.45;-4.33;538.6;13.80;75895;2834.919;-1758.268;1;315;-110;-112.9;43.7;44.0;15;14.4;25.9;0.0;
27/02/2025 02:40:40;100;0;314.61;-4;-20.17;-4.39;541.4;13.80;75890;2834.923;-1758.271;1;315;-110;-111.3;43.7;44.0;17;17.1;25.9;0.0;
27/02/2025 02:41:00;100;0;314.33;-4;-20.59;-2.68;544.2;13.80;75885;2834.926;-1758.274;1;315;-110;-111.3;43.7;44.0;17;17.6;25.9;0.0;
27/02/2025 02:41:20;100;0;315.21;-4;-20.14;-2.65;546.9;13.80;75874;2834.930;-1758.277;1;315;-110;-112.9;43.7;44.0;17;17.6;25.9;0.0;
27/02/2025 02:41:40;100;0;317.21;-4;-20.35;-2.64;549.7;13.70;75868;2834.933;-1758.279;1;315;-110;-111.3;43.7;44.0;19;19.0;25.9;0.0;
27/02/2025 02:42:00;100;0;314.37;-4;-20.13;-1.76;552.3;13.70;75867;2834.936;-1758.282;1;315;-110;-112.9;43.7;44.0;17;17.1;25.9;0.0;
27/02/2025 02:42:20;100;0;310.64;-4;-19.96;-3.29;554.9;13.70;75864;2834.939;-1758.285;1;315;-110;-111.3;43.7;44.0;15;14.9;25.9;0.0;
27/02/2025 02:42:40;100;0;309.05;-4;-19.88;-4.26;557.6;13.60;75860;2834.942;-1758.288;1;315;-110;-112.9;43.7;44.0;15;14.9;25.9;0.0;
27/02/2025 02:43:00;100;0;306.47;-4;-20.23;-4.25;560.3;13.60;75855;2834.945;-1758.292;1;315;-110;-111.3;43.7;44.0;15;14.9;25.9;0.0;
27/02/2025 02:43:20;100;0;305.83;-4;-19.89;-4.20;563.0;13.60;75846;2834.948;-1758.295;1;315;-110;-111.3;43.7;44.0;15;14.9;25.9;0.0;
27/02/2025 02:43:40;100;0;306.71;-4;-19.90;-4.28;565.6;13.60;75844;2834.951;-1758.298;1;315;-110;-112.9;43.7;43.9;15;14.9;25.9;0.0;
27/02/2025 02:44:00;100;0;307.69;-4;-19.76;-4.21;568.3;13.60;75848;2834.954;-1758.302;1;315;-110;-112.9;43.7;44.0;15;14.9;25.9;0.0;
27/02/2025 02:44:20;100;0;308.09;-4;-19.68;-4.21;571.1;13.50;75832;2834.957;-1758.305;1;315;-110;-111.3;43.7;44.0;15;14.9;25.9;0.0;
27/02/2025 02:44:40;100;0;305.21;-4;-19.95;-4.32;573.8;13.50;75831;2834.960;-1758.308;1;315;-110;-111.3;43.7;44.0;15;14.9;25.9;0.0;
27/02/2025 02:45:00;100;0;301.61;-4;-19.85;-4.24;576.7;13.50;75829;2834.963;-1758.312;1;315;-110;-111.3;43.7;44.0;15;14.9;25.9;0.0;
27/02/2025 02:45:20;100;0;300.35;-4;-19.96;-4.17;579.5;13.50;75823;2834.966;-1758.316;1;315;-110;-111.3;43.7;44.0;15;14.9;25.9;0.0;
27/02/2025 02:45:40;100;0;298.12;-4;-19.61;-4.25;582.3;13.40;75820;2834.968;-1758.319;1;315;-110;-109.7;43.7;44.0;13;13.1;25.9;0.0;
27/02/2025 02:46:00;100;0;299.09;-4;-19.62;-5.21;585.0;13.40;75805;2834.971;-1758.323;1;315;-110;-112.9;43.7;44.0;13;13.1;25.9;0.0;
27/02/2025 02:46:20;100;0;300.31;-4;-19.57;-5.28;588.0;13.40;75801;2834.974;-1758.327;1;315;-110;-111.3;43.7;44.0;13;12.6;25.9;0.0;
27/02/2025 02:46:40;100;0;299.77;-4;-19.30;-5.12;590.6;13.30;75794;2834.977;-1758.330;1;315;-110;-111.3;43.7;44.0;13;12.6;25.9;0.0;
27/02/2025 02:47:00;100;0;301.65;-4;-19.57;-5.31;593.5;13.30;75789;2834.979;-1758.334;1;315;-110;-111.3;43.7;44.0;13;12.6;25.9;0.0;
27/02/2025 02:47:20;100;0;303.18;-4;-19.78;-5.17;596.4;13.30;75779;2834.982;-1758.338;1;315;-110;-111.3;43.7;44.0;15;14.9;25.9;0.0;
27/02/2025 02:47:40;100;0;304.70;-4;-19.96;-3.97;599.4;13.30;75777;2834.985;-1758.341;1;315;-110;-112.9;43.7;44.0;15;15.3;25.9;0.0;
27/02/2025 02:48:00;100;0;306.78;-4;-19.93;-3.95;602.4;13.30;75776;2834.989;-1758.345;1;315;-110;-112.9;43.7;43.9;15;15.3;25.9;0.0;
27/02/2025 02:48:20;100;0;309.48;-4;-19.63;-4.03;605.3;13.20;75761;2834.992;-1758.348;1;315;-110;-111.3;43.7;44.0;15;15.3;25.9;0.0;
27/02/2025 02:48:40;100;0;309.99;-4;-19.86;-4.01;608.3;13.20;75751;2834.995;-1758.352;1;315;-110;-111.3;43.7;44.0;15;15.3;25.9;0.0;
27/02/2025 02:49:00;100;0;308.28;-4;-19.73;-4.07;611.4;13.20;75749;2834.999;-1758.356;1;315;-110;-111.3;43.7;44.0;15;15.3;25.9;0.0;
27/02/2025 02:49:20;100;0;307.71;-4;-19.61;-4.00;614.1;13.10;75737;2835.002;-1758.359;1;315;-110;-111.3;43.7;44.0;15;14.9;25.9;0.0;
27/02/2025 02:49:40;100;0;308.52;-4;-19.66;-4.00;617.1;13.10;75742;2835.005;-1758.362;1;315;-110;-112.9;43.7;44.0;15;15.3;25.9;0.0;
27/02/2025 02:50:00;100;0;309.84;-4;-19.55;-4.04;619.9;13.10;75738;2835.008;-1758.366;1;315;-110;-111.3;43.7;44.0;15;15.3;25.9;0.0;
27/02/2025 02:50:20;100;0;311.62;-4;-19.46;-4.03;622.6;13.10;75739;2835.011;-1758.369;1;315;-110;-111.3;43.7;44.0;15;15.3;25.9;0.0;
27/02/2025 02:50:40;100;0;314.31;-4;-19.46;-4.02;625.5;13.00;75727;2835.015;-1758.372;1;315;-110;-111.3;43.7;44.0;15;15.3;25.9;0.0;
27/02/2025 02:51:00;100;0;316.61;-4;-19.65;-4.06;628.1;13.00;75720;2835.018;-1758.375;1;315;-110;-111.3;43.7;43.9;19;19.4;25.9;0.0;
27/02/2025 02:51:20;100;0;312.91;-4;-19.94;-1.79;631.0;13.00;75713;2835.022;-1758.378;1;315;-110;-112.9;43.7;44.0;16;15.8;25.9;0.0;
27/02/2025 02:51:40;100;0;311.34;-4;-19.68;-3.84;633.7;13.00;75708;2835.025;-1758.381;1;315;-110;-111.3;43.7;44.0;16;15.8;25.9;0.0;
27/02/2025 02:52:00;100;0;311.75;-4;-19.29;-3.82;636.5;13.00;75704;2835.028;-1758.384;1;315;-110;-111.3;43.7;44.0;16;15.8;25.9;0.0;
27/02/2025 02:52:20;100;0;312.00;-4;-19.41;-3.90;639.1;12.90;75689;2835.032;-1758.388;1;315;-110;-111.3;43.7;44.0;16;15.8;25.9;0.0;
27/02/2025 02:52:40;100;0;314.59;-4;-19.28;-3.70;641.7;12.90;75681;2835.035;-1758.390;1;315;-110;-112.9;43.7;44.0;16;15.8;25.9;0.0;
27/02/2025 02:53:00;100;0;315.39;-4;-19.44;-3.74;644.3;12.90;75679;2835.038;-1758.393;1;315;-110;-112.9;43.7;44.0;18;18.1;25.9;0.0;
27/02/2025 02:53:20;100;0;312.49;-4;-19.64;-2.43;646.9;12.80;75676;2835.041;-1758.396;1;315;-110;-112.9;43.7;44.0;16;15.8;25.9;0.0;
27/02/2025 02:53:40;100;0;311.85;-4;-19.51;-4.01;649.5;12.80;75666;2835.045;-1758.399;1;315;-110;-111.3;43.7;44.0;16;15.3;25.9;0.0;
27/02/2025 02:54:00;100;0;310.67;-4;-19.56;-4.00;652.0;12.80;75656;2835.048;-1758.402;1;315;-110;-111.3;43.7;44.0;16;15.3;25.9;0.0;
27/02/2025 02:54:20;100;0;310.97;-4;-19.44;-4.09;654.6;12.80;75651;2835.051;-1758.405;1;315;-110;-111.3;43.7;44.0;16;15.3;25.9;0.0;
27/02/2025 02:54:40;100;0;310.72;-4;-19.41;-4.10;657.0;12.70;75643;2835.054;-1758.408;1;315;-110;-111.3;43.7;44.0;16;15.3;25.9;0.0;
27/02/2025 02:55:00;100;0;309.05;-4;-19.18;-4.09;659.6;12.70;75635;2835.057;-1758.411;1;315;-110;-111.3;43.7;44.0;16;15.3;25.9;0.0;
27/02/2025 02:55:20;100;0;307.89;-4;-19.16;-4.05;662.0;12.70;75632;2835.060;-1758.414;1;315;-110;-111.3;43.7;44.0;16;15.3;25.9;0.0;
27/02/2025 02:55:40;100;0;307.83;-4;-19.21;-4.02;664.5;12.70;75630;2835.063;-1758.417;1;315;-110;-111.3;43.7;44.0;16;15.3;25.9;0.0;
27/02/2025 02:56:00;100;0;306.43;-4;-19.46;-4.04;666.9;12.60;75623;2835.065;-1758.420;1;315;-110;-111.3;43.7;43.9;16;15.3;25.9;0.0;
27/02/2025 02:56:20;100;0;305.53;-4;-19.54;-4.03;669.4;12.60;75621;2835.068;-1758.424;1;315;-110;-111.3;43.7;44.0;16;15.3;25.9;0.0;
27/02/2025 02:56:40;100;0;305.39;-4;-19.39;-4.08;672.0;12.60;75611;2835.071;-1758.427;1;315;-110;-111.3;43.7;44.0;16;15.3;25.9;0.0;
27/02/2025 02:57:00;100;0;311.00;-4;-19.37;-3.95;674.7;12.50;75605;2835.074;-1758.430;1;315;-110;-111.3;43.7;43.9;16;15.3;25.9;0.0;
27/02/2025 02:57:20;100;0;313.14;-4;-19.43;-4.02;677.2;12.50;75602;2835.078;-1758.433;1;315;-110;-112.9;43.7;44.0;16;15.3;25.9;0.0;
27/02/2025 02:57:40;100;0;314.78;-4;-19.71;-4.02;679.9;12.50;75584;2835.081;-1758.436;1;315;-110;-111.3;43.7;44.0;16;15.3;25.9;0.0;
27/02/2025 02:58:00;100;0;314.18;-4;-19.66;-4.01;682.7;12.50;75570;2835.084;-1758.439;1;315;-110;-111.3;43.7;44.0;16;15.3;25.9;0.0;
27/02/2025 02:58:20;100;0;314.00;-4;-19.53;-3.97;685.3;12.50;75579;2835.087;-1758.442;1;315;-110;-111.3;43.7;43.9;18;18.1;25.9;0.0;
27/02/2025 02:58:40;100;0;312.81;-4;-19.93;-2.37;688.2;12.40;75575;2835.091;-1758.445;1;315;-110;-112.9;43.7;44.0;16;15.8;25.9;0.0;
27/02/2025 02:59:00;100;0;313.46;-4;-19.47;-3.90;691.0;12.40;75568;2835.094;-1758.448;1;315;-110;-112.9;43.7;44.0;16;15.3;25.9;0.0;
27/02/2025 02:59:20;100;0;314.29;-4;-19.53;-3.93;693.6;12.40;75553;2835.098;-1758.451;1;315;-110;-111.3;43.7;44.0;16;15.8;25.9;0.0;
27/02/2025 02:59:40;100;0;314.56;-4;-19.41;-3.90;696.3;12.40;75556;2835.101;-1758.454;1;315;-110;-111.3;43.7;44.0;16;15.8;25.9;0.0;
27/02/2025 03:00:00;100;0;313.45;-4;-19.64;-3.87;699.1;12.30;75549;2835.104;-1758.457;1;315;-110;-112.9;43.7;44.0;16;15.8;25.9;0.0;
27/02/2025 03:00:20;100;0;312.34;-4;-19.43;-3.98;701.8;12.30;75542;2835.108;-1758.460;1;315;-110;-111.3;43.7;44.0;16;15.3;25.9;0.0;
27/02/2025 03:00:40;100;0;311.56;-4;-19.66;-3.91;704.5;12.30;75539;2835.111;-1758.463;1;315;-110;-111.3;43.7;43.9;16;15.3;25.9;0.0;
27/02/2025 03:01:00;100;0;315.05;-4;-19.41;-3.86;707.2;12.30;75533;2835.114;-1758.466;1;315;-110;-111.3;43.7;44.0;18;18.1;25.9;0.0;
27/02/2025 03:01:20;100;0;314.26;-4;-19.38;-2.39;709.8;12.20;75516;2835.118;-1758.469;1;315;-110;-111.3;43.7;44.0;18;18.5;25.9;0.0;
27/02/2025 03:01:40;100;0;313.19;-4;-19.57;-2.37;712.4;12.20;75502;2835.121;-1758.472;1;315;-110;-111.3;43.7;44.0;18;18.5;25.9;0.0;
27/02/2025 03:02:00;100;0;314.84;-4;-19.56;-2.35;715.0;12.20;75506;2835.124;-1758.475;1;315;-110;-111.3;43.7;44.0;18;18.5;25.9;0.0;
27/02/2025 03:02:20;100;0;313.18;-4;-19.29;-2.36;717.6;12.10;75504;2835.127;-1758.478;1;315;-110;-111.3;43.7;44.0;18;18.5;25.9;0.0;
27/02/2025 03:02:40;100;0;309.91;-4;-19.38;-2.37;720.2;12.10;75492;2835.131;-1758.481;1;315;-110;-112.9;43.7;44.0;16;15.8;25.9;0.0;
27/02/2025 03:03:00;100;0;308.88;-4;-19.05;-3.90;722.7;12.10;75493;2835.134;-1758.484;1;315;-110;-111.3;43.7;44.0;16;15.8;25.9;0.0;
27/02/2025 03:03:20;100;0;308.03;-4;-18.97;-3.87;725.2;12.00;75480;2835.136;-1758.487;1;315;-110;-111.3;44.0;44.0;16;15.8;25.9;0.0;
27/02/2025 03:03:40;100;0;306.77;-4;-18.99;-3.96;727.6;12.00;75476;2835.139;-1758.490;1;315;-110;-112.9;44.3;44.3;16;15.8;25.9;0.0;
27/02/2025 03:04:00;100;0;307.47;-4;-19.99;-3.93;730.1;12.00;75480;2835.142;-1758.494;1;315;-110;-112.9;44.3;44.6;16;15.8;25.9;0.0;
27/02/2025 03:04:20;100;0;306.82;-4;-19.77;-4.06;732.8;12.00;75479;2835.145;-1758.497;1;315;-110;-112.9;44.3;44.5;16;15.8;25.9;0.0;
27/02/2025 03:04:40;100;0;304.43;-4;-19.90;-3.94;735.4;12.00;75482;2835.148;-1758.500;1;315;-110;-111.3;44.3;44.5;16;15.8;25.9;0.0;
27/02/2025 03:05:00;100;0;303.73;-4;-20.51;-3.69;738.0;11.90;75454;2835.151;-1758.503;1;315;-110;-112.9;44.3;44.6;16;15.8;25.9;0.0;
27/02/2025 03:05:20;100;0;302.66;-4;-20.01;-3.91;740.6;11.90;75475;2835.153;-1758.506;1;315;-110;-111.3;44.3;44.5;16;15.8;25.9;0.0;
27/02/2025 03:05:40;100;0;300.50;-4;-19.98;-3.92;743.2;11.90;75462;2835.156;-1758.510;1;315;-110;-111.3;44.3;44.5;16;15.8;25.9;0.0;
27/02/2025 03:06:00;100;0;296.49;-4;-18.76;-3.75;745.6;11.90;75455;2835.158;-1758.513;1;315;-110;-111.3;44.7;44.6;14;13.5;25.9;0.0;
27/02/2025 03:06:20;100;0;296.81;-4;-19.77;-5.05;747.7;11.90;75455;2835.160;-1758.516;1;315;-110;-111.3;44.7;44.5;14;13.5;25.9;0.0;
27/02/2025 03:06:40;100;0;296.75;-4;-20.28;-4.81;749.8;11.80;75451;2835.162;-1758.519;1;315;-110;-111.3;44.7;44.5;14;13.5;25.9;0.0;
27/02/2025 03:07:00;100;0;298.25;-4;-19.80;-4.89;752.1;11.80;75444;2835.165;-1758.522;1;315;-110;-111.3;44.7;44.6;14;13.5;25.9;0.0;
27/02/2025 03:07:20;100;0;300.13;-4;-20.16;-4.82;754.5;11.80;75442;2835.167;-1758.525;1;315;-110;-111.3;44.7;44.5;14;13.5;25.9;0.0;
27/02/2025 03:07:40;100;0;301.87;-4;-20.20;-4.83;756.8;11.80;75438;2835.170;-1758.528;1;315;-110;-111.3;44.7;44.6;16;15.8;25.9;0.0;
27/02/2025 03:08:01;100;0;302.13;-4;-20.21;-3.48;759.2;11.70;75436;2835.172;-1758.531;1;315;-110;-111.3;44.7;44.5;16;16.2;25.9;0.0;
27/02/2025 03:08:21;100;0;302.47;-4;-20.11;-3.49;761.5;11.70;75434;2835.175;-1758.534;1;315;-110;-112.9;44.7;44.6;16;16.2;25.9;0.0;
27/02/2025 03:08:41;100;0;303.14;-4;-20.18;-3.49;763.8;11.70;75431;2835.177;-1758.537;1;315;-110;-112.9;44.7;44.6;16;16.2;25.9;0.0;
27/02/2025 03:09:01;100;0;303.73;-4;-20.23;-3.49;766.1;11.70;75423;2835.180;-1758.540;1;315;-110;-111.3;44.7;44.5;16;16.2;25.9;0.0;
27/02/2025 03:09:21;100;0;305.44;-4;-20.36;-3.46;768.4;11.70;75421;2835.182;-1758.543;1;315;-110;-111.3;44.7;44.6;16;16.2;25.9;0.0;
27/02/2025 03:09:41;100;0;306.32;-4;-20.38;-3.47;770.6;11.60;75417;2835.185;-1758.546;1;315;-110;-111.3;44.7;44.6;16;16.2;25.9;0.0;
27/02/2025 03:10:01;100;0;307.01;-4;-20.59;-3.55;772.9;11.60;75412;2835.188;-1758.548;1;315;-110;-111.3;44.7;44.6;16;16.2;25.9;0.0;
27/02/2025 03:10:21;100;0;306.67;-4;-20.43;-3.46;775.2;11.60;75407;2835.190;-1758.551;1;315;-110;-112.9;44.7;44.6;16;16.2;25.9;0.0;
27/02/2025 03:10:41;100;0;306.67;-4;-20.37;-3.49;777.5;11.60;75409;2835.193;-1758.554;1;315;-110;-111.3;44.7;44.6;16;16.2;25.9;0.0;
27/02/2025 03:11:01;100;0;305.48;-4;-20.17;-3.45;780.0;11.60;75401;2835.196;-1758.557;1;315;-110;-111.3;44.7;44.6;16;16.2;25.9;0.0;
27/02/2025 03:11:21;100;0;306.30;-4;-20.22;-3.54;782.3;11.50;75402;2835.198;-1758.560;1;315;-110;-111.3;44.7;44.6;16;16.2;25.9;0.0;
27/02/2025 03:11:41;100;0;306.85;-4;-20.17;-3.49;784.8;11.50;75388;2835.201;-1758.563;1;315;-110;-114.5;44.7;44.6;16;16.2;25.9;0.0;
27/02/2025 03:12:01;100;0;306.17;-4;-20.07;-3.40;787.0;11.50;75389;2835.204;-1758.566;1;315;-110;-112.9;44.7;44.6;16;16.2;25.9;0.0;
27/02/2025 03:12:21;100;0;304.74;-4;-20.31;-3.53;789.4;11.50;75384;2835.206;-1758.569;1;315;-110;-111.3;44.7;44.6;16;16.2;25.9;0.0;
27/02/2025 03:12:41;100;0;298.72;-4;-20.29;-3.36;791.9;11.40;75379;2835.209;-1758.572;1;315;-110;-111.3;44.7;44.5;16;16.2;25.9;0.0;
27/02/2025 03:13:01;100;0;293.50;-4;-20.11;-3.61;794.3;11.40;75378;2835.211;-1758.575;1;315;-110;-111.3;44.7;44.6;11;10.8;25.9;0.0;
27/02/2025 03:13:21;100;0;294.22;-4;-19.84;-6.31;796.7;11.40;75384;2835.213;-1758.579;1;315;-110;-111.3;44.7;44.6;11;10.4;25.9;0.0;
27/02/2025 03:13:41;100;0;290.93;-4;-19.94;-6.44;799.2;11.40;75374;2835.215;-1758.582;1;315;-110;-111.3;44.7;44.5;8;8.1;25.9;0.0;
27/02/2025 03:14:01;100;0;292.83;-4;-19.43;-7.70;801.4;11.40;75364;2835.217;-1758.585;1;315;-110;-111.3;44.7;44.6;11;10.8;25.9;0.0;
27/02/2025 03:14:21;100;0;293.41;-4;-19.95;-6.00;803.9;11.40;75365;2835.219;-1758.589;1;315;-110;-111.3;44.7;44.6;11;11.3;25.9;0.0;
27/02/2025 03:14:41;100;0;293.76;-4;-20.05;-5.97;806.2;11.30;75361;2835.221;-1758.592;1;315;-110;-111.3;44.7;44.6;11;11.3;25.9;0.0;
27/02/2025 03:15:01;100;0;291.75;-4;-20.09;-5.98;808.8;11.30;75352;2835.224;-1758.596;1;315;-110;-111.3;44.7;44.6;9;9.0;25.9;0.0;
27/02/2025 03:15:21;100;0;289.70;-4;-20.14;-7.10;811.3;11.30;75349;2835.226;-1758.599;1;315;-110;-111.3;44.7;44.6;6;5.9;25.9;0.0;
27/02/2025 03:15:41;100;0;292.85;-4;-19.46;-8.83;813.9;11.30;75342;2835.228;-1758.603;1;315;-110;-111.3;44.7;44.6;10;9.9;25.9;0.0;
27/02/2025 03:16:01;100;0;293.63;-4;-19.91;-6.40;816.4;11.20;75340;2835.230;-1758.607;1;315;-110;-111.3;44.7;44.5;10;10.4;25.9;0.0;
27/02/2025 03:16:21;100;0;292.16;-4;-20.12;-6.60;818.8;11.20;75343;2835.232;-1758.610;1;315;-110;-109.7;44.7;44.6;10;9.9;25.9;0.0;
27/02/2025 03:16:41;100;0;294.16;-4;-20.04;-6.72;821.5;11.20;75333;2835.234;-1758.614;1;315;-110;-111.3;44.7;44.6;10;10.4;25.9;0.0;
27/02/2025 03:17:01;100;0;296.27;-4;-19.20;-6.43;823.9;11.20;75340;2835.237;-1758.617;1;315;-110;-111.3;44.7;44.6;13;13.5;25.9;0.0;
27/02/2025 03:17:21;100;0;297.31;-4;-21.09;-4.46;826.3;11.20;75329;2835.239;-1758.620;1;315;-110;-112.9;44.7;44.6;13;14.0;25.9;0.0;
27/02/2025 03:17:41;100;0;295.38;-4;-20.18;-4.73;828.9;11.20;75316;2835.241;-1758.624;1;315;-110;-112.9;44.7;44.5;13;14.0;25.9;0.0;
27/02/2025 03:18:01;100;0;296.92;-4;-20.26;-4.87;831.2;11.10;75310;2835.244;-1758.627;1;315;-110;-112.9;44.7;44.6;13;13.5;25.9;0.0;
27/02/2025 03:18:21;100;0;298.79;-4;-20.32;-5.08;833.7;11.10;75319;2835.246;-1758.630;1;315;-110;-111.3;44.7;44.6;13;14.0;25.9;0.0;
27/02/2025 03:18:41;100;0;297.66;-4;-20.23;-4.88;836.3;11.10;75319;2835.248;-1758.634;1;315;-110;-111.3;44.7;44.6;13;14.0;25.9;0.0;
27/02/2025 03:19:01;100;0;294.94;-4;-20.34;-4.59;838.8;11.10;75307;2835.251;-1758.637;1;315;-110;-111.3;44.7;44.5;13;13.5;25.9;0.0;
27/02/2025 03:19:21;100;0;292.82;-4;-20.34;-4.69;841.2;11.10;75302;2835.253;-1758.640;1;315;-110;-112.9;44.7;44.6;11;10.8;25.9;0.0;
27/02/2025 03:19:41;100;0;292.14;-4;-19.85;-6.50;843.6;11.00;75304;2835.255;-1758.644;1;315;-110;-112.9;44.7;44.6;9;9.0;25.9;0.0;
27/02/2025 03:20:01;100;0;294.07;-4;-19.56;-7.15;846.0;11.00;75301;2835.257;-1758.647;1;315;-110;-112.9;44.7;44.5;12;12.2;25.9;0.0;
27/02/2025 03:20:21;100;0;295.16;-4;-19.85;-5.39;848.2;11.00;75293;2835.259;-1758.650;1;315;-110;-112.9;44.7;44.6;12;12.6;25.9;0.0;
27/02/2025 03:20:41;100;0;297.50;-4;-19.65;-5.35;850.5;11.00;75287;2835.261;-1758.653;1;315;-110;-111.3;44.7;44.6;14;14.0;25.9;0.0;
27/02/2025 03:21:01;100;0;298.57;-4;-19.99;-4.49;852.8;11.00;75290;2835.264;-1758.656;1;315;-110;-111.3;44.7;44.6;14;14.4;25.9;0.0;
27/02/2025 03:21:21;100;0;298.67;-4;-20.17;-4.54;855.0;10.90;75275;2835.266;-1758.659;1;315;-110;-112.9;44.7;44.6;14;14.4;25.9;0.0;
27/02/2025 03:21:41;100;0;299.20;-4;-20.11;-4.42;857.5;10.90;75278;2835.268;-1758.663;1;315;-110;-111.3;44.7;44.6;14;14.4;25.9;0.0;
27/02/2025 03:22:01;100;0;300.65;-4;-19.90;-4.48;859.9;10.90;75280;2835.271;-1758.666;1;315;-110;-111.3;44.7;44.6;14;14.4;25.9;0.0;
27/02/2025 03:22:21;100;0;301.95;-4;-19.60;-4.54;862.2;10.90;75272;2835.273;-1758.669;1;315;-110;-111.3;44.7;44.6;14;14.4;25.9;0.0;
27/02/2025 03:22:41;100;0;302.51;-4;-19.76;-4.53;864.6;10.90;75273;2835.276;-1758.672;1;315;-110;-109.7;44.7;44.6;14;14.4;25.9;0.0;
27/02/2025 03:23:01;100;0;302.28;-4;-20.08;-4.56;866.9;10.90;75263;2835.278;-1758.675;1;315;-110;-111.3;44.7;44.6;14;14.4;25.9;0.0;
27/02/2025 03:23:21;100;0;302.76;-4;-19.78;-4.57;869.5;10.80;75259;2835.281;-1758.678;1;315;-110;-111.3;44.7;44.8;14;14.4;25.9;0.0;
27/02/2025 03:23:41;100;0;302.70;-4;-19.90;-4.65;871.8;10.80;75262;2835.284;-1758.681;1;315;-110;-111.3;44.7;44.6;14;14.4;25.9;0.0;
27/02/2025 03:24:01;100;0;304.43;-4;-19.74;-4.55;874.1;10.80;75258;2835.286;-1758.684;1;315;-110;-111.3;44.7;44.6;14;14.0;25.9;0.0;
27/02/2025 03:24:21;100;0;306.05;-4;-19.85;-4.52;876.4;10.80;75258;2835.289;-1758.687;1;315;-110;-112.9;44.7;44.6;14;14.4;25.9;0.0;
27/02/2025 03:24:41;100;0;306.74;-4;-20.03;-4.61;878.8;10.80;75257;2835.292;-1758.690;1;315;-110;-112.9;44.7;44.5;14;14.4;25.9;0.0;
27/02/2025 03:25:01;100;0;307.70;-4;-19.89;-4.51;881.1;10.80;75250;2835.294;-1758.692;1;315;-110;-111.3;44.7;44.6;14;14.4;25.9;0.0;
27/02/2025 03:25:21;100;0;308.66;-4;-19.89;-4.46;883.6;10.70;75235;2835.297;-1758.696;1;315;-110;-111.3;44.7;44.6;14;14.4;25.9;0.0;
27/02/2025 03:25:41;100;0;311.20;-4;-19.56;-4.45;886.0;10.70;75240;2835.300;-1758.698;1;315;-110;-111.3;44.7;44.6;16;16.2;25.9;0.0;
27/02/2025 03:26:01;100;0;312.11;-4;-20.04;-3.34;888.3;10.70;75236;2835.303;-1758.701;1;315;-110;-111.3;44.7;44.6;16;16.2;25.9;0.0;
27/02/2025 03:26:21;100;0;311.98;-4;-19.07;-3.56;890.7;10.70;75245;2835.306;-1758.704;1;315;-110;-111.3;44.7;44.5;16;16.7;25.9;0.0;
27/02/2025 03:26:41;100;0;312.27;-4;-20.26;-3.17;892.8;10.70;75235;2835.309;-1758.706;1;315;-110;-111.3;44.7;44.6;16;16.7;25.9;0.0;
27/02/2025 03:27:01;100;0;313.71;-4;-19.88;-3.50;895.2;10.60;75231;2835.312;-1758.709;1;315;-110;-111.3;44.7;44.6;18;18.1;25.9;0.0;
27/02/2025 03:27:21;100;0;312.66;-4;-20.45;-2.26;897.6;10.60;75240;2835.315;-1758.711;1;315;-110;-111.3;44.7;44.6;16;15.8;25.9;0.0;
27/02/2025 03:27:41;100;0;311.32;-4;-19.48;-3.93;900.0;10.60;75231;2835.318;-1758.714;1;315;-110;-112.9;44.7;44.6;16;15.8;25.9;0.0;
27/02/2025 03:28:01;100;0;311.23;-4;-20.28;-3.84;902.2;10.60;75227;2835.321;-1758.717;1;315;-110;-112.9;44.7;44.8;16;15.8;25.9;0.0;
27/02/2025 03:28:21;100;0;308.17;-4;-19.76;-3.68;904.4;10.60;75220;2835.323;-1758.719;1;315;-110;-111.3;44.7;44.6;16;15.8;25.9;0.0;
27/02/2025 03:28:41;100;0;306.93;-4;-19.69;-3.86;906.6;10.60;75226;2835.326;-1758.722;1;315;-110;-112.9;44.7;44.6;16;15.8;25.9;0.0;
27/02/2025 03:29:01;100;0;307.62;-4;-19.54;-4.10;908.9;10.60;75214;2835.329;-1758.725;1;315;-110;-112.9;44.7;44.6;16;15.8;25.9;0.0;
27/02/2025 03:29:21;100;0;308.28;-4;-19.84;-3.97;911.3;10.50;75209;2835.331;-1758.728;1;315;-110;-111.3;44.7;44.6;16;15.8;25.9;0.0;
27/02/2025 03:29:41;100;0;308.67;-4;-19.64;-3.96;913.5;10.50;75213;2835.334;-1758.730;1;315;-110;-111.3;44.7;44.6;16;15.8;25.9;0.0;
27/02/2025 03:30:01;100;0;309.46;-4;-19.89;-3.81;916.0;10.50;75211;2835.337;-1758.733;1;315;-110;-112.9;44.7;44.6;16;15.8;25.9;0.0;
27/02/2025 03:30:21;100;0;309.29;-4;-19.67;-3.89;918.5;10.50;75207;2835.340;-1758.736;1;315;-110;-111.3;44.7;44.6;16;15.3;25.9;0.0;
27/02/2025 03:30:41;100;0;310.19;-4;-19.85;-3.86;920.8;10.50;75209;2835.343;-1758.739;1;315;-110;-111.3;44.7;44.5;16;15.8;25.9;0.0;
27/02/2025 03:31:01;100;0;312.19;-4;-20.09;-3.88;923.1;10.50;75199;2835.346;-1758.742;1;315;-110;-111.3;44.7;44.6;16;15.8;25.9;0.0;
27/02/2025 03:31:21;100;0;314.37;-4;-19.57;-3.78;925.5;10.50;75202;2835.349;-1758.744;1;315;-110;-111.3;44.7;44.6;19;19.4;25.9;0.0;
27/02/2025 03:31:41;100;0;316.18;-4;-19.98;-1.87;928.0;10.40;75195;2835.352;-1758.747;1;315;-110;-111.3;44.7;44.6;19;19.4;25.9;0.0;
27/02/2025 03:32:01;100;0;316.95;-4;-20.01;-1.92;930.4;10.40;75196;2835.355;-1758.749;1;315;-110;-111.3;44.7;44.6;19;19.4;25.9;0.0;
27/02/2025 03:32:21;100;0;315.68;-4;-20.07;-2.01;932.8;10.40;75186;2835.358;-1758.752;1;315;-110;-112.9;44.7;44.6;19;19.4;25.9;0.0;
27/02/2025 03:32:41;100;0;312.40;-4;-20.16;-1.92;935.3;10.40;75199;2835.361;-1758.755;1;315;-110;-111.3;44.7;44.6;17;17.1;25.9;0.0;
27/02/2025 03:33:01;100;0;310.87;-4;-19.92;-3.27;937.7;10.40;75186;2835.364;-1758.758;1;315;-110;-112.9;44.7;44.6;17;16.7;25.9;0.0;
27/02/2025 03:33:21;100;0;309.36;-4;-19.80;-3.32;940.1;10.40;75187;2835.367;-1758.760;1;315;-110;-111.3;44.7;44.6;17;17.1;25.9;0.0;
27/02/2025 03:33:41;100;0;309.11;-4;-19.64;-3.27;942.5;10.40;75182;2835.370;-1758.763;1;315;-110;-111.3;44.7;44.6;17;17.1;25.9;0.0;
27/02/2025 03:34:01;100;0;308.18;-4;-19.58;-3.32;944.8;10.30;75172;2835.372;-1758.766;1;315;-110;-111.3;44.7;44.6;17;17.1;25.9;0.0;
27/02/2025 03:34:21;100;0;305.56;-4;-19.62;-3.34;947.2;10.30;75171;2835.375;-1758.769;1;315;-110;-109.7;44.7;44.6;15;14.4;25.9;0.0;
27/02/2025 03:34:41;100;0;304.28;-4;-19.60;-4.47;949.4;10.30;75166;2835.378;-1758.772;1;315;-110;-111.3;44.7;44.6;15;14.4;25.9;0.0;
27/02/2025 03:35:01;100;0;303.94;-4;-18.95;-4.30;951.6;10.30;75169;2835.380;-1758.775;1;315;-110;-112.9;45.0;45.1;15;14.4;25.9;0.0;
27/02/2025 03:35:21;100;0;302.07;-4;-19.17;-4.36;953.9;10.30;75170;2835.383;-1758.778;1;315;-110;-111.3;45.0;45.4;15;14.4;25.9;0.0;
27/02/2025 03:35:41;100;0;301.24;-4;-21.03;-4.51;956.2;10.20;75153;2835.385;-1758.781;1;315;-110;-111.3;45.0;45.4;15;14.4;25.9;0.0;
27/02/2025 03:36:01;100;0;300.20;-4;-21.01;-4.42;958.6;10.20;75158;2835.387;-1758.784;1;315;-110;-111.3;45.0;45.4;15;14.4;25.9;0.0;
27/02/2025 03:36:21;100;0;299.71;-4;-21.16;-4.45;961.0;10.20;75159;2835.390;-1758.787;1;315;-110;-112.9;45.0;45.4;15;14.4;25.9;0.0;
27/02/2025 03:36:41;100;0;298.62;-4;-21.23;-4.44;963.6;10.20;75147;2835.392;-1758.790;1;315;-110;-111.3;45.0;45.4;15;14.4;25.9;0.0;
27/02/2025 03:37:01;100;0;300.91;-4;-20.98;-4.38;966.1;10.20;75155;2835.395;-1758.793;1;315;-110;-111.3;45.0;45.2;15;14.4;25.9;0.0;
27/02/2025 03:37:21;100;0;300.55;-4;-20.68;-4.39;968.4;10.20;75160;2835.397;-1758.796;1;315;-110;-111.3;45.0;45.4;15;14.4;25.9;0.0;
27/02/2025 03:37:41;100;0;300.36;-4;-20.84;-4.47;970.9;10.20;75142;2835.400;-1758.799;1;315;-110;-111.3;45.0;45.4;15;14.4;25.9;0.0;
27/02/2025 03:38:01;100;0;300.87;-4;-20.90;-4.33;973.3;10.20;75140;2835.402;-1758.802;1;315;-110;-114.5;45.0;45.4;15;14.4;25.9;0.0;
27/02/2025 03:38:21;100;0;301.63;-4;-20.86;-4.42;975.5;10.20;75138;2835.404;-1758.805;1;315;-110;-112.9;45.0;45.2;15;14.4;25.9;0.0;
27/02/2025 03:38:41;100;0;303.42;-4;-20.61;-4.30;978.0;10.10;75132;2835.407;-1758.808;1;315;-110;-111.3;45.0;45.2;15;14.4;25.9;0.0;
27/02/2025 03:39:01;100;0;303.76;-4;-20.40;-4.25;980.2;10.10;75138;2835.409;-1758.811;1;315;-110;-111.3;45.0;45.2;15;14.4;25.9;0.0;
27/02/2025 03:39:21;100;0;304.29;-4;-20.79;-4.36;982.5;10.10;75133;2835.412;-1758.814;1;315;-110;-112.9;45.0;45.4;15;14.4;25.9;0.0;
27/02/2025 03:39:41;100;0;305.92;-4;-20.49;-4.07;984.9;10.10;75131;2835.415;-1758.817;1;315;-110;-111.3;45.0;45.2;15;14.4;25.9;0.0;
27/02/2025 03:40:01;100;0;308.06;-4;-20.89;-4.45;987.2;10.10;75132;2835.417;-1758.819;1;315;-110;-112.9;45.0;45.2;15;14.4;25.9;0.0;
27/02/2025 03:40:21;100;0;309.62;-4;-20.81;-4.47;989.6;10.10;75134;2835.420;-1758.822;1;315;-110;-112.9;45.0;45.4;15;14.4;25.9;0.0;
27/02/2025 03:40:41;100;0;310.91;-4;-20.86;-4.49;992.0;10.00;75133;2835.423;-1758.825;1;315;-110;-111.3;45.0;45.2;15;14.4;25.9;0.0;
27/02/2025 03:41:01;100;0;310.09;-4;-20.98;-4.43;994.2;10.00;75128;2835.426;-1758.827;1;315;-110;-111.3;45.0;45.2;17;17.1;25.9;0.0;
27/02/2025 03:41:21;100;0;308.63;-4;-21.31;-3.02;996.7;10.00;75125;2835.428;-1758.830;1;315;-110;-111.3;45.0;45.4;17;17.6;25.9;0.0;
27/02/2025 03:41:40;118;0;307.82;-4;-21.25;-3.00;999.2;10.00;75115;2835.431;-1758.833;1;315;450;-109.7;21.6;21.6;6;5.4;25.9;0.0;
27/02/2025 03:41:50;118;0;44.06;-4;-6.60;-9.90;1000.1;10.00;75094;2835.433;-1758.832;1;315;450;21.0;21.6;21.4;6;5.4;24.4;-1.0;
27/02/2025 03:42:00;118;0;38.93;-4;21.60;-9.66;1000.1;10.00;74833;2835.433;-1758.832;1;315;450;145.2;21.6;21.6;6;5.4;24.4;-1.0;
27/02/2025 03:42:10;118;0;33.09;-4;29.35;-10.12;999.1;10.00;74590;2835.434;-1758.831;1;315;450;267.7;21.6;21.9;6;5.4;24.2;-1.0;
27/02/2025 03:42:20;118;0;34.42;-4;28.43;-9.79;997.9;10.00;74345;2835.436;-1758.831;1;315;450;390.3;21.6;21.8;6;5.4;24.2;-1.0;
27/02/2025 03:42:30;118;0;35.64;-4;26.22;-9.28;996.4;10.00;74093;2835.437;-1758.830;1;315;450;451.6;21.6;21.8;6;5.4;24.4;-1.0;
27/02/2025 03:42:41;118;0;309.09;-4;23.44;-8.52;994.4;10.00;73958;2835.439;-1758.832;1;315;450;451.6;21.6;21.8;6;5.4;25.9;-1.0;
27/02/2025 03:43:01;117;0;301.56;-4;20.31;-8.53;991.1;10.10;73967;2835.442;-1758.836;1;315;450;453.2;21.6;21.8;6;5.4;25.9;-1.0;
27/02/2025 03:43:21;117;0;292.34;-4;19.50;-8.54;987.5;10.10;73966;2835.445;-1758.841;1;315;450;453.2;21.6;21.8;38;37.9;25.9;-1.0;
27/02/2025 03:43:41;117;0;295.12;-4;21.47;8.28;984.3;10.20;73978;2835.448;-1758.846;1;315;450;453.2;21.6;21.9;33;32.9;25.9;-1.0;
27/02/2025 03:44:01;117;0;296.32;-4;22.09;5.48;980.5;10.20;73972;2835.451;-1758.850;1;315;450;453.2;22.2;22.2;33;32.9;25.9;-1.0;
27/02/2025 03:44:21;117;0;297.42;-4;21.76;5.54;976.7;10.20;73968;2835.454;-1758.855;1;315;450;451.6;22.2;22.2;33;32.5;25.9;-1.0;
27/02/2025 03:44:41;117;0;299.54;-4;21.45;5.51;973.0;10.20;73958;2835.457;-1758.860;1;315;450;453.2;22.2;22.4;30;29.8;25.9;-1.0;
27/02/2025 03:45:01;117;0;299.78;-4;21.41;3.76;969.2;10.20;73963;2835.460;-1758.864;1;315;450;451.6;22.2;22.4;30;29.3;25.9;-1.0;
27/02/2025 03:45:21;117;0;299.31;-4;21.28;3.74;965.5;10.20;73961;2835.463;-1758.869;1;315;450;451.6;22.2;22.4;30;29.3;25.9;-1.0;
27/02/2025 03:45:41;117;0;299.60;-4;20.99;3.73;961.7;10.20;73966;2835.467;-1758.874;1;315;450;451.6;22.2;22.4;30;29.3;25.9;-1.0;
27/02/2025 03:46:01;117;0;300.44;-4;21.16;3.70;958.0;10.20;73959;2835.470;-1758.878;1;315;450;451.6;22.2;22.4;30;29.3;25.9;-1.0;
27/02/2025 03:46:21;117;0;304.04;-4;21.15;3.54;954.4;10.10;73947;2835.473;-1758.883;1;315;450;451.6;22.2;22.2;30;29.3;25.9;-1.0;
27/02/2025 03:46:41;117;0;305.82;-4;21.15;3.72;950.6;10.10;73936;2835.477;-1758.887;1;315;450;451.6;22.2;22.2;30;29.3;25.9;-1.0;
27/02/2025 03:47:01;117;0;306.96;-4;20.96;3.72;947.0;10.10;73947;2835.480;-1758.891;1;315;450;451.6;22.2;22.4;30;29.3;25.9;-1.0;
27/02/2025 03:47:21;117;0;308.31;-4;20.87;3.72;943.5;10.10;73934;2835.484;-1758.895;1;315;450;453.2;22.2;22.2;30;29.3;25.9;-1.0;
27/02/2025 03:47:41;117;0;309.36;-4;20.97;3.68;939.8;10.10;73947;2835.488;-1758.900;1;315;450;453.2;22.2;22.2;30;29.3;25.9;-1.0;
27/02/2025 03:48:01;117;0;309.80;-4;20.87;3.71;936.3;10.10;73944;2835.491;-1758.903;1;315;450;451.6;22.2;22.4;30;29.3;25.9;-1.0;
27/02/2025 03:48:21;117;0;309.62;-4;21.00;3.95;932.7;10.10;73945;2835.495;-1758.907;1;315;450;453.2;22.2;22.2;30;29.3;25.9;-1.0;
27/02/2025 03:48:41;117;0;310.32;-4;21.17;3.53;929.3;10.10;73945;2835.499;-1758.911;1;315;450;451.6;22.2;22.4;28;28.0;25.9;-1.0;
27/02/2025 03:49:01;117;0;309.06;-4;21.00;3.10;925.5;10.10;73945;2835.503;-1758.916;1;315;450;450.0;22.2;22.4;28;28.0;25.9;-1.0;
27/02/2025 03:49:21;117;0;308.15;-4;20.94;3.03;921.9;10.00;73935;2835.506;-1758.920;1;315;450;451.6;22.2;22.4;28;28.0;25.9;-1.0;
27/02/2025 03:49:41;117;0;307.86;-4;20.88;3.02;918.2;10.00;73935;2835.510;-1758.924;1;315;450;451.6;22.2;22.2;28;28.0;25.9;-1.0;
27/02/2025 03:50:01;117;0;307.90;-4;20.93;3.05;914.3;10.00;73930;2835.514;-1758.928;1;315;450;450.0;22.2;22.4;28;28.0;25.9;-1.0;
27/02/2025 03:50:21;117;0;308.28;-4;20.87;3.03;910.6;10.00;73926;2835.518;-1758.933;1;315;450;453.2;22.2;22.4;28;28.0;25.9;-1.0;
27/02/2025 03:50:41;117;0;308.71;-4;21.00;3.14;906.9;10.00;73931;2835.521;-1758.937;1;315;450;453.2;22.2;22.4;28;27.5;25.9;-1.0;
27/02/2025 03:51:01;117;0;308.96;-4;21.09;3.15;903.1;10.00;73915;2835.525;-1758.941;1;315;450;451.6;22.2;22.4;28;28.0;25.9;-1.0;
27/02/2025 03:51:21;117;0;307.46;-4;20.99;2.86;899.2;10.00;73919;2835.529;-1758.945;1;315;450;451.6;22.2;22.4;28;28.0;25.9;-1.0;
27/02/2025 03:51:41;117;0;306.36;-4;20.84;3.22;895.5;10.00;73919;2835.533;-1758.950;1;315;450;450.0;22.2;22.4;28;28.0;25.9;-1.0;
27/02/2025 03:52:01;117;0;306.42;-4;20.77;2.99;891.5;10.00;73916;2835.536;-1758.954;1;315;450;453.2;22.2;22.4;28;28.0;25.9;-1.0;
27/02/2025 03:52:21;117;0;304.78;-4;20.85;3.06;887.9;9.90;73911;2835.540;-1758.959;1;315;450;453.2;22.2;22.2;28;28.0;25.9;-1.0;
27/02/2025 03:52:41;117;0;304.84;-4;20.61;3.04;884.2;10.00;73911;2835.543;-1758.963;1;315;450;451.6;22.2;22.4;28;28.0;25.9;-1.0;
27/02/2025 03:53:01;117;0;304.79;-4;20.89;2.96;880.6;9.90;73906;2835.547;-1758.968;1;315;450;451.6;22.2;22.2;28;28.0;25.9;-1.0;
27/02/2025 03:53:21;117;0;305.26;-4;20.70;2.83;876.8;9.90;73914;2835.551;-1758.972;1;315;450;453.2;22.2;22.4;28;28.0;25.9;-1.0;
27/02/2025 03:53:41;117;0;305.36;-4;20.66;2.91;873.1;9.90;73909;2835.554;-1758.976;1;315;450;453.2;22.2;22.2;28;28.0;25.9;-1.0;
27/02/2025 03:54:01;117;0;304.77;-4;20.91;2.94;869.6;9.90;73908;2835.557;-1758.980;1;315;450;453.2;22.2;22.4;28;28.0;25.9;-1.0;
27/02/2025 03:54:21;117;0;303.09;-4;20.80;2.98;865.9;9.90;73908;2835.561;-1758.985;1;315;450;453.2;22.2;22.4;28;28.0;25.9;-1.0;
27/02/2025 03:54:41;117;0;302.53;-4;20.79;2.94;862.2;9.90;73910;2835.564;-1758.990;1;315;450;451.6;22.2;22.4;28;28.0;25.9;-1.0;
27/02/2025 03:55:01;117;0;302.34;-4;20.76;2.96;858.5;9.90;73905;2835.568;-1758.994;1;315;450;453.2;22.2;22.2;28;28.0;25.9;-1.0;
27/02/2025 03:55:21;117;0;304.19;-4;20.66;2.72;854.9;9.90;73905;2835.571;-1758.998;1;315;450;453.2;22.2;22.4;28;28.0;25.9;-1.0;
27/02/2025 03:55:41;117;0;305.15;-4;20.64;2.88;851.3;9.90;73907;2835.574;-1759.003;1;315;450;453.2;22.2;22.2;28;28.0;25.9;-1.0;
27/02/2025 03:56:01;117;0;305.58;-4;20.66;2.91;847.8;9.90;73915;2835.578;-1759.007;1;315;450;453.2;22.2;22.4;28;28.0;25.9;-1.0;
27/02/2025 03:56:21;117;0;306.83;-4;21.42;3.24;844.2;9.90;73908;2835.581;-1759.011;1;315;450;453.2;22.2;22.4;28;28.0;25.9;-1.0;
27/02/2025 03:56:41;117;0;306.91;-4;20.96;3.02;840.7;9.90;73919;2835.585;-1759.015;1;315;450;453.2;22.2;22.2;28;28.0;25.9;-1.0;
27/02/2025 03:57:01;117;0;307.16;-4;21.11;2.95;837.2;9.90;73916;2835.589;-1759.019;1;315;450;453.2;22.2;22.2;28;28.0;25.9;-1.0;
27/02/2025 03:57:21;117;0;307.76;-4;21.02;2.83;833.6;9.90;73908;2835.592;-1759.023;1;315;450;451.6;22.2;22.4;28;28.0;25.9;-1.0;
27/02/2025 03:57:41;117;0;307.89;-4;20.64;3.06;830.2;9.90;73919;2835.596;-1759.027;1;315;450;453.2;22.2;22.4;28;28.0;25.9;-1.0;
27/02/2025 03:58:01;117;0;307.89;-4;20.79;2.96;826.5;9.90;73913;2835.599;-1759.031;1;315;450;453.2;22.2;22.4;28;27.5;25.9;-1.0;
27/02/2025 03:58:21;117;0;308.57;-4;20.86;2.89;823.0;9.90;73908;2835.603;-1759.035;1;315;450;451.6;22.2;22.4;28;28.0;25.9;-1.0;
27/02/2025 03:58:41;117;0;308.78;-4;20.79;3.01;819.5;9.90;73913;2835.606;-1759.039;1;315;450;453.2;22.2;22.4;28;28.0;25.9;-1.0;
