Timestamp;NavState;SecurityLevel;Heading;Declination;Pitch;Roll;Depth;Temperature;Pa;Lat;Lon;DeadReckoning;DesiredH;BallastCmd;BallastPos;LinCmd;LinPos;AngCmd;AngPos;Voltage;Altitude;
04/03/2025 18:31:16;119;0;352.20;-4;-38.26;-9.65;0.2;16.20;75501;2839.318;-1803.645;0;316;500;506.5;100.0;100.6;0;-0.5;24.9;-1.0;
04/03/2025 18:31:26;116;0;354.06;-4;-44.37;-3.61;0.4;16.30;75497;2839.316;-1803.651;0;316;500;506.5;100.0;100.4;0;-0.5;24.9;-1.0;
04/03/2025 18:31:51;116;0;355.30;-4;-52.92;-10.39;0.2;16.40;75510;2839.315;-1803.653;0;316;500;506.5;100.0;100.6;0;-0.5;24.9;-1.0;
04/03/2025 18:32:17;116;0;348.88;-4;-66.24;-2.95;0.2;16.50;75516;2839.314;-1803.655;0;134;500;504.8;100.0;100.6;0;-0.5;24.9;-1.0;
04/03/2025 18:32:29;116;0;2.11;-4;-40.45;-16.37;0.1;16.50;75525;2839.318;-1803.670;0;134;500;506.5;100.0;100.6;0;-0.5;24.9;-1.0;
04/03/2025 18:33:32;116;0;346.88;-4;-48.94;-17.99;0.2;16.80;75561;2839.314;-1803.680;0;134;500;506.5;100.0;100.6;0;-0.5;24.8;-1.0;
04/03/2025 18:36:22;116;0;10.37;-4;-50.07;-7.15;0.1;17.60;75623;2839.294;-1803.709;0;134;500;506.5;100.0;100.6;0;-0.5;24.9;-1.0;
04/03/2025 18:36:57;116;0;13.23;-4;-41.91;-11.98;0.3;17.70;75642;2839.293;-1803.714;0;134;500;504.8;100.0;100.6;0;-0.5;24.9;-1.0;
04/03/2025 18:37:17;116;0;354.15;-4;-40.82;-7.54;0.2;17.80;75642;2839.292;-1803.717;0;134;500;504.8;100.0;100.6;0;-0.5;24.9;-1.0;
04/03/2025 18:37:37;116;0;9.15;-4;-48.02;-0.69;0.1;17.90;75640;2839.288;-1803.722;0;134;500;504.8;100.0;100.6;0;-0.5;24.9;-1.0;
04/03/2025 18:37:54;116;0;4.14;-4;-59.97;-20.73;0.2;18.00;75653;2839.288;-1803.723;0;134;500;506.5;100.0;100.6;0;-0.5;24.8;-1.0;
04/03/2025 18:38:14;116;0;12.46;-4;-49.73;-14.23;0.2;18.00;75668;2839.284;-1803.726;0;134;500;506.5;100.0;100.6;0;-0.5;24.7;-1.0;
04/03/2025 18:39:17;116;0;0.93;-4;-46.14;-4.78;0.3;18.20;75681;2839.279;-1803.737;0;134;500;506.5;100.0;100.6;0;-0.5;24.9;-1.0;
04/03/2025 18:40:29;116;0;355.12;-4;-41.76;-9.55;0.1;18.50;75700;2839.271;-1803.746;0;134;500;506.5;100.0;100.6;0;-0.5;24.8;-1.0;
04/03/2025 18:40:49;110;0;10.43;-4;-40.73;-8.37;0.2;18.60;75711;2839.271;-1803.746;0;134;-110;383.9;100.0;100.6;-8;-8.1;24.8;-1.0;
04/03/2025 18:40:59;110;0;336.62;-4;-54.01;-15.14;0.3;18.60;76066;2839.271;-1803.747;1;134;-110;240.3;100.0;100.6;-8;-8.6;24.8;-1.0;
04/03/2025 18:41:09;110;0;341.48;-4;-61.28;-20.31;0.6;18.60;76305;2839.271;-1803.747;1;134;-110;90.3;100.0;100.6;-8;-8.6;24.8;-1.0;
04/03/2025 18:41:19;110;0;342.79;-4;-65.33;-5.95;0.9;18.70;76609;2839.272;-1803.748;1;134;-110;-67.7;100.0;100.6;-8;-8.6;24.8;-1.0;
04/03/2025 18:41:29;110;0;352.05;-4;-67.03;-18.01;1.2;18.70;76956;2839.272;-1803.748;1;134;-110;-109.7;42.6;55.7;-8;-8.6;24.8;-1.0;
04/03/2025 18:41:39;110;0;352.83;-4;-52.44;-22.61;2.4;18.70;76997;2839.273;-1803.749;1;134;-110;-109.7;42.6;42.6;-8;-8.6;24.8;-1.0;
04/03/2025 18:41:59;100;0;4.42;-4;-23.81;-16.53;6.2;18.80;76996;2839.278;-1803.749;1;134;-110;-104.8;42.6;42.3;-8;-8.6;24.9;-1.0;
04/03/2025 18:42:19;100;0;8.87;-4;-15.90;-16.02;9.5;18.90;77010;2839.283;-1803.749;1;134;-110;-101.6;43.8;44.0;-70;-69.9;24.9;-1.0;
04/03/2025 18:42:39;100;0;17.05;-4;-20.40;-45.24;12.3;18.90;77003;2839.287;-1803.749;1;134;-110;-101.6;43.8;44.0;-70;-69.9;24.9;-1.0;
04/03/2025 18:42:59;100;0;32.55;-4;-22.41;-44.87;15.1;19.00;77021;2839.290;-1803.748;1;134;-110;-101.6;43.1;43.0;-70;-69.9;24.9;0.0;
04/03/2025 18:43:19;100;0;41.14;-4;-23.10;-45.37;18.0;19.00;77019;2839.293;-1803.746;1;134;-110;-101.6;42.1;42.0;-70;-70.4;24.9;0.0;
04/03/2025 18:43:39;100;0;51.26;-4;-19.16;-45.08;20.7;19.10;77039;2839.296;-1803.744;1;134;-110;-100.0;42.1;41.8;-70;-70.4;24.9;0.0;
04/03/2025 18:43:59;100;0;66.25;-4;-16.58;-45.11;23.4;19.10;77040;2839.298;-1803.740;1;134;-110;-100.0;43.2;43.4;-63;-63.2;24.9;0.0;
04/03/2025 18:44:19;100;0;78.09;-4;-19.62;-41.59;26.1;19.10;77053;2839.299;-1803.738;1;134;-110;-100.0;43.2;43.4;-48;-47.8;24.9;0.0;
04/03/2025 18:44:39;100;0;89.32;-4;-19.19;-34.74;28.7;19.10;77047;2839.299;-1803.734;1;134;-110;-100.0;43.2;43.4;-35;-35.2;24.9;0.0;
04/03/2025 18:44:59;100;0;100.90;-4;-19.62;-27.68;31.1;19.10;77060;2839.299;-1803.732;1;134;-110;-100.0;43.2;43.4;-18;-18.1;24.9;0.0;
04/03/2025 18:45:19;100;0;96.33;-4;-18.26;-19.09;33.7;19.10;77062;2839.299;-1803.729;1;134;-110;-100.0;43.7;44.0;-26;-26.2;24.9;0.0;
04/03/2025 18:45:39;100;0;109.31;-4;-21.65;-24.33;35.9;19.10;77059;2839.299;-1803.727;1;134;-110;-98.4;43.7;44.2;-4;-4.1;24.9;0.0;
04/03/2025 18:45:59;100;0;113.56;-4;-23.57;-13.00;38.5;19.10;77078;2839.298;-1803.724;1;134;-110;-100.0;42.6;42.3;3;3.2;24.9;0.0;
04/03/2025 18:46:19;100;0;108.11;-4;-20.65;-9.91;41.1;19.10;77067;2839.297;-1803.722;1;134;-110;-100.0;42.6;42.3;-6;-5.9;24.9;0.0;
04/03/2025 18:46:39;100;0;114.91;-4;-18.58;-14.85;43.6;19.10;77073;2839.296;-1803.719;1;134;-110;-101.6;43.0;43.2;5;5.0;24.9;0.0;
04/03/2025 18:46:59;100;0;113.21;-4;-20.11;-8.96;46.0;19.10;77080;2839.296;-1803.717;1;134;-110;-101.6;43.0;43.2;3;3.2;24.9;0.0;
04/03/2025 18:47:19;100;0;110.54;-4;-20.62;-10.23;48.1;19.10;77077;2839.295;-1803.715;1;134;-110;-101.6;43.0;43.2;-2;-1.8;24.8;0.0;
04/03/2025 18:47:39;100;0;118.52;-4;-20.42;-12.57;50.4;19.10;77076;2839.294;-1803.713;1;134;-110;-100.0;43.0;43.2;10;9.9;24.9;0.0;
04/03/2025 18:47:59;100;0;121.36;-4;-21.06;-6.38;52.8;19.10;77071;2839.293;-1803.711;1;134;-110;-100.0;43.0;43.2;12;12.2;24.9;0.0;
04/03/2025 18:48:20;100;0;123.84;-4;-21.40;-5.20;55.3;19.10;77077;2839.292;-1803.709;1;134;-110;-100.0;43.0;43.3;12;12.6;24.9;0.0;
04/03/2025 18:48:40;100;0;122.70;-4;-21.56;-5.25;58.1;19.10;77066;2839.290;-1803.706;1;134;-110;-100.0;43.0;43.2;12;12.6;24.9;0.0;
04/03/2025 18:49:00;100;0;123.74;-4;-21.05;-5.14;60.8;19.10;77057;2839.289;-1803.704;1;134;-110;-100.0;43.0;43.3;12;12.6;24.8;0.0;
04/03/2025 18:49:20;100;0;125.83;-4;-20.92;-5.25;63.6;19.10;77018;2839.287;-1803.702;1;134;-110;-104.8;43.0;43.2;14;14.0;24.9;0.0;
04/03/2025 18:49:40;100;0;124.38;-4;-21.02;-4.34;66.0;19.10;77016;2839.286;-1803.700;1;134;-110;-100.0;43.0;43.3;14;14.4;24.9;0.0;
04/03/2025 18:50:00;100;0;122.70;-4;-21.02;-4.23;68.5;19.00;77008;2839.285;-1803.698;1;134;-110;-100.0;43.0;43.3;14;14.4;24.9;0.0;
04/03/2025 18:50:20;100;0;120.04;-4;-20.97;-4.30;71.0;19.00;76997;2839.284;-1803.696;1;134;-110;-100.0;43.0;43.2;11;10.8;24.9;0.0;
04/03/2025 18:50:40;100;0;118.31;-4;-20.72;-6.40;73.4;19.00;77001;2839.283;-1803.693;1;134;-110;-100.0;43.0;43.2;9;9.0;24.9;0.0;
04/03/2025 18:51:00;100;0;119.73;-4;-20.23;-7.35;75.9;19.00;76988;2839.282;-1803.691;1;134;-110;-100.0;43.0;43.2;9;8.6;24.9;0.0;
04/03/2025 18:51:20;100;0;121.83;-4;-20.46;-7.41;78.1;19.00;76986;2839.281;-1803.689;1;134;-110;-100.0;43.0;43.2;12;12.2;24.9;0.0;
04/03/2025 18:51:40;100;0;128.16;-4;-20.62;-5.25;80.7;19.00;76971;2839.279;-1803.687;1;134;-110;-100.0;43.0;43.2;14;14.0;24.8;0.0;
04/03/2025 18:52:00;100;0;127.56;-4;-20.55;-4.44;82.9;18.90;76965;2839.278;-1803.686;1;134;-110;-100.0;43.0;43.2;14;14.4;24.8;0.0;
04/03/2025 18:52:20;100;0;127.69;-4;-20.86;-4.24;85.1;18.90;76952;2839.277;-1803.684;1;134;-110;-98.4;43.0;43.2;14;14.4;24.9;0.0;
04/03/2025 18:52:40;100;0;130.41;-4;-21.24;-4.31;87.6;18.90;76949;2839.275;-1803.682;1;134;-110;-100.0;43.0;43.3;14;14.4;24.8;0.0;
04/03/2025 18:53:00;100;0;133.96;-4;-20.98;-4.31;90.2;18.90;76936;2839.273;-1803.680;1;134;-110;-101.6;43.0;43.2;14;14.4;24.9;0.0;
04/03/2025 18:53:20;100;0;131.20;-4;-21.23;-4.26;92.9;18.80;76926;2839.271;-1803.678;1;134;-110;-98.4;43.0;43.2;14;14.4;24.9;0.0;
04/03/2025 18:53:40;100;0;130.47;-4;-21.24;-4.31;95.6;18.80;76912;2839.270;-1803.676;1;134;-110;-100.0;43.0;43.3;14;14.4;24.9;0.0;
04/03/2025 18:54:00;100;0;135.41;-4;-20.28;-4.29;98.3;18.80;76908;2839.268;-1803.674;1;134;-110;-100.0;43.0;43.3;14;14.4;24.9;0.0;
04/03/2025 18:54:20;100;0;138.06;-4;-20.71;-4.36;101.1;18.80;76892;2839.266;-1803.673;1;134;-110;-100.0;43.0;43.2;14;14.4;24.9;0.0;
04/03/2025 18:54:40;100;0;138.59;-4;-20.65;-4.11;103.8;18.70;76878;2839.263;-1803.671;1;134;-110;-100.0;43.0;43.2;16;15.8;24.9;0.0;
04/03/2025 18:55:00;100;0;139.15;-4;-20.97;-3.35;106.5;18.70;76884;2839.261;-1803.669;1;134;-110;-100.0;43.0;43.4;16;16.2;24.8;0.0;
04/03/2025 18:55:20;100;0;142.17;-4;-20.71;-3.37;109.5;18.70;76879;2839.259;-1803.668;1;134;-110;-101.6;43.0;43.2;18;18.1;24.9;0.0;
04/03/2025 18:55:40;100;0;141.38;-4;-20.87;-2.31;112.1;18.70;76880;2839.257;-1803.666;1;134;-110;-100.0;43.0;43.3;18;18.5;24.9;0.0;
04/03/2025 18:56:00;100;0;140.06;-4;-21.14;-2.29;115.1;18.60;76868;2839.254;-1803.664;1;134;-110;-100.0;43.0;43.3;16;15.8;24.9;0.0;
04/03/2025 18:56:20;100;0;138.85;-4;-20.29;-3.88;118.0;18.60;76864;2839.252;-1803.662;1;134;-110;-100.0;43.0;43.2;16;15.3;24.9;0.0;
04/03/2025 18:56:40;100;0;138.39;-4;-20.73;-3.99;120.8;18.60;76852;2839.250;-1803.661;1;134;-110;-100.0;43.0;43.2;16;15.3;24.9;0.0;
04/03/2025 18:57:00;100;0;133.06;-4;-20.78;-3.75;123.6;18.50;76844;2839.248;-1803.659;1;134;-110;-100.0;43.0;43.2;14;13.5;24.9;0.0;
04/03/2025 18:57:20;100;0;133.42;-4;-19.54;-4.66;126.5;18.50;76832;2839.246;-1803.656;1;134;-110;-100.0;43.0;43.3;14;13.5;24.9;0.0;
04/03/2025 18:57:40;100;0;130.74;-4;-20.66;-4.85;129.2;18.50;76831;2839.244;-1803.654;1;134;-110;-100.0;43.0;43.2;14;13.5;24.9;0.0;
04/03/2025 18:58:00;100;0;132.54;-4;-20.32;-4.96;132.1;18.50;76823;2839.242;-1803.652;1;134;-110;-98.4;43.0;43.2;14;13.5;24.9;0.0;
04/03/2025 18:58:20;100;0;134.46;-4;-20.06;-5.10;135.0;18.40;76813;2839.240;-1803.650;1;134;-110;-100.0;43.0;43.3;14;13.1;24.9;0.0;
04/03/2025 18:58:40;100;0;135.22;-4;-19.96;-5.01;137.7;18.40;76812;2839.238;-1803.648;1;134;-110;-100.0;43.0;43.3;14;13.5;24.9;0.0;
04/03/2025 18:59:00;100;0;134.46;-4;-19.71;-5.23;140.5;18.40;76797;2839.236;-1803.646;1;134;-110;-100.0;43.0;43.2;14;13.5;24.9;0.0;
04/03/2025 18:59:20;100;0;133.17;-4;-20.25;-4.94;143.4;18.30;76795;2839.234;-1803.644;1;134;-110;-101.6;43.0;43.2;14;13.5;24.9;0.0;
04/03/2025 18:59:40;100;0;132.91;-4;-19.97;-4.97;146.2;18.30;76779;2839.232;-1803.641;1;134;-110;-98.4;43.0;43.2;14;13.1;24.8;0.0;
04/03/2025 19:00:00;100;0;131.77;-4;-20.29;-4.89;149.2;18.30;76774;2839.230;-1803.639;1;134;-110;-98.4;43.0;43.3;14;13.5;24.9;0.0;
04/03/2025 19:00:20;100;0;130.67;-4;-20.16;-4.93;152.1;18.20;76769;2839.228;-1803.637;1;134;-110;-101.6;43.0;43.3;14;13.5;24.9;0.0;
04/03/2025 19:00:40;100;0;130.42;-4;-20.33;-4.97;154.8;18.20;76762;2839.226;-1803.635;1;134;-110;-100.0;43.0;43.3;14;13.5;24.9;0.0;
04/03/2025 19:01:00;100;0;131.13;-4;-20.32;-4.87;157.7;18.20;76745;2839.224;-1803.632;1;134;-110;-101.6;43.0;43.2;14;13.5;24.8;0.0;
04/03/2025 19:01:20;100;0;127.99;-4;-20.61;-4.88;160.6;18.10;76738;2839.222;-1803.630;1;134;-110;-101.6;43.0;43.3;14;13.5;24.9;0.0;
04/03/2025 19:01:40;100;0;133.78;-4;-20.20;-4.72;163.6;18.10;76727;2839.220;-1803.628;1;134;-110;-100.0;43.0;43.2;14;13.5;24.8;0.0;
04/03/2025 19:02:00;100;0;136.86;-4;-20.19;-4.86;166.6;18.10;76727;2839.217;-1803.625;1;134;-110;-100.0;43.0;43.3;14;13.5;24.8;0.0;
04/03/2025 19:02:20;100;0;138.15;-4;-20.41;-4.87;169.5;18.00;76718;2839.215;-1803.623;1;134;-110;-100.0;43.0;43.3;14;13.5;24.9;0.0;
04/03/2025 19:02:40;100;0;137.21;-4;-20.66;-4.93;172.4;18.00;76714;2839.213;-1803.621;1;134;-110;-100.0;43.0;43.3;14;13.5;24.9;0.0;
04/03/2025 19:03:00;100;0;134.74;-4;-20.81;-4.88;175.6;18.00;76705;2839.210;-1803.619;1;134;-110;-100.0;43.0;43.2;14;13.5;24.9;0.0;
04/03/2025 19:03:20;100;0;135.57;-4;-20.91;-4.76;178.8;17.90;76709;2839.208;-1803.617;1;134;-110;-100.0;43.0;43.2;14;13.5;24.9;0.0;
04/03/2025 19:03:40;100;0;135.38;-4;-20.93;-4.84;182.1;17.90;76691;2839.206;-1803.614;1;134;-110;-100.0;43.0;43.2;14;13.5;24.9;0.0;
04/03/2025 19:04:00;100;0;137.08;-4;-20.56;-4.77;185.3;17.90;76681;2839.203;-1803.612;1;134;-110;-100.0;43.0;43.3;14;13.5;24.9;0.0;
04/03/2025 19:04:20;100;0;139.95;-4;-20.26;-4.84;188.5;17.80;76674;2839.200;-1803.610;1;134;-110;-100.0;43.0;43.3;17;17.1;24.9;0.0;
04/03/2025 19:04:40;100;0;140.89;-4;-20.50;-2.73;191.4;17.80;76673;2839.198;-1803.608;1;134;-110;-100.0;43.0;43.2;17;17.6;24.9;0.0;
04/03/2025 19:05:00;100;0;141.80;-4;-20.61;-2.69;194.6;17.80;76663;2839.195;-1803.606;1;134;-110;-100.0;43.0;43.3;17;17.6;24.9;0.0;
04/03/2025 19:05:20;100;0;142.79;-4;-20.40;-2.66;197.6;17.70;76657;2839.193;-1803.604;1;134;-110;-100.0;43.0;43.2;19;19.0;24.9;0.0;
04/03/2025 19:05:40;100;0;136.41;-4;-20.60;-1.89;200.7;17.70;76654;2839.190;-1803.602;1;134;-110;-101.6;43.0;43.3;15;14.9;24.8;0.0;
04/03/2025 19:06:00;100;0;130.05;-4;-19.75;-4.29;203.8;17.60;76646;2839.188;-1803.600;1;134;-110;-100.0;43.0;43.2;15;14.9;24.9;0.0;
04/03/2025 19:06:20;100;0;124.06;-4;-19.93;-4.35;206.6;17.60;76630;2839.187;-1803.597;1;134;-110;-101.6;43.0;43.3;13;13.1;24.9;0.0;
04/03/2025 19:06:40;100;0;121.96;-4;-20.17;-5.34;209.5;17.60;76624;2839.185;-1803.594;1;134;-110;-100.0;43.0;43.2;13;12.6;24.9;0.0;
04/03/2025 19:07:00;100;0;120.27;-4;-20.09;-5.35;212.6;17.50;76624;2839.183;-1803.591;1;134;-110;-101.6;43.0;43.2;11;10.8;24.9;0.0;
04/03/2025 19:07:20;100;0;123.03;-4;-20.02;-6.22;215.6;17.50;76616;2839.182;-1803.589;1;134;-110;-100.0;43.0;43.2;13;13.1;24.9;0.0;
04/03/2025 19:07:40;100;0;123.56;-4;-19.90;-4.78;218.8;17.50;76602;2839.180;-1803.586;1;134;-110;-98.4;43.0;43.2;13;13.5;24.9;0.0;
04/03/2025 19:08:00;100;0;121.46;-4;-20.06;-4.79;221.7;17.40;76587;2839.178;-1803.583;1;134;-110;-100.0;43.0;43.3;13;13.5;24.9;0.0;
04/03/2025 19:08:20;100;0;118.64;-4;-19.85;-4.80;224.6;17.40;76579;2839.177;-1803.580;1;134;-110;-100.0;43.0;43.3;9;9.0;24.9;0.0;
04/03/2025 19:08:40;100;0;118.44;-4;-19.73;-7.36;227.5;17.40;76590;2839.176;-1803.577;1;134;-110;-100.0;43.0;43.3;9;8.6;24.9;0.0;
04/03/2025 19:09:00;100;0;120.43;-4;-19.60;-7.31;230.5;17.30;76578;2839.174;-1803.574;1;134;-110;-100.0;43.0;43.2;11;10.8;24.9;0.0;
04/03/2025 19:09:20;100;0;121.78;-4;-19.46;-6.04;233.5;17.30;76573;2839.173;-1803.571;1;134;-110;-100.0;43.0;43.3;11;11.3;24.8;0.0;
04/03/2025 19:09:40;100;0;122.02;-4;-19.60;-5.98;236.4;17.30;76560;2839.171;-1803.568;1;134;-110;-100.0;43.0;43.3;11;11.3;24.9;0.0;
04/03/2025 19:10:00;100;0;124.58;-4;-19.60;-5.96;239.3;17.20;76554;2839.169;-1803.566;1;134;-110;-100.0;43.0;43.2;13;13.1;24.9;0.0;
04/03/2025 19:10:20;100;0;126.13;-4;-19.81;-4.79;242.1;17.20;76543;2839.168;-1803.563;1;134;-110;-100.0;43.0;43.2;13;13.5;24.9;0.0;
04/03/2025 19:10:40;100;0;128.94;-4;-19.89;-4.78;245.1;17.20;76533;2839.166;-1803.561;1;134;-110;-100.0;43.0;43.2;13;13.5;24.9;0.0;
04/03/2025 19:11:00;100;0;129.29;-4;-20.13;-4.75;247.8;17.10;76526;2839.164;-1803.558;1;134;-110;-98.4;43.0;43.2;13;13.5;24.8;0.0;
04/03/2025 19:11:20;100;0;130.68;-4;-19.31;-4.83;250.6;17.10;76522;2839.162;-1803.556;1;134;-110;-100.0;43.0;43.2;13;13.5;24.9;0.0;
04/03/2025 19:11:40;100;0;133.66;-4;-19.56;-4.83;253.5;17.10;76509;2839.160;-1803.554;1;134;-110;-100.0;43.0;43.3;13;13.5;24.9;0.0;
04/03/2025 19:12:00;100;0;136.43;-4;-19.93;-4.86;256.0;17.00;76502;2839.158;-1803.552;1;134;-110;-100.0;43.0;43.2;15;14.9;24.9;0.0;
04/03/2025 19:12:20;100;0;138.57;-4;-19.86;-3.85;258.8;17.00;76493;2839.156;-1803.550;1;134;-110;-100.0;43.0;43.3;15;15.3;24.9;0.0;
04/03/2025 19:12:40;100;0;139.93;-4;-20.15;-3.89;261.3;16.90;76496;2839.154;-1803.549;1;134;-110;-100.0;43.0;43.3;17;17.1;24.9;0.0;
04/03/2025 19:13:00;100;0;141.93;-4;-20.24;-2.72;264.2;16.90;76485;2839.151;-1803.547;1;134;-110;-100.0;43.0;43.3;17;17.6;24.9;0.0;
04/03/2025 19:13:20;100;0;142.45;-4;-20.22;-2.77;266.9;16.90;76481;2839.149;-1803.546;1;134;-110;-98.4;43.0;43.2;19;19.0;24.9;0.0;
04/03/2025 19:13:40;100;0;143.80;-4;-20.33;-1.93;269.6;16.80;76471;2839.146;-1803.544;1;134;-110;-100.0;43.0;43.2;19;19.4;24.9;0.0;
04/03/2025 19:14:00;100;0;143.85;-4;-20.26;-1.94;272.2;16.80;76461;2839.144;-1803.543;1;134;-110;-100.0;43.0;43.3;22;22.1;24.9;0.0;
04/03/2025 19:14:20;100;0;144.92;-4;-20.50;-0.32;274.7;16.80;76466;2839.142;-1803.541;1;134;-110;-100.0;43.0;43.2;22;22.6;24.8;0.0;
04/03/2025 19:14:40;100;0;144.13;-4;-20.42;-0.32;277.5;16.70;76462;2839.139;-1803.540;1;134;-110;-100.0;43.0;43.2;22;22.6;24.9;0.0;
04/03/2025 19:15:00;100;0;142.77;-4;-20.41;-0.32;280.0;16.70;76460;2839.137;-1803.539;1;134;-110;-100.0;43.0;43.2;20;19.9;24.8;0.0;
04/03/2025 19:15:20;100;0;142.66;-4;-20.46;-1.82;282.6;16.70;76443;2839.135;-1803.537;1;134;-110;-100.0;43.0;43.2;20;19.9;24.9;0.0;
04/03/2025 19:15:40;100;0;141.47;-4;-20.41;-1.81;285.3;16.60;76439;2839.133;-1803.535;1;134;-110;-100.0;43.0;43.3;18;18.1;24.9;0.0;
04/03/2025 19:16:00;100;0;139.37;-4;-20.43;-2.77;287.8;16.60;76446;2839.131;-1803.534;1;134;-110;-100.0;43.0;43.3;18;17.6;24.9;0.0;
04/03/2025 19:16:20;100;0;138.84;-4;-20.50;-2.76;290.4;16.50;76434;2839.129;-1803.532;1;134;-110;-100.0;43.0;43.3;18;17.6;24.9;0.0;
04/03/2025 19:16:40;100;0;139.71;-4;-20.68;-2.83;293.0;16.50;76431;2839.127;-1803.531;1;134;-110;-101.6;43.0;43.3;18;17.6;24.9;0.0;
04/03/2025 19:17:00;100;0;137.39;-4;-20.35;-2.75;295.7;16.50;76414;2839.125;-1803.529;1;134;-110;-100.0;43.0;43.3;16;15.3;24.9;0.0;
04/03/2025 19:17:20;100;0;133.92;-4;-20.27;-4.01;298.3;16.50;76402;2839.123;-1803.527;1;134;-110;-100.0;43.0;43.2;16;15.3;24.8;0.0;
04/03/2025 19:17:40;100;0;131.43;-4;-20.29;-4.02;300.8;16.40;76411;2839.121;-1803.525;1;134;-110;-100.0;43.0;43.2;16;15.3;24.9;0.0;
04/03/2025 19:18:00;100;0;127.40;-4;-20.19;-4.04;303.4;16.40;76393;2839.120;-1803.523;1;134;-110;-100.0;43.0;43.2;16;15.3;24.9;0.0;
04/03/2025 19:18:20;100;0;126.59;-4;-20.39;-3.98;306.0;16.40;76379;2839.118;-1803.521;1;134;-110;-100.0;43.0;43.3;14;14.0;24.9;0.0;
04/03/2025 19:18:40;100;0;125.75;-4;-19.88;-4.70;308.6;16.30;76375;2839.116;-1803.519;1;134;-110;-101.6;43.0;43.3;14;14.0;24.8;0.0;
04/03/2025 19:19:00;100;0;123.61;-4;-19.95;-4.73;310.9;16.30;76371;2839.115;-1803.517;1;134;-110;-100.0;43.0;43.3;14;13.5;24.9;0.0;
04/03/2025 19:19:20;100;0;120.63;-4;-20.07;-4.70;313.5;16.30;76348;2839.114;-1803.514;1;134;-110;-100.0;43.0;43.2;12;12.2;24.9;0.0;
04/03/2025 19:19:40;100;0;120.16;-4;-19.91;-5.63;315.9;16.20;76350;2839.113;-1803.512;1;134;-110;-98.4;43.0;43.2;12;11.7;24.9;0.0;
04/03/2025 19:20:00;100;0;124.51;-4;-19.66;-5.67;318.2;16.20;76337;2839.112;-1803.510;1;134;-110;-100.0;43.0;43.3;14;14.4;24.8;0.0;
04/03/2025 19:20:20;100;0;128.51;-4;-19.83;-4.29;320.7;16.20;76334;2839.110;-1803.508;1;134;-110;-100.0;43.0;43.2;14;14.4;24.8;0.0;
04/03/2025 19:20:40;100;0;129.72;-4;-19.82;-4.30;323.3;16.10;76315;2839.108;-1803.506;1;134;-110;-100.0;43.0;43.3;14;14.4;24.8;0.0;
04/03/2025 19:21:00;100;0;129.73;-4;-20.04;-4.29;325.9;16.10;76316;2839.107;-1803.504;1;134;-110;-100.0;43.0;43.3;14;14.9;24.9;0.0;
04/03/2025 19:21:20;100;0;126.64;-4;-19.98;-4.34;328.7;16.10;76307;2839.105;-1803.502;1;134;-110;-100.0;43.0;43.2;14;14.4;24.9;0.0;
04/03/2025 19:21:40;100;0;125.07;-4;-19.92;-4.27;331.4;16.00;76306;2839.103;-1803.499;1;134;-110;-101.6;43.0;43.3;14;14.9;24.8;0.0;
04/03/2025 19:22:00;100;0;122.49;-4;-19.49;-4.31;334.2;16.00;76301;2839.102;-1803.496;1;134;-110;-100.0;43.0;43.2;12;12.2;24.9;0.0;
04/03/2025 19:22:20;100;0;122.38;-4;-19.36;-5.57;336.8;16.00;76286;2839.100;-1803.494;1;134;-110;-100.0;43.0;43.3;12;12.2;24.8;0.0;
04/03/2025 19:22:40;100;0;122.44;-4;-19.42;-5.63;339.4;15.90;76286;2839.099;-1803.492;1;134;-110;-100.0;43.0;43.2;12;12.2;24.9;0.0;
04/03/2025 19:23:00;100;0;122.63;-4;-19.35;-5.63;341.7;15.90;76276;2839.098;-1803.489;1;134;-110;-101.6;43.0;43.3;12;12.2;24.9;0.0;
04/03/2025 19:23:21;100;0;121.99;-4;-19.37;-5.61;344.4;15.90;76264;2839.096;-1803.487;1;134;-110;-101.6;43.0;43.2;12;12.2;24.9;0.0;
04/03/2025 19:23:41;100;0;121.22;-4;-19.58;-5.63;347.1;15.80;76257;2839.095;-1803.484;1;134;-110;-100.0;43.0;43.2;12;12.2;24.9;0.0;
04/03/2025 19:24:01;100;0;122.41;-4;-19.43;-5.60;349.7;15.80;76253;2839.094;-1803.482;1;134;-110;-100.0;43.0;43.3;12;12.2;24.9;0.0;
04/03/2025 19:24:21;100;0;123.80;-4;-19.51;-5.67;352.2;15.80;76251;2839.092;-1803.480;1;134;-110;-100.0;43.0;43.2;12;12.2;24.8;0.0;
04/03/2025 19:24:41;100;0;126.64;-4;-19.45;-5.74;354.9;15.70;76241;2839.090;-1803.477;1;134;-110;-101.6;43.0;43.3;14;14.0;24.9;0.0;
04/03/2025 19:25:01;100;0;129.34;-4;-19.36;-4.52;357.5;15.70;76234;2839.089;-1803.475;1;134;-110;-100.0;43.0;43.2;14;14.4;24.9;0.0;
04/03/2025 19:25:21;100;0;131.18;-4;-19.28;-4.38;360.1;15.60;76219;2839.087;-1803.473;1;134;-110;-100.0;43.0;43.2;14;14.4;24.9;0.0;
04/03/2025 19:25:41;100;0;133.28;-4;-19.44;-4.42;362.8;15.60;76226;2839.085;-1803.471;1;134;-110;-100.0;43.0;43.3;14;14.4;24.9;0.0;
04/03/2025 19:26:01;100;0;135.74;-4;-19.48;-4.39;365.3;15.60;76211;2839.083;-1803.469;1;134;-110;-101.6;43.0;43.2;14;14.4;24.9;0.0;
04/03/2025 19:26:21;100;0;139.63;-4;-19.28;-4.52;368.0;15.60;76216;2839.081;-1803.467;1;134;-110;-100.0;43.0;43.2;16;15.8;24.9;0.0;
04/03/2025 19:26:41;100;0;138.88;-4;-19.45;-3.56;370.7;15.50;76192;2839.078;-1803.465;1;134;-110;-103.2;43.0;43.2;16;16.2;24.8;0.0;
04/03/2025 19:27:01;100;0;138.01;-4;-19.54;-3.58;373.2;15.50;76191;2839.076;-1803.464;1;134;-110;-100.0;43.0;43.2;16;16.2;24.8;0.0;
04/03/2025 19:27:21;100;0;137.00;-4;-19.57;-3.58;375.9;15.50;76197;2839.074;-1803.462;1;134;-110;-101.6;43.0;43.2;16;16.2;24.9;0.0;
04/03/2025 19:27:41;100;0;136.16;-4;-19.62;-3.52;378.6;15.40;76179;2839.072;-1803.460;1;134;-110;-101.6;43.0;43.2;16;16.2;24.8;0.0;
04/03/2025 19:28:01;100;0;133.44;-4;-19.54;-3.55;381.2;15.40;76183;2839.070;-1803.458;1;134;-110;-98.4;43.0;43.2;14;14.0;24.8;0.0;
04/03/2025 19:28:21;100;0;131.22;-4;-19.50;-4.89;384.1;15.40;76179;2839.068;-1803.456;1;134;-110;-100.0;43.0;43.3;14;13.5;24.9;0.0;
04/03/2025 19:28:41;100;0;129.62;-4;-19.49;-4.88;386.6;15.30;76168;2839.067;-1803.454;1;134;-110;-100.0;43.0;43.2;14;13.5;24.9;0.0;
04/03/2025 19:29:01;100;0;130.01;-4;-19.33;-4.86;389.3;15.30;76169;2839.065;-1803.451;1;134;-110;-101.6;43.0;43.3;14;13.5;24.8;0.0;
04/03/2025 19:29:21;100;0;130.60;-4;-19.30;-4.86;391.8;15.30;76165;2839.063;-1803.449;1;134;-110;-100.0;43.0;43.2;14;13.5;24.9;0.0;
04/03/2025 19:29:41;100;0;128.75;-4;-19.62;-4.93;394.3;15.20;76157;2839.061;-1803.447;1;134;-110;-98.4;43.0;43.2;14;13.5;24.9;0.0;
04/03/2025 19:30:01;100;0;130.77;-4;-19.32;-4.87;396.9;15.20;76151;2839.060;-1803.445;1;134;-110;-100.0;43.0;43.3;14;13.5;24.9;0.0;
04/03/2025 19:30:21;100;0;132.17;-4;-19.45;-4.83;399.4;15.20;76142;2839.058;-1803.443;1;134;-110;-100.0;43.0;43.2;14;13.5;24.9;0.0;
04/03/2025 19:30:41;100;0;133.39;-4;-19.27;-4.82;401.9;15.20;76148;2839.056;-1803.441;1;134;-110;-100.0;43.0;43.2;14;13.5;24.9;0.0;
04/03/2025 19:31:01;100;0;133.34;-4;-19.68;-4.81;404.4;15.10;76139;2839.054;-1803.440;1;134;-110;-100.0;43.0;43.3;14;13.5;24.8;0.0;
04/03/2025 19:31:21;100;0;132.85;-4;-19.35;-4.83;406.9;15.10;76135;2839.052;-1803.438;1;134;-110;-100.0;43.0;43.3;14;13.5;24.8;0.0;
04/03/2025 19:31:41;100;0;132.26;-4;-19.19;-4.79;409.2;15.10;76131;2839.051;-1803.436;1;134;-110;-101.6;43.0;43.2;14;13.5;24.9;0.0;
04/03/2025 19:32:01;100;0;130.37;-4;-19.62;-4.94;411.8;15.00;76129;2839.049;-1803.434;1;134;-110;-100.0;43.0;43.2;14;13.5;24.9;0.0;
04/03/2025 19:32:21;100;0;129.28;-4;-19.59;-4.78;414.1;15.00;76131;2839.048;-1803.432;1;134;-110;-101.6;43.0;43.3;14;13.5;24.9;0.0;
04/03/2025 19:32:41;100;0;126.46;-4;-19.31;-4.91;416.6;15.00;76126;2839.046;-1803.430;1;134;-110;-101.6;43.0;43.2;14;13.5;24.9;0.0;
04/03/2025 19:33:01;100;0;128.32;-4;-19.34;-4.83;419.1;15.00;76119;2839.044;-1803.428;1;134;-110;-100.0;43.0;43.3;14;13.5;24.9;0.0;
04/03/2025 19:33:21;100;0;128.50;-4;-19.80;-4.84;421.5;14.90;76094;2839.043;-1803.426;1;134;-110;-100.0;43.0;43.3;14;13.5;24.9;0.0;
04/03/2025 19:33:41;100;0;130.44;-4;-19.32;-4.82;423.8;14.90;76100;2839.041;-1803.424;1;134;-110;-101.6;43.0;43.2;14;13.5;24.9;0.0;
04/03/2025 19:34:01;100;0;133.12;-4;-19.27;-4.84;426.3;14.90;76089;2839.039;-1803.422;1;134;-110;-100.0;43.0;43.2;14;13.5;24.9;0.0;
04/03/2025 19:34:21;100;0;134.11;-4;-19.48;-4.86;428.5;14.90;76093;2839.038;-1803.421;1;134;-110;-101.6;43.0;43.2;14;13.5;24.9;0.0;
04/03/2025 19:34:41;100;0;131.94;-4;-19.49;-4.82;430.7;14.80;76082;2839.036;-1803.419;1;134;-110;-100.0;43.0;43.3;14;13.5;24.9;0.0;
04/03/2025 19:35:01;100;0;128.33;-4;-19.37;-4.84;433.0;14.80;76071;2839.035;-1803.417;1;134;-110;-100.0;43.0;43.2;14;13.5;24.9;0.0;
04/03/2025 19:35:21;100;0;126.09;-4;-19.71;-4.91;435.3;14.80;76076;2839.034;-1803.415;1;134;-110;-100.0;43.0;43.3;14;13.5;24.9;0.0;
04/03/2025 19:35:41;100;0;123.58;-4;-19.38;-4.87;437.6;14.70;76061;2839.032;-1803.413;1;134;-110;-100.0;43.0;43.3;14;13.5;24.9;0.0;
04/03/2025 19:36:01;100;0;121.06;-4;-19.22;-4.91;439.8;14.70;76058;2839.031;-1803.411;1;134;-110;-100.0;43.0;43.3;12;12.2;24.9;0.0;
04/03/2025 19:36:21;100;0;120.29;-4;-19.11;-5.82;442.0;14.70;76051;2839.030;-1803.409;1;134;-110;-100.0;43.0;43.3;12;11.7;24.9;0.0;
04/03/2025 19:36:41;100;0;120.07;-4;-18.84;-5.86;444.0;14.70;76046;2839.029;-1803.407;1;134;-130;-130.6;43.4;43.6;12;11.7;24.9;0.0;
04/03/2025 19:37:01;100;0;122.42;-4;-19.20;-5.72;446.1;14.60;76108;2839.028;-1803.406;1;134;-130;-132.3;43.4;43.7;12;11.7;24.9;0.0;
04/03/2025 19:37:21;100;0;123.29;-4;-19.56;-5.65;448.6;14.60;76106;2839.027;-1803.403;1;134;-130;-130.6;43.4;43.7;12;11.7;24.8;0.0;
04/03/2025 19:37:41;100;0;124.26;-4;-19.41;-5.67;450.9;14.60;76097;2839.026;-1803.401;1;134;-130;-132.3;43.4;43.7;12;11.7;24.8;0.0;
04/03/2025 19:38:01;100;0;125.07;-4;-19.21;-5.57;453.3;14.50;76093;2839.024;-1803.399;1;134;-130;-132.3;43.4;43.7;14;14.4;24.9;0.0;
04/03/2025 19:38:21;100;0;125.52;-4;-19.77;-4.26;455.7;14.50;76095;2839.023;-1803.397;1;134;-130;-132.3;43.4;43.7;14;14.4;24.9;0.0;
04/03/2025 19:38:41;100;0;125.60;-4;-19.80;-4.21;458.0;14.50;76090;2839.022;-1803.395;1;134;-130;-132.3;43.4;43.7;14;14.4;24.9;0.0;
04/03/2025 19:39:01;100;0;124.41;-4;-19.88;-4.19;460.5;14.50;76080;2839.020;-1803.393;1;134;-130;-132.3;43.4;43.7;14;14.4;24.9;0.0;
04/03/2025 19:39:21;100;0;124.39;-4;-19.76;-4.24;462.8;14.40;76073;2839.019;-1803.391;1;134;-130;-130.6;43.4;43.7;14;14.4;24.9;0.0;
04/03/2025 19:39:41;100;0;126.49;-4;-19.70;-4.27;465.3;14.40;76077;2839.017;-1803.389;1;134;-130;-132.3;43.4;43.7;14;14.4;24.9;0.0;
04/03/2025 19:40:01;100;0;129.73;-4;-19.52;-4.10;467.5;14.40;76070;2839.016;-1803.388;1;134;-130;-132.3;43.4;43.7;14;14.4;24.9;0.0;
04/03/2025 19:40:21;100;0;132.31;-4;-19.57;-4.16;469.9;14.40;76060;2839.014;-1803.386;1;134;-130;-132.3;43.4;43.7;14;14.4;24.9;0.0;
04/03/2025 19:40:41;100;0;133.63;-4;-20.35;-3.97;472.7;14.30;76058;2839.012;-1803.384;1;134;-130;-132.3;43.4;43.9;14;14.4;24.9;0.0;
04/03/2025 19:41:01;100;0;137.37;-4;-19.80;-4.08;474.8;14.30;76047;2839.011;-1803.382;1;134;-130;-132.3;43.4;43.7;14;14.4;24.9;0.0;
04/03/2025 19:41:21;100;0;140.57;-4;-20.14;-4.34;477.2;14.30;76053;2839.009;-1803.381;1;134;-130;-132.3;43.4;43.7;18;18.1;24.8;0.0;
04/03/2025 19:41:41;100;0;141.53;-4;-20.45;-2.15;479.9;14.30;76046;2839.007;-1803.379;1;134;-130;-132.3;43.4;43.7;18;18.5;24.9;0.0;
04/03/2025 19:42:01;100;0;144.14;-4;-20.34;-2.20;482.5;14.20;76034;2839.004;-1803.378;1;134;-130;-133.9;43.4;43.9;22;22.1;24.9;0.0;
04/03/2025 19:42:21;100;0;142.66;-4;-20.41;-0.05;485.0;14.20;76026;2839.002;-1803.377;1;134;-130;-132.3;43.4;43.9;20;19.4;24.9;0.0;
04/03/2025 19:42:41;100;0;138.32;-4;-20.56;-1.85;487.6;14.20;76019;2839.000;-1803.375;1;134;-130;-132.3;43.4;43.9;16;15.8;24.9;0.0;
04/03/2025 19:43:01;100;0;138.93;-4;-19.64;-3.76;490.2;14.20;76014;2838.998;-1803.373;1;134;-130;-132.3;43.4;43.7;16;15.3;24.8;0.0;
04/03/2025 19:43:21;100;0;139.68;-4;-19.60;-3.89;492.7;14.10;76007;2838.996;-1803.372;1;134;-130;-132.3;43.4;43.7;16;15.3;24.8;0.0;
04/03/2025 19:43:41;100;0;141.39;-4;-19.52;-3.86;495.1;14.10;76000;2838.994;-1803.371;1;134;-130;-133.9;43.4;43.7;19;19.0;24.8;0.0;
04/03/2025 19:44:01;100;0;141.76;-4;-19.71;-1.91;497.3;14.10;75994;2838.992;-1803.370;1;134;-130;-133.9;43.4;43.9;19;19.4;24.9;0.0;
04/03/2025 19:44:21;100;0;140.86;-4;-19.75;-1.87;499.9;14.10;75995;2838.990;-1803.368;1;134;-130;-132.3;43.4;43.7;19;19.4;24.9;0.0;
04/03/2025 19:44:41;100;0;138.14;-4;-19.64;-1.93;502.4;14.00;75985;2838.988;-1803.366;1;134;-130;-132.3;43.4;43.9;16;15.8;24.9;0.0;
04/03/2025 19:45:01;100;0;136.98;-4;-19.00;-3.95;504.7;14.00;75976;2838.986;-1803.365;1;134;-130;-132.3;43.7;43.7;16;15.3;24.9;0.0;
04/03/2025 19:45:21;100;0;142.39;-4;-19.26;-3.76;507.0;14.00;75967;2838.985;-1803.364;1;134;-130;-132.3;43.7;43.9;20;19.9;24.9;0.0;
04/03/2025 19:45:41;100;0;141.55;-4;-19.74;-1.44;509.3;13.90;75969;2838.983;-1803.362;1;134;-130;-132.3;43.7;43.7;20;19.9;24.9;0.0;
04/03/2025 19:46:01;100;0;139.75;-4;-19.76;-1.46;511.8;13.90;75956;2838.981;-1803.361;1;134;-130;-133.9;43.7;43.7;17;17.1;24.8;0.0;
04/03/2025 19:46:21;100;0;137.76;-4;-19.74;-3.18;514.4;13.90;75957;2838.979;-1803.359;1;134;-130;-132.3;43.7;43.7;17;16.7;24.9;0.0;
04/03/2025 19:46:41;100;0;135.69;-4;-19.78;-3.25;516.7;13.90;75955;2838.977;-1803.358;1;134;-130;-133.9;43.7;43.7;15;14.9;24.8;0.0;
04/03/2025 19:47:01;100;0;132.96;-4;-20.07;-4.03;519.3;13.80;75951;2838.975;-1803.356;1;134;-130;-133.9;43.7;43.7;15;14.9;24.8;0.0;
04/03/2025 19:47:21;100;0;129.46;-4;-20.18;-4.08;522.1;13.80;75952;2838.973;-1803.353;1;134;-130;-132.3;43.7;43.7;15;14.9;24.9;0.0;
04/03/2025 19:47:41;100;0;125.98;-4;-19.93;-4.11;524.6;13.80;75936;2838.972;-1803.351;1;134;-130;-132.3;43.7;43.7;15;14.9;24.9;0.0;
04/03/2025 19:48:01;100;0;123.20;-4;-19.87;-4.12;527.2;13.80;75933;2838.970;-1803.349;1;134;-130;-133.9;43.7;43.7;15;14.9;24.9;0.0;
04/03/2025 19:48:21;100;0;121.32;-4;-19.91;-4.16;529.7;13.70;75925;2838.969;-1803.347;1;134;-130;-133.9;43.7;43.7;12;12.2;24.8;0.0;
04/03/2025 19:48:41;100;0;122.03;-4;-19.79;-5.51;532.4;13.70;75918;2838.968;-1803.344;1;134;-130;-133.9;43.7;43.7;12;11.7;24.9;0.0;
04/03/2025 19:49:01;100;0;122.26;-4;-19.23;-5.56;535.0;13.70;75923;2838.966;-1803.342;1;134;-130;-133.9;43.7;43.7;12;11.7;24.8;0.0;
04/03/2025 19:49:21;100;0;121.91;-4;-19.78;-5.33;537.5;13.70;75926;2838.965;-1803.340;1;134;-130;-132.3;43.7;43.7;12;11.7;24.9;0.0;
04/03/2025 19:49:41;100;0;121.37;-4;-19.91;-5.45;540.1;13.60;75916;2838.964;-1803.337;1;134;-130;-132.3;43.7;43.7;12;11.7;24.9;0.0;
04/03/2025 19:50:01;100;0;122.74;-4;-19.39;-5.52;542.8;13.60;75907;2838.962;-1803.334;1;134;-130;-132.3;43.7;43.7;12;11.7;24.9;0.0;
04/03/2025 19:50:21;100;0;122.46;-4;-19.42;-5.56;545.3;13.60;75902;2838.961;-1803.332;1;134;-130;-132.3;43.7;43.7;12;11.7;24.8;0.0;
04/03/2025 19:50:41;100;0;123.49;-4;-19.34;-5.48;547.9;13.50;75904;2838.959;-1803.330;1;134;-130;-132.3;43.7;43.7;12;11.7;24.9;0.0;
04/03/2025 19:51:01;100;0;121.96;-4;-18.90;-5.75;550.4;13.50;75905;2838.958;-1803.327;1;134;-130;-133.9;44.0;44.0;12;11.7;24.9;0.0;
04/03/2025 19:51:21;100;0;123.04;-4;-20.79;-5.91;553.1;13.50;75905;2838.957;-1803.325;1;134;-130;-132.3;44.0;44.2;12;11.7;24.8;0.0;
04/03/2025 19:51:41;100;0;121.03;-4;-20.00;-5.54;555.9;13.50;75898;2838.955;-1803.322;1;134;-130;-132.3;44.0;44.2;12;11.7;24.9;0.0;
04/03/2025 19:52:01;100;0;120.18;-4;-20.23;-5.47;558.5;13.50;75888;2838.954;-1803.320;1;134;-130;-132.3;44.0;44.2;12;11.7;24.8;0.0;
04/03/2025 19:52:21;100;0;119.26;-4;-20.15;-5.50;561.5;13.40;75885;2838.953;-1803.317;1;134;-130;-132.3;44.0;44.2;9;9.0;24.9;0.0;
04/03/2025 19:52:41;100;0;118.49;-4;-19.47;-7.13;564.2;13.40;75893;2838.951;-1803.314;1;134;-130;-133.9;44.0;44.2;9;8.6;24.8;0.0;
04/03/2025 19:53:01;100;0;119.48;-4;-20.28;-7.48;567.0;13.40;75884;2838.950;-1803.312;1;134;-130;-132.3;44.0;44.2;9;8.6;24.8;0.0;
04/03/2025 19:53:21;100;0;117.13;-4;-19.97;-7.16;569.8;13.40;75885;2838.949;-1803.309;1;134;-130;-132.3;44.0;44.0;7;7.2;24.8;0.0;
04/03/2025 19:53:41;100;0;117.65;-4;-19.95;-8.02;572.5;13.40;75878;2838.948;-1803.306;1;134;-130;-133.9;44.0;44.2;7;6.8;24.9;0.0;
04/03/2025 19:54:01;100;0;118.48;-4;-20.02;-8.05;575.5;13.30;75876;2838.946;-1803.303;1;134;-130;-133.9;44.0;44.2;7;6.8;24.9;0.0;
04/03/2025 19:54:21;100;0;120.42;-4;-19.78;-7.97;578.2;13.30;75868;2838.945;-1803.301;1;134;-130;-132.3;44.0;44.2;10;9.9;24.9;0.0;
04/03/2025 19:54:41;100;0;121.20;-4;-19.77;-6.26;580.8;13.30;75872;2838.944;-1803.298;1;134;-130;-132.3;44.0;44.2;12;12.6;24.8;0.0;
04/03/2025 19:55:01;100;0;122.76;-4;-19.69;-5.09;583.5;13.30;75862;2838.942;-1803.296;1;134;-130;-132.3;44.0;44.2;12;12.6;24.9;0.0;
04/03/2025 19:55:21;100;0;126.02;-4;-20.18;-5.06;586.1;13.30;75863;2838.941;-1803.294;1;134;-130;-132.3;44.0;44.2;14;14.0;24.9;0.0;
04/03/2025 19:55:41;100;0;127.93;-4;-20.27;-4.15;588.7;13.30;75860;2838.939;-1803.291;1;134;-130;-132.3;44.0;44.2;14;14.4;24.8;0.0;
04/03/2025 19:56:01;100;0;129.79;-4;-20.23;-4.21;591.2;13.20;75851;2838.937;-1803.289;1;134;-130;-132.3;44.0;44.2;14;14.4;24.9;0.0;
04/03/2025 19:56:21;100;0;131.20;-4;-19.93;-4.16;594.0;13.20;75848;2838.935;-1803.287;1;134;-130;-132.3;44.0;44.2;14;14.4;24.8;0.0;
04/03/2025 19:56:41;100;0;133.54;-4;-19.86;-4.26;596.7;13.20;75842;2838.933;-1803.285;1;134;-130;-132.3;44.0;44.2;14;14.4;24.9;0.0;
04/03/2025 19:57:01;100;0;136.30;-4;-20.10;-4.25;599.3;13.20;75833;2838.932;-1803.283;1;134;-130;-132.3;44.0;44.2;14;14.4;24.9;0.0;
04/03/2025 19:57:21;100;0;138.68;-4;-20.34;-4.24;602.0;13.20;75844;2838.929;-1803.282;1;134;-130;-132.3;44.0;44.2;14;14.4;24.9;0.0;
04/03/2025 19:57:42;100;0;140.10;-4;-19.94;-4.26;604.7;13.10;75834;2838.927;-1803.280;1;134;-130;-132.3;44.0;44.0;17;17.1;24.8;0.0;
04/03/2025 19:58:02;100;0;140.63;-4;-20.10;-2.80;607.6;13.10;75821;2838.925;-1803.278;1;134;-130;-132.3;44.0;44.2;17;17.6;24.9;0.0;
04/03/2025 19:58:22;100;0;141.27;-4;-20.25;-2.78;610.2;13.10;75830;2838.923;-1803.277;1;134;-130;-132.3;44.0;44.2;17;17.6;24.9;0.0;
04/03/2025 19:58:42;100;0;142.50;-4;-20.41;-2.91;612.9;13.10;75826;2838.920;-1803.275;1;134;-130;-132.3;44.0;44.2;19;19.0;24.9;0.0;
04/03/2025 19:59:02;100;0;144.32;-4;-20.31;-1.90;615.8;13.10;75832;2838.918;-1803.273;1;134;-130;-133.9;44.0;44.2;21;21.2;24.9;0.0;
04/03/2025 19:59:22;100;0;144.86;-4;-20.56;-0.78;618.5;13.00;75822;2838.915;-1803.272;1;134;-130;-132.3;44.0;44.0;23;23.0;24.9;0.0;
04/03/2025 19:59:42;100;0;145.24;-4;-20.34;0.13;621.4;13.00;75814;2838.913;-1803.271;1;134;-130;-133.9;44.0;44.2;23;23.5;24.9;0.0;
04/03/2025 20:00:02;100;0;144.25;-4;-20.43;0.16;624.1;13.00;75810;2838.910;-1803.269;1;134;-130;-132.3;44.0;44.2;21;21.2;24.8;0.0;
04/03/2025 20:00:22;100;0;142.00;-4;-20.48;-1.11;627.0;13.00;75808;2838.908;-1803.267;1;134;-130;-132.3;44.0;44.2;19;19.0;24.8;0.0;
04/03/2025 20:00:42;100;0;139.74;-4;-20.74;-2.06;629.9;13.00;75809;2838.905;-1803.266;1;134;-130;-133.9;44.0;44.2;16;15.8;24.9;0.0;
04/03/2025 20:01:02;100;0;137.23;-4;-20.35;-3.68;632.9;13.00;75807;2838.903;-1803.263;1;134;-130;-133.9;44.0;44.2;16;15.3;24.8;0.0;
04/03/2025 20:01:22;100;0;134.55;-4;-20.48;-3.74;635.9;12.90;75794;2838.901;-1803.261;1;134;-130;-133.9;44.0;44.2;14;14.0;24.8;0.0;
04/03/2025 20:01:42;100;0;135.70;-4;-19.89;-4.63;638.8;12.90;75789;2838.899;-1803.259;1;134;-130;-132.3;44.0;44.2;14;13.5;24.9;0.0;
04/03/2025 20:02:02;100;0;137.41;-4;-19.41;-4.78;641.6;12.90;75788;2838.896;-1803.257;1;134;-130;-133.9;44.0;44.2;14;13.5;24.8;0.0;
04/03/2025 20:02:22;100;0;137.67;-4;-19.87;-4.77;644.3;12.90;75783;2838.894;-1803.255;1;134;-130;-132.3;44.0;44.2;14;13.5;24.9;0.0;
04/03/2025 20:02:42;100;0;137.42;-4;-20.06;-4.72;647.2;12.80;75768;2838.892;-1803.253;1;134;-130;-133.9;44.0;44.2;14;13.5;24.9;0.0;
04/03/2025 20:03:02;100;0;136.48;-4;-20.12;-4.65;650.0;12.80;75771;2838.890;-1803.251;1;134;-130;-132.3;44.0;44.2;14;13.5;24.9;0.0;
04/03/2025 20:03:22;100;0;136.32;-4;-20.07;-4.69;652.9;12.80;75766;2838.887;-1803.249;1;134;-130;-132.3;44.0;44.2;14;13.5;24.9;0.0;
04/03/2025 20:03:42;100;0;136.28;-4;-20.12;-4.67;655.9;12.80;75756;2838.885;-1803.247;1;134;-130;-132.3;44.0;44.2;14;13.5;24.9;0.0;
04/03/2025 20:04:02;100;0;137.91;-4;-20.11;-4.57;658.8;12.70;75747;2838.883;-1803.245;1;134;-130;-133.9;44.0;44.2;16;16.2;24.9;0.0;
04/03/2025 20:04:22;100;0;139.97;-4;-19.93;-3.32;661.9;12.70;75747;2838.880;-1803.243;1;134;-130;-132.3;44.0;44.2;16;16.2;24.8;0.0;
04/03/2025 20:04:42;100;0;139.92;-4;-19.64;-3.41;664.8;12.70;75728;2838.878;-1803.241;1;134;-130;-132.3;44.0;44.2;16;16.2;24.8;0.0;
04/03/2025 20:05:02;100;0;139.49;-4;-19.62;-3.39;667.6;12.70;75726;2838.875;-1803.239;1;134;-130;-132.3;44.0;44.0;16;16.2;24.8;0.0;
04/03/2025 20:05:22;100;0;139.07;-4;-19.76;-3.39;670.3;12.70;75713;2838.873;-1803.238;1;134;-130;-132.3;44.0;44.2;16;16.2;24.8;0.0;
04/03/2025 20:05:42;100;0;140.13;-4;-19.80;-3.39;673.1;12.60;75709;2838.871;-1803.236;1;134;-130;-133.9;44.0;44.2;16;16.2;24.9;0.0;
04/03/2025 20:06:02;100;0;140.88;-4;-19.73;-3.46;675.9;12.60;75718;2838.869;-1803.234;1;134;-130;-132.3;44.0;44.2;18;18.1;24.9;0.0;
04/03/2025 20:06:22;100;0;140.27;-4;-20.18;-2.47;678.7;12.60;75703;2838.866;-1803.232;1;134;-130;-133.9;44.0;44.2;18;18.5;24.9;0.0;
04/03/2025 20:06:42;100;0;139.13;-4;-19.77;-2.37;681.6;12.60;75699;2838.864;-1803.230;1;134;-130;-135.5;44.0;44.2;18;18.5;24.9;0.0;
04/03/2025 20:07:02;100;0;135.77;-4;-19.86;-2.23;684.3;12.60;75697;2838.862;-1803.228;1;134;-130;-132.3;44.0;44.2;15;14.9;24.9;0.0;
04/03/2025 20:07:22;100;0;134.62;-4;-19.43;-4.42;687.0;12.50;75700;2838.860;-1803.226;1;134;-130;-132.3;44.0;44.2;15;14.4;24.8;0.0;
04/03/2025 20:07:42;100;0;133.76;-4;-19.53;-4.37;689.9;12.50;75691;2838.858;-1803.224;1;134;-130;-133.9;44.0;44.2;15;14.4;24.9;0.0;
04/03/2025 20:08:02;100;0;132.52;-4;-19.76;-4.33;692.5;12.50;75691;2838.856;-1803.222;1;134;-130;-132.3;44.0;44.2;15;14.4;24.9;0.0;
04/03/2025 20:08:22;100;0;131.05;-4;-20.80;-4.29;695.6;12.50;75674;2838.854;-1803.220;1;134;-130;-132.3;44.0;44.2;15;14.4;24.9;0.0;
04/03/2025 20:08:42;100;0;125.01;-4;-20.17;-4.32;698.6;12.50;75674;2838.852;-1803.217;1;134;-130;-133.9;44.0;44.2;15;14.4;24.9;0.0;
04/03/2025 20:09:02;100;0;126.65;-4;-19.92;-4.22;701.8;12.40;75662;2838.850;-1803.214;1;134;-130;-133.9;44.0;44.2;15;14.4;24.9;0.0;
04/03/2025 20:09:22;100;0;127.93;-4;-19.84;-4.19;704.9;12.40;75648;2838.848;-1803.211;1;134;-130;-132.3;44.0;44.2;15;14.4;24.9;0.0;
04/03/2025 20:09:42;100;0;129.63;-4;-19.80;-4.28;707.9;12.40;75656;2838.846;-1803.209;1;134;-130;-132.3;44.0;44.2;15;14.4;24.8;0.0;
04/03/2025 20:10:02;100;0;129.21;-4;-19.93;-4.29;711.0;12.40;75649;2838.844;-1803.206;1;134;-130;-133.9;44.0;44.2;15;14.4;24.9;0.0;
04/03/2025 20:10:22;100;0;127.41;-4;-19.94;-4.28;714.2;12.30;75648;2838.842;-1803.203;1;134;-130;-132.3;44.0;44.2;15;14.4;24.9;0.0;
04/03/2025 20:10:42;100;0;124.51;-4;-20.01;-4.28;717.2;12.30;75640;2838.840;-1803.201;1;134;-130;-135.5;44.0;44.2;15;14.4;24.8;0.0;
04/03/2025 20:11:02;100;0;122.97;-4;-19.82;-4.28;720.4;12.30;75630;2838.838;-1803.198;1;134;-130;-133.9;44.0;44.2;13;13.1;24.9;0.0;
04/03/2025 20:11:22;100;0;121.61;-4;-19.59;-4.98;723.4;12.30;75612;2838.837;-1803.195;1;134;-130;-132.3;44.0;44.2;13;13.1;24.8;0.0;
04/03/2025 20:11:42;100;0;121.66;-4;-20.09;-4.84;726.6;12.20;75599;2838.835;-1803.192;1;134;-130;-133.9;44.0;44.2;13;13.1;24.9;0.0;
04/03/2025 20:12:02;100;0;120.97;-4;-19.93;-4.95;729.9;12.20;75590;2838.833;-1803.188;1;134;-130;-132.3;44.0;44.2;11;10.8;24.8;0.0;
04/03/2025 20:12:22;100;0;122.06;-4;-19.39;-6.30;733.0;12.20;75586;2838.831;-1803.185;1;134;-130;-132.3;44.0;44.2;11;10.4;24.9;0.0;
04/03/2025 20:12:42;100;0;126.26;-4;-19.26;-6.30;736.1;12.20;75575;2838.829;-1803.182;1;134;-130;-132.3;44.0;44.2;14;14.0;24.9;0.0;
04/03/2025 20:13:02;100;0;129.43;-4;-19.49;-4.35;739.3;12.10;75563;2838.827;-1803.179;1;134;-130;-132.3;44.0;44.2;14;14.0;24.8;0.0;
04/03/2025 20:13:22;100;0;131.81;-4;-19.13;-4.42;742.3;12.10;75561;2838.825;-1803.177;1;134;-130;-133.9;44.0;44.2;14;14.0;24.9;0.0;
04/03/2025 20:13:42;100;0;130.25;-4;-19.12;-4.31;745.4;12.10;75546;2838.823;-1803.174;1;134;-130;-133.9;44.0;44.2;14;14.0;24.9;0.0;
04/03/2025 20:14:02;100;0;129.44;-4;-19.07;-4.46;748.5;12.00;75528;2838.820;-1803.171;1;134;-130;-132.3;44.0;44.2;14;14.0;24.9;0.0;
04/03/2025 20:14:22;100;0;128.84;-4;-19.06;-4.53;751.5;12.00;75520;2838.818;-1803.169;1;134;-130;-135.5;44.0;44.2;14;14.0;24.8;0.0;
04/03/2025 20:14:42;100;0;127.94;-4;-19.43;-4.43;754.5;12.00;75519;2838.816;-1803.166;1;134;-130;-132.3;44.0;44.2;14;14.0;24.9;0.0;
04/03/2025 20:15:02;100;0;126.36;-4;-19.19;-4.49;757.6;12.00;75510;2838.814;-1803.163;1;134;-130;-133.9;44.0;44.2;14;14.0;24.8;0.0;
04/03/2025 20:15:22;100;0;124.53;-4;-19.09;-4.50;760.6;11.90;75509;2838.813;-1803.160;1;134;-130;-132.3;44.0;44.2;14;14.0;24.8;0.0;
04/03/2025 20:15:42;100;0;126.23;-4;-18.91;-4.45;763.7;11.90;75507;2838.811;-1803.157;1;134;-130;-135.5;44.4;44.3;14;14.0;24.8;0.0;
04/03/2025 20:16:02;100;0;127.37;-4;-19.78;-4.43;766.7;11.90;75496;2838.809;-1803.154;1;134;-130;-133.9;44.4;44.5;14;14.4;24.9;0.0;
04/03/2025 20:16:22;100;0;128.47;-4;-19.91;-4.44;769.8;11.90;75494;2838.807;-1803.152;1;134;-130;-133.9;44.4;44.5;14;14.0;24.9;0.0;
04/03/2025 20:16:42;100;0;129.96;-4;-19.89;-4.42;772.9;11.80;75486;2838.804;-1803.149;1;134;-130;-132.3;44.4;44.5;14;14.4;24.9;0.0;
04/03/2025 20:17:02;100;0;132.44;-4;-19.90;-4.39;776.0;11.80;75476;2838.802;-1803.147;1;134;-130;-132.3;44.4;44.5;14;14.4;24.9;0.0;
04/03/2025 20:17:22;100;0;134.06;-4;-19.88;-4.42;779.1;11.80;75479;2838.800;-1803.144;1;134;-130;-132.3;44.4;44.5;14;14.0;24.9;0.0;
04/03/2025 20:17:42;100;0;137.54;-4;-19.38;-4.33;782.1;11.70;75462;2838.797;-1803.142;1;134;-130;-133.9;44.4;44.6;14;14.0;24.8;0.0;
04/03/2025 20:18:02;100;0;138.95;-4;-19.94;-4.39;785.2;11.70;75467;2838.795;-1803.140;1;134;-130;-132.3;44.4;44.5;16;15.8;24.9;0.0;
04/03/2025 20:18:22;100;0;141.07;-4;-19.36;-3.53;788.2;11.70;75456;2838.792;-1803.138;1;134;-130;-130.6;44.4;44.5;18;18.1;24.9;0.0;
04/03/2025 20:18:42;100;0;138.66;-4;-19.62;-2.34;791.0;11.70;75443;2838.790;-1803.136;1;134;-130;-133.9;44.4;44.5;16;15.8;24.9;0.0;
04/03/2025 20:19:02;100;0;135.35;-4;-20.00;-3.79;794.0;11.60;75428;2838.788;-1803.134;1;134;-130;-132.3;44.4;44.5;16;15.8;24.8;0.0;
04/03/2025 20:19:22;100;0;137.44;-4;-20.31;-3.69;797.0;11.60;75432;2838.785;-1803.132;1;134;-130;-132.3;44.4;44.6;16;15.8;24.9;0.0;
04/03/2025 20:19:42;100;0;138.41;-4;-19.64;-3.72;800.1;11.60;75414;2838.783;-1803.130;1;134;-130;-133.9;44.4;44.6;16;15.8;24.8;0.0;
04/03/2025 20:20:02;100;0;137.58;-4;-20.08;-3.65;803.2;11.60;75412;2838.780;-1803.127;1;134;-130;-132.3;44.4;44.5;16;15.8;24.9;0.0;
04/03/2025 20:20:22;100;0;138.08;-4;-19.77;-3.75;806.4;11.50;75411;2838.778;-1803.125;1;134;-130;-132.3;44.4;44.5;16;15.8;24.9;0.0;
04/03/2025 20:20:42;100;0;139.09;-4;-19.89;-3.49;809.4;11.50;75398;2838.775;-1803.123;1;134;-130;-133.9;44.4;44.5;16;15.8;24.9;0.0;
04/03/2025 20:21:02;100;0;135.10;-4;-19.44;-3.80;812.4;11.50;75399;2838.773;-1803.121;1;134;-130;-132.3;44.4;44.6;16;15.8;24.9;0.0;
04/03/2025 20:21:22;100;0;137.23;-4;-20.10;-3.63;815.7;11.40;75389;2838.770;-1803.118;1;134;-130;-132.3;44.4;44.5;16;15.8;24.8;0.0;
04/03/2025 20:21:42;100;0;135.08;-4;-21.23;-3.80;818.7;11.40;75385;2838.768;-1803.116;1;134;-130;-133.9;44.4;44.5;16;15.8;24.8;0.0;
04/03/2025 20:22:02;100;0;131.44;-4;-19.65;-3.62;821.7;11.40;75377;2838.766;-1803.114;1;134;-130;-137.1;44.4;44.5;16;15.8;24.9;0.0;
04/03/2025 20:22:22;100;0;129.57;-4;-20.04;-3.64;824.7;11.40;75376;2838.764;-1803.111;1;134;-130;-132.3;44.4;44.5;16;15.8;24.9;0.0;
04/03/2025 20:22:42;100;0;127.14;-4;-19.82;-3.73;827.7;11.30;75375;2838.762;-1803.109;1;134;-130;-132.3;44.4;44.5;16;15.8;24.9;0.0;
04/03/2025 20:23:02;100;0;122.01;-4;-19.58;-3.79;830.7;11.30;75360;2838.760;-1803.106;1;134;-130;-132.3;44.4;44.5;12;12.2;24.9;0.0;
04/03/2025 20:23:22;100;0;119.13;-4;-19.33;-5.66;833.6;11.30;75353;2838.759;-1803.103;1;134;-130;-132.3;44.4;44.5;10;9.9;24.8;0.0;
04/03/2025 20:23:42;100;0;118.86;-4;-19.42;-6.77;836.4;11.30;75353;2838.757;-1803.100;1;134;-130;-132.3;44.4;44.5;10;9.9;24.9;0.0;
04/03/2025 20:24:02;100;0;119.60;-4;-19.30;-6.60;839.1;11.20;75349;2838.756;-1803.097;1;134;-130;-132.3;44.4;44.5;10;9.9;24.8;0.0;
04/03/2025 20:24:22;100;0;119.12;-4;-19.74;-6.95;842.0;11.20;75343;2838.755;-1803.094;1;134;-130;-132.3;44.4;44.5;10;9.9;24.9;0.0;
04/03/2025 20:24:42;100;0;121.03;-4;-19.32;-6.31;844.9;11.20;75333;2838.753;-1803.091;1;134;-130;-135.5;44.4;44.6;10;9.9;24.9;0.0;
04/03/2025 20:25:02;100;0;118.44;-4;-20.39;-6.81;847.6;11.10;75335;2838.752;-1803.089;1;134;-130;-132.3;44.4;44.5;10;9.9;24.9;0.0;
04/03/2025 20:25:22;100;0;117.99;-4;-19.42;-6.72;850.6;11.10;75324;2838.750;-1803.086;1;134;-130;-132.3;44.4;44.5;8;8.1;24.8;0.0;
04/03/2025 20:25:42;100;0;119.69;-4;-21.25;-7.38;853.5;11.10;75320;2838.749;-1803.083;1;134;-130;-132.3;44.4;44.5;10;9.9;24.8;0.0;
04/03/2025 20:26:02;100;0;120.62;-4;-18.95;-6.36;856.5;11.10;75324;2838.747;-1803.080;1;134;-130;-132.3;44.7;44.6;10;10.4;24.9;0.0;
04/03/2025 20:26:22;100;0;121.56;-4;-19.76;-6.13;859.3;11.00;75314;2838.746;-1803.077;1;134;-130;-132.3;44.7;44.5;12;12.2;24.8;0.0;
04/03/2025 20:26:42;100;0;119.59;-4;-19.79;-5.25;862.4;11.00;75310;2838.744;-1803.074;1;134;-130;-133.9;44.7;44.5;10;9.9;24.9;0.0;
04/03/2025 20:27:02;100;0;127.01;-4;-19.03;-6.92;865.1;11.00;75311;2838.743;-1803.072;1;134;-130;-132.3;44.7;44.5;14;14.0;24.8;0.0;
04/03/2025 20:27:22;100;0;128.48;-4;-20.05;-4.34;868.1;11.00;75306;2838.741;-1803.069;1;134;-130;-135.5;44.7;44.5;14;14.4;24.9;0.0;
04/03/2025 20:27:42;100;0;126.39;-4;-19.95;-4.35;871.0;11.00;75313;2838.739;-1803.067;1;134;-130;-133.9;44.7;44.6;14;14.4;24.9;0.0;
04/03/2025 20:28:02;100;0;126.91;-4;-19.83;-4.47;874.0;10.90;75311;2838.737;-1803.064;1;134;-130;-132.3;44.7;44.5;14;14.4;24.8;0.0;
04/03/2025 20:28:22;100;0;125.81;-4;-19.88;-4.39;877.0;10.90;75309;2838.735;-1803.061;1;134;-130;-132.3;44.7;44.6;14;14.4;24.9;0.0;
04/03/2025 20:28:42;100;0;126.12;-4;-19.84;-4.33;880.0;10.90;75300;2838.734;-1803.059;1;134;-130;-133.9;44.7;44.5;14;14.4;24.9;0.0;
04/03/2025 20:29:02;100;0;127.77;-4;-19.40;-4.18;883.0;10.90;75293;2838.731;-1803.056;1;134;-130;-132.3;44.7;44.5;14;14.4;24.8;0.0;
04/03/2025 20:29:22;100;0;128.77;-4;-19.59;-4.42;886.1;10.90;75294;2838.729;-1803.053;1;134;-130;-132.3;44.7;44.5;14;14.4;24.9;0.0;
04/03/2025 20:29:42;100;0;129.75;-4;-20.42;-4.43;889.2;10.80;75295;2838.727;-1803.050;1;134;-130;-132.3;44.7;44.5;14;14.4;24.9;0.0;
04/03/2025 20:30:02;100;0;129.74;-4;-20.03;-4.32;892.4;10.80;75296;2838.725;-1803.048;1;134;-130;-132.3;44.7;44.5;14;14.4;24.9;0.0;
04/03/2025 20:30:22;100;0;130.01;-4;-20.02;-4.33;895.6;10.80;75297;2838.723;-1803.045;1;134;-130;-132.3;44.7;44.6;14;14.4;24.8;0.0;
04/03/2025 20:30:42;100;0;129.44;-4;-19.90;-4.35;898.8;10.80;75289;2838.721;-1803.042;1;134;-130;-133.9;44.7;44.5;14;14.4;24.9;0.0;
04/03/2025 20:31:02;100;0;128.53;-4;-19.92;-4.37;902.2;10.70;75291;2838.719;-1803.039;1;134;-130;-132.3;44.7;44.5;14;14.4;24.9;0.0;
04/03/2025 20:31:22;100;0;128.89;-4;-19.72;-4.33;905.7;10.70;75286;2838.716;-1803.036;1;134;-130;-132.3;44.7;44.5;14;14.4;24.9;0.0;
04/03/2025 20:31:42;100;0;128.44;-4;-19.77;-4.36;908.8;10.70;75289;2838.714;-1803.033;1;134;-130;-132.3;44.7;44.5;14;14.4;24.8;0.0;
04/03/2025 20:32:02;100;0;126.01;-4;-19.14;-4.40;912.3;10.70;75275;2838.712;-1803.030;1;134;-130;-132.3;44.7;44.5;14;14.4;24.9;0.0;
04/03/2025 20:32:23;100;0;127.53;-4;-19.24;-4.37;915.6;10.70;75278;2838.709;-1803.027;1;134;-130;-132.3;44.7;44.5;14;14.4;24.8;0.0;
04/03/2025 20:32:43;100;0;127.91;-4;-19.18;-4.35;918.9;10.60;75277;2838.707;-1803.024;1;134;-130;-133.9;44.7;44.5;14;14.4;24.8;0.0;
04/03/2025 20:33:03;100;0;126.68;-4;-19.29;-4.39;922.1;10.60;75266;2838.705;-1803.021;1;134;-130;-132.3;44.7;44.6;14;14.4;24.8;0.0;
04/03/2025 20:33:23;100;0;126.32;-4;-19.29;-4.33;925.3;10.60;75263;2838.703;-1803.018;1;134;-130;-132.3;44.7;44.5;14;14.4;24.8;0.0;
04/03/2025 20:33:43;100;0;125.95;-4;-19.25;-4.39;928.5;10.60;75265;2838.701;-1803.015;1;134;-130;-132.3;44.7;44.5;14;14.4;24.8;0.0;
04/03/2025 20:34:03;100;0;125.35;-4;-19.21;-4.38;931.7;10.60;75264;2838.699;-1803.012;1;134;-130;-132.3;44.7;44.6;14;14.4;24.8;0.0;
04/03/2025 20:34:23;100;0;125.09;-4;-18.74;-4.67;934.8;10.50;75255;2838.697;-1803.009;1;134;-130;-132.3;45.0;45.2;14;14.4;24.9;0.0;
04/03/2025 20:34:43;100;0;125.01;-4;-21.78;-4.68;937.8;10.50;75256;2838.695;-1803.006;1;134;-130;-133.9;45.0;45.4;14;14.4;24.8;0.0;
04/03/2025 20:35:03;100;0;124.91;-4;-20.68;-4.58;941.3;10.50;75257;2838.693;-1803.003;1;134;-130;-132.3;45.0;45.4;14;14.4;24.9;0.0;
04/03/2025 20:35:23;100;0;127.13;-4;-20.46;-4.32;944.4;10.50;75249;2838.691;-1803.000;1;134;-130;-133.9;45.0;45.4;14;14.4;24.8;0.0;
04/03/2025 20:35:43;100;0;130.54;-4;-21.21;-4.49;947.4;10.50;75252;2838.689;-1802.998;1;134;-130;-132.3;45.0;45.4;14;14.4;24.8;0.0;
04/03/2025 20:36:03;100;0;129.81;-4;-20.85;-4.49;950.5;10.50;75232;2838.687;-1802.995;1;134;-130;-132.3;45.0;45.4;14;14.4;24.9;0.0;
04/03/2025 20:36:23;100;0;133.61;-4;-20.91;-4.31;953.6;10.40;75242;2838.685;-1802.993;1;134;-130;-133.9;45.0;45.4;14;14.4;24.8;0.0;
04/03/2025 20:36:43;100;0;135.69;-4;-21.26;-4.30;956.8;10.40;75234;2838.683;-1802.991;1;134;-130;-133.9;45.0;45.4;14;14.4;24.8;0.0;
04/03/2025 20:37:03;100;0;137.51;-4;-21.48;-4.39;959.9;10.40;75220;2838.680;-1802.989;1;134;-130;-132.3;45.0;45.4;14;14.4;24.9;0.0;
04/03/2025 20:37:23;100;0;140.52;-4;-20.96;-4.37;963.1;10.40;75228;2838.678;-1802.986;1;134;-130;-132.3;45.0;45.4;17;17.1;24.9;0.0;
04/03/2025 20:37:43;100;0;140.41;-4;-21.20;-3.01;966.2;10.40;75228;2838.675;-1802.985;1;134;-130;-132.3;45.0;45.4;17;17.1;24.8;0.0;
04/03/2025 20:38:03;100;0;140.17;-4;-21.20;-3.05;969.3;10.30;75224;2838.673;-1802.983;1;134;-130;-132.3;45.0;45.5;17;17.1;24.8;0.0;
04/03/2025 20:38:23;100;0;139.04;-4;-21.52;-2.92;972.4;10.30;75215;2838.670;-1802.981;1;134;-130;-132.3;45.0;45.4;17;17.1;24.8;0.0;
04/03/2025 20:38:43;100;0;138.05;-4;-21.05;-2.84;975.5;10.30;75211;2838.668;-1802.979;1;134;-130;-132.3;45.0;45.5;15;14.4;24.8;0.0;
04/03/2025 20:39:03;100;0;137.50;-4;-20.80;-4.27;978.5;10.30;75211;2838.666;-1802.977;1;134;-130;-132.3;45.0;45.5;15;14.4;24.8;0.0;
04/03/2025 20:39:23;100;0;137.24;-4;-21.64;-4.42;981.5;10.30;75220;2838.663;-1802.975;1;134;-130;-132.3;45.0;45.4;15;14.4;24.8;0.0;
04/03/2025 20:39:43;100;0;136.54;-4;-20.59;-3.95;984.7;10.30;75215;2838.661;-1802.972;1;134;-130;-133.9;45.0;45.5;15;14.4;24.9;0.0;
04/03/2025 20:40:03;100;0;136.47;-4;-20.92;-4.49;987.5;10.20;75208;2838.659;-1802.971;1;134;-130;-132.3;45.0;45.4;15;14.9;24.8;0.0;
04/03/2025 20:40:23;100;0;136.23;-4;-20.73;-4.60;990.4;10.20;75214;2838.657;-1802.969;1;134;-130;-132.3;45.0;45.4;15;14.4;24.9;0.0;
04/03/2025 20:40:43;100;0;136.08;-4;-20.74;-4.32;993.3;10.20;75204;2838.655;-1802.967;1;134;-130;-132.3;45.0;45.4;15;14.4;24.8;0.0;
04/03/2025 20:41:03;100;0;138.85;-4;-20.78;-4.23;996.0;10.20;75199;2838.653;-1802.965;1;134;-130;-132.3;45.0;45.4;15;14.4;24.8;0.0;
04/03/2025 20:41:22;118;0;140.58;-4;-20.94;-4.39;998.7;10.20;75206;2838.650;-1802.963;1;134;450;-129.0;21.1;21.1;8;7.7;24.9;0.0;
04/03/2025 20:41:32;118;0;115.30;-4;-7.44;-8.20;999.7;10.20;75186;2838.650;-1802.962;1;134;450;-1.6;21.1;20.9;8;7.7;23.3;-1.0;
04/03/2025 20:41:42;118;0;96.62;-4;21.80;-8.30;999.8;10.20;74931;2838.650;-1802.962;1;134;450;124.2;21.1;21.1;8;7.7;23.2;-1.0;
04/03/2025 20:41:52;118;0;91.99;-4;30.18;-8.63;999.1;10.20;74667;2838.650;-1802.962;1;134;450;246.8;21.1;21.2;8;7.7;23.1;-1.0;
04/03/2025 20:42:02;118;0;91.74;-4;30.14;-8.32;997.9;10.20;74420;2838.650;-1802.961;1;134;450;367.7;21.1;21.2;8;7.7;23.2;-1.0;
04/03/2025 20:42:12;118;0;92.83;-4;27.52;-7.68;996.5;10.20;74184;2838.651;-1802.960;1;134;450;451.6;21.1;21.4;8;7.7;23.3;-1.0;
04/03/2025 20:42:22;118;0;138.49;-4;25.22;-7.35;994.6;10.20;74007;2838.649;-1802.959;1;134;450;451.6;21.1;21.2;8;7.7;24.8;-1.0;
04/03/2025 20:42:42;117;0;130.57;-4;22.12;-7.37;991.1;10.20;74002;2838.647;-1802.956;1;134;450;451.6;21.1;21.2;8;7.7;24.8;-1.0;
04/03/2025 20:43:02;117;0;122.50;-4;20.95;-7.12;987.7;10.30;74015;2838.645;-1802.953;1;134;450;451.6;21.1;21.2;32;32.0;24.8;-1.0;
04/03/2025 20:43:22;117;0;122.68;-4;23.17;5.49;984.5;10.30;74011;2838.644;-1802.950;1;134;450;451.6;22.0;22.1;32;32.0;24.8;-1.0;
04/03/2025 20:43:42;117;0;125.37;-4;21.79;5.45;980.8;10.40;74012;2838.642;-1802.947;1;134;450;451.6;22.0;22.4;30;29.8;24.8;-1.0;
04/03/2025 20:44:02;117;0;125.11;-4;21.43;3.94;977.5;10.40;74005;2838.640;-1802.944;1;134;450;451.6;22.0;22.4;30;29.8;24.8;-1.0;
04/03/2025 20:44:22;117;0;124.89;-4;21.17;3.97;974.4;10.40;73997;2838.638;-1802.942;1;134;450;451.6;22.0;22.2;30;29.3;24.8;-1.0;
04/03/2025 20:44:42;117;0;123.74;-4;20.76;3.71;971.3;10.40;73997;2838.636;-1802.939;1;134;450;451.6;22.0;22.4;30;29.8;24.8;-1.0;
04/03/2025 20:45:02;117;0;122.49;-4;20.81;4.01;968.5;10.40;73992;2838.635;-1802.936;1;134;450;451.6;22.0;22.2;32;32.0;24.8;-1.0;
04/03/2025 20:45:22;117;0;123.23;-4;20.99;5.32;965.7;10.40;73998;2838.633;-1802.934;1;134;450;451.6;22.0;22.2;32;32.0;24.8;-1.0;
04/03/2025 20:45:42;117;0;123.99;-4;21.23;5.25;962.7;10.30;73988;2838.632;-1802.931;1;134;450;451.6;22.0;22.2;32;32.0;24.8;-1.0;
04/03/2025 20:46:02;117;0;124.77;-4;21.17;5.29;959.7;10.30;73998;2838.630;-1802.929;1;134;450;451.6;22.0;22.2;32;32.0;24.8;-1.0;
04/03/2025 20:46:22;117;0;125.97;-4;21.06;5.35;956.5;10.30;73979;2838.628;-1802.926;1;134;450;451.6;22.0;22.2;30;29.8;24.8;-1.0;
04/03/2025 20:46:42;117;0;126.04;-4;21.07;3.87;953.5;10.30;73979;2838.626;-1802.923;1;134;450;453.2;22.0;22.2;30;29.3;24.8;-1.0;
04/03/2025 20:47:02;117;0;126.33;-4;21.17;3.66;950.6;10.30;73978;2838.625;-1802.921;1;134;450;450.0;22.0;22.2;30;29.3;24.9;-1.0;
04/03/2025 20:47:22;117;0;126.66;-4;21.02;3.81;947.4;10.30;73965;2838.623;-1802.918;1;134;450;450.0;22.0;22.2;30;29.3;24.8;-1.0;
04/03/2025 20:47:42;117;0;129.89;-4;20.68;3.44;944.3;10.20;73972;2838.621;-1802.915;1;134;450;451.6;22.0;22.2;30;29.3;24.8;-1.0;
04/03/2025 20:48:02;117;0;131.64;-4;20.87;3.52;941.3;10.20;73966;2838.619;-1802.913;1;134;450;451.6;22.0;22.2;30;29.3;24.8;-1.0;
04/03/2025 20:48:22;117;0;132.99;-4;20.72;3.75;938.4;10.20;73975;2838.617;-1802.911;1;134;450;451.6;22.0;22.2;30;29.3;24.8;-1.0;
04/03/2025 20:48:42;117;0;135.11;-4;20.94;3.90;935.4;10.20;73971;2838.614;-1802.909;1;134;450;451.6;22.0;22.2;30;29.3;24.8;-1.0;
04/03/2025 20:49:02;117;0;133.64;-4;20.57;3.85;932.3;10.20;73970;2838.612;-1802.907;1;134;450;451.6;22.0;22.4;30;29.3;24.8;-1.0;
04/03/2025 20:49:22;117;0;134.35;-4;20.67;3.79;929.5;10.20;73968;2838.610;-1802.905;1;134;450;453.2;22.0;22.4;30;29.3;24.9;-1.0;
04/03/2025 20:49:42;117;0;135.02;-4;20.87;3.85;926.6;10.20;73972;2838.608;-1802.903;1;134;450;453.2;22.0;22.2;30;29.3;24.8;-1.0;
04/03/2025 20:50:02;117;0;135.73;-4;20.85;3.76;923.7;10.10;73965;2838.606;-1802.901;1;134;450;450.0;22.0;22.4;30;29.3;24.8;-1.0;
04/03/2025 20:50:22;117;0;136.88;-4;20.73;3.74;920.7;10.10;73962;2838.604;-1802.899;1;134;450;451.6;22.0;22.4;30;29.3;24.8;-1.0;
04/03/2025 20:50:42;117;0;136.65;-4;20.80;3.77;917.8;10.10;73963;2838.602;-1802.897;1;134;450;453.2;22.0;22.4;30;29.3;24.9;-1.0;
04/03/2025 20:51:02;117;0;137.28;-4;20.56;3.71;915.1;10.10;73951;2838.599;-1802.895;1;134;450;451.6;22.0;22.2;30;29.3;24.9;-1.0;
04/03/2025 20:51:22;117;0;136.61;-4;20.16;3.52;912.1;10.10;73952;2838.597;-1802.893;1;134;450;453.2;22.0;22.2;30;29.3;24.8;-1.0;
04/03/2025 20:51:42;117;0;137.51;-4;20.37;3.63;909.5;10.10;73947;2838.595;-1802.891;1;134;450;451.6;22.0;22.4;28;27.5;24.8;-1.0;
04/03/2025 20:52:02;117;0;137.81;-4;20.82;2.73;906.5;10.10;73953;2838.593;-1802.889;1;134;450;453.2;22.0;22.4;28;27.5;24.8;-1.0;
04/03/2025 20:52:22;117;0;136.18;-4;20.64;2.91;903.7;10.10;73956;2838.591;-1802.887;1;134;450;451.6;22.0;22.4;28;27.5;24.8;-1.0;
04/03/2025 20:52:42;117;0;134.95;-4;21.15;2.59;900.7;10.10;73947;2838.589;-1802.885;1;134;450;453.2;22.0;22.4;28;27.5;24.8;-1.0;
04/03/2025 20:53:02;117;0;135.00;-4;21.74;2.73;897.6;10.10;73945;2838.586;-1802.883;1;134;450;451.6;22.0;22.2;28;27.5;24.9;-1.0;
04/03/2025 20:53:22;117;0;137.05;-4;20.43;3.40;894.6;10.00;73926;2838.584;-1802.881;1;134;450;451.6;22.0;22.2;28;27.5;24.8;-1.0;
04/03/2025 20:53:42;117;0;137.31;-4;19.74;2.38;891.7;10.00;73944;2838.582;-1802.879;1;134;450;451.6;22.0;22.2;28;27.5;24.8;-1.0;
04/03/2025 20:54:02;117;0;136.72;-4;21.05;3.12;889.1;10.00;73928;2838.580;-1802.877;1;134;450;453.2;22.0;22.4;28;27.5;24.9;-1.0;
04/03/2025 20:54:22;117;0;137.04;-4;21.22;3.65;886.1;10.00;73922;2838.578;-1802.875;1;134;450;451.6;22.0;22.4;28;27.5;24.9;-1.0;
04/03/2025 20:54:42;117;0;137.70;-4;20.68;2.81;882.7;10.00;73926;2838.575;-1802.873;1;134;450;451.6;22.0;22.4;28;27.5;24.8;-1.0;
04/03/2025 20:55:02;117;0;137.33;-4;21.11;2.85;879.6;10.00;73921;2838.572;-1802.870;1;134;450;451.6;22.0;22.2;28;27.5;24.8;-1.0;
04/03/2025 20:55:22;117;0;137.94;-4;21.08;2.80;876.3;10.00;73924;2838.570;-1802.868;1;134;450;451.6;22.0;22.2;28;27.1;24.8;-1.0;
04/03/2025 20:55:42;117;0;139.44;-4;20.80;2.66;873.0;10.00;73919;2838.567;-1802.866;1;134;450;451.6;22.0;22.2;28;27.5;24.8;-1.0;
04/03/2025 20:56:02;117;0;141.53;-4;20.12;2.86;869.8;9.90;73917;2838.564;-1802.864;1;134;450;450.0;22.0;22.4;26;26.2;24.8;-1.0;
04/03/2025 20:56:22;117;0;139.52;-4;20.73;2.10;866.8;9.90;73917;2838.562;-1802.862;1;134;450;453.2;22.0;22.2;26;26.2;24.8;-1.0;
04/03/2025 20:56:42;117;0;138.97;-4;20.51;2.04;863.6;9.90;73926;2838.560;-1802.860;1;134;450;450.0;22.0;22.4;28;28.0;24.9;-1.0;
04/03/2025 20:57:02;117;0;140.25;-4;20.75;3.29;860.5;9.90;73913;2838.557;-1802.858;1;134;450;451.6;22.0;22.4;28;28.4;24.8;-1.0;
04/03/2025 20:57:22;117;0;141.13;-4;20.64;3.30;857.3;9.90;73908;2838.554;-1802.856;1;134;450;453.2;22.0;22.4;26;26.2;24.8;-1.0;
04/03/2025 20:57:42;117;0;140.46;-4;20.65;2.12;854.1;9.90;73905;2838.552;-1802.854;1;134;450;451.6;22.0;22.2;26;26.2;24.8;-1.0;
04/03/2025 20:58:02;117;0;142.46;-4;20.41;2.30;850.9;9.90;73911;2838.549;-1802.852;1;134;450;453.2;22.0;22.2;26;26.2;24.8;-1.0;
04/03/2025 20:58:22;117;0;143.89;-4;20.20;1.89;847.6;9.90;73917;2838.546;-1802.850;1;134;450;453.2;22.0;22.4;23;23.0;24.8;-1.0;
04/03/2025 20:58:42;117;0;143.13;-4;20.49;0.39;844.5;9.90;73905;2838.543;-1802.848;1;134;450;453.2;22.0;22.2;23;23.0;24.8;-1.0;
04/03/2025 20:59:02;117;0;139.50;-4;20.26;0.37;841.3;9.90;73899;2838.540;-1802.846;1;134;450;451.6;22.0;22.2;27;27.1;24.8;-1.0;
04/03/2025 20:59:22;117;0;139.98;-4;20.37;2.85;838.0;9.90;73908;2838.538;-1802.844;1;134;450;453.2;22.0;22.2;27;27.5;24.8;-1.0;
04/03/2025 20:59:42;117;0;137.90;-4;20.15;3.10;834.8;9.90;73913;2838.535;-1802.841;1;134;450;451.6;22.0;22.4;27;27.5;24.8;-1.0;
04/03/2025 21:00:02;117;0;137.43;-4;20.37;2.84;831.4;9.90;73919;2838.532;-1802.839;1;134;450;451.6;22.0;22.4;27;27.5;24.8;-1.0;
04/03/2025 21:00:22;117;0;136.60;-4;20.48;2.92;828.1;9.90;73922;2838.530;-1802.837;1;134;450;451.6;22.0;22.2;27;27.5;24.8;-1.0;
04/03/2025 21:00:42;117;0;134.65;-4;20.18;3.08;824.8;9.90;73927;2838.527;-1802.834;1;134;450;453.2;22.0;22.4;29;28.9;24.8;-1.0;
04/03/2025 21:01:02;117;0;133.25;-4;20.61;4.11;821.5;9.90;73925;2838.525;-1802.831;1;134;450;453.2;22.0;22.4;29;29.3;24.9;-1.0;
04/03/2025 21:01:22;117;0;133.15;-4;20.71;4.03;818.3;9.90;73922;2838.522;-1802.829;1;134;450;451.6;22.0;22.4;29;29.3;24.8;-1.0;
04/03/2025 21:01:42;117;0;133.65;-4;20.45;4.07;814.8;9.80;73934;2838.520;-1802.826;1;134;450;453.2;22.0;22.2;29;29.3;24.9;-1.0;
04/03/2025 21:02:02;117;0;134.43;-4;20.54;3.96;811.2;9.90;73928;2838.517;-1802.823;1;134;450;453.2;22.0;22.4;29;29.3;24.8;-1.0;
04/03/2025 21:02:22;117;0;135.37;-4;20.71;3.87;807.7;9.80;73937;2838.514;-1802.821;1;134;450;451.6;22.0;22.4;29;29.8;24.9;-1.0;
04/03/2025 21:02:42;117;0;136.19;-4;20.29;4.13;804.2;9.90;73931;2838.512;-1802.818;1;134;450;453.2;22.0;22.2;29;29.3;24.8;-1.0;
04/03/2025 21:03:02;117;0;137.85;-4;20.39;3.93;800.6;9.80;73929;2838.509;-1802.815;1;134;450;453.2;22.0;22.2;29;29.3;24.8;-1.0;
04/03/2025 21:03:22;117;0;139.71;-4;20.45;3.90;797.0;9.80;73934;2838.506;-1802.813;1;134;450;453.2;22.0;22.4;27;27.1;24.9;-1.0;
04/03/2025 21:03:42;117;0;139.87;-4;20.41;2.25;793.4;9.90;73934;2838.502;-1802.810;1;134;450;453.2;22.0;22.2;27;26.6;24.9;-1.0;
04/03/2025 21:04:02;117;0;139.98;-4;20.21;2.54;789.8;9.90;73930;2838.499;-1802.808;1;134;450;453.2;22.0;22.2;27;26.6;24.8;-1.0;
04/03/2025 21:04:22;117;0;140.36;-4;20.16;2.42;786.2;9.80;73934;2838.496;-1802.805;1;134;450;451.6;22.0;22.2;27;26.6;24.8;-1.0;
04/03/2025 21:04:42;117;0;140.06;-4;20.42;2.45;782.8;9.90;73939;2838.493;-1802.803;1;134;450;453.2;22.0;22.4;27;26.6;24.8;-1.0;
04/03/2025 21:05:02;117;0;140.26;-4;20.41;2.59;779.1;9.80;73934;2838.490;-1802.800;1;134;450;453.2;22.0;22.2;27;26.6;24.8;-1.0;
04/03/2025 21:05:22;117;0;139.61;-4;20.36;2.41;775.4;9.90;73936;2838.487;-1802.798;1;134;450;453.2;22.0;22.4;27;26.6;24.8;-1.0;
04/03/2025 21:05:42;117;0;138.36;-4;20.22;2.49;771.6;9.90;73936;2838.484;-1802.795;1;134;450;453.2;22.0;22.4;27;26.6;24.8;-1.0;
