Timestamp;NavState;SecurityLevel;Heading;Declination;Pitch;Roll;Depth;Temperature;Pa;Lat;Lon;DeadReckoning;DesiredH;BallastCmd;BallastPos;LinCmd;LinPos;AngCmd;AngPos;Voltage;Altitude;
05/03/2025 09:21:51;119;0;46.40;-4;-53.74;-29.38;-0.2;19.50;76250;2837.866;-1758.088;0;102;500;508.1;100.0;100.4;0;-0.5;24.7;-1.0;
05/03/2025 09:22:01;116;0;31.14;-4;-51.01;-18.27;-0.1;19.50;76255;2837.870;-1758.090;0;102;500;509.7;100.0;100.4;0;-0.5;24.7;-1.0;
05/03/2025 09:22:26;116;0;52.11;-4;-53.33;-15.76;0.0;19.60;76259;2837.873;-1758.093;0;102;500;508.1;100.0;100.4;0;-0.5;24.7;-1.0;
05/03/2025 09:22:51;116;0;53.58;-4;-52.48;-12.78;0.0;19.60;76260;2837.873;-1758.093;0;117;500;509.7;100.0;100.4;0;-0.5;24.7;-1.0;
05/03/2025 09:23:10;116;0;61.86;-4;-51.51;-24.20;0.1;19.60;76274;2837.876;-1758.094;0;117;500;508.1;100.0;100.6;0;-0.5;24.7;-1.0;
05/03/2025 09:23:30;116;0;49.93;-4;-50.74;-6.63;0.1;19.60;76270;2837.878;-1758.096;0;117;500;508.1;100.0;100.4;0;-0.5;24.7;-1.0;
05/03/2025 09:24:10;116;0;66.78;-4;-57.56;-10.29;-0.1;19.70;76285;2837.883;-1758.098;0;117;500;508.1;100.0;100.4;0;-0.5;24.7;-1.0;
05/03/2025 09:24:51;116;0;36.96;-4;-53.17;-22.78;0.0;19.80;76281;2837.887;-1758.101;0;117;500;509.7;100.0;100.4;0;-0.5;24.7;-1.0;
05/03/2025 09:25:02;116;0;48.74;-4;-52.48;-6.82;0.0;19.80;76291;2837.889;-1758.102;0;117;500;508.1;100.0;100.4;0;-0.5;24.7;-1.0;
05/03/2025 09:25:22;110;0;65.77;-4;-53.15;-12.19;0.1;19.80;76290;2837.889;-1758.102;0;117;-50;390.3;100.0;100.4;-9;-9.0;24.7;-1.0;
05/03/2025 09:25:32;110;0;68.04;-4;-53.79;-10.59;0.1;19.80;76652;2837.889;-1758.103;1;117;-50;241.9;100.0;100.4;-9;-9.0;24.7;-1.0;
05/03/2025 09:25:42;110;0;70.12;-4;-58.08;-9.27;0.5;19.90;76894;2837.890;-1758.104;1;117;-50;85.5;100.0;100.4;-9;-9.0;24.7;-1.0;
05/03/2025 09:25:52;110;0;63.86;-4;-69.27;-23.12;1.0;19.90;77226;2837.891;-1758.104;1;117;-50;-48.4;100.0;100.6;-9;-9.5;24.7;-1.0;
05/03/2025 09:26:02;110;0;57.68;-4;-65.33;-25.47;1.1;19.90;77498;2837.891;-1758.105;1;117;-50;-48.4;48.0;48.0;-9;-9.0;24.7;-1.0;
05/03/2025 09:26:22;100;0;66.96;-4;-34.53;-16.45;3.6;20.00;77461;2837.893;-1758.105;1;117;-50;-45.2;48.0;47.7;-9;-9.5;24.7;-1.0;
05/03/2025 09:26:42;100;0;72.45;-4;-30.66;-16.86;6.9;20.00;77462;2837.895;-1758.103;1;117;-50;-45.2;48.0;47.6;-51;-51.0;24.7;-1.0;
05/03/2025 09:27:02;100;0;80.91;-4;-30.51;-36.50;10.1;20.00;77464;2837.897;-1758.102;1;117;-50;-41.9;48.0;47.4;-40;-40.2;24.7;-1.0;
05/03/2025 09:27:22;100;0;89.96;-4;-30.64;-29.95;13.7;20.00;77466;2837.898;-1758.100;1;117;-50;-43.5;48.0;47.4;-27;-27.1;24.7;0.0;
05/03/2025 09:27:42;100;0;99.58;-4;-29.51;-24.25;17.5;20.10;77473;2837.899;-1758.098;1;117;-50;-45.2;48.0;47.6;-12;-12.2;24.7;0.0;
05/03/2025 09:28:02;100;0;109.03;-4;-30.07;-17.15;21.2;20.10;77473;2837.899;-1758.096;1;117;-50;-45.2;48.0;47.7;4;4.1;24.7;0.0;
05/03/2025 09:28:22;100;0;112.19;-4;-30.59;-9.34;24.6;20.10;77476;2837.899;-1758.095;1;117;-50;-43.5;48.0;47.7;7;7.2;24.7;0.0;
05/03/2025 09:28:42;100;0;112.66;-4;-30.98;-7.69;28.2;20.10;77479;2837.899;-1758.093;1;117;-50;-43.5;48.0;47.6;7;7.7;24.7;0.0;
05/03/2025 09:29:02;100;0;118.94;-4;-28.79;-7.01;32.1;20.10;77482;2837.898;-1758.091;1;117;-50;-43.5;48.3;48.6;12;12.2;24.7;0.0;
05/03/2025 09:29:22;100;0;122.49;-4;-31.10;-5.13;35.7;20.10;77479;2837.898;-1758.090;1;117;-50;-43.5;48.3;48.6;12;12.6;24.7;0.0;
05/03/2025 09:29:42;100;0;127.77;-4;-31.44;-5.15;39.6;20.00;77480;2837.897;-1758.089;1;117;-50;-43.5;48.3;48.6;12;12.6;24.7;0.0;
05/03/2025 09:30:02;100;0;129.61;-4;-32.27;-4.99;43.6;20.10;77488;2837.896;-1758.087;1;117;-50;-43.5;47.7;47.7;12;12.6;24.7;0.0;
05/03/2025 09:30:22;100;0;130.40;-4;-31.34;-5.19;47.6;20.10;77488;2837.895;-1758.086;1;117;-50;-43.5;47.7;47.6;14;14.0;24.7;0.0;
05/03/2025 09:30:42;100;0;129.71;-4;-30.67;-4.39;52.0;20.00;77489;2837.894;-1758.084;1;117;-50;-43.5;47.7;47.6;14;14.4;24.7;0.0;
05/03/2025 09:31:02;100;0;127.05;-4;-28.46;-4.34;56.1;20.00;77491;2837.893;-1758.082;1;117;-50;-43.5;48.1;48.2;14;14.4;24.7;0.0;
05/03/2025 09:31:22;100;0;129.03;-4;-31.23;-4.00;60.2;20.00;77489;2837.892;-1758.081;1;117;-50;-46.8;48.1;48.3;14;14.4;24.7;0.0;
05/03/2025 09:31:42;100;0;131.45;-4;-32.88;-4.53;64.2;20.00;77500;2837.891;-1758.080;1;117;-50;-41.9;47.3;47.3;14;14.4;24.7;0.0;
05/03/2025 09:32:02;100;0;133.60;-4;-29.76;-4.42;68.6;20.00;77495;2837.889;-1758.078;1;117;-50;-45.2;47.3;47.1;17;17.1;24.7;0.0;
05/03/2025 09:32:22;100;0;133.37;-4;-28.14;-2.40;72.3;20.00;77495;2837.888;-1758.077;1;117;-50;-43.5;47.8;47.9;17;17.6;24.7;0.0;
05/03/2025 09:32:42;100;0;128.57;-4;-30.61;-2.92;76.0;20.00;77490;2837.887;-1758.076;1;117;-50;-43.5;47.8;48.2;13;13.1;24.7;0.0;
05/03/2025 09:33:02;100;0;122.00;-4;-31.88;-4.98;80.0;20.00;77500;2837.887;-1758.074;1;117;-50;-45.2;47.8;48.0;13;12.6;24.7;0.0;
05/03/2025 09:33:22;100;0;118.73;-4;-30.72;-4.69;84.5;20.00;77500;2837.886;-1758.072;1;117;-50;-45.2;47.8;48.2;13;12.6;24.7;0.0;
05/03/2025 09:33:42;100;0;115.43;-4;-29.49;-5.09;88.9;20.00;77495;2837.885;-1758.070;1;117;-50;-43.5;47.8;48.2;13;12.6;24.7;0.0;
05/03/2025 09:34:02;100;0;113.18;-4;-29.49;-5.32;93.2;20.00;77493;2837.885;-1758.067;1;117;-50;-43.5;47.8;48.2;10;9.9;24.7;0.0;
05/03/2025 09:34:22;100;0;111.03;-4;-30.30;-6.84;97.4;20.00;77497;2837.885;-1758.065;1;117;-50;-43.5;47.8;48.2;8;8.1;24.7;0.0;
05/03/2025 09:34:42;100;0;111.63;-4;-29.51;-7.81;101.8;20.00;77497;2837.884;-1758.062;1;117;-50;-43.5;47.8;48.2;8;7.7;24.7;0.0;
05/03/2025 09:35:02;100;0;113.21;-4;-29.72;-7.33;106.0;20.00;77497;2837.884;-1758.060;1;117;-50;-45.2;47.8;48.0;10;9.9;24.7;0.0;
05/03/2025 09:35:22;100;0;114.93;-4;-30.16;-5.95;110.1;20.00;77505;2837.884;-1758.058;1;117;-50;-43.5;47.8;48.2;10;10.4;24.7;0.0;
05/03/2025 09:35:42;100;0;118.36;-4;-29.31;-6.19;114.5;20.00;77500;2837.883;-1758.056;1;117;-50;-43.5;47.8;48.0;12;12.6;24.7;0.0;
05/03/2025 09:36:02;100;0;120.28;-4;-31.60;-5.38;118.4;20.00;77508;2837.883;-1758.054;1;117;-50;-43.5;47.8;48.2;12;12.6;24.7;0.0;
05/03/2025 09:36:22;100;0;127.42;-4;-29.34;-5.04;122.5;20.00;77503;2837.881;-1758.052;1;117;-50;-41.9;47.8;48.2;12;12.6;24.7;0.0;
05/03/2025 09:36:42;100;0;126.31;-4;-30.09;-5.21;126.1;20.00;77494;2837.881;-1758.051;1;117;-50;-43.5;47.8;48.2;12;12.6;24.7;0.0;
05/03/2025 09:37:02;100;0;125.94;-4;-30.80;-5.37;130.4;20.00;77501;2837.880;-1758.049;1;117;-50;-43.5;47.8;48.2;12;13.1;24.7;0.0;
05/03/2025 09:37:22;100;0;123.28;-4;-28.58;-6.42;134.8;19.90;77501;2837.879;-1758.047;1;117;-50;-43.5;48.2;48.5;12;12.6;24.7;0.0;
05/03/2025 09:37:42;100;0;134.38;-4;-29.90;-4.79;139.0;19.90;77496;2837.877;-1758.046;1;117;-50;-43.5;48.2;48.6;17;17.1;24.7;0.0;
05/03/2025 09:38:02;100;0;127.39;-4;-30.36;-3.64;143.4;19.90;77502;2837.876;-1758.044;1;117;-50;-43.5;48.2;48.7;13;13.1;24.7;0.0;
05/03/2025 09:38:22;100;0;130.82;-4;-30.68;-4.99;147.4;19.90;77505;2837.875;-1758.043;1;117;-50;-43.5;48.2;48.7;13;12.6;24.7;0.0;
05/03/2025 09:38:29;118;0;130.23;-4;-30.03;-5.30;148.9;19.90;77501;2837.875;-1758.042;1;117;150;-37.1;21.1;20.9;9;8.6;24.7;0.0;
05/03/2025 09:38:39;118;0;119.37;-4;-17.29;-8.16;150.5;19.90;77480;2837.874;-1758.040;1;117;150;91.9;21.1;20.8;9;8.6;24.3;-1.0;
05/03/2025 09:38:49;118;0;115.36;-4;10.77;-8.19;151.1;19.90;77215;2837.874;-1758.041;1;117;150;154.8;21.1;21.1;9;8.6;24.3;-1.0;
05/03/2025 09:38:59;118;0;136.22;-4;24.19;-8.50;150.6;19.90;77099;2837.874;-1758.041;1;117;150;154.8;21.1;21.4;9;8.1;24.7;-1.0;
05/03/2025 09:39:19;117;0;136.42;-4;28.98;-8.32;149.2;19.90;77108;2837.875;-1758.041;1;117;150;154.8;21.1;21.2;9;8.6;24.7;-1.0;
05/03/2025 09:39:39;117;0;130.32;-4;29.43;-8.12;147.2;19.90;77102;2837.875;-1758.042;1;117;150;156.5;21.1;21.2;32;32.0;24.7;-1.0;
05/03/2025 09:39:59;117;0;126.15;-4;30.99;5.04;145.4;19.90;77100;2837.875;-1758.042;1;117;150;154.8;21.1;21.2;32;32.5;24.7;-1.0;
05/03/2025 09:40:20;117;0;113.58;-4;30.22;4.72;143.6;19.90;77095;2837.875;-1758.042;1;117;150;154.8;21.1;21.2;44;44.2;24.7;-1.0;
05/03/2025 09:40:40;117;0;113.05;-4;31.54;11.65;142.0;19.90;77098;2837.876;-1758.042;1;117;150;156.5;21.1;21.2;50;50.1;24.7;-1.0;
05/03/2025 09:41:00;117;0;120.66;-4;32.43;15.29;140.1;19.90;77092;2837.877;-1758.042;1;117;150;154.8;21.8;21.8;36;36.1;24.7;-1.0;
05/03/2025 09:41:20;117;0;117.77;-4;30.60;6.67;137.9;19.90;77105;2837.877;-1758.042;1;117;150;154.8;21.8;21.8;36;35.2;24.7;-1.0;
05/03/2025 09:41:40;117;0;117.09;-4;32.45;6.85;135.9;19.90;77092;2837.877;-1758.042;1;117;150;154.8;22.6;22.7;38;37.9;24.7;-1.0;
05/03/2025 09:42:00;117;0;101.90;-4;26.90;7.35;133.7;19.80;77101;2837.878;-1758.041;1;117;150;154.8;21.6;21.6;59;59.1;24.7;-1.0;
05/03/2025 09:42:20;117;0;108.73;-4;30.62;19.42;131.6;19.80;77090;2837.879;-1758.041;1;117;150;156.5;21.6;21.6;49;49.2;24.7;-1.0;
05/03/2025 09:42:40;117;0;109.06;-4;29.45;13.46;129.8;19.80;77102;2837.879;-1758.041;1;117;150;154.8;21.6;21.6;49;48.7;24.7;-1.0;
05/03/2025 09:43:00;117;0;111.71;-4;28.83;13.44;128.1;19.80;77107;2837.880;-1758.041;1;117;170;172.6;21.3;21.4;49;48.7;24.7;-1.0;
05/03/2025 09:43:20;117;0;108.12;-4;32.84;13.95;126.8;19.80;77076;2837.881;-1758.041;1;117;190;195.2;22.1;22.2;67;67.2;24.7;-1.0;
05/03/2025 09:43:40;117;0;107.12;-4;32.79;24.55;124.7;19.80;77030;2837.881;-1758.041;1;117;190;195.2;23.0;23.1;56;56.0;24.7;-1.0;
05/03/2025 09:44:00;117;0;112.80;-4;28.69;17.30;122.5;19.80;77030;2837.882;-1758.041;1;117;190;195.2;22.6;22.1;41;41.1;24.7;-1.0;
05/03/2025 09:44:20;117;0;114.47;-4;28.66;9.02;120.5;19.80;77033;2837.882;-1758.040;1;117;190;195.2;22.2;22.2;41;40.6;24.7;-1.0;
05/03/2025 09:44:40;117;0;115.39;-4;28.49;9.04;118.2;19.80;77033;2837.882;-1758.040;1;117;190;195.2;21.7;21.8;37;37.0;24.7;-1.0;
05/03/2025 09:45:00;117;0;110.17;-4;29.23;6.41;115.8;19.80;77033;2837.883;-1758.039;1;117;190;195.2;21.7;21.6;44;44.2;24.7;-1.0;
05/03/2025 09:45:20;117;0;113.50;-4;29.28;11.11;113.4;19.80;77033;2837.883;-1758.038;1;117;190;193.5;21.7;21.6;39;38.8;24.7;-1.0;
05/03/2025 09:45:40;117;0;113.81;-4;29.79;7.76;110.8;19.80;77030;2837.883;-1758.038;1;117;190;191.9;21.7;21.6;39;37.9;24.7;-1.0;
05/03/2025 09:46:00;117;0;116.97;-4;29.78;7.79;108.4;19.80;77030;2837.883;-1758.037;1;117;190;195.2;21.7;21.8;36;36.1;24.7;-1.0;
05/03/2025 09:46:20;117;0;115.69;-4;28.76;6.46;106.2;19.80;77036;2837.884;-1758.037;1;117;190;195.2;21.4;21.2;38;37.9;24.7;-1.0;
05/03/2025 09:46:40;117;0;114.58;-4;30.43;7.69;103.8;19.80;77036;2837.884;-1758.036;1;117;190;195.2;21.4;21.2;38;38.4;24.7;-1.0;
05/03/2025 09:47:00;117;0;118.09;-4;30.14;7.82;101.5;19.80;77028;2837.884;-1758.036;1;117;190;195.2;21.4;21.2;36;36.1;24.7;-1.0;
05/03/2025 09:47:20;117;0;117.46;-4;29.27;6.27;99.3;19.80;77031;2837.884;-1758.035;1;117;190;195.2;21.4;21.2;36;35.2;24.7;-1.0;
05/03/2025 09:47:40;117;0;118.54;-4;30.71;6.22;96.6;19.80;77033;2837.885;-1758.035;1;117;190;193.5;21.4;21.1;36;35.6;24.7;-1.0;
05/03/2025 09:48:00;117;0;120.82;-4;30.73;6.00;93.9;19.80;77037;2837.885;-1758.034;1;117;190;191.9;21.4;21.2;33;32.9;24.7;-1.0;
05/03/2025 09:48:20;117;0;123.51;-4;29.63;4.73;91.0;19.80;77042;2837.884;-1758.033;1;117;190;195.2;21.4;21.2;33;32.5;24.7;-1.0;
05/03/2025 09:48:40;117;0;131.34;-4;28.03;4.19;88.4;19.80;77025;2837.884;-1758.033;1;117;190;195.2;20.8;20.8;33;32.0;24.7;-1.0;
05/03/2025 09:49:00;117;0;136.15;-4;30.66;4.18;86.0;19.80;77031;2837.884;-1758.033;1;117;190;195.2;20.8;20.6;31;31.1;24.7;-1.0;
05/03/2025 09:49:20;117;0;135.47;-4;31.49;3.57;83.6;19.80;77031;2837.883;-1758.033;1;117;190;191.9;20.8;20.6;31;30.7;24.7;-1.0;
05/03/2025 09:49:40;117;0;135.26;-4;30.38;3.98;81.3;19.80;77031;2837.883;-1758.033;1;117;190;195.2;20.8;20.6;31;30.7;24.7;-1.0;
05/03/2025 09:50:00;117;0;129.21;-4;29.35;3.23;78.7;19.80;77031;2837.883;-1758.032;1;117;190;193.5;20.8;20.6;31;30.7;24.7;-1.0;
05/03/2025 09:50:20;117;0;119.13;-4;32.66;3.89;76.6;19.80;77026;2837.883;-1758.032;1;117;190;196.8;21.6;21.6;37;37.0;24.7;-1.0;
05/03/2025 09:50:40;117;0;124.81;-4;30.39;7.76;74.1;19.80;77040;2837.883;-1758.032;1;117;190;195.2;21.6;21.6;33;32.9;24.7;-1.0;
05/03/2025 09:51:00;117;0;121.19;-4;29.86;4.36;71.5;19.80;77031;2837.883;-1758.031;1;117;190;195.2;21.6;21.5;33;32.5;24.7;-1.0;
05/03/2025 09:51:20;117;0;121.93;-4;29.34;4.79;69.3;19.80;77034;2837.883;-1758.031;1;117;190;195.2;21.6;21.6;33;32.5;24.7;-1.0;
05/03/2025 09:51:40;117;0;119.85;-4;30.06;4.71;67.1;19.80;77040;2837.883;-1758.031;1;117;190;195.2;21.6;21.5;35;35.2;24.7;-1.0;
05/03/2025 09:52:00;117;0;116.05;-4;30.64;6.29;64.6;19.80;77043;2837.883;-1758.030;1;117;190;195.2;21.6;21.6;38;37.9;24.7;-1.0;
05/03/2025 09:52:20;117;0;115.95;-4;30.32;8.17;62.2;19.80;77040;2837.884;-1758.030;1;117;190;195.2;21.6;21.6;38;38.4;24.7;-1.0;
05/03/2025 09:52:40;117;0;118.37;-4;30.14;7.93;59.6;19.80;77045;2837.884;-1758.029;1;117;190;195.2;21.6;21.6;35;34.7;24.7;-1.0;
05/03/2025 09:53:00;117;0;114.20;-4;29.72;6.11;56.8;19.80;77040;2837.884;-1758.028;1;117;190;193.5;21.6;21.6;38;37.9;24.7;-1.0;
05/03/2025 09:53:20;117;0;112.63;-4;30.70;7.74;54.2;19.80;77048;2837.884;-1758.027;1;117;190;191.9;21.6;21.5;41;41.1;24.7;-1.0;
05/03/2025 09:53:40;117;0;105.75;-4;26.76;9.85;51.6;19.80;77048;2837.885;-1758.026;1;117;190;193.5;20.6;20.5;50;50.1;24.7;-1.0;
05/03/2025 09:54:00;117;0;112.61;-4;33.10;15.92;49.5;19.80;77051;2837.885;-1758.026;1;117;190;195.2;21.5;21.6;45;45.1;24.7;-1.0;
05/03/2025 09:54:20;117;0;113.44;-4;31.06;11.30;46.9;19.80;77045;2837.885;-1758.025;1;117;190;195.2;21.5;21.6;40;40.2;24.7;-1.0;
05/03/2025 09:54:40;117;0;109.45;-4;30.25;8.87;44.4;19.80;77051;2837.886;-1758.025;1;117;190;195.2;21.5;21.6;46;46.0;24.7;-1.0;
05/03/2025 09:55:00;117;0;111.42;-4;30.48;12.63;41.5;19.80;77054;2837.886;-1758.024;1;117;190;193.5;21.5;21.6;41;41.1;24.7;-1.0;
05/03/2025 09:55:20;117;0;112.88;-4;31.44;9.24;38.7;19.80;77056;2837.886;-1758.023;1;117;190;195.2;21.5;21.6;39;38.8;24.7;-1.0;
05/03/2025 09:55:40;117;0;114.04;-4;29.05;7.66;35.5;19.80;77053;2837.886;-1758.021;1;117;190;195.2;21.5;21.6;37;36.6;24.7;-1.0;
05/03/2025 09:56:00;117;0;115.77;-4;27.55;6.98;32.7;19.80;77056;2837.886;-1758.020;1;117;190;195.2;20.8;20.8;37;36.6;24.7;-1.0;
05/03/2025 09:56:20;117;0;114.38;-4;31.12;7.00;30.4;19.80;77056;2837.887;-1758.020;1;117;190;195.2;20.8;20.8;40;40.2;24.7;-1.0;
05/03/2025 09:56:40;117;0;114.53;-4;30.88;8.84;28.0;19.80;77053;2837.887;-1758.019;1;117;190;195.2;20.8;20.8;40;40.2;24.7;-1.0;
05/03/2025 09:57:00;117;0;112.35;-4;30.64;9.68;25.4;19.80;77051;2837.887;-1758.019;1;117;190;196.8;20.8;20.6;42;42.0;24.7;-1.0;
05/03/2025 09:57:20;117;0;111.86;-4;32.71;10.13;22.8;19.80;77056;2837.888;-1758.018;1;117;190;195.2;21.6;21.6;44;44.2;24.7;-1.0;
05/03/2025 09:57:40;117;0;108.38;-4;30.39;11.28;20.2;19.80;77041;2837.888;-1758.017;1;117;190;195.2;21.6;21.8;48;47.8;24.7;-1.0;
05/03/2025 09:58:00;117;0;117.10;-4;29.67;13.29;17.7;19.80;77056;2837.888;-1758.017;1;117;190;195.2;21.6;21.8;36;36.1;24.7;-1.0;
05/03/2025 09:58:20;117;0;114.48;-4;27.36;6.96;15.3;19.80;77051;2837.888;-1758.016;1;117;190;193.5;20.8;20.8;39;38.8;24.7;-1.0;
05/03/2025 09:58:40;117;0;116.61;-4;29.55;8.38;12.8;19.80;77056;2837.889;-1758.015;1;117;190;195.2;20.8;20.6;37;36.6;24.7;-1.0;
05/03/2025 09:59:00;117;0;111.65;-4;30.84;6.63;10.2;19.80;77046;2837.889;-1758.015;1;117;190;195.2;20.8;20.6;44;44.2;24.7;-1.0;
05/03/2025 09:59:20;117;0;114.26;-4;30.23;11.01;7.5;19.80;77058;2837.889;-1758.014;1;117;190;195.2;20.8;20.6;38;37.9;24.7;-1.0;
05/03/2025 09:59:40;117;0;111.40;-4;31.56;7.44;4.6;19.80;77060;2837.889;-1758.013;1;117;190;195.2;20.8;20.6;41;41.1;24.7;-1.0;
05/03/2025 09:59:52;115;0;116.20;-4;29.52;9.96;2.9;19.80;77054;2837.890;-1758.012;1;117;500;200.0;100.0;57.3;0;-0.5;24.7;-1.0;
05/03/2025 10:00:02;115;0;105.95;-4;14.76;-12.49;1.9;19.80;77034;2837.890;-1758.011;1;117;500;321.0;100.0;100.0;0;-0.5;24.5;-1.0;
05/03/2025 10:00:12;115;0;110.83;-4;-56.14;-12.32;2.1;19.90;76770;2837.890;-1758.012;1;117;500;440.3;100.0;100.4;0;-0.5;24.5;-1.0;
05/03/2025 10:00:22;115;0;95.09;-4;-71.86;-7.48;1.9;19.80;76499;2837.891;-1758.013;1;117;500;508.1;100.0;100.6;0;-0.5;24.5;-1.0;
05/03/2025 10:00:32;115;0;92.34;-4;-27.88;-11.87;0.0;19.90;76378;2837.891;-1758.011;1;117;500;508.1;100.0;100.4;0;0.0;24.7;-1.0;
05/03/2025 10:00:52;119;0;95.52;-4;-60.29;-10.58;0.2;19.90;76385;2837.891;-1758.011;1;117;500;509.7;100.0;100.6;0;-0.5;24.7;-1.0;
05/03/2025 10:01:02;119;0;80.93;-4;-57.96;-5.94;0.1;19.90;76381;2837.920;-1758.015;0;117;500;508.1;100.0;100.6;0;-0.5;24.7;-1.0;
05/03/2025 10:01:12;119;0;85.43;-4;-58.74;-19.66;0.0;19.90;76387;2837.920;-1758.015;0;117;500;508.1;100.0;100.6;0;-0.5;24.7;-1.0;
