Timestamp;NavState;SecurityLevel;Heading;Declination;Pitch;Roll;Depth;Temperature;Pa;Lat;Lon;DeadReckoning;DesiredH;BallastCmd;BallastPos;LinCmd;LinPos;AngCmd;AngPos;Voltage;Altitude;
05/03/2025 08:43:16;119;0;61.79;-4;-55.74;-15.64;0.1;17.90;75993;2837.727;-1758.194;0;2;500;506.5;100.0;100.4;0;-0.5;24.7;-1.0;
05/03/2025 08:43:26;116;0;53.87;-4;-49.86;-17.50;0.1;18.00;76002;2837.729;-1758.199;0;2;500;506.5;100.0;100.6;0;-0.5;24.7;-1.0;
05/03/2025 08:43:51;116;0;47.75;-4;-52.03;-14.95;0.2;18.00;76004;2837.729;-1758.200;0;2;500;506.5;100.0;100.4;0;-0.5;24.7;-1.0;
05/03/2025 08:44:01;116;0;35.57;-4;-58.21;-8.08;0.2;18.00;76001;2837.728;-1758.200;0;2;500;504.8;100.0;100.4;0;-0.5;24.7;-1.0;
05/03/2025 08:44:08;116;0;37.12;-4;-52.20;-14.26;0.1;18.10;76000;2837.728;-1758.201;0;2;500;506.5;100.0;100.6;0;-0.5;24.7;-1.0;
05/03/2025 08:44:15;116;0;50.17;-4;-53.61;-16.69;0.1;18.10;76002;2837.728;-1758.202;0;2;500;506.5;100.0;100.4;0;-0.5;24.7;-1.0;
05/03/2025 08:44:22;116;0;45.68;-4;-50.11;-11.83;0.1;18.10;76004;2837.728;-1758.204;0;2;500;504.8;100.0;100.6;0;-0.5;24.7;-1.0;
05/03/2025 08:44:48;116;0;46.85;-4;-55.50;-25.34;0.2;18.20;76025;2837.728;-1758.204;0;102;500;506.5;100.0;100.4;0;-0.5;24.7;-1.0;
05/03/2025 08:45:09;116;0;57.00;-4;-63.54;-12.25;0.1;18.20;76021;2837.729;-1758.206;0;102;500;504.8;100.0;100.4;0;-0.5;24.7;-1.0;
05/03/2025 08:45:20;116;0;53.04;-4;-53.46;-14.33;0.1;18.20;76025;2837.729;-1758.208;0;102;500;506.5;100.0;100.4;0;-0.5;24.7;-1.0;
05/03/2025 08:46:23;116;0;33.64;-4;-58.03;4.99;0.2;18.40;76031;2837.734;-1758.213;0;102;500;506.5;100.0;100.6;0;-0.5;24.7;-1.0;
05/03/2025 08:46:34;116;0;48.33;-4;-51.68;-5.97;0.1;18.40;76040;2837.735;-1758.213;0;102;500;506.5;100.0;100.4;0;-0.5;24.7;-1.0;
05/03/2025 08:47:37;116;0;77.28;-4;-51.71;-18.04;0.1;18.70;76057;2837.740;-1758.220;0;102;500;506.5;100.0;100.6;0;-0.5;24.7;-1.0;
05/03/2025 08:47:50;116;0;66.52;-4;-51.31;-17.44;0.0;18.70;76063;2837.741;-1758.221;0;102;500;506.5;100.0;100.4;0;-0.5;24.7;-1.0;
05/03/2025 08:48:08;116;0;60.25;-4;-58.74;-31.56;0.1;18.80;76064;2837.742;-1758.223;0;102;500;506.5;100.0;100.4;0;-0.5;24.7;-1.0;
05/03/2025 08:48:28;110;0;57.13;-4;-54.04;-16.65;0.1;18.90;76075;2837.742;-1758.223;0;102;-130;385.5;100.0;100.6;-8;-8.1;24.7;-1.0;
05/03/2025 08:48:38;110;0;60.86;-4;-51.91;-10.33;0.1;18.90;76428;2837.742;-1758.223;1;102;-130;241.9;100.0;100.4;-8;-8.1;24.7;-1.0;
05/03/2025 08:48:48;110;0;74.22;-4;-57.50;-22.00;0.4;18.90;76665;2837.742;-1758.222;1;102;-130;88.7;100.0;100.6;-8;-8.1;24.7;-1.0;
05/03/2025 08:48:58;110;0;69.68;-4;-69.39;-20.29;0.9;19.00;76988;2837.742;-1758.222;1;102;-130;-67.7;100.0;100.6;-8;-8.1;24.7;-1.0;
05/03/2025 08:49:08;110;0;59.94;-4;-66.92;-20.86;1.1;19.00;77316;2837.742;-1758.222;1;102;-130;-130.6;50.0;55.5;-8;-8.1;24.7;-1.0;
05/03/2025 08:49:18;110;0;59.70;-4;-54.23;-18.19;2.1;19.00;77419;2837.742;-1758.221;1;102;-130;-130.6;50.0;49.9;-8;-8.1;24.7;-1.0;
05/03/2025 08:49:38;100;0;64.75;-4;-35.92;-16.38;5.7;19.10;77426;2837.743;-1758.218;1;102;-130;-130.6;50.0;49.8;-8;-8.6;24.7;-1.0;
05/03/2025 08:49:58;100;0;72.97;-4;-34.68;-15.98;10.9;19.10;77419;2837.744;-1758.214;1;102;-130;-130.6;48.6;48.5;-12;-12.2;24.7;-1.0;
05/03/2025 08:50:18;100;0;80.29;-4;-31.28;-17.56;15.7;19.20;77423;2837.744;-1758.209;1;102;-130;-129.0;48.6;48.5;-1;-0.9;24.7;0.0;
05/03/2025 08:50:38;100;0;86.58;-4;-31.22;-11.34;20.3;19.20;77441;2837.744;-1758.205;1;102;-130;-127.4;48.6;48.5;9;9.0;24.7;0.0;
05/03/2025 08:50:58;100;0;88.06;-4;-32.06;-6.51;24.8;19.20;77436;2837.744;-1758.200;1;102;-130;-127.4;48.0;48.0;9;9.5;24.7;0.0;
05/03/2025 08:51:18;100;0;86.21;-4;-31.21;-6.45;29.2;19.20;77440;2837.744;-1758.196;1;102;-130;-130.6;48.0;47.7;9;9.5;24.7;0.0;
05/03/2025 08:51:38;100;0;90.65;-4;-31.45;-6.31;33.7;19.20;77445;2837.744;-1758.191;1;102;-130;-129.0;48.0;47.9;12;12.2;24.7;0.0;
05/03/2025 08:51:58;100;0;90.38;-4;-30.90;-4.74;38.3;19.20;77456;2837.743;-1758.186;1;102;-130;-127.4;48.0;47.9;12;12.6;24.7;0.0;
05/03/2025 08:52:18;100;0;90.37;-4;-31.42;-4.96;42.6;19.20;77453;2837.743;-1758.182;1;102;-130;-129.0;48.0;47.9;12;12.6;24.7;0.0;
05/03/2025 08:52:38;100;0;92.13;-4;-32.54;-4.82;47.2;19.30;77455;2837.743;-1758.178;1;102;-130;-129.0;47.2;47.1;12;12.6;24.7;0.0;
05/03/2025 08:52:58;100;0;93.46;-4;-28.31;-5.18;51.9;19.30;77455;2837.742;-1758.173;1;102;-130;-129.0;47.7;47.7;12;12.6;24.7;0.0;
05/03/2025 08:53:18;100;0;92.08;-4;-30.74;-4.97;55.7;19.30;77460;2837.742;-1758.169;1;102;-130;-129.0;47.7;48.0;12;12.6;24.7;0.0;
05/03/2025 08:53:38;100;0;92.09;-4;-30.72;-4.95;60.3;19.30;77468;2837.741;-1758.164;1;102;-130;-127.4;47.7;48.0;12;12.6;24.7;0.0;
05/03/2025 08:53:58;100;0;90.08;-4;-30.95;-4.92;64.5;19.30;77466;2837.741;-1758.160;1;102;-130;-127.4;47.7;48.0;12;12.6;24.7;0.0;
05/03/2025 08:54:18;100;0;89.83;-4;-30.63;-4.72;68.9;19.30;77466;2837.741;-1758.155;1;102;-130;-127.4;47.7;48.0;12;12.6;24.7;0.0;
05/03/2025 08:54:38;100;0;87.40;-4;-30.96;-4.75;73.2;19.30;77479;2837.741;-1758.151;1;102;-130;-127.4;47.7;48.0;9;9.0;24.7;0.0;
05/03/2025 08:54:58;100;0;88.88;-4;-30.45;-6.85;77.4;19.30;77477;2837.740;-1758.146;1;102;-130;-129.0;47.7;48.0;11;10.8;24.7;0.0;
05/03/2025 08:55:18;100;0;89.38;-4;-30.89;-5.67;81.7;19.30;77480;2837.740;-1758.142;1;102;-130;-127.4;47.7;48.0;11;10.8;24.7;0.0;
05/03/2025 08:55:38;100;0;87.01;-4;-30.68;-5.94;85.9;19.30;77480;2837.740;-1758.138;1;102;-130;-129.0;47.7;48.2;9;9.0;24.7;0.0;
05/03/2025 08:55:58;100;0;89.07;-4;-31.00;-6.87;90.2;19.30;77488;2837.740;-1758.133;1;102;-130;-129.0;47.7;48.0;11;10.8;24.7;0.0;
05/03/2025 08:56:18;100;0;87.15;-4;-29.15;-5.29;94.7;19.30;77491;2837.740;-1758.129;1;102;-130;-129.0;47.7;48.0;8;8.1;24.7;0.0;
05/03/2025 08:56:38;100;0;91.11;-4;-30.51;-7.26;98.8;19.40;77496;2837.739;-1758.124;1;102;-130;-129.0;47.7;48.0;12;12.2;24.7;0.0;
05/03/2025 08:56:58;100;0;91.82;-4;-30.62;-4.83;103.1;19.30;77491;2837.739;-1758.120;1;102;-130;-129.0;47.7;48.0;12;12.6;24.7;0.0;
05/03/2025 08:57:18;100;0;93.91;-4;-30.76;-5.13;107.3;19.40;77499;2837.739;-1758.116;1;102;-130;-127.4;47.7;48.0;12;12.6;24.7;0.0;
05/03/2025 08:57:38;100;0;97.17;-4;-31.20;-5.26;111.5;19.40;77508;2837.738;-1758.112;1;102;-130;-129.0;47.7;48.0;12;12.6;24.7;0.0;
05/03/2025 08:57:58;100;0;95.56;-4;-29.67;-5.27;115.7;19.40;77505;2837.737;-1758.107;1;102;-130;-129.0;47.7;48.0;12;12.6;24.7;0.0;
05/03/2025 08:58:18;100;0;94.46;-4;-30.52;-4.76;119.8;19.30;77494;2837.737;-1758.103;1;102;-130;-129.0;47.7;48.0;12;12.6;24.7;0.0;
05/03/2025 08:58:38;100;0;95.87;-4;-30.41;-5.36;123.8;19.30;77502;2837.736;-1758.099;1;102;-130;-129.0;47.7;48.0;12;12.6;24.7;0.0;
05/03/2025 08:58:58;100;0;106.40;-4;-30.16;-5.41;127.9;19.30;77494;2837.735;-1758.095;1;102;-130;-129.0;47.7;48.0;15;14.9;24.7;0.0;
05/03/2025 08:59:18;100;0;102.67;-4;-28.79;-4.94;131.6;19.30;77491;2837.734;-1758.091;1;102;-130;-127.4;48.1;48.5;13;13.1;24.7;0.0;
05/03/2025 08:59:38;100;0;102.04;-4;-33.03;-5.39;135.5;19.40;77499;2837.733;-1758.087;1;102;-130;-129.0;47.2;47.1;13;12.6;24.7;0.0;
05/03/2025 08:59:58;100;0;104.93;-4;-27.48;-5.30;139.3;19.40;77499;2837.731;-1758.083;1;102;-130;-127.4;47.9;47.9;13;12.6;24.7;0.0;
05/03/2025 09:00:18;100;0;110.91;-4;-30.72;-4.70;142.8;19.30;77494;2837.730;-1758.079;1;102;-130;-127.4;47.9;48.0;20;19.9;24.7;0.0;
05/03/2025 09:00:38;100;0;110.97;-4;-30.10;-1.54;147.0;19.30;77491;2837.729;-1758.075;1;102;-130;-130.6;47.9;48.2;20;20.3;24.8;0.0;
05/03/2025 09:00:48;118;0;109.94;-4;-30.05;-1.57;148.9;19.30;77491;2837.728;-1758.073;1;102;150;-122.6;34.0;34.0;9;8.6;24.7;0.0;
05/03/2025 09:00:58;118;0;110.72;-4;-23.05;-7.66;150.3;19.30;77472;2837.727;-1758.072;1;102;150;3.2;34.0;33.9;9;8.6;24.3;-1.0;
05/03/2025 09:01:08;118;0;108.46;-4;-11.02;-7.88;151.4;19.30;77199;2837.726;-1758.070;1;102;150;129.0;34.0;33.7;9;8.6;24.3;-1.0;
05/03/2025 09:01:18;118;0;108.42;-4;-7.87;-7.87;151.8;19.30;76941;2837.726;-1758.069;1;102;150;154.8;34.0;33.7;9;8.6;24.3;-1.0;
05/03/2025 09:01:28;118;0;108.54;-4;-7.07;-7.80;152.0;19.30;76907;2837.726;-1758.068;1;102;150;154.8;34.0;33.7;9;8.6;24.7;-1.0;
05/03/2025 09:01:48;117;0;107.93;-4;-5.68;-8.14;151.9;19.30;76915;2837.726;-1758.068;1;102;150;154.8;34.0;33.7;9;8.6;24.7;-1.0;
05/03/2025 09:02:08;117;0;117.67;-4;-8.35;-8.42;151.3;19.40;76908;2837.725;-1758.067;1;102;150;154.8;22.5;22.5;-3;-3.6;24.7;-1.0;
05/03/2025 09:02:28;117;0;118.69;-4;22.82;-15.18;150.4;19.40;76914;2837.724;-1758.066;1;102;150;158.1;20.3;20.3;-3;-3.6;24.7;-1.0;
05/03/2025 09:02:48;117;0;108.25;-4;27.57;-14.72;149.2;19.40;76923;2837.723;-1758.064;1;102;150;158.1;19.6;19.3;17;17.1;24.7;-1.0;
05/03/2025 09:03:08;117;0;104.52;-4;31.82;-3.15;147.1;19.40;76917;2837.723;-1758.062;1;102;150;159.7;19.6;19.3;27;27.1;24.7;-1.0;
05/03/2025 09:03:28;117;0;105.81;-4;32.88;2.26;144.6;19.30;76916;2837.722;-1758.060;1;102;150;158.1;20.5;20.5;27;27.1;24.7;-1.0;
05/03/2025 09:03:48;117;0;101.52;-4;31.76;2.09;142.0;19.30;76926;2837.721;-1758.057;1;102;150;159.7;20.5;20.6;30;29.8;24.7;-1.0;
05/03/2025 09:04:08;117;0;93.26;-4;31.30;3.34;139.3;19.30;76911;2837.721;-1758.054;1;102;150;159.7;20.5;20.6;30;29.8;24.7;-1.0;
05/03/2025 09:04:28;117;0;81.46;-4;31.37;3.76;136.3;19.30;76921;2837.721;-1758.051;1;102;150;159.7;20.5;20.6;39;38.8;24.7;-1.0;
05/03/2025 09:04:48;117;0;79.34;-4;31.32;8.67;133.5;19.30;76936;2837.721;-1758.049;1;102;150;159.7;20.5;20.6;42;42.0;24.7;-1.0;
05/03/2025 09:05:08;117;0;80.15;-4;32.11;10.21;130.8;19.30;76940;2837.721;-1758.046;1;102;150;159.7;21.1;21.2;40;40.2;24.7;-1.0;
05/03/2025 09:05:28;117;0;81.88;-4;30.27;8.56;127.7;19.30;76940;2837.721;-1758.043;1;102;150;158.1;21.1;21.2;40;39.7;24.7;-1.0;
05/03/2025 09:05:48;117;0;81.50;-4;29.46;8.96;124.7;19.30;76934;2837.721;-1758.039;1;102;150;159.7;21.1;21.2;40;39.7;24.7;-1.0;
05/03/2025 09:06:08;117;0;77.23;-4;29.33;9.06;122.0;19.30;76937;2837.722;-1758.036;1;102;150;159.7;21.1;21.2;45;45.1;24.7;-1.0;
05/03/2025 09:06:29;117;0;75.47;-4;32.15;12.54;119.2;19.30;76937;2837.722;-1758.034;1;102;150;159.7;21.8;21.9;48;47.8;24.7;-1.0;
05/03/2025 09:06:49;117;0;77.50;-4;30.22;13.29;116.0;19.30;76932;2837.722;-1758.030;1;102;150;159.7;21.8;21.9;48;48.3;24.7;-1.0;
05/03/2025 09:07:09;117;0;80.06;-4;29.22;13.69;112.9;19.30;76945;2837.722;-1758.027;1;102;150;159.7;21.8;21.9;42;41.5;24.7;-1.0;
05/03/2025 09:07:29;117;0;77.07;-4;28.66;9.43;109.9;19.30;76950;2837.723;-1758.024;1;102;150;159.7;21.4;21.2;47;46.9;24.7;-1.0;
05/03/2025 09:07:49;117;0;74.63;-4;29.69;12.90;107.0;19.30;76945;2837.723;-1758.021;1;102;150;158.1;21.4;21.2;52;51.9;24.7;-1.0;
05/03/2025 09:08:09;117;0;76.49;-4;30.51;15.68;103.8;19.30;76937;2837.723;-1758.017;1;102;150;158.1;21.4;21.1;48;47.8;24.7;-1.0;
05/03/2025 09:08:29;117;0;76.40;-4;30.08;12.97;100.7;19.30;76950;2837.724;-1758.014;1;102;150;158.1;21.4;21.1;48;47.4;24.7;-1.0;
05/03/2025 09:08:49;117;0;78.82;-4;30.18;12.97;97.6;19.30;76950;2837.724;-1758.011;1;102;150;159.7;21.4;21.2;45;45.1;24.7;-1.0;
05/03/2025 09:09:09;117;0;81.11;-4;30.13;11.28;94.5;19.30;76956;2837.724;-1758.008;1;102;150;159.7;21.4;21.2;41;41.1;24.7;-1.0;
05/03/2025 09:09:29;117;0;83.06;-4;29.71;9.15;91.6;19.30;76945;2837.724;-1758.005;1;102;150;159.7;21.4;21.2;38;37.9;24.7;-1.0;
05/03/2025 09:09:49;117;0;83.30;-4;29.84;7.41;88.3;19.30;76950;2837.724;-1758.001;1;102;150;159.7;21.4;21.2;38;37.5;24.7;-1.0;
05/03/2025 09:10:09;117;0;85.18;-4;30.99;7.67;85.3;19.30;76953;2837.724;-1757.998;1;102;150;158.1;21.4;21.2;36;36.1;24.7;-1.0;
05/03/2025 09:10:29;117;0;89.01;-4;29.11;6.55;82.5;19.30;76961;2837.724;-1757.995;1;102;150;159.7;21.4;21.2;33;32.5;24.7;-1.0;
05/03/2025 09:10:49;117;0;90.85;-4;27.83;4.45;80.1;19.30;76964;2837.724;-1757.992;1;102;150;158.1;20.7;20.8;31;31.1;24.7;-1.0;
05/03/2025 09:11:09;117;0;89.95;-4;30.00;3.79;77.9;19.40;76963;2837.723;-1757.990;1;102;150;158.1;20.7;20.6;31;30.7;24.7;-1.0;
05/03/2025 09:11:29;117;0;91.43;-4;31.32;3.32;75.4;19.40;76972;2837.723;-1757.987;1;102;150;159.7;20.7;20.5;31;30.7;24.7;-1.0;
05/03/2025 09:11:49;117;0;91.27;-4;29.64;3.74;72.7;19.30;76961;2837.723;-1757.984;1;102;150;158.1;20.7;20.6;31;30.7;24.7;-1.0;
05/03/2025 09:12:09;117;0;89.60;-4;29.00;3.70;70.1;19.40;76969;2837.722;-1757.981;1;102;150;158.1;20.4;20.5;31;30.7;24.7;-1.0;
05/03/2025 09:12:29;117;0;87.29;-4;31.85;3.66;67.6;19.40;76969;2837.722;-1757.979;1;102;150;159.7;20.4;20.2;33;32.9;24.7;-1.0;
05/03/2025 09:12:49;117;0;91.84;-4;29.38;4.56;64.8;19.40;76963;2837.722;-1757.976;1;102;150;156.5;20.4;20.3;33;33.4;24.7;-1.0;
05/03/2025 09:13:09;117;0;91.78;-4;31.32;5.17;62.4;19.40;76966;2837.722;-1757.973;1;102;150;159.7;20.4;20.2;31;31.1;24.7;-1.0;
05/03/2025 09:13:29;117;0;92.03;-4;30.85;3.89;59.9;19.40;76979;2837.721;-1757.971;1;102;150;158.1;20.4;20.2;31;30.7;24.7;-1.0;
05/03/2025 09:13:49;117;0;91.35;-4;30.89;3.76;57.5;19.40;76973;2837.721;-1757.968;1;102;150;159.7;20.4;20.2;31;30.7;24.7;-1.0;
05/03/2025 09:14:09;117;0;89.37;-4;30.89;3.82;55.0;19.40;76973;2837.721;-1757.965;1;102;150;159.7;20.4;20.2;31;31.1;24.7;-1.0;
05/03/2025 09:14:29;117;0;89.04;-4;30.61;3.85;52.5;19.40;76973;2837.720;-1757.963;1;102;150;156.5;20.4;20.3;31;30.7;24.7;-1.0;
05/03/2025 09:14:49;117;0;88.11;-4;30.77;3.69;50.1;19.40;76976;2837.720;-1757.960;1;102;150;159.7;20.4;20.2;31;30.7;24.7;-1.0;
05/03/2025 09:15:09;117;0;87.49;-4;31.69;3.74;47.6;19.40;76979;2837.720;-1757.958;1;102;150;158.1;20.4;20.2;33;32.9;24.7;-1.0;
05/03/2025 09:15:29;117;0;83.24;-4;31.93;5.57;44.9;19.40;76979;2837.720;-1757.955;1;102;150;159.7;20.4;20.2;37;37.0;24.7;-1.0;
05/03/2025 09:15:49;117;0;76.60;-4;30.60;7.14;42.1;19.40;76982;2837.720;-1757.952;1;102;150;159.7;20.4;20.2;47;46.9;24.7;-1.0;
05/03/2025 09:16:09;117;0;73.33;-4;30.87;12.31;39.1;19.40;76987;2837.721;-1757.949;1;102;150;159.7;20.4;20.2;53;52.8;24.7;-1.0;
05/03/2025 09:16:29;117;0;74.39;-4;32.92;16.38;36.3;19.40;76989;2837.721;-1757.947;1;102;150;159.7;21.3;21.2;51;50.1;24.7;-1.0;
05/03/2025 09:16:49;117;0;75.10;-4;30.54;14.87;33.3;19.40;76986;2837.721;-1757.944;1;102;150;159.7;21.3;21.4;51;50.5;24.7;-1.0;
05/03/2025 09:17:09;117;0;78.23;-4;30.15;14.66;30.5;19.40;76992;2837.722;-1757.941;1;102;150;159.7;21.3;21.4;45;45.1;24.7;-1.0;
05/03/2025 09:17:29;117;0;82.36;-4;30.01;11.34;27.9;19.40;76992;2837.722;-1757.938;1;102;150;159.7;21.3;21.4;39;38.4;24.7;-1.0;
05/03/2025 09:17:49;117;0;82.12;-4;31.71;7.27;25.2;19.40;76994;2837.722;-1757.935;1;102;150;159.7;21.3;21.4;39;37.9;24.7;-1.0;
05/03/2025 09:18:09;117;0;82.54;-4;30.26;8.10;22.3;19.40;76988;2837.722;-1757.932;1;102;150;159.7;21.3;21.4;39;37.9;24.7;-1.0;
05/03/2025 09:18:29;117;0;77.87;-4;26.66;8.68;19.3;19.40;76993;2837.722;-1757.929;1;102;150;159.7;20.3;20.2;47;46.9;24.7;-1.0;
05/03/2025 09:18:49;117;0;79.11;-4;32.31;13.13;17.0;19.40;76996;2837.722;-1757.926;1;102;150;159.7;21.0;20.9;42;42.0;24.7;-1.0;
05/03/2025 09:19:09;117;0;80.76;-4;31.46;9.99;13.9;19.40;77001;2837.722;-1757.923;1;102;150;158.1;21.0;21.1;42;41.1;24.7;-1.0;
05/03/2025 09:19:29;117;0;82.86;-4;31.41;9.87;10.9;19.40;76987;2837.722;-1757.920;1;102;150;158.1;21.0;21.1;39;38.8;24.7;-1.0;
05/03/2025 09:19:49;117;0;85.85;-4;30.49;7.89;7.7;19.50;77004;2837.722;-1757.917;1;102;150;159.7;21.0;20.9;36;36.1;24.7;-1.0;
05/03/2025 09:20:09;117;0;82.00;-4;30.42;6.04;4.7;19.50;76987;2837.722;-1757.913;1;102;150;159.7;21.0;21.1;41;41.1;24.7;-1.0;
05/03/2025 09:20:21;115;0;85.42;-4;29.47;9.94;3.2;19.50;76998;2837.722;-1757.912;1;102;500;167.7;100.0;57.3;0;-0.5;24.7;-1.0;
05/03/2025 09:20:31;115;0;81.52;-4;15.44;-12.21;2.0;19.50;76955;2837.722;-1757.910;1;102;500;285.5;100.0;100.0;0;-0.5;24.4;-1.0;
05/03/2025 09:20:41;115;0;87.11;-4;-56.43;-12.00;2.2;19.50;76697;2837.722;-1757.910;1;102;500;409.7;100.0;100.4;0;-0.5;24.4;-1.0;
05/03/2025 09:20:51;115;0;45.25;-4;-69.57;4.39;2.0;19.50;76447;2837.722;-1757.909;1;102;500;508.1;100.0;100.4;0;-0.5;24.4;-1.0;
05/03/2025 09:21:01;115;0;20.82;-4;-28.50;-12.15;-0.1;19.50;76242;2837.724;-1757.909;1;102;500;509.7;100.0;100.4;0;-0.5;24.7;-1.0;
05/03/2025 09:21:11;115;0;21.52;-4;-47.72;-17.81;0.0;19.50;76239;2837.724;-1757.908;1;102;500;508.1;100.0;100.4;0;-0.5;24.7;-1.0;
05/03/2025 09:21:31;119;0;40.58;-4;-46.00;-13.64;0.1;19.50;76247;2837.724;-1757.908;1;102;500;508.1;100.0;100.6;0;-0.5;24.7;-1.0;
05/03/2025 09:21:41;119;0;49.03;-4;-57.92;-13.95;0.1;19.50;76259;2837.865;-1758.088;0;102;500;508.1;100.0;100.6;0;-0.5;24.7;-1.0;
