Timestamp;NavState;SecurityLevel;Heading;Declination;Pitch;Roll;Depth;Temperature;Pa;Lat;Lon;DeadReckoning;DesiredH;BallastCmd;BallastPos;LinCmd;LinPos;AngCmd;AngPos;Voltage;Altitude;
18/02/2025 05:50:11;119;0;345.40;-4;-45.22;-0.83;0.2;17.70;75818;2834.479;-1756.674;0;354;500;508.1;100.0;100.7;0;-0.9;28.0;-1.0;
18/02/2025 05:50:20;116;0;333.55;-4;-59.70;-7.30;0.3;17.70;75819;2834.477;-1756.680;0;353;500;508.1;100.0;100.6;0;-0.5;28.0;-1.0;
18/02/2025 05:50:46;116;0;332.50;-4;-52.18;-22.09;0.2;17.80;75828;2834.472;-1756.680;0;354;500;508.1;100.0;100.7;0;-0.5;28.0;-1.0;
18/02/2025 05:51:06;116;0;324.21;-4;-41.61;-10.47;0.1;17.80;75834;2834.472;-1756.681;0;-9999;500;509.7;100.0;100.7;0;-0.5;28.0;-1.0;
18/02/2025 05:51:24;116;0;335.45;-4;-52.35;2.67;0.2;17.90;75846;2834.470;-1756.683;0;355;500;508.1;100.0;100.7;0;-0.5;28.0;-1.0;
18/02/2025 05:51:35;116;0;322.12;-4;-48.12;2.19;0.2;17.90;75845;2834.469;-1756.684;0;355;500;509.7;100.0;100.7;0;-0.5;28.0;-1.0;
18/02/2025 05:52:38;116;0;317.79;-4;-49.55;-4.98;0.1;18.10;75869;2834.462;-1756.689;0;355;500;508.1;100.0;100.6;0;-0.5;28.0;-1.0;
18/02/2025 05:53:25;116;0;340.63;-4;-49.82;3.74;0.1;18.30;75883;2834.456;-1756.691;0;356;500;509.7;100.0;100.6;0;-0.5;28.0;-1.0;
18/02/2025 05:54:28;116;0;347.03;-4;-43.89;-20.82;-0.0;18.50;75902;2834.448;-1756.694;0;356;500;508.1;100.0;100.7;0;-0.5;28.0;-1.0;
18/02/2025 05:55:09;116;0;354.39;-4;-48.87;-12.51;0.1;18.70;75905;2834.443;-1756.697;0;357;500;509.7;100.0;100.7;0;-0.9;28.0;-1.0;
18/02/2025 05:55:29;116;0;356.22;-4;-43.71;-4.02;0.1;18.80;75917;2834.440;-1756.699;0;357;500;508.1;100.0;100.7;0;-0.5;28.0;-1.0;
18/02/2025 05:55:49;116;0;337.43;-4;-52.24;0.88;0.2;18.90;75916;2834.439;-1756.701;0;357;500;509.7;100.0;100.7;0;-0.5;28.0;-1.0;
18/02/2025 05:56:08;116;0;334.74;-4;-63.04;-22.85;0.3;18.90;75934;2834.437;-1756.702;0;358;500;508.1;100.0;100.7;0;-0.5;28.0;-1.0;
18/02/2025 05:56:19;116;0;340.71;-4;-51.55;-11.88;0.1;19.00;75929;2834.435;-1756.702;0;358;500;508.1;100.0;100.7;0;-0.5;28.0;-1.0;
18/02/2025 05:56:39;110;0;335.64;-4;-50.35;4.88;-0.0;19.00;75935;2834.435;-1756.702;0;358;-50;393.5;100.0;99.9;-10;-10.4;28.0;-1.0;
18/02/2025 05:56:49;110;0;320.77;-4;-62.60;-38.51;0.2;19.00;76287;2834.435;-1756.702;1;358;-50;243.5;100.0;99.9;-10;-10.4;28.0;-1.0;
18/02/2025 05:56:59;110;0;357.69;-4;-67.00;-21.38;0.6;19.10;76517;2834.435;-1756.703;1;358;-50;90.3;100.0;99.9;-10;-10.4;28.0;-1.0;
18/02/2025 05:57:09;110;0;342.05;-4;-64.69;-17.59;0.8;19.10;76842;2834.435;-1756.703;1;358;-50;-50.0;100.0;99.9;-10;-10.4;28.0;-1.0;
18/02/2025 05:57:19;110;0;339.73;-4;-66.53;-3.25;1.1;19.10;77124;2834.436;-1756.703;1;358;-50;-50.0;50.0;49.9;-10;-10.4;28.0;-1.0;
18/02/2025 05:57:39;100;0;6.12;-4;-37.31;-16.00;4.2;19.20;77103;2834.438;-1756.702;1;358;-50;-48.4;50.0;49.6;-10;-10.8;28.0;-1.0;
18/02/2025 05:57:59;100;0;12.10;-4;-32.50;-17.52;8.2;19.20;77114;2834.441;-1756.702;1;358;-50;-48.4;49.3;48.9;19;19.0;28.0;-1.0;
18/02/2025 05:58:19;100;0;16.35;-4;-31.97;-1.85;12.4;19.20;77112;2834.444;-1756.701;1;358;-50;-48.4;49.3;48.7;25;24.8;28.0;-1.0;
18/02/2025 05:58:39;100;0;12.15;-4;-31.82;1.66;16.3;19.20;77127;2834.447;-1756.700;1;358;-50;-46.8;49.3;48.9;19;19.0;28.0;0.0;
18/02/2025 05:58:59;100;0;7.17;-4;-31.40;-1.85;20.2;19.20;77129;2834.450;-1756.700;1;357;-50;-46.8;49.3;48.7;15;14.4;28.0;0.0;
18/02/2025 05:59:19;100;0;16.81;-4;-32.77;-5.37;23.9;19.30;77139;2834.453;-1756.699;1;357;-50;-46.8;48.4;48.3;27;27.5;28.0;0.0;
18/02/2025 05:59:39;100;0;11.40;-4;-32.95;2.52;27.6;19.30;77151;2834.456;-1756.698;1;357;-50;-48.4;47.5;47.4;19;19.0;28.0;0.0;
18/02/2025 05:59:59;100;0;7.72;-4;-27.68;-1.99;31.3;19.30;77145;2834.460;-1756.698;1;357;-50;-46.8;48.2;48.3;16;15.3;28.0;0.0;
18/02/2025 06:00:19;100;0;4.62;-4;-30.43;-3.55;34.6;19.30;77145;2834.462;-1756.697;1;357;-50;-48.4;48.2;48.6;14;14.0;28.0;0.0;
18/02/2025 06:00:39;100;0;2.58;-4;-31.69;-4.91;38.3;19.30;77152;2834.465;-1756.697;1;357;-50;-48.4;48.2;48.6;14;14.4;28.0;0.0;
18/02/2025 06:00:59;100;0;4.56;-4;-30.97;-4.61;42.1;19.30;77165;2834.469;-1756.697;1;357;-50;-48.4;48.2;48.6;14;14.0;28.0;0.0;
18/02/2025 06:01:19;100;0;5.68;-4;-31.82;-4.57;45.9;19.30;77164;2834.472;-1756.697;1;357;-50;-48.4;48.2;48.6;14;14.0;28.0;0.0;
18/02/2025 06:01:39;100;0;5.72;-4;-31.53;-4.77;49.7;19.30;77161;2834.475;-1756.696;1;357;-50;-46.8;48.2;48.6;14;14.4;28.0;0.0;
18/02/2025 06:01:59;100;0;4.51;-4;-31.21;-4.60;53.5;19.40;77158;2834.478;-1756.696;1;357;-50;-46.8;48.2;48.6;14;14.0;28.0;0.0;
18/02/2025 06:02:19;100;0;3.56;-4;-31.45;-4.61;57.4;19.40;77161;2834.481;-1756.696;1;357;-50;-50.0;48.2;48.6;14;14.0;28.0;0.0;
18/02/2025 06:02:39;100;0;2.20;-4;-31.69;-4.67;61.2;19.40;77164;2834.484;-1756.696;1;357;-50;-46.8;48.2;48.6;14;14.4;28.0;0.0;
18/02/2025 06:02:59;100;0;4.38;-4;-31.18;-4.71;65.0;19.40;77161;2834.488;-1756.696;1;357;-50;-48.4;48.2;48.6;14;14.0;28.0;0.0;
18/02/2025 06:03:19;100;0;6.21;-4;-31.52;-4.74;68.7;19.40;77175;2834.491;-1756.695;1;356;-50;-46.8;48.2;48.6;14;14.4;28.0;0.0;
18/02/2025 06:03:39;100;0;6.47;-4;-31.81;-4.60;72.3;19.40;77185;2834.493;-1756.695;1;356;-50;-46.8;48.2;48.6;16;16.2;28.0;0.0;
18/02/2025 06:03:59;100;0;4.03;-4;-31.57;-3.40;75.9;19.40;77191;2834.496;-1756.695;1;356;-50;-48.4;48.2;48.6;14;14.0;28.0;0.0;
18/02/2025 06:04:19;100;0;2.76;-4;-31.56;-5.09;79.5;19.40;77182;2834.499;-1756.695;1;356;-50;-48.4;48.2;48.7;14;13.5;28.0;0.0;
18/02/2025 06:04:39;100;0;1.21;-4;-31.56;-4.99;83.1;19.40;77194;2834.502;-1756.695;1;356;-50;-48.4;48.2;48.6;14;13.5;28.0;0.0;
18/02/2025 06:04:59;100;0;359.81;-4;-31.35;-4.94;86.6;19.40;77192;2834.505;-1756.695;1;356;-50;-48.4;48.2;48.6;14;13.5;28.0;0.0;
18/02/2025 06:05:19;100;0;357.14;-4;-30.97;-5.06;90.0;19.40;77198;2834.508;-1756.695;1;356;-50;-48.4;48.2;48.6;14;13.5;28.0;0.0;
18/02/2025 06:05:39;100;0;355.10;-4;-31.63;-5.03;93.4;19.40;77192;2834.511;-1756.695;1;356;-50;-46.8;48.2;48.6;14;13.5;28.0;0.0;
18/02/2025 06:05:59;100;0;352.93;-4;-31.67;-5.02;96.9;19.40;77204;2834.514;-1756.696;1;356;-50;-46.8;48.2;48.6;14;13.5;28.0;0.0;
18/02/2025 06:06:19;100;0;349.84;-4;-31.91;-5.00;100.5;19.40;77190;2834.517;-1756.696;1;356;-50;-48.4;48.2;48.6;12;12.2;28.0;0.0;
18/02/2025 06:06:39;100;0;347.85;-4;-31.16;-5.80;103.9;19.40;77192;2834.519;-1756.697;1;356;-50;-48.4;48.2;48.6;12;11.7;28.0;0.0;
18/02/2025 06:06:59;100;0;347.63;-4;-31.23;-5.85;107.1;19.40;77187;2834.522;-1756.698;1;357;-50;-48.4;48.2;48.6;10;9.9;28.0;0.0;
18/02/2025 06:07:19;100;0;353.96;-4;-31.95;-7.15;110.4;19.40;77181;2834.525;-1756.698;1;357;-50;-50.0;48.2;48.6;13;13.1;28.0;0.0;
18/02/2025 06:07:39;100;0;353.41;-4;-31.11;-5.03;113.9;19.40;77164;2834.528;-1756.699;1;357;-50;-45.2;48.2;48.6;13;13.5;28.0;0.0;
18/02/2025 06:07:59;100;0;345.99;-4;-32.60;-5.03;117.3;19.40;77170;2834.530;-1756.700;1;357;-50;-46.8;47.4;47.1;8;8.1;28.0;0.0;
18/02/2025 06:08:19;100;0;343.34;-4;-29.03;-7.91;120.5;19.40;77142;2834.533;-1756.701;1;357;-50;-48.4;47.4;47.1;4;3.6;28.0;0.0;
18/02/2025 06:08:39;100;0;339.54;-4;-27.82;-10.11;123.4;19.40;77139;2834.536;-1756.702;1;357;-50;-46.8;48.1;48.3;-1;-0.9;28.0;0.0;
18/02/2025 06:08:59;100;0;339.23;-4;-30.31;-12.50;126.5;19.40;77118;2834.538;-1756.703;1;357;-50;-46.8;48.1;48.3;-1;-1.4;28.0;0.0;
18/02/2025 06:09:19;100;0;340.34;-4;-30.70;-12.44;129.9;19.40;77118;2834.541;-1756.704;1;357;-50;-48.4;48.1;48.3;-1;-1.4;28.0;0.0;
18/02/2025 06:09:39;100;0;337.69;-4;-30.23;-12.12;133.4;19.30;77094;2834.544;-1756.705;1;358;-50;-48.4;48.1;48.3;-6;-5.9;28.0;0.0;
18/02/2025 06:09:59;100;0;337.63;-4;-30.19;-14.89;136.7;19.30;77080;2834.546;-1756.707;1;358;-50;-46.8;48.1;48.3;-6;-5.9;28.0;0.0;
18/02/2025 06:10:19;100;0;349.06;-4;-28.58;-14.78;140.2;19.30;77070;2834.549;-1756.707;1;358;-50;-48.4;48.5;49.0;10;10.4;28.0;0.0;
18/02/2025 06:10:39;100;0;355.93;-4;-30.66;-6.44;143.5;19.30;77048;2834.552;-1756.708;1;358;-50;-48.4;48.5;49.0;13;13.1;28.0;0.0;
18/02/2025 06:10:59;100;0;355.16;-4;-30.76;-5.11;147.0;19.20;77025;2834.555;-1756.708;1;358;-50;-46.8;48.5;49.0;13;13.5;28.0;0.0;
18/02/2025 06:11:19;100;0;354.21;-4;-30.99;-5.12;150.6;19.20;77022;2834.558;-1756.708;1;358;-50;-48.4;48.5;48.9;13;13.5;28.0;0.0;
18/02/2025 06:11:39;100;0;356.32;-4;-31.13;-5.09;154.0;19.20;77009;2834.561;-1756.709;1;358;-50;-48.4;48.5;49.0;13;13.1;28.0;0.0;
18/02/2025 06:11:59;100;0;355.44;-4;-30.97;-5.09;157.6;19.10;76999;2834.564;-1756.709;1;358;-50;-46.8;48.5;48.9;13;13.5;28.0;0.0;
18/02/2025 06:12:19;100;0;0.42;-4;-31.53;-5.09;161.4;19.10;76978;2834.567;-1756.709;1;358;-50;-46.8;48.5;48.9;13;13.5;28.0;0.0;
18/02/2025 06:12:39;100;0;10.60;-4;-31.58;-5.15;165.2;19.10;76973;2834.570;-1756.708;1;358;-50;-48.4;48.5;48.9;17;17.1;28.0;0.0;
18/02/2025 06:13:00;100;0;13.08;-4;-31.24;-2.94;169.2;19.10;76945;2834.573;-1756.708;1;358;-50;-46.8;48.5;49.0;20;19.9;28.0;0.0;
18/02/2025 06:13:20;100;0;12.67;-4;-31.29;-1.71;172.8;19.00;76919;2834.576;-1756.707;1;358;-50;-46.8;48.5;48.9;20;20.3;28.0;0.0;
18/02/2025 06:13:40;100;0;13.16;-4;-31.76;-1.67;176.5;19.00;76901;2834.579;-1756.706;1;357;-50;-46.8;48.5;48.9;22;22.1;28.0;0.0;
18/02/2025 06:14:00;100;0;16.46;-4;-31.83;-0.37;180.4;19.00;76895;2834.582;-1756.705;1;357;-50;-48.4;48.5;49.0;27;27.1;28.0;0.0;
18/02/2025 06:14:20;100;0;18.49;-4;-32.03;1.96;184.3;18.90;76885;2834.585;-1756.704;1;357;-50;-48.4;47.9;47.9;30;30.2;28.0;0.0;
18/02/2025 06:14:40;100;0;17.12;-4;-30.25;3.19;188.3;18.90;76874;2834.589;-1756.703;1;357;-50;-46.8;47.9;47.6;28;28.0;28.0;0.0;
18/02/2025 06:15:00;100;0;13.70;-4;-29.85;1.99;191.9;18.80;76866;2834.592;-1756.702;1;356;-50;-46.8;47.9;47.6;24;23.9;28.0;0.0;
18/02/2025 06:15:20;100;0;4.24;-4;-30.55;0.04;195.5;18.80;76840;2834.595;-1756.702;1;356;-50;-48.4;47.9;47.6;14;14.0;28.0;0.0;
18/02/2025 06:15:38;118;0;359.50;-4;-29.46;-4.96;198.9;18.80;76828;2834.598;-1756.702;1;356;150;-40.3;34.0;34.0;10;9.5;28.0;0.0;
18/02/2025 06:15:48;118;0;30.47;-4;-19.14;-7.86;200.3;18.70;76804;2834.599;-1756.701;1;356;150;85.5;34.0;33.9;10;9.5;27.6;-1.0;
18/02/2025 06:15:58;118;0;29.28;-4;-6.98;-7.62;201.2;18.70;76532;2834.601;-1756.700;1;356;150;153.2;34.0;33.6;10;9.5;27.6;-1.0;
18/02/2025 06:16:08;118;0;358.79;-4;-3.34;-7.82;201.5;18.70;76403;2834.601;-1756.700;1;356;150;153.2;34.0;33.6;10;9.0;28.0;-1.0;
18/02/2025 06:16:28;117;0;355.91;-4;-2.12;-7.77;201.8;18.70;76398;2834.601;-1756.700;1;356;150;153.2;34.0;33.6;10;9.5;28.0;-1.0;
18/02/2025 06:16:48;117;0;351.69;-4;-3.17;-7.97;201.5;18.70;76392;2834.601;-1756.700;1;356;150;153.2;24.0;23.9;56;56.0;28.0;-1.0;
18/02/2025 06:17:08;117;0;350.43;-4;28.01;17.15;201.1;18.60;76388;2834.602;-1756.701;1;356;150;156.5;23.5;23.6;38;37.9;28.0;-1.0;
18/02/2025 06:17:28;117;0;351.13;-4;27.75;7.27;199.6;18.60;76384;2834.603;-1756.701;1;356;150;158.1;22.8;22.5;33;32.9;28.0;-1.0;
18/02/2025 06:17:48;117;0;352.70;-4;28.50;4.57;197.9;18.50;76372;2834.605;-1756.701;1;356;150;154.8;22.3;22.4;33;32.5;28.0;-1.0;
18/02/2025 06:18:08;117;0;356.26;-4;29.31;4.50;196.0;18.50;76371;2834.606;-1756.701;1;356;150;156.5;22.3;22.2;33;32.5;28.0;-1.0;
18/02/2025 06:18:28;117;0;359.06;-4;29.57;4.54;194.1;18.40;76367;2834.608;-1756.701;1;356;150;156.5;22.3;22.1;33;32.5;28.0;-1.0;
18/02/2025 06:18:48;117;0;359.04;-4;29.27;4.53;192.0;18.40;76371;2834.610;-1756.701;1;356;150;156.5;22.3;22.2;33;32.5;28.0;-1.0;
18/02/2025 06:19:08;117;0;358.30;-4;29.46;4.51;189.9;18.40;76376;2834.612;-1756.702;1;356;150;158.1;22.3;22.2;33;32.5;28.0;-1.0;
18/02/2025 06:19:28;117;0;356.31;-4;29.04;4.58;187.6;18.30;76378;2834.614;-1756.702;1;356;150;158.1;22.3;22.2;33;32.5;28.0;-1.0;
18/02/2025 06:19:48;117;0;353.60;-4;29.26;4.55;185.6;18.30;76379;2834.616;-1756.702;1;356;150;156.5;22.3;22.2;33;32.5;28.0;-1.0;
18/02/2025 06:20:08;117;0;348.86;-4;29.07;4.63;183.4;18.30;76372;2834.618;-1756.703;1;356;150;156.5;22.3;22.2;33;32.5;28.0;-1.0;
18/02/2025 06:20:28;117;0;347.61;-4;28.99;4.55;181.3;18.20;76379;2834.619;-1756.703;1;356;150;156.5;22.0;22.1;35;35.2;28.0;-1.0;
18/02/2025 06:20:48;117;0;346.20;-4;29.35;6.40;179.4;18.20;76367;2834.621;-1756.704;1;356;170;174.2;22.0;22.2;37;37.5;28.0;-1.0;
18/02/2025 06:21:08;117;0;345.07;-4;28.84;7.50;177.2;18.20;76328;2834.623;-1756.704;1;356;170;174.2;21.7;21.5;37;37.9;28.0;-1.0;
18/02/2025 06:21:28;117;0;342.79;-4;30.86;7.56;175.1;18.20;76335;2834.625;-1756.705;1;356;170;172.6;21.7;21.4;42;42.0;28.0;-1.0;
18/02/2025 06:21:48;117;0;342.81;-4;31.34;10.01;172.7;18.10;76334;2834.626;-1756.706;1;357;170;174.2;21.7;21.4;42;42.4;28.0;-1.0;
18/02/2025 06:22:08;117;0;341.98;-4;31.24;10.02;170.3;18.10;76340;2834.628;-1756.706;1;357;170;172.6;21.7;21.4;42;42.4;28.0;-1.0;
18/02/2025 06:22:28;117;0;340.71;-4;31.40;10.07;167.9;18.10;76350;2834.630;-1756.707;1;357;170;172.6;21.7;21.4;45;45.1;28.0;-1.0;
18/02/2025 06:22:48;117;0;337.97;-4;31.84;11.67;165.4;18.10;76348;2834.632;-1756.708;1;357;170;171.0;21.7;21.4;49;49.2;28.0;-1.0;
18/02/2025 06:23:08;117;0;334.53;-4;32.06;14.01;162.8;18.00;76355;2834.634;-1756.709;1;358;170;172.6;22.3;22.4;57;56.9;28.0;-1.0;
18/02/2025 06:23:28;117;0;336.09;-4;30.26;18.26;160.5;18.00;76351;2834.636;-1756.710;1;358;170;172.6;22.3;22.5;54;53.7;28.0;-1.0;
18/02/2025 06:23:48;117;0;334.78;-4;30.08;15.95;158.4;18.00;76376;2834.638;-1756.711;1;358;170;172.6;22.3;22.5;57;56.9;28.0;-1.0;
18/02/2025 06:24:08;117;0;339.21;-4;30.00;18.37;156.2;18.00;76378;2834.639;-1756.712;1;358;170;174.2;22.3;22.4;49;49.2;28.0;-1.0;
18/02/2025 06:24:28;117;0;342.64;-4;30.21;13.73;154.1;18.00;76391;2834.641;-1756.713;1;358;170;172.6;22.3;22.5;44;44.2;28.0;-1.0;
18/02/2025 06:24:48;117;0;343.15;-4;29.47;10.69;152.0;18.00;76405;2834.643;-1756.713;1;359;170;172.6;22.3;22.5;44;43.8;28.0;-1.0;
18/02/2025 06:25:08;117;0;343.92;-4;29.46;10.69;149.8;18.00;76405;2834.645;-1756.714;1;359;170;172.6;22.3;22.5;44;43.8;28.0;-1.0;
18/02/2025 06:25:28;117;0;343.66;-4;29.26;10.63;147.7;18.00;76415;2834.647;-1756.715;1;359;170;172.6;22.3;22.5;44;43.8;28.0;-1.0;
18/02/2025 06:25:48;117;0;345.02;-4;29.30;10.71;145.4;18.00;76413;2834.649;-1756.715;1;359;170;172.6;22.3;22.5;42;42.0;28.0;-1.0;
18/02/2025 06:26:08;117;0;346.45;-4;29.06;9.27;143.2;18.00;76422;2834.651;-1756.716;1;359;170;171.0;22.3;22.5;40;40.2;28.0;-1.0;
18/02/2025 06:26:28;117;0;344.52;-4;30.04;8.51;140.9;18.00;76425;2834.653;-1756.717;1;0;170;174.2;22.3;22.5;44;44.2;28.0;-1.0;
18/02/2025 06:26:48;117;0;336.30;-4;29.75;11.49;138.4;18.00;76433;2834.654;-1756.718;1;0;170;172.6;22.3;22.5;58;58.2;28.0;-1.0;
18/02/2025 06:27:08;117;0;333.77;-4;30.02;19.10;136.0;18.00;76442;2834.656;-1756.719;1;0;170;172.6;22.3;22.5;62;61.8;28.0;-1.0;
18/02/2025 06:27:28;117;0;336.13;-4;30.00;21.10;133.6;18.00;76456;2834.658;-1756.720;1;1;170;172.6;22.3;22.5;60;60.0;28.0;-1.0;
18/02/2025 06:27:48;117;0;340.70;-4;30.63;19.68;131.4;18.00;76465;2834.660;-1756.721;1;1;170;174.2;22.3;22.7;52;51.4;28.0;-1.0;
18/02/2025 06:28:08;117;0;344.10;-4;29.49;14.73;129.0;18.00;76481;2834.662;-1756.721;1;1;170;174.2;22.3;22.5;46;46.0;28.0;-1.0;
18/02/2025 06:28:28;117;0;347.35;-4;29.21;11.77;126.8;18.00;76487;2834.664;-1756.722;1;1;170;174.2;22.3;22.5;41;40.6;28.0;-1.0;
18/02/2025 06:28:48;117;0;351.70;-4;29.02;8.73;124.6;18.00;76492;2834.666;-1756.722;1;2;170;174.2;22.3;22.5;37;37.0;28.0;-1.0;
18/02/2025 06:29:08;117;0;353.62;-4;28.55;6.73;122.4;18.00;76512;2834.668;-1756.723;1;2;170;174.2;21.9;21.8;37;36.6;28.0;-1.0;
18/02/2025 06:29:28;117;0;354.21;-4;29.78;6.68;120.3;18.00;76512;2834.670;-1756.723;1;2;170;172.6;21.9;21.5;35;35.2;28.0;-1.0;
18/02/2025 06:29:48;117;0;354.23;-4;29.11;5.69;118.2;18.00;76525;2834.672;-1756.723;1;2;170;174.2;21.9;21.5;35;34.7;28.0;-1.0;
18/02/2025 06:30:08;117;0;356.42;-4;31.24;5.95;116.2;18.00;76531;2834.673;-1756.723;1;2;190;195.2;21.9;21.5;35;34.7;28.0;-1.0;
18/02/2025 06:30:28;117;0;1.97;-4;29.50;5.81;114.2;18.00;76493;2834.675;-1756.723;1;2;210;214.5;21.9;21.5;33;32.0;28.0;-1.0;
18/02/2025 06:30:48;117;0;7.64;-4;28.29;4.79;112.1;18.00;76463;2834.677;-1756.723;1;2;210;216.1;21.3;21.4;33;32.9;28.0;-1.0;
18/02/2025 06:31:08;117;0;14.37;-4;29.02;4.87;110.0;18.00;76486;2834.679;-1756.723;1;2;210;216.1;21.3;21.5;29;28.9;28.0;-1.0;
18/02/2025 06:31:28;117;0;17.10;-4;28.87;2.22;107.8;18.10;76505;2834.681;-1756.722;1;2;210;214.5;21.0;20.9;26;26.2;28.0;-1.0;
18/02/2025 06:31:48;117;0;11.94;-4;29.25;1.21;105.5;18.10;76516;2834.683;-1756.722;1;1;210;214.5;21.0;20.8;30;29.8;28.0;-1.0;
18/02/2025 06:32:08;117;0;5.89;-4;29.62;3.37;103.2;18.10;76538;2834.685;-1756.721;1;1;210;214.5;21.0;20.8;33;32.9;28.0;-1.0;
18/02/2025 06:32:28;117;0;3.51;-4;29.99;5.14;100.9;18.10;76553;2834.687;-1756.721;1;1;210;214.5;21.0;20.8;33;32.9;28.0;-1.0;
18/02/2025 06:32:48;117;0;3.88;-4;30.32;5.14;98.6;18.20;76561;2834.689;-1756.721;1;1;210;214.5;21.0;20.8;33;33.4;28.0;-1.0;
18/02/2025 06:33:08;117;0;3.44;-4;30.34;5.14;96.0;18.20;76574;2834.691;-1756.721;1;1;210;214.5;21.0;20.9;33;33.4;28.0;-1.0;
18/02/2025 06:33:28;117;0;3.15;-4;30.16;5.17;93.4;18.20;76579;2834.693;-1756.721;1;1;210;214.5;21.0;20.8;33;32.9;28.0;-1.0;
18/02/2025 06:33:48;117;0;4.08;-4;30.07;5.14;90.8;18.20;76587;2834.696;-1756.721;1;1;210;212.9;21.0;20.8;33;33.4;28.0;-1.0;
18/02/2025 06:34:08;117;0;4.14;-4;30.12;5.12;88.3;18.30;76599;2834.698;-1756.721;1;1;210;214.5;21.0;20.8;33;33.4;28.0;-1.0;
18/02/2025 06:34:28;117;0;5.29;-4;30.17;5.07;85.9;18.30;76609;2834.700;-1756.721;1;1;210;216.1;21.0;20.9;33;33.4;28.0;-1.0;
18/02/2025 06:34:48;117;0;5.26;-4;30.40;5.11;83.3;18.30;76622;2834.702;-1756.720;1;1;210;214.5;21.0;20.8;33;32.9;28.0;-1.0;
18/02/2025 06:35:08;117;0;4.83;-4;30.34;5.12;80.6;18.30;76626;2834.704;-1756.720;1;1;210;212.9;21.0;20.8;33;32.9;28.0;-1.0;
18/02/2025 06:35:28;117;0;4.03;-4;29.97;5.20;77.8;18.40;76638;2834.707;-1756.720;1;1;210;214.5;21.0;20.8;33;33.4;28.0;-1.0;
18/02/2025 06:35:48;117;0;4.78;-4;30.33;5.14;75.0;18.40;76640;2834.709;-1756.720;1;1;210;212.9;21.0;20.8;33;33.4;28.0;-1.0;
18/02/2025 06:36:08;117;0;4.28;-4;30.35;5.08;72.3;18.40;76648;2834.712;-1756.720;1;1;210;214.5;21.0;20.8;33;33.4;28.0;-1.0;
18/02/2025 06:36:28;117;0;2.36;-4;30.12;5.08;69.4;18.40;76651;2834.714;-1756.720;1;1;210;214.5;21.0;20.8;33;33.4;28.0;-1.0;
18/02/2025 06:36:48;117;0;1.00;-4;30.00;5.10;66.6;18.50;76659;2834.717;-1756.720;1;1;210;214.5;21.0;20.8;33;33.4;28.0;-1.0;
18/02/2025 06:37:08;117;0;357.83;-4;30.13;5.14;63.8;18.50;76661;2834.719;-1756.720;1;1;210;214.5;21.0;20.8;33;33.4;28.0;-1.0;
18/02/2025 06:37:28;117;0;355.38;-4;30.25;5.09;61.0;18.50;76669;2834.722;-1756.720;1;1;210;214.5;21.0;20.8;33;33.4;28.0;-1.0;
18/02/2025 06:37:48;117;0;350.37;-4;30.37;5.29;57.9;18.50;76667;2834.724;-1756.721;1;2;210;214.5;21.0;20.8;39;38.8;28.0;-1.0;
18/02/2025 06:38:08;117;0;352.82;-4;30.74;8.32;54.9;18.50;76672;2834.727;-1756.721;1;2;210;214.5;21.0;20.8;36;35.6;28.0;-1.0;
18/02/2025 06:38:28;117;0;351.66;-4;30.28;6.45;51.9;18.60;76678;2834.729;-1756.722;1;2;210;214.5;21.0;20.8;38;37.9;28.0;-1.0;
18/02/2025 06:38:48;117;0;351.75;-4;30.68;8.02;48.8;18.60;76676;2834.732;-1756.722;1;3;210;214.5;21.0;20.8;38;38.4;28.0;-1.0;
18/02/2025 06:39:08;117;0;350.86;-4;29.63;7.94;45.8;18.60;76682;2834.734;-1756.723;1;3;210;214.5;21.0;20.8;40;40.2;28.0;-1.0;
18/02/2025 06:39:28;117;0;347.43;-4;32.60;10.23;42.5;18.60;76693;2834.737;-1756.723;1;4;210;214.5;21.8;21.9;46;46.0;28.0;-1.0;
18/02/2025 06:39:48;117;0;353.83;-4;28.07;10.96;38.7;18.70;76703;2834.741;-1756.724;1;4;210;214.5;21.2;21.1;38;37.9;28.0;-1.0;
18/02/2025 06:40:08;117;0;350.19;-4;30.57;7.44;35.4;18.70;76702;2834.743;-1756.724;1;5;210;212.9;21.2;20.9;43;42.9;28.0;-1.0;
18/02/2025 06:40:28;117;0;350.56;-4;31.58;10.39;32.1;18.70;76712;2834.746;-1756.725;1;5;210;214.5;21.2;21.1;43;43.3;28.0;-1.0;
18/02/2025 06:40:48;117;0;347.52;-4;29.69;10.87;28.6;18.70;76717;2834.749;-1756.726;1;6;210;214.5;21.2;21.1;49;49.2;28.0;-1.0;
18/02/2025 06:41:08;117;0;349.71;-4;30.93;14.38;25.2;18.80;76723;2834.752;-1756.726;1;7;210;212.9;21.2;21.1;47;46.9;28.0;-1.0;
18/02/2025 06:41:28;117;0;352.57;-4;31.62;11.91;21.7;18.80;76722;2834.755;-1756.727;1;8;210;214.5;21.2;21.1;44;44.2;28.0;-1.0;
18/02/2025 06:41:48;117;0;356.91;-4;28.90;11.38;18.4;18.80;76730;2834.758;-1756.727;1;9;210;214.5;20.9;21.1;40;40.2;28.0;-1.0;
18/02/2025 06:42:08;117;0;354.34;-4;30.23;8.08;15.3;18.80;76737;2834.760;-1756.728;1;9;210;214.5;20.9;20.9;43;42.9;28.0;-1.0;
18/02/2025 06:42:28;117;0;353.03;-4;31.22;10.44;12.4;18.90;76747;2834.763;-1756.728;1;10;210;214.5;20.9;20.9;47;46.9;28.0;-1.0;
18/02/2025 06:42:48;117;0;356.58;-4;32.87;12.95;9.5;18.90;76741;2834.765;-1756.728;1;11;210;212.9;21.7;21.9;43;42.9;28.0;-1.0;
18/02/2025 06:43:08;117;0;352.43;-4;29.45;9.79;6.3;18.90;76748;2834.768;-1756.729;1;12;210;214.5;21.7;22.1;51;51.0;28.0;-1.0;
18/02/2025 06:43:28;117;0;4.97;-4;30.97;16.82;3.3;18.90;76750;2834.770;-1756.728;1;13;210;214.5;21.7;22.1;36;51.0;28.0;-1.0;
18/02/2025 06:43:31;115;0;354.03;-4;30.76;5.38;2.8;18.90;76747;2834.771;-1756.728;1;13;500;221.0;100.0;64.7;0;-0.5;28.0;-1.0;
18/02/2025 06:43:41;115;0;357.53;-4;12.63;-13.81;1.5;18.90;76713;2834.773;-1756.729;1;14;500;340.3;100.0;100.0;0;-0.5;27.8;-1.0;
18/02/2025 06:43:51;115;0;359.81;-4;-59.69;-15.53;1.9;18.90;76459;2834.773;-1756.729;1;14;500;456.5;100.0;100.6;0;-0.5;27.8;-1.0;
18/02/2025 06:44:01;115;0;64.92;-4;-71.72;-22.60;1.7;19.00;76196;2834.773;-1756.729;1;14;500;504.8;100.0;100.6;0;-0.5;27.8;-1.0;
18/02/2025 06:44:11;115;0;34.32;-4;-25.60;-18.96;-0.2;19.00;76120;2834.775;-1756.727;1;13;500;504.8;100.0;100.6;0;-0.5;28.0;-1.0;
18/02/2025 06:44:31;119;0;329.95;-4;-45.97;-7.84;0.1;19.00;76127;2834.775;-1756.727;1;13;500;508.1;100.0;100.6;0;-0.5;28.0;-1.0;
18/02/2025 06:44:41;119;0;342.39;-4;-62.34;-9.37;-0.1;19.00;76129;2834.654;-1756.706;0;13;500;509.7;100.0;100.6;0;-0.5;28.0;-1.0;
