Timestamp;NavState;SecurityLevel;Heading;Declination;Pitch;Roll;Depth;Temperature;Pa;Lat;Lon;DeadReckoning;DesiredH;BallastCmd;BallastPos;LinCmd;LinPos;AngCmd;AngPos;Voltage;Altitude;
23/02/2025 06:45:02;119;0;86.55;-4;-56.18;-6.49;0.2;17.10;75633;2836.965;-1759.988;0;139;500;509.7;100.0;100.6;0;0.0;27.0;-1.0;
23/02/2025 06:45:12;116;0;76.37;-4;-58.64;-16.22;0.2;17.20;75634;2836.968;-1759.996;0;139;500;508.1;100.0;100.7;0;0.0;27.0;-1.0;
23/02/2025 06:45:37;116;0;25.96;-4;-50.01;-23.03;0.1;17.20;75653;2836.973;-1800.001;0;139;500;506.5;100.0;100.6;0;0.0;27.0;-1.0;
23/02/2025 06:46:06;116;0;332.23;-4;-48.42;-10.70;0.3;17.30;75661;2836.972;-1800.001;0;143;500;506.5;100.0;100.6;0;0.0;26.9;-1.0;
23/02/2025 06:46:24;116;0;340.35;-4;-54.18;-14.77;0.3;17.40;75669;2836.975;-1800.004;0;143;500;509.7;100.0;100.6;0;0.0;27.0;-1.0;
23/02/2025 06:46:44;116;0;0.94;-4;-65.91;-12.81;0.3;17.40;75679;2836.978;-1800.005;0;143;500;508.1;100.0;100.6;0;-0.5;27.0;-1.0;
23/02/2025 06:47:46;116;0;20.48;-4;-55.39;-11.87;0.2;17.60;75680;2836.985;-1800.011;0;143;500;508.1;100.0;100.4;0;0.0;27.0;-1.0;
23/02/2025 06:49:05;116;0;13.74;-4;-55.11;-17.66;0.1;17.90;75725;2836.994;-1800.014;0;143;500;509.7;100.0;100.6;0;-0.5;27.0;-1.0;
23/02/2025 06:50:27;116;0;358.38;-4;-55.47;-22.86;0.2;18.30;75751;2837.004;-1800.021;0;143;500;508.1;100.0;100.6;0;0.0;27.0;-1.0;
23/02/2025 06:50:47;110;0;4.49;-4;-55.69;-14.10;0.1;18.40;75756;2837.004;-1800.021;0;143;-70;391.9;100.0;100.0;-7;-7.2;27.0;-1.0;
23/02/2025 06:50:57;110;0;6.64;-4;-54.39;-25.97;0.1;18.40;76092;2837.004;-1800.021;1;143;-70;243.5;100.0;99.9;-7;-7.2;27.0;-1.0;
23/02/2025 06:51:07;110;0;2.04;-4;-61.37;-20.21;0.5;18.50;76344;2837.004;-1800.021;1;143;-70;85.5;100.0;99.9;-7;-7.2;26.9;-1.0;
23/02/2025 06:51:17;110;0;0.14;-4;-69.10;-33.58;0.9;18.50;76669;2837.005;-1800.021;1;143;-70;-69.4;100.0;99.9;-7;-7.2;26.9;-1.0;
23/02/2025 06:51:27;110;0;359.14;-4;-66.07;-21.80;1.4;18.60;76993;2837.006;-1800.021;1;143;-70;-69.4;42.8;42.7;-7;-7.7;27.0;-1.0;
23/02/2025 06:51:47;100;0;16.56;-4;-29.14;-15.37;4.9;18.70;76956;2837.010;-1800.020;1;143;-70;-66.1;42.8;42.4;-7;-7.7;27.0;-1.0;
23/02/2025 06:52:07;100;0;29.67;-4;-19.60;-15.13;8.4;18.70;76964;2837.014;-1800.017;1;143;-70;-62.9;42.8;42.9;-70;-69.9;27.0;-1.0;
23/02/2025 06:52:27;100;0;43.93;-4;-17.75;-45.85;11.0;18.80;76967;2837.018;-1800.014;1;143;-70;-62.9;43.4;43.4;-70;-70.4;27.0;-1.0;
23/02/2025 06:52:47;100;0;56.52;-4;-19.80;-45.71;13.7;18.80;76980;2837.021;-1800.011;1;143;-70;-64.5;43.4;43.7;-70;-70.4;27.0;0.0;
23/02/2025 06:53:07;100;0;69.15;-4;-20.22;-45.99;16.4;18.90;76984;2837.023;-1800.007;1;143;-70;-62.9;43.4;43.7;-70;-70.4;27.0;0.0;
23/02/2025 06:53:27;100;0;81.65;-4;-19.63;-45.64;19.2;18.90;76982;2837.024;-1800.003;1;143;-70;-61.3;43.4;43.7;-67;-66.8;27.0;0.0;
23/02/2025 06:53:47;100;0;94.57;-4;-19.33;-43.62;21.9;19.00;76989;2837.024;-1759.999;1;143;-70;-61.3;43.4;43.7;-52;-51.9;27.0;0.0;
23/02/2025 06:54:07;100;0;104.75;-4;-19.76;-36.08;24.5;19.00;76996;2837.024;-1759.996;1;143;-70;-61.3;43.4;43.7;-41;-41.1;27.0;0.0;
23/02/2025 06:54:27;100;0;117.23;-4;-19.39;-30.65;27.2;19.00;76996;2837.024;-1759.992;1;143;-70;-61.3;43.4;43.7;-23;-23.0;27.0;0.0;
23/02/2025 06:54:47;100;0;125.91;-4;-19.92;-21.87;29.7;19.00;77012;2837.022;-1759.989;1;143;-70;-59.7;43.4;43.7;-11;-10.8;27.0;0.0;
23/02/2025 06:55:07;100;0;133.29;-4;-21.76;-15.96;32.3;19.00;77006;2837.021;-1759.987;1;143;-70;-62.9;43.4;43.9;0;0.0;27.0;0.0;
23/02/2025 06:55:27;100;0;138.15;-4;-21.04;-10.96;34.9;19.00;77006;2837.020;-1759.984;1;143;-70;-61.3;43.4;43.9;8;8.1;27.0;0.0;
23/02/2025 06:55:47;100;0;139.38;-4;-22.02;-7.18;37.6;19.00;77009;2837.018;-1759.982;1;143;-70;-61.3;42.8;42.9;10;10.8;27.0;0.0;
23/02/2025 06:56:07;100;0;140.30;-4;-20.15;-6.18;40.3;19.00;77019;2837.016;-1759.979;1;143;-70;-61.3;42.8;42.7;10;10.8;27.0;0.0;
23/02/2025 06:56:27;100;0;141.84;-4;-20.03;-6.07;42.9;19.00;77025;2837.014;-1759.977;1;143;-70;-61.3;42.8;42.7;12;12.2;27.0;0.0;
23/02/2025 06:56:47;100;0;141.16;-4;-19.90;-5.20;45.4;19.00;77028;2837.013;-1759.975;1;143;-70;-61.3;42.8;42.7;12;12.6;27.0;0.0;
23/02/2025 06:57:07;100;0;141.56;-4;-20.10;-5.06;47.9;19.00;77025;2837.011;-1759.973;1;143;-70;-61.3;42.8;42.7;12;12.6;27.0;0.0;
23/02/2025 06:57:27;100;0;142.20;-4;-20.06;-5.13;50.5;19.00;77038;2837.009;-1759.970;1;143;-70;-61.3;42.8;42.7;12;12.6;27.0;0.0;
23/02/2025 06:57:47;100;0;142.25;-4;-19.89;-5.20;53.1;19.00;77043;2837.007;-1759.968;1;143;-70;-61.3;42.8;42.6;12;12.6;27.0;0.0;
23/02/2025 06:58:07;100;0;142.67;-4;-20.03;-5.08;55.6;19.00;77043;2837.005;-1759.966;1;143;-70;-61.3;42.8;42.7;12;12.6;27.0;0.0;
23/02/2025 06:58:27;100;0;143.35;-4;-20.19;-5.11;58.3;19.00;77055;2837.004;-1759.964;1;143;-70;-61.3;42.8;42.9;12;12.6;27.0;0.0;
23/02/2025 06:58:47;100;0;143.63;-4;-19.91;-5.08;60.8;19.00;77054;2837.002;-1759.961;1;143;-70;-61.3;42.8;42.7;12;12.6;27.0;0.0;
23/02/2025 06:59:07;100;0;143.55;-4;-20.05;-5.20;63.4;19.00;77057;2837.000;-1759.959;1;143;-70;-61.3;42.8;42.7;12;12.6;27.0;0.0;
23/02/2025 06:59:27;100;0;143.84;-4;-19.87;-5.12;66.0;19.10;77067;2836.998;-1759.957;1;143;-70;-59.7;42.8;42.7;12;12.6;27.0;0.0;
23/02/2025 06:59:47;100;0;144.15;-4;-19.92;-5.15;68.6;19.10;77069;2836.996;-1759.955;1;143;-70;-61.3;42.8;42.7;12;12.6;27.0;0.0;
23/02/2025 07:00:07;100;0;144.81;-4;-20.11;-5.14;71.2;19.10;77079;2836.994;-1759.953;1;143;-70;-61.3;42.8;42.7;12;12.6;27.0;0.0;
23/02/2025 07:00:27;100;0;144.28;-4;-19.71;-5.11;73.9;19.10;77072;2836.992;-1759.950;1;143;-70;-61.3;42.8;42.7;12;12.6;27.0;0.0;
23/02/2025 07:00:47;100;0;144.71;-4;-19.61;-5.16;76.3;19.10;77080;2836.990;-1759.948;1;143;-70;-62.9;42.8;42.7;12;12.6;27.0;0.0;
23/02/2025 07:01:07;100;0;144.18;-4;-19.34;-5.14;78.9;19.10;77064;2836.988;-1759.946;1;143;-70;-61.3;42.8;42.7;12;12.6;27.0;0.0;
23/02/2025 07:01:27;100;0;144.99;-4;-19.60;-5.21;81.4;19.10;77047;2836.987;-1759.944;1;143;-70;-61.3;42.8;42.7;12;12.6;27.0;0.0;
23/02/2025 07:01:47;100;0;148.43;-4;-19.32;-5.10;83.9;19.10;77038;2836.985;-1759.942;1;143;-70;-61.3;42.8;42.7;14;14.0;27.0;0.0;
23/02/2025 07:02:07;100;0;152.76;-4;-19.79;-4.46;86.4;19.10;77021;2836.983;-1759.940;1;143;-70;-61.3;42.8;42.7;14;14.4;27.0;0.0;
23/02/2025 07:02:27;100;0;157.32;-4;-19.22;-4.47;88.9;19.00;76987;2836.980;-1759.939;1;143;-70;-62.9;42.8;42.9;14;14.4;27.0;0.0;
23/02/2025 07:02:47;100;0;158.44;-4;-19.25;-4.48;91.3;19.00;76979;2836.978;-1759.938;1;143;-70;-61.3;42.8;42.6;14;14.4;27.0;0.0;
23/02/2025 07:03:07;100;0;160.08;-4;-19.22;-4.44;93.7;19.00;76961;2836.976;-1759.936;1;143;-70;-61.3;42.8;42.7;16;15.8;27.0;0.0;
23/02/2025 07:03:27;100;0;161.85;-4;-19.38;-3.39;96.0;19.00;76958;2836.974;-1759.935;1;143;-70;-61.3;42.8;42.7;16;16.2;27.0;0.0;
23/02/2025 07:03:47;100;0;160.87;-4;-19.24;-3.42;98.4;19.00;76940;2836.972;-1759.934;1;143;-70;-59.7;42.8;42.7;16;16.2;27.0;0.0;
23/02/2025 07:04:07;100;0;157.99;-4;-19.28;-3.44;100.8;19.00;76940;2836.969;-1759.933;1;143;-70;-61.3;42.8;42.7;16;16.2;27.0;0.0;
23/02/2025 07:04:27;100;0;158.53;-4;-19.50;-3.47;103.3;18.90;76930;2836.967;-1759.932;1;143;-70;-61.3;42.8;42.7;16;16.2;27.0;0.0;
23/02/2025 07:04:47;100;0;151.95;-4;-17.72;-3.56;105.8;18.90;76917;2836.965;-1759.930;1;143;-70;-61.3;43.5;43.6;14;13.5;27.0;0.0;
23/02/2025 07:05:07;100;0;148.20;-4;-20.17;-4.87;107.9;18.90;76906;2836.963;-1759.928;1;143;-70;-62.9;43.5;43.7;14;13.1;27.0;0.0;
23/02/2025 07:05:27;100;0;150.60;-4;-21.15;-5.04;110.3;18.90;76901;2836.962;-1759.927;1;143;-70;-61.3;43.5;43.9;14;13.5;27.0;0.0;
23/02/2025 07:05:47;100;0;155.99;-4;-20.60;-4.82;112.8;18.80;76889;2836.960;-1759.925;1;143;-70;-61.3;43.5;43.7;14;13.5;27.0;0.0;
23/02/2025 07:06:07;100;0;157.61;-4;-20.93;-4.82;115.3;18.80;76890;2836.958;-1759.924;1;143;-70;-61.3;43.5;43.9;14;13.5;27.0;0.0;
23/02/2025 07:06:27;100;0;156.85;-4;-20.72;-4.95;117.8;18.80;76885;2836.956;-1759.923;1;143;-70;-61.3;43.5;43.7;14;13.5;27.0;0.0;
23/02/2025 07:06:47;100;0;151.98;-4;-20.29;-5.22;120.2;18.80;76865;2836.954;-1759.921;1;143;-70;-59.7;43.5;43.7;14;13.1;27.0;0.0;
23/02/2025 07:07:07;100;0;151.04;-4;-20.53;-4.83;122.6;18.70;76866;2836.952;-1759.919;1;143;-70;-61.3;43.5;43.7;14;13.5;27.0;0.0;
23/02/2025 07:07:27;100;0;149.57;-4;-19.90;-4.83;125.0;18.70;76845;2836.950;-1759.918;1;143;-70;-61.3;43.5;43.9;14;13.1;27.0;0.0;
23/02/2025 07:07:47;100;0;149.49;-4;-20.83;-4.82;127.4;18.70;76859;2836.948;-1759.916;1;143;-70;-61.3;43.5;43.7;14;13.5;27.0;0.0;
23/02/2025 07:08:07;100;0;148.44;-4;-19.98;-4.94;129.8;18.70;76855;2836.947;-1759.914;1;143;-70;-61.3;43.5;43.7;14;13.5;27.0;0.0;
23/02/2025 07:08:27;100;0;153.21;-4;-20.87;-4.91;132.3;18.70;76856;2836.945;-1759.913;1;143;-70;-61.3;43.5;43.7;14;13.5;27.0;0.0;
23/02/2025 07:08:47;100;0;156.32;-4;-20.76;-4.89;135.0;18.60;76848;2836.942;-1759.911;1;143;-70;-61.3;43.5;43.9;14;13.5;27.0;0.0;
23/02/2025 07:09:07;100;0;153.71;-4;-20.62;-4.96;137.6;18.60;76838;2836.940;-1759.909;1;143;-70;-61.3;43.5;43.7;14;13.5;27.0;0.0;
23/02/2025 07:09:27;100;0;149.22;-4;-20.67;-5.01;140.2;18.60;76825;2836.938;-1759.908;1;143;-70;-61.3;43.5;43.7;14;13.5;27.0;0.0;
23/02/2025 07:09:47;100;0;147.44;-4;-20.67;-4.91;142.9;18.50;76815;2836.936;-1759.906;1;143;-70;-61.3;43.5;43.7;14;13.1;27.0;0.0;
23/02/2025 07:10:07;100;0;145.26;-4;-20.60;-4.93;145.6;18.50;76811;2836.934;-1759.903;1;143;-70;-59.7;43.5;43.7;14;13.1;27.0;0.0;
23/02/2025 07:10:27;100;0;144.09;-4;-20.58;-4.90;148.3;18.50;76793;2836.932;-1759.901;1;143;-70;-61.3;43.5;43.7;14;13.5;27.0;0.0;
23/02/2025 07:10:47;100;0;143.78;-4;-20.61;-4.94;151.0;18.50;76794;2836.931;-1759.899;1;143;-70;-61.3;43.5;43.7;14;13.5;27.0;0.0;
23/02/2025 07:11:07;100;0;143.66;-4;-20.71;-4.89;153.7;18.40;76775;2836.929;-1759.897;1;143;-70;-61.3;43.5;43.7;14;13.5;27.0;0.0;
23/02/2025 07:11:27;100;0;141.81;-4;-20.91;-4.95;156.6;18.40;76773;2836.927;-1759.894;1;143;-70;-61.3;43.5;43.7;12;12.2;27.0;0.0;
23/02/2025 07:11:47;100;0;140.31;-4;-20.93;-5.65;159.6;18.40;76762;2836.925;-1759.892;1;143;-70;-61.3;43.5;43.9;12;11.7;27.0;0.0;
23/02/2025 07:12:07;100;0;143.75;-4;-20.52;-5.60;162.6;18.40;76753;2836.922;-1759.889;1;143;-70;-61.3;43.5;43.7;12;11.7;27.0;0.0;
23/02/2025 07:12:27;100;0;145.30;-4;-20.42;-5.62;165.5;18.30;76755;2836.920;-1759.887;1;143;-70;-61.3;43.5;43.7;14;14.0;27.0;0.0;
23/02/2025 07:12:47;100;0;147.23;-4;-20.76;-4.34;168.4;18.30;76737;2836.918;-1759.885;1;143;-70;-61.3;43.5;43.7;14;14.4;27.0;0.0;
23/02/2025 07:13:07;100;0;149.30;-4;-20.34;-4.24;171.4;18.20;76736;2836.915;-1759.883;1;143;-70;-59.7;43.5;43.9;14;14.4;27.0;0.0;
23/02/2025 07:13:27;100;0;150.71;-4;-20.18;-4.25;174.2;18.20;76721;2836.913;-1759.881;1;143;-70;-62.9;43.5;43.7;14;14.4;27.0;0.0;
23/02/2025 07:13:47;100;0;152.57;-4;-20.38;-4.35;176.9;18.20;76708;2836.911;-1759.879;1;143;-70;-62.9;43.5;43.9;14;14.4;27.0;0.0;
23/02/2025 07:14:07;100;0;150.46;-4;-20.49;-4.38;179.7;18.20;76706;2836.908;-1759.877;1;143;-70;-61.3;43.5;43.7;14;14.4;27.0;0.0;
23/02/2025 07:14:27;100;0;149.17;-4;-20.63;-4.34;182.6;18.10;76694;2836.906;-1759.875;1;143;-70;-61.3;43.5;43.7;14;14.4;27.0;0.0;
23/02/2025 07:14:47;100;0;146.23;-4;-20.66;-4.41;185.3;18.10;76681;2836.904;-1759.873;1;143;-70;-61.3;43.5;43.7;14;14.4;27.0;0.0;
23/02/2025 07:15:07;100;0;145.31;-4;-20.41;-4.25;188.2;18.00;76674;2836.902;-1759.870;1;143;-70;-61.3;43.5;43.7;14;14.4;27.0;0.0;
23/02/2025 07:15:27;100;0;148.87;-4;-20.31;-4.27;190.9;18.00;76672;2836.900;-1759.868;1;143;-70;-62.9;43.5;43.9;14;14.4;27.0;0.0;
23/02/2025 07:15:47;100;0;148.47;-4;-20.73;-4.29;193.7;18.00;76650;2836.898;-1759.866;1;143;-70;-61.3;43.5;43.7;14;14.4;27.0;0.0;
23/02/2025 07:16:07;100;0;145.68;-4;-20.95;-4.30;196.6;17.90;76648;2836.896;-1759.864;1;143;-70;-61.3;43.5;43.7;14;14.4;27.0;0.0;
23/02/2025 07:16:27;100;0;143.72;-4;-20.57;-4.29;199.4;17.90;76638;2836.894;-1759.862;1;143;-70;-61.3;43.5;43.9;14;14.4;27.0;0.0;
23/02/2025 07:16:48;100;0;142.73;-4;-20.25;-4.21;202.2;17.90;76616;2836.892;-1759.859;1;143;-70;-64.5;43.5;43.7;12;12.2;27.0;0.0;
23/02/2025 07:17:08;100;0;142.06;-4;-20.32;-5.78;204.8;17.80;76615;2836.890;-1759.857;1;143;-70;-61.3;43.5;43.7;12;11.7;27.0;0.0;
23/02/2025 07:17:28;100;0;142.02;-4;-20.45;-5.70;207.4;17.80;76600;2836.888;-1759.855;1;143;-70;-61.3;43.5;43.7;12;11.7;27.0;0.0;
23/02/2025 07:17:48;100;0;142.27;-4;-19.98;-5.76;210.0;17.80;76609;2836.886;-1759.852;1;143;-70;-61.3;43.5;43.7;12;11.7;27.0;0.0;
23/02/2025 07:18:08;100;0;142.31;-4;-20.28;-5.69;212.6;17.70;76605;2836.884;-1759.850;1;143;-70;-61.3;43.5;43.9;12;11.7;27.0;0.0;
23/02/2025 07:18:28;100;0;141.70;-4;-20.26;-5.84;215.1;17.70;76593;2836.883;-1759.848;1;143;-70;-61.3;43.5;43.9;12;11.7;27.0;0.0;
23/02/2025 07:18:48;100;0;141.26;-4;-20.26;-5.76;217.5;17.70;76595;2836.881;-1759.846;1;143;-70;-61.3;43.5;43.7;10;9.9;27.0;0.0;
23/02/2025 07:19:08;100;0;143.27;-4;-20.03;-6.88;219.9;17.60;76589;2836.879;-1759.844;1;143;-70;-61.3;43.5;43.7;10;9.5;27.0;0.0;
23/02/2025 07:19:28;100;0;146.20;-4;-19.72;-6.84;222.3;17.60;76579;2836.877;-1759.842;1;143;-70;-64.5;43.5;43.7;13;13.1;27.0;0.0;
23/02/2025 07:19:48;100;0;149.82;-4;-20.08;-4.76;224.6;17.60;76561;2836.876;-1759.840;1;143;-70;-61.3;43.5;43.7;13;13.5;27.0;0.0;
23/02/2025 07:20:08;100;0;152.51;-4;-20.47;-4.75;227.1;17.50;76562;2836.874;-1759.838;1;143;-70;-61.3;43.5;43.9;13;13.5;27.0;0.0;
23/02/2025 07:20:28;100;0;154.13;-4;-20.69;-4.77;229.6;17.50;76563;2836.872;-1759.837;1;143;-70;-59.7;43.5;43.7;13;14.0;27.0;0.0;
23/02/2025 07:20:48;100;0;154.95;-4;-20.22;-4.75;232.3;17.40;76543;2836.869;-1759.835;1;143;-70;-61.3;43.5;43.7;13;13.5;27.0;0.0;
23/02/2025 07:21:08;100;0;154.72;-4;-20.17;-4.76;234.9;17.40;76539;2836.867;-1759.834;1;143;-70;-61.3;43.5;43.9;13;13.5;27.0;0.0;
23/02/2025 07:21:28;100;0;156.29;-4;-20.03;-4.71;237.5;17.40;76529;2836.865;-1759.832;1;143;-70;-59.7;43.5;43.9;13;13.5;27.0;0.0;
23/02/2025 07:21:48;100;0;154.65;-4;-20.18;-4.76;239.9;17.40;76528;2836.863;-1759.831;1;143;-70;-61.3;43.5;43.9;13;13.5;27.0;0.0;
23/02/2025 07:22:08;100;0;151.53;-4;-20.37;-4.77;242.5;17.30;76511;2836.861;-1759.829;1;143;-70;-62.9;43.5;43.7;13;13.5;27.0;0.0;
23/02/2025 07:22:28;100;0;149.09;-4;-20.27;-4.73;244.9;17.30;76508;2836.859;-1759.827;1;143;-70;-61.3;43.5;43.7;13;13.5;27.0;0.0;
23/02/2025 07:22:48;100;0;149.67;-4;-20.24;-4.73;247.5;17.20;76507;2836.857;-1759.825;1;143;-70;-61.3;43.5;43.7;13;13.5;27.0;0.0;
23/02/2025 07:23:08;100;0;150.70;-4;-20.57;-4.68;250.0;17.20;76489;2836.855;-1759.824;1;143;-70;-59.7;43.5;43.7;13;13.5;27.0;0.0;
23/02/2025 07:23:28;100;0;151.43;-4;-20.45;-4.66;252.6;17.20;76479;2836.853;-1759.822;1;143;-70;-61.3;43.5;43.7;13;13.5;27.0;0.0;
23/02/2025 07:23:48;100;0;152.35;-4;-20.27;-4.68;255.3;17.10;76464;2836.851;-1759.820;1;143;-70;-62.9;43.5;43.9;13;13.5;27.0;0.0;
23/02/2025 07:24:08;100;0;154.93;-4;-19.91;-4.71;257.9;17.10;76454;2836.848;-1759.818;1;143;-70;-61.3;43.5;43.9;13;13.5;27.0;0.0;
23/02/2025 07:24:28;100;0;157.64;-4;-20.15;-4.85;260.4;17.10;76448;2836.846;-1759.817;1;143;-70;-61.3;43.5;43.9;15;14.9;27.0;0.0;
23/02/2025 07:24:48;100;0;158.37;-4;-20.36;-4.05;262.9;17.00;76452;2836.844;-1759.816;1;143;-70;-61.3;43.5;43.9;15;15.3;27.0;0.0;
23/02/2025 07:25:08;100;0;163.26;-4;-19.95;-3.96;265.6;17.00;76437;2836.842;-1759.815;1;143;-70;-61.3;43.5;43.9;19;19.0;27.0;0.0;
23/02/2025 07:25:28;100;0;165.32;-4;-20.19;-2.11;268.2;16.90;76422;2836.839;-1759.814;1;143;-70;-61.3;43.5;43.9;22;22.1;27.0;0.0;
23/02/2025 07:25:48;100;0;160.40;-4;-20.06;-0.38;270.8;16.90;76407;2836.837;-1759.812;1;143;-70;-61.3;43.5;43.9;16;15.8;27.0;0.0;
23/02/2025 07:26:08;100;0;158.29;-4;-20.10;-3.91;273.4;16.90;76398;2836.835;-1759.811;1;143;-70;-61.3;43.5;43.9;16;15.3;27.0;0.0;
23/02/2025 07:26:28;100;0;156.59;-4;-19.88;-3.94;276.0;16.80;76396;2836.832;-1759.810;1;143;-70;-61.3;43.5;43.9;14;14.0;27.0;0.0;
23/02/2025 07:26:48;100;0;156.15;-4;-19.88;-4.80;278.6;16.80;76395;2836.830;-1759.808;1;143;-70;-61.3;43.5;43.9;14;14.0;27.0;0.0;
23/02/2025 07:27:08;100;0;155.82;-4;-19.72;-4.72;281.2;16.80;76380;2836.828;-1759.807;1;143;-70;-61.3;43.5;43.9;14;13.5;27.0;0.0;
23/02/2025 07:27:28;100;0;154.20;-4;-19.97;-4.84;283.9;16.70;76377;2836.826;-1759.805;1;143;-70;-61.3;43.5;43.7;14;13.5;27.0;0.0;
23/02/2025 07:27:48;100;0;154.16;-4;-20.01;-4.86;286.6;16.70;76367;2836.823;-1759.803;1;143;-70;-61.3;43.5;43.9;14;13.5;27.0;0.0;
23/02/2025 07:28:08;100;0;154.07;-4;-20.15;-4.81;289.2;16.60;76359;2836.821;-1759.802;1;143;-70;-61.3;43.5;43.9;14;13.5;27.0;0.0;
23/02/2025 07:28:28;100;0;151.79;-4;-20.16;-4.89;291.9;16.60;76361;2836.819;-1759.800;1;143;-70;-61.3;43.5;43.7;14;13.5;27.0;0.0;
23/02/2025 07:28:48;100;0;149.06;-4;-20.13;-4.80;294.5;16.60;76353;2836.817;-1759.798;1;143;-70;-61.3;43.5;43.7;14;13.5;27.0;0.0;
23/02/2025 07:29:08;100;0;149.23;-4;-20.57;-4.83;297.3;16.50;76341;2836.815;-1759.796;1;143;-70;-61.3;43.5;43.7;14;14.0;27.0;0.0;
23/02/2025 07:29:28;100;0;151.84;-4;-20.25;-4.74;300.1;16.50;76323;2836.812;-1759.794;1;143;-70;-61.3;43.5;43.9;14;13.5;27.0;0.0;
23/02/2025 07:29:48;100;0;153.69;-4;-20.14;-4.76;302.9;16.50;76305;2836.810;-1759.792;1;143;-70;-61.3;43.5;43.9;14;13.5;27.0;0.0;
23/02/2025 07:30:08;100;0;155.21;-4;-20.06;-4.75;305.8;16.40;76307;2836.807;-1759.790;1;143;-70;-61.3;43.5;43.9;14;13.5;27.0;0.0;
23/02/2025 07:30:28;100;0;157.82;-4;-20.03;-4.79;308.4;16.40;76297;2836.805;-1759.789;1;143;-70;-61.3;43.5;43.7;14;13.5;27.0;0.0;
23/02/2025 07:30:48;100;0;159.43;-4;-20.03;-4.79;311.2;16.40;76296;2836.802;-1759.788;1;143;-70;-61.3;43.5;43.9;17;17.1;27.0;0.0;
23/02/2025 07:31:08;100;0;158.53;-4;-20.43;-2.74;314.0;16.30;76287;2836.800;-1759.786;1;143;-70;-61.3;43.5;43.9;17;17.6;27.0;0.0;
23/02/2025 07:31:28;100;0;155.53;-4;-20.50;-2.68;316.9;16.30;76266;2836.797;-1759.784;1;143;-70;-62.9;43.5;43.7;15;14.9;27.0;0.0;
23/02/2025 07:31:48;100;0;152.64;-4;-20.35;-4.41;319.8;16.30;76257;2836.795;-1759.783;1;143;-70;-61.3;43.5;43.9;15;14.4;27.0;0.0;
23/02/2025 07:32:08;100;0;151.88;-4;-19.98;-4.43;322.6;16.20;76240;2836.792;-1759.781;1;143;-70;-59.7;43.5;43.7;15;14.4;27.0;0.0;
23/02/2025 07:32:28;100;0;153.10;-4;-20.00;-4.44;325.4;16.20;76249;2836.790;-1759.779;1;143;-70;-61.3;43.5;43.9;15;14.4;27.0;0.0;
23/02/2025 07:32:48;100;0;156.80;-4;-19.87;-4.43;328.2;16.10;76233;2836.787;-1759.777;1;143;-70;-61.3;43.5;43.9;15;14.4;27.0;0.0;
23/02/2025 07:33:08;100;0;156.88;-4;-19.77;-4.50;330.8;16.10;76227;2836.785;-1759.776;1;143;-70;-61.3;43.5;43.9;15;14.4;27.0;0.0;
23/02/2025 07:33:28;100;0;155.99;-4;-19.78;-4.54;333.6;16.10;76220;2836.783;-1759.774;1;143;-70;-61.3;43.5;43.7;15;14.4;27.0;0.0;
23/02/2025 07:33:48;100;0;153.93;-4;-20.01;-4.47;336.3;16.00;76211;2836.780;-1759.772;1;143;-70;-64.5;43.5;43.9;15;14.4;27.0;0.0;
23/02/2025 07:34:08;100;0;152.80;-4;-19.99;-4.45;339.1;16.00;76203;2836.778;-1759.771;1;143;-70;-59.7;43.5;43.9;15;14.4;27.0;0.0;
23/02/2025 07:34:28;100;0;152.79;-4;-20.04;-4.40;341.8;16.00;76203;2836.776;-1759.769;1;143;-70;-59.7;43.5;43.9;15;14.4;27.0;0.0;
23/02/2025 07:34:48;100;0;152.59;-4;-20.07;-4.50;344.6;15.90;76183;2836.773;-1759.767;1;143;-70;-61.3;43.5;43.9;15;14.4;27.0;0.0;
23/02/2025 07:35:08;100;0;152.71;-4;-19.89;-4.42;347.3;15.90;76185;2836.771;-1759.765;1;143;-70;-61.3;43.5;43.9;15;14.4;27.0;0.0;
23/02/2025 07:35:28;100;0;155.10;-4;-20.09;-4.37;350.1;15.80;76192;2836.769;-1759.764;1;143;-70;-61.3;43.5;43.9;15;14.4;27.0;0.0;
23/02/2025 07:35:48;100;0;154.70;-4;-19.59;-4.42;352.8;15.80;76174;2836.766;-1759.762;1;143;-70;-59.7;43.5;43.9;15;14.4;27.0;0.0;
23/02/2025 07:36:08;100;0;154.71;-4;-19.74;-4.48;355.3;15.80;76165;2836.764;-1759.760;1;143;-70;-61.3;43.5;43.9;15;14.4;27.0;0.0;
23/02/2025 07:36:28;100;0;156.88;-4;-19.64;-4.47;357.9;15.70;76158;2836.762;-1759.759;1;143;-70;-59.7;43.5;43.9;15;14.4;27.0;0.0;
23/02/2025 07:36:48;100;0;160.07;-4;-19.28;-4.55;360.4;15.70;76148;2836.760;-1759.758;1;143;-70;-61.3;43.5;43.7;17;17.1;27.0;0.0;
23/02/2025 07:37:08;100;0;162.45;-4;-19.94;-2.73;362.9;15.70;76141;2836.757;-1759.757;1;143;-70;-61.3;43.5;43.7;19;19.0;27.0;0.0;
23/02/2025 07:37:28;100;0;158.91;-4;-20.08;-1.70;365.5;15.60;76139;2836.755;-1759.755;1;143;-70;-61.3;43.5;43.7;16;15.3;27.0;0.0;
23/02/2025 07:37:48;100;0;156.69;-4;-19.80;-4.00;368.1;15.60;76136;2836.753;-1759.754;1;143;-70;-62.9;43.5;43.9;16;15.3;27.0;0.0;
23/02/2025 07:38:08;100;0;155.65;-4;-19.77;-4.02;370.5;15.60;76117;2836.751;-1759.752;1;143;-70;-61.3;43.5;43.9;16;15.3;27.0;0.0;
23/02/2025 07:38:28;100;0;155.69;-4;-19.81;-3.98;373.0;15.50;76116;2836.749;-1759.751;1;143;-70;-61.3;43.5;43.7;16;15.3;27.0;0.0;
23/02/2025 07:38:48;100;0;154.35;-4;-19.84;-4.03;375.4;15.50;76115;2836.747;-1759.749;1;143;-70;-61.3;43.5;43.7;16;15.3;27.0;0.0;
23/02/2025 07:39:08;100;0;153.43;-4;-19.84;-4.02;377.9;15.50;76113;2836.745;-1759.748;1;143;-70;-61.3;43.5;43.7;16;15.3;27.0;0.0;
23/02/2025 07:39:28;100;0;151.54;-4;-19.81;-3.95;380.3;15.40;76100;2836.743;-1759.746;1;143;-70;-61.3;43.5;43.9;16;15.3;27.0;0.0;
23/02/2025 07:39:48;100;0;150.31;-4;-19.83;-3.97;382.6;15.40;76097;2836.741;-1759.744;1;143;-70;-61.3;43.5;43.7;14;14.0;27.0;0.0;
23/02/2025 07:40:08;100;0;149.65;-4;-19.55;-4.74;385.0;15.40;76087;2836.739;-1759.743;1;143;-70;-62.9;43.5;43.7;14;14.0;26.9;0.0;
23/02/2025 07:40:28;100;0;149.01;-4;-19.72;-4.81;387.3;15.30;76078;2836.737;-1759.741;1;143;-70;-61.3;43.5;43.9;14;13.5;27.0;0.0;
23/02/2025 07:40:48;100;0;150.47;-4;-19.68;-4.76;389.6;15.30;76074;2836.736;-1759.739;1;143;-70;-64.5;43.5;43.9;14;14.0;27.0;0.0;
23/02/2025 07:41:08;100;0;152.46;-4;-19.57;-4.75;391.8;15.30;76072;2836.734;-1759.738;1;143;-70;-61.3;43.5;43.9;14;14.0;27.0;0.0;
23/02/2025 07:41:28;100;0;153.17;-4;-19.70;-4.78;394.1;15.20;76062;2836.732;-1759.736;1;143;-70;-61.3;43.5;43.9;14;13.5;27.0;0.0;
23/02/2025 07:41:48;100;0;155.34;-4;-19.75;-4.81;396.4;15.20;76053;2836.730;-1759.735;1;143;-70;-61.3;43.5;43.9;14;13.5;27.0;0.0;
23/02/2025 07:42:08;100;0;155.71;-4;-19.68;-4.77;398.7;15.20;76052;2836.728;-1759.734;1;143;-70;-59.7;43.5;43.9;14;14.0;27.0;0.0;
23/02/2025 07:42:28;100;0;155.55;-4;-19.72;-4.80;401.0;15.10;76054;2836.726;-1759.732;1;143;-70;-61.3;43.5;43.9;14;13.5;27.0;0.0;
23/02/2025 07:42:48;100;0;155.82;-4;-19.75;-4.79;403.3;15.10;76044;2836.725;-1759.731;1;143;-70;-62.9;43.5;43.9;14;14.0;27.0;0.0;
23/02/2025 07:43:08;100;0;155.83;-4;-19.83;-4.79;405.6;15.10;76038;2836.723;-1759.730;1;143;-70;-61.3;43.5;44.0;14;14.0;27.0;0.0;
23/02/2025 07:43:28;100;0;156.64;-4;-19.82;-4.80;408.0;15.00;76025;2836.721;-1759.728;1;143;-70;-61.3;43.5;43.9;14;13.5;27.0;0.0;
23/02/2025 07:43:48;100;0;158.58;-4;-19.74;-4.77;410.4;15.00;76029;2836.719;-1759.727;1;143;-70;-61.3;43.5;43.9;16;15.8;27.0;0.0;
23/02/2025 07:44:08;100;0;161.63;-4;-19.97;-3.48;412.9;15.00;76019;2836.716;-1759.726;1;143;-70;-61.3;43.5;43.9;18;18.1;27.0;0.0;
23/02/2025 07:44:28;100;0;159.88;-4;-20.35;-2.26;415.4;14.90;76007;2836.714;-1759.725;1;143;-70;-61.3;43.5;43.7;18;18.5;27.0;0.0;
23/02/2025 07:44:48;100;0;160.01;-4;-19.64;-2.28;417.9;14.90;76005;2836.712;-1759.724;1;143;-70;-61.3;43.5;43.9;18;18.5;27.0;0.0;
23/02/2025 07:45:08;100;0;160.52;-4;-19.68;-2.06;420.4;14.90;75997;2836.710;-1759.722;1;143;-70;-61.3;43.5;43.7;18;18.5;26.9;0.0;
23/02/2025 07:45:28;100;0;162.57;-4;-19.91;-2.33;422.8;14.90;75994;2836.708;-1759.721;1;143;-70;-59.7;43.5;43.7;18;18.5;27.0;0.0;
23/02/2025 07:45:48;100;0;163.25;-4;-19.72;-2.29;425.3;14.80;75982;2836.705;-1759.720;1;143;-70;-61.3;43.5;43.9;20;19.9;27.0;0.0;
23/02/2025 07:46:08;100;0;162.83;-4;-19.92;-1.16;427.8;14.80;75985;2836.703;-1759.719;1;143;-70;-61.3;43.5;43.7;20;20.8;27.0;0.0;
23/02/2025 07:46:28;100;0;162.96;-4;-19.98;-1.24;430.3;14.80;75981;2836.701;-1759.718;1;143;-70;-61.3;43.5;43.9;20;20.8;27.0;0.0;
23/02/2025 07:46:48;100;0;161.78;-4;-19.97;-1.20;432.7;14.70;75979;2836.699;-1759.717;1;143;-70;-61.3;43.5;43.7;20;20.8;27.0;0.0;
23/02/2025 07:47:08;100;0;157.32;-4;-19.87;-1.23;435.2;14.70;75981;2836.696;-1759.716;1;143;-70;-61.3;43.5;43.9;16;15.8;27.0;0.0;
23/02/2025 07:47:28;100;0;154.40;-4;-19.58;-4.07;437.8;14.70;75969;2836.694;-1759.714;1;143;-70;-61.3;43.5;43.7;16;15.3;27.0;0.0;
23/02/2025 07:47:48;100;0;153.01;-4;-19.83;-4.05;440.4;14.70;75961;2836.692;-1759.713;1;143;-70;-61.3;43.5;43.7;16;15.3;27.0;0.0;
23/02/2025 07:48:08;100;0;151.57;-4;-19.68;-4.00;442.9;14.60;75954;2836.690;-1759.711;1;143;-70;-61.3;43.5;43.9;16;15.3;27.0;0.0;
23/02/2025 07:48:28;100;0;150.11;-4;-19.68;-4.03;445.5;14.60;75944;2836.688;-1759.709;1;143;-70;-61.3;43.5;43.7;16;15.3;27.0;0.0;
23/02/2025 07:48:48;100;0;149.67;-4;-19.55;-3.96;448.1;14.60;75937;2836.686;-1759.707;1;143;-70;-61.3;43.5;43.7;16;15.3;27.0;0.0;
23/02/2025 07:49:08;100;0;147.99;-4;-19.64;-4.06;450.7;14.60;75938;2836.684;-1759.705;1;143;-70;-61.3;43.5;43.9;16;15.3;27.0;0.0;
23/02/2025 07:49:28;100;0;146.21;-4;-19.55;-4.04;453.3;14.50;75918;2836.682;-1759.703;1;143;-70;-62.9;43.5;43.9;16;15.3;27.0;0.0;
23/02/2025 07:49:48;100;0;144.39;-4;-19.52;-4.02;456.0;14.50;75916;2836.680;-1759.701;1;143;-70;-61.3;43.5;43.7;14;13.5;27.0;0.0;
23/02/2025 07:50:08;100;0;144.22;-4;-19.46;-4.73;458.6;14.50;75917;2836.678;-1759.698;1;143;-70;-61.3;43.5;43.9;14;14.0;27.0;0.0;
23/02/2025 07:50:28;100;0;143.89;-4;-19.41;-4.79;461.3;14.40;75906;2836.676;-1759.696;1;143;-70;-61.3;43.5;43.9;14;13.5;27.0;0.0;
23/02/2025 07:50:48;100;0;143.77;-4;-19.60;-4.82;464.0;14.40;75912;2836.674;-1759.694;1;143;-70;-61.3;43.5;43.9;14;14.0;27.0;0.0;
23/02/2025 07:51:08;100;0;144.87;-4;-19.60;-4.75;466.7;14.40;75899;2836.672;-1759.692;1;143;-70;-61.3;43.5;43.7;14;13.5;27.0;0.0;
23/02/2025 07:51:28;100;0;146.23;-4;-19.68;-4.73;469.6;14.40;75898;2836.670;-1759.689;1;143;-70;-61.3;43.5;43.9;14;14.0;27.0;0.0;
23/02/2025 07:51:48;100;0;145.60;-4;-19.55;-4.78;472.2;14.30;75891;2836.668;-1759.687;1;143;-70;-61.3;43.5;43.9;14;13.5;27.0;0.0;
23/02/2025 07:52:09;100;0;144.04;-4;-19.59;-4.79;475.0;14.30;75893;2836.666;-1759.685;1;143;-70;-61.3;43.5;43.9;14;14.0;27.0;0.0;
23/02/2025 07:52:29;100;0;143.17;-4;-19.53;-4.80;477.7;14.30;75879;2836.664;-1759.682;1;143;-70;-62.9;43.5;43.9;14;14.0;27.0;0.0;
23/02/2025 07:52:49;100;0;142.53;-4;-19.56;-4.75;480.5;14.20;75879;2836.662;-1759.680;1;143;-70;-61.3;43.5;43.7;14;14.0;27.0;0.0;
23/02/2025 07:53:09;100;0;141.86;-4;-19.69;-4.79;483.3;14.20;75876;2836.660;-1759.678;1;143;-70;-61.3;43.5;43.9;14;13.5;27.0;0.0;
23/02/2025 07:53:29;100;0;139.26;-4;-19.66;-4.84;486.0;14.20;75871;2836.658;-1759.675;1;143;-70;-59.7;43.5;43.7;10;9.9;27.0;0.0;
23/02/2025 07:53:49;100;0;140.77;-4;-19.23;-6.77;488.8;14.20;75866;2836.656;-1759.672;1;143;-70;-61.3;43.5;43.7;12;12.2;27.0;0.0;
23/02/2025 07:54:09;100;0;142.42;-4;-19.35;-5.30;491.5;14.10;75862;2836.654;-1759.670;1;143;-70;-61.3;43.5;43.9;12;12.6;27.0;0.0;
23/02/2025 07:54:29;100;0;143.30;-4;-19.61;-5.28;494.3;14.10;75860;2836.652;-1759.667;1;143;-70;-61.3;43.5;43.9;14;14.0;27.0;0.0;
23/02/2025 07:54:49;100;0;141.34;-4;-19.26;-4.42;497.1;14.10;75850;2836.649;-1759.665;1;143;-70;-61.3;43.5;43.9;12;12.2;27.0;0.0;
23/02/2025 07:55:09;100;0;142.24;-4;-19.19;-5.76;499.8;14.10;75857;2836.647;-1759.662;1;143;-70;-61.3;43.5;43.7;12;11.7;27.0;0.0;
23/02/2025 07:55:29;100;0;140.05;-4;-18.91;-5.80;502.4;14.00;75850;2836.646;-1759.660;1;143;-70;-61.3;43.8;43.9;10;9.9;27.0;0.0;
23/02/2025 07:55:49;100;0;140.30;-4;-18.93;-6.83;505.2;14.00;75844;2836.644;-1759.657;1;143;-70;-61.3;44.2;44.3;12;12.6;27.0;0.0;
23/02/2025 07:56:09;100;0;140.66;-4;-20.22;-5.23;507.9;14.00;75836;2836.642;-1759.655;1;143;-70;-62.9;44.2;44.3;12;12.6;27.0;0.0;
23/02/2025 07:56:29;100;0;140.36;-4;-20.33;-5.21;510.8;14.00;75834;2836.640;-1759.652;1;143;-70;-61.3;44.2;44.3;12;12.6;27.0;0.0;
23/02/2025 07:56:49;100;0;143.28;-4;-20.37;-5.17;513.7;13.90;75827;2836.637;-1759.650;1;143;-70;-61.3;44.2;44.3;12;12.6;27.0;0.0;
23/02/2025 07:57:09;100;0;145.74;-4;-20.09;-5.20;516.6;13.90;75823;2836.635;-1759.647;1;143;-70;-61.3;44.2;44.3;14;14.0;27.0;0.0;
23/02/2025 07:57:29;100;0;148.08;-4;-20.46;-4.24;519.4;13.90;75815;2836.633;-1759.645;1;143;-70;-61.3;44.2;44.3;14;14.9;27.0;0.0;
23/02/2025 07:57:49;100;0;149.92;-4;-20.32;-4.23;522.2;13.90;75820;2836.631;-1759.643;1;143;-70;-61.3;44.2;44.3;14;14.4;27.0;0.0;
23/02/2025 07:58:09;100;0;151.01;-4;-20.34;-4.23;525.0;13.80;75810;2836.628;-1759.641;1;143;-70;-61.3;44.2;44.3;14;14.4;27.0;0.0;
23/02/2025 07:58:29;100;0;151.42;-4;-20.29;-4.26;527.6;13.80;75800;2836.626;-1759.639;1;143;-70;-61.3;44.2;44.3;14;14.4;27.0;0.0;
23/02/2025 07:58:49;100;0;152.02;-4;-20.13;-4.34;530.2;13.80;75803;2836.624;-1759.638;1;143;-70;-61.3;44.2;44.3;14;14.4;27.0;0.0;
23/02/2025 07:59:09;100;0;154.37;-4;-20.39;-4.35;532.9;13.80;75801;2836.622;-1759.636;1;143;-70;-61.3;44.2;44.3;14;14.4;27.0;0.0;
23/02/2025 07:59:29;100;0;153.78;-4;-20.39;-4.33;535.4;13.80;75792;2836.620;-1759.634;1;143;-70;-61.3;44.2;44.3;14;14.4;27.0;0.0;
23/02/2025 07:59:49;100;0;151.55;-4;-20.18;-4.30;537.9;13.70;75796;2836.618;-1759.633;1;143;-70;-59.7;44.2;44.5;14;14.4;27.0;0.0;
23/02/2025 08:00:09;100;0;151.61;-4;-20.42;-4.30;540.5;13.70;75786;2836.615;-1759.631;1;143;-70;-61.3;44.2;44.5;14;14.4;27.0;0.0;
23/02/2025 08:00:29;100;0;151.16;-4;-20.51;-4.25;543.0;13.70;75781;2836.614;-1759.629;1;143;-70;-62.9;44.2;44.3;14;14.4;27.0;0.0;
23/02/2025 08:00:49;100;0;149.89;-4;-20.45;-4.30;545.5;13.70;75777;2836.612;-1759.627;1;143;-70;-62.9;44.2;44.5;14;14.4;27.0;0.0;
23/02/2025 08:01:09;100;0;146.92;-4;-20.55;-4.31;548.0;13.70;75780;2836.610;-1759.625;1;143;-70;-61.3;44.2;44.3;14;14.4;27.0;0.0;
23/02/2025 08:01:29;100;0;144.90;-4;-20.34;-4.36;550.5;13.60;75784;2836.608;-1759.623;1;143;-70;-61.3;44.2;44.3;14;14.4;27.0;0.0;
23/02/2025 08:01:49;100;0;142.21;-4;-20.18;-4.28;552.9;13.60;75780;2836.606;-1759.621;1;143;-70;-61.3;44.2;44.3;11;10.8;27.0;0.0;
23/02/2025 08:02:09;100;0;140.16;-4;-20.28;-6.19;555.3;13.60;75778;2836.605;-1759.619;1;143;-70;-61.3;44.2;44.5;9;9.0;27.0;0.0;
23/02/2025 08:02:29;100;0;141.18;-4;-19.88;-7.17;557.7;13.60;75770;2836.603;-1759.617;1;143;-70;-61.3;44.2;44.3;9;9.0;27.0;0.0;
23/02/2025 08:02:49;100;0;144.05;-4;-19.89;-7.20;560.0;13.60;75768;2836.602;-1759.615;1;143;-70;-61.3;44.2;44.3;12;12.6;27.0;0.0;
23/02/2025 08:03:09;100;0;147.20;-4;-20.00;-5.19;562.3;13.50;75753;2836.600;-1759.613;1;143;-70;-61.3;44.2;44.3;14;14.0;27.0;0.0;
23/02/2025 08:03:29;100;0;151.92;-4;-20.17;-4.50;564.5;13.50;75755;2836.598;-1759.612;1;143;-70;-61.3;44.2;44.5;14;14.0;27.0;0.0;
23/02/2025 08:03:49;100;0;155.85;-4;-19.98;-4.54;566.8;13.50;75742;2836.596;-1759.610;1;143;-70;-61.3;44.2;44.5;14;14.0;27.0;0.0;
23/02/2025 08:04:09;100;0;158.40;-4;-20.07;-4.53;568.9;13.50;75747;2836.595;-1759.609;1;143;-70;-59.7;44.2;44.3;14;14.4;27.0;0.0;
23/02/2025 08:04:29;100;0;157.08;-4;-20.00;-4.62;571.1;13.40;75736;2836.593;-1759.608;1;143;-70;-59.7;44.2;44.3;14;14.0;27.0;0.0;
23/02/2025 08:04:49;100;0;158.79;-4;-20.14;-4.60;573.1;13.40;75735;2836.591;-1759.607;1;143;-70;-61.3;44.2;44.5;14;14.0;27.0;0.0;
23/02/2025 08:05:09;100;0;158.60;-4;-20.27;-4.55;575.3;13.40;75720;2836.589;-1759.606;1;143;-70;-61.3;44.2;44.3;14;14.0;27.0;0.0;
23/02/2025 08:05:29;100;0;157.72;-4;-20.27;-4.62;577.4;13.40;75718;2836.588;-1759.605;1;143;-70;-61.3;44.2;44.5;14;14.0;27.0;0.0;
23/02/2025 08:05:49;100;0;155.39;-4;-20.15;-4.57;579.6;13.30;75722;2836.586;-1759.603;1;143;-70;-61.3;44.2;44.3;14;14.0;27.0;0.0;
23/02/2025 08:06:09;100;0;150.08;-4;-20.32;-4.70;581.7;13.30;75712;2836.584;-1759.602;1;143;-70;-61.3;44.2;44.3;14;14.0;27.0;0.0;
23/02/2025 08:06:29;100;0;148.05;-4;-19.98;-4.59;583.9;13.30;75704;2836.583;-1759.600;1;143;-70;-61.3;44.2;44.5;14;14.0;27.0;0.0;
23/02/2025 08:06:49;100;0;146.81;-4;-20.08;-4.57;586.1;13.30;75703;2836.581;-1759.599;1;143;-70;-61.3;44.2;44.3;14;14.0;27.0;0.0;
23/02/2025 08:07:09;100;0;145.77;-4;-20.13;-4.60;588.1;13.30;75695;2836.580;-1759.597;1;143;-70;-61.3;44.2;44.5;14;14.0;27.0;0.0;
23/02/2025 08:07:29;100;0;143.75;-4;-20.11;-4.59;590.4;13.20;75692;2836.578;-1759.595;1;143;-70;-61.3;44.2;44.5;12;12.2;27.0;0.0;
23/02/2025 08:07:49;100;0;143.01;-4;-20.13;-5.64;592.5;13.20;75692;2836.577;-1759.593;1;143;-70;-61.3;44.2;44.3;12;12.2;27.0;0.0;
23/02/2025 08:08:09;100;0;142.91;-4;-20.07;-5.65;594.7;13.20;75680;2836.576;-1759.591;1;143;-70;-61.3;44.2;44.3;12;12.2;27.0;0.0;
23/02/2025 08:08:29;100;0;142.97;-4;-20.07;-5.65;596.9;13.20;75686;2836.574;-1759.589;1;143;-70;-61.3;44.2;44.3;12;12.2;27.0;0.0;
23/02/2025 08:08:49;100;0;142.73;-4;-20.00;-5.66;599.2;13.20;75676;2836.573;-1759.587;1;143;-70;-61.3;44.2;44.3;12;12.2;27.0;0.0;
23/02/2025 08:09:09;100;0;143.08;-4;-19.99;-5.67;601.5;13.10;75687;2836.571;-1759.585;1;143;-70;-61.3;44.2;44.5;12;12.2;27.0;0.0;
23/02/2025 08:09:29;100;0;144.80;-4;-19.96;-5.64;603.8;13.10;75680;2836.569;-1759.583;1;143;-70;-61.3;44.2;44.3;12;12.2;27.0;0.0;
23/02/2025 08:09:49;100;0;146.25;-4;-19.92;-5.69;606.1;13.10;75681;2836.568;-1759.582;1;143;-70;-61.3;44.2;44.3;12;12.2;27.0;0.0;
23/02/2025 08:10:09;100;0;146.05;-4;-19.92;-5.68;608.5;13.10;75675;2836.566;-1759.580;1;143;-70;-62.9;44.2;44.5;12;11.7;27.0;0.0;
23/02/2025 08:10:29;100;0;147.18;-4;-20.35;-5.88;610.8;13.10;75670;2836.564;-1759.578;1;143;-70;-59.7;44.2;44.3;12;12.2;27.0;0.0;
23/02/2025 08:10:49;100;0;149.90;-4;-20.04;-5.56;613.2;13.00;75662;2836.563;-1759.576;1;143;-70;-61.3;44.2;44.5;14;14.0;27.0;0.0;
23/02/2025 08:11:09;100;0;150.23;-4;-20.24;-4.38;615.6;13.00;75652;2836.561;-1759.575;1;143;-70;-61.3;44.2;44.5;14;14.4;27.0;0.0;
23/02/2025 08:11:29;100;0;151.82;-4;-20.38;-4.42;618.0;13.00;75655;2836.559;-1759.573;1;143;-70;-61.3;44.2;44.3;14;14.4;27.0;0.0;
23/02/2025 08:11:49;100;0;152.28;-4;-20.23;-4.42;620.5;13.00;75641;2836.557;-1759.571;1;143;-70;-61.3;44.2;44.5;14;14.4;27.0;0.0;
23/02/2025 08:12:09;100;0;152.62;-4;-20.25;-4.36;622.9;13.00;75644;2836.555;-1759.570;1;143;-70;-61.3;44.2;44.5;14;14.4;27.0;0.0;
23/02/2025 08:12:29;100;0;155.15;-4;-20.15;-4.38;625.3;12.90;75632;2836.553;-1759.568;1;143;-70;-61.3;44.2;44.5;14;14.4;27.0;0.0;
23/02/2025 08:12:49;100;0;156.99;-4;-19.99;-4.39;627.6;12.90;75627;2836.551;-1759.567;1;143;-70;-61.3;44.2;44.5;14;14.4;27.0;0.0;
23/02/2025 08:13:09;100;0;160.03;-4;-19.98;-4.40;629.9;12.90;75634;2836.549;-1759.566;1;143;-70;-61.3;44.2;44.5;16;15.8;27.0;0.0;
23/02/2025 08:13:29;100;0;163.97;-4;-20.29;-3.51;632.2;12.90;75616;2836.547;-1759.565;1;143;-70;-64.5;44.2;44.5;19;19.0;27.0;0.0;
23/02/2025 08:13:49;100;0;164.38;-4;-20.08;-1.81;634.5;12.90;75613;2836.545;-1759.564;1;143;-70;-59.7;44.2;44.5;19;19.9;27.0;0.0;
23/02/2025 08:14:09;100;0;164.84;-4;-20.47;-1.90;636.7;12.80;75615;2836.543;-1759.563;1;143;-70;-61.3;44.2;44.5;19;19.4;27.0;0.0;
23/02/2025 08:14:29;100;0;166.50;-4;-20.26;-1.83;639.0;12.80;75612;2836.541;-1759.562;1;143;-70;-64.5;44.2;44.5;22;22.1;27.0;0.0;
23/02/2025 08:14:49;100;0;167.98;-4;-20.36;-0.35;641.3;12.80;75603;2836.539;-1759.562;1;143;-70;-61.3;44.2;44.5;24;23.9;27.0;0.0;
23/02/2025 08:15:09;100;0;166.79;-4;-20.63;0.68;643.6;12.80;75603;2836.537;-1759.561;1;143;-70;-61.3;44.2;44.3;21;21.2;27.0;0.0;
23/02/2025 08:15:29;100;0;166.34;-4;-20.73;-1.39;645.9;12.80;75590;2836.535;-1759.560;1;143;-70;-61.3;44.2;44.5;21;20.8;27.0;0.0;
23/02/2025 08:15:49;100;0;167.91;-4;-20.25;-1.31;648.1;12.70;75594;2836.533;-1759.560;1;143;-70;-62.9;44.2;44.3;24;24.4;27.0;0.0;
23/02/2025 08:16:09;100;0;169.44;-4;-20.75;0.68;650.5;12.70;75586;2836.531;-1759.559;1;143;-70;-61.3;44.2;44.5;27;27.1;27.0;0.0;
23/02/2025 08:16:29;100;0;165.57;-4;-20.92;1.96;652.9;12.70;75585;2836.529;-1759.558;1;143;-70;-61.3;44.2;44.5;21;21.2;27.0;0.0;
23/02/2025 08:16:49;100;0;160.97;-4;-20.33;-1.05;655.3;12.70;75561;2836.527;-1759.557;1;143;-70;-61.3;44.2;44.5;17;17.1;27.0;0.0;
23/02/2025 08:17:09;100;0;159.93;-4;-20.13;-3.19;657.6;12.70;75551;2836.525;-1759.556;1;143;-70;-61.3;44.2;44.5;17;17.1;27.0;0.0;
23/02/2025 08:17:29;100;0;157.08;-4;-20.39;-3.16;659.9;12.60;75561;2836.523;-1759.555;1;143;-70;-61.3;44.2;44.3;15;14.9;27.0;0.0;
23/02/2025 08:17:49;100;0;155.29;-4;-19.92;-4.17;662.2;12.60;75534;2836.521;-1759.553;1;143;-70;-61.3;44.2;44.5;15;14.9;27.0;0.0;
23/02/2025 08:18:09;100;0;154.89;-4;-19.81;-4.20;664.4;12.60;75541;2836.519;-1759.552;1;143;-70;-61.3;44.2;44.5;15;14.9;26.9;0.0;
23/02/2025 08:18:29;100;0;155.80;-4;-19.86;-4.27;666.7;12.60;75536;2836.517;-1759.551;1;143;-70;-61.3;44.2;44.5;15;14.9;27.0;0.0;
23/02/2025 08:18:49;100;0;156.15;-4;-19.78;-4.32;669.0;12.50;75529;2836.515;-1759.549;1;143;-70;-61.3;44.2;44.5;15;14.9;27.0;0.0;
23/02/2025 08:19:09;100;0;155.75;-4;-19.97;-4.25;671.3;12.50;75532;2836.513;-1759.548;1;143;-70;-61.3;44.2;44.5;15;14.9;27.0;0.0;
23/02/2025 08:19:29;100;0;154.87;-4;-20.10;-4.20;673.6;12.50;75525;2836.512;-1759.547;1;143;-70;-61.3;44.2;44.5;15;14.9;27.0;0.0;
23/02/2025 08:19:49;100;0;154.14;-4;-19.95;-4.29;675.9;12.50;75521;2836.510;-1759.545;1;143;-70;-61.3;44.2;44.5;15;14.9;27.0;0.0;
23/02/2025 08:20:09;100;0;153.48;-4;-19.89;-4.25;678.3;12.50;75512;2836.508;-1759.544;1;143;-70;-62.9;44.2;44.5;15;14.9;27.0;0.0;
23/02/2025 08:20:29;100;0;151.45;-4;-19.84;-4.25;680.7;12.40;75507;2836.506;-1759.542;1;143;-70;-61.3;44.2;44.5;15;14.9;27.0;0.0;
23/02/2025 08:20:49;100;0;151.95;-4;-19.73;-4.20;683.1;12.40;75516;2836.504;-1759.541;1;143;-70;-61.3;44.2;44.5;15;14.9;26.9;0.0;
23/02/2025 08:21:09;100;0;152.78;-4;-19.88;-4.27;685.4;12.40;75501;2836.502;-1759.539;1;143;-70;-59.7;44.2;44.5;15;14.9;27.0;0.0;
23/02/2025 08:21:29;100;0;152.33;-4;-19.52;-4.30;687.8;12.40;75502;2836.500;-1759.537;1;143;-70;-61.3;44.2;44.5;15;14.9;27.0;0.0;
23/02/2025 08:21:49;100;0;152.60;-4;-19.93;-4.25;690.1;12.30;75490;2836.498;-1759.536;1;143;-70;-61.3;44.2;44.5;15;14.9;27.0;0.0;
23/02/2025 08:22:09;100;0;151.61;-4;-19.92;-4.27;692.5;12.30;75501;2836.497;-1759.534;1;143;-70;-64.5;44.2;44.5;15;14.9;27.0;0.0;
23/02/2025 08:22:29;100;0;151.71;-4;-19.65;-4.30;694.9;12.30;75488;2836.495;-1759.533;1;143;-70;-61.3;44.2;44.5;15;14.9;27.0;0.0;
23/02/2025 08:22:49;100;0;151.91;-4;-19.97;-4.10;697.4;12.30;75476;2836.493;-1759.531;1;143;-70;-61.3;44.2;44.3;15;14.9;27.0;0.0;
23/02/2025 08:23:09;100;0;152.29;-4;-19.90;-4.34;699.9;12.30;75488;2836.491;-1759.529;1;143;-70;-61.3;44.2;44.5;15;14.9;27.0;0.0;
23/02/2025 08:23:29;100;0;149.95;-4;-19.52;-4.23;702.3;12.30;75483;2836.489;-1759.528;1;143;-70;-61.3;44.2;44.3;15;14.9;27.0;0.0;
23/02/2025 08:23:49;100;0;149.48;-4;-20.00;-4.29;704.7;12.20;75481;2836.487;-1759.526;1;143;-70;-59.7;44.2;44.5;15;14.9;27.0;0.0;
23/02/2025 08:24:09;100;0;149.96;-4;-19.99;-4.20;707.2;12.20;75474;2836.485;-1759.524;1;143;-70;-59.7;44.2;44.5;15;14.9;27.0;0.0;
23/02/2025 08:24:29;100;0;148.42;-4;-19.91;-4.24;709.7;12.20;75474;2836.483;-1759.522;1;143;-70;-61.3;44.2;44.5;15;14.9;27.0;0.0;
23/02/2025 08:24:49;100;0;147.45;-4;-19.89;-4.21;712.4;12.20;75466;2836.481;-1759.520;1;143;-70;-62.9;44.2;44.5;15;14.9;27.0;0.0;
23/02/2025 08:25:09;100;0;146.84;-4;-19.86;-4.23;715.0;12.20;75464;2836.479;-1759.518;1;143;-70;-61.3;44.2;44.5;15;14.9;27.0;0.0;
23/02/2025 08:25:29;100;0;146.18;-4;-19.78;-4.22;717.5;12.10;75454;2836.477;-1759.516;1;143;-70;-61.3;44.2;44.5;15;14.9;27.0;0.0;
23/02/2025 08:25:49;100;0;144.96;-4;-19.73;-4.28;720.2;12.10;75460;2836.475;-1759.514;1;143;-70;-61.3;44.2;44.5;15;14.9;27.0;0.0;
23/02/2025 08:26:10;100;0;145.09;-4;-19.81;-4.20;722.8;12.10;75464;2836.473;-1759.512;1;143;-70;-59.7;44.2;44.3;15;14.9;26.9;0.0;
23/02/2025 08:26:30;100;0;149.11;-4;-19.72;-4.16;725.3;12.10;75443;2836.471;-1759.510;1;143;-70;-61.3;44.2;44.5;15;14.9;27.0;0.0;
23/02/2025 08:26:50;100;0;152.73;-4;-20.04;-4.19;727.9;12.10;75433;2836.469;-1759.508;1;143;-70;-61.3;44.2;44.3;15;14.9;27.0;0.0;
23/02/2025 08:27:10;100;0;154.24;-4;-19.59;-4.12;730.4;12.10;75436;2836.467;-1759.506;1;143;-70;-61.3;44.2;44.5;15;14.9;27.0;0.0;
23/02/2025 08:27:30;100;0;155.05;-4;-19.57;-4.26;733.0;12.00;75423;2836.465;-1759.505;1;143;-70;-61.3;44.2;44.5;15;14.9;27.0;0.0;
23/02/2025 08:27:50;100;0;156.78;-4;-20.13;-4.10;735.4;12.00;75426;2836.463;-1759.504;1;143;-70;-61.3;44.2;44.5;15;14.9;27.0;0.0;
23/02/2025 08:28:10;100;0;161.49;-4;-19.81;-4.10;737.8;12.00;75417;2836.461;-1759.503;1;143;-70;-59.7;44.2;44.5;17;17.1;27.0;0.0;
23/02/2025 08:28:30;100;0;161.31;-4;-19.64;-3.02;740.2;12.00;75415;2836.458;-1759.501;1;143;-70;-61.3;44.2;44.5;17;17.1;27.0;0.0;
23/02/2025 08:28:50;100;0;159.43;-4;-19.85;-3.03;742.6;11.90;75414;2836.456;-1759.500;1;143;-70;-61.3;44.2;44.5;17;17.1;27.0;0.0;
23/02/2025 08:29:10;100;0;160.60;-4;-19.87;-3.02;744.9;11.90;75418;2836.454;-1759.499;1;143;-70;-61.3;44.2;44.5;17;17.6;27.0;0.0;
23/02/2025 08:29:30;100;0;160.52;-4;-19.85;-3.01;747.3;11.90;75413;2836.452;-1759.498;1;143;-70;-61.3;44.2;44.3;17;17.1;27.0;0.0;
23/02/2025 08:29:50;100;0;160.48;-4;-19.70;-3.10;749.6;11.90;75402;2836.450;-1759.497;1;143;-70;-61.3;44.2;44.5;17;17.6;27.0;0.0;
23/02/2025 08:30:10;100;0;164.15;-4;-20.15;-3.13;752.0;11.90;75406;2836.448;-1759.496;1;143;-70;-59.7;44.2;44.5;20;19.9;27.0;0.0;
23/02/2025 08:30:30;100;0;166.38;-4;-19.42;-1.45;754.4;11.90;75394;2836.446;-1759.495;1;143;-70;-61.3;44.2;44.5;24;23.9;27.0;0.0;
23/02/2025 08:30:50;100;0;164.17;-4;-20.13;0.38;756.6;11.80;75408;2836.444;-1759.494;1;143;-70;-61.3;44.2;44.5;20;19.9;27.0;0.0;
23/02/2025 08:31:10;100;0;162.05;-4;-20.60;-1.88;759.0;11.80;75393;2836.442;-1759.493;1;143;-70;-61.3;44.2;44.5;18;18.1;27.0;0.0;
23/02/2025 08:31:30;100;0;164.18;-4;-19.78;-2.90;761.2;11.80;75403;2836.440;-1759.492;1;143;-70;-61.3;44.2;44.5;20;19.9;27.0;0.0;
23/02/2025 08:31:50;100;0;165.38;-4;-19.82;-1.63;763.5;11.80;75384;2836.438;-1759.492;1;143;-70;-62.9;44.2;44.5;20;19.9;27.0;0.0;
23/02/2025 08:32:10;100;0;167.82;-4;-19.98;-1.60;765.8;11.80;75382;2836.436;-1759.491;1;143;-70;-64.5;44.2;44.5;25;24.8;27.0;0.0;
23/02/2025 08:32:30;100;0;167.22;-4;-20.14;0.89;768.0;11.80;75382;2836.434;-1759.490;1;143;-70;-61.3;44.2;44.5;25;25.3;27.0;0.0;
23/02/2025 08:32:50;100;0;165.82;-4;-20.41;0.92;770.3;11.70;75373;2836.432;-1759.489;1;143;-70;-61.3;44.2;44.3;22;22.1;27.0;0.0;
23/02/2025 08:33:10;100;0;167.80;-4;-20.24;-0.71;772.6;11.70;75384;2836.430;-1759.489;1;143;-70;-59.7;44.2;44.5;25;24.8;27.0;0.0;
23/02/2025 08:33:30;100;0;162.98;-4;-20.55;0.88;774.9;11.70;75381;2836.428;-1759.488;1;143;-70;-64.5;44.2;44.3;19;19.0;27.0;0.0;
23/02/2025 08:33:50;100;0;162.56;-4;-19.97;-2.15;777.3;11.70;75367;2836.426;-1759.487;1;143;-70;-61.3;44.2;44.5;19;19.0;27.0;0.0;
23/02/2025 08:34:10;100;0;163.69;-4;-19.98;-2.20;779.5;11.70;75360;2836.424;-1759.486;1;143;-70;-62.9;44.2;44.5;19;19.0;27.0;0.0;
23/02/2025 08:34:30;100;0;161.75;-4;-20.06;-2.31;781.8;11.70;75355;2836.422;-1759.485;1;143;-70;-59.7;44.2;44.5;19;19.0;27.0;0.0;
23/02/2025 08:34:50;100;0;161.69;-4;-19.09;-2.37;784.1;11.60;75345;2836.420;-1759.484;1;143;-70;-61.3;44.2;44.5;17;17.1;27.0;0.0;
23/02/2025 08:35:10;100;0;162.81;-4;-19.56;-3.28;786.1;11.60;75351;2836.418;-1759.483;1;143;-70;-61.3;44.2;44.5;19;19.0;27.0;0.0;
23/02/2025 08:35:30;100;0;160.65;-4;-19.93;-2.01;788.2;11.60;75344;2836.416;-1759.482;1;143;-70;-61.3;44.2;44.5;17;17.1;27.0;0.0;
23/02/2025 08:35:50;100;0;159.32;-4;-19.70;-3.51;790.3;11.60;75340;2836.415;-1759.481;1;143;-70;-61.3;44.2;44.3;17;16.7;27.0;0.0;
23/02/2025 08:36:10;100;0;160.64;-4;-19.32;-3.33;792.4;11.60;75346;2836.413;-1759.480;1;143;-70;-61.3;44.2;44.3;17;16.7;27.0;0.0;
23/02/2025 08:36:30;100;0;161.97;-4;-19.52;-3.29;794.4;11.50;75335;2836.411;-1759.479;1;143;-70;-61.3;44.2;44.5;17;16.7;27.0;0.0;
23/02/2025 08:36:50;100;0;158.78;-4;-19.71;-3.64;796.4;11.50;75334;2836.409;-1759.478;1;143;-70;-61.3;44.2;44.5;17;16.7;27.0;0.0;
23/02/2025 08:37:10;100;0;156.76;-4;-19.29;-3.37;798.5;11.50;75327;2836.408;-1759.477;1;143;-70;-59.7;44.2;44.3;17;16.7;26.9;0.0;
23/02/2025 08:37:30;100;0;155.57;-4;-19.29;-3.47;800.4;11.50;75337;2836.406;-1759.476;1;143;-90;-91.9;44.2;44.5;15;14.4;27.0;0.0;
23/02/2025 08:37:50;100;0;154.30;-4;-18.90;-4.24;802.4;11.50;75398;2836.405;-1759.474;1;143;-90;-91.9;44.5;44.5;15;14.9;27.0;0.0;
23/02/2025 08:38:10;100;0;151.70;-4;-19.29;-4.19;804.6;11.50;75391;2836.403;-1759.473;1;143;-90;-93.5;44.5;44.6;15;14.4;26.9;0.0;
23/02/2025 08:38:30;100;0;149.25;-4;-19.43;-4.20;807.0;11.40;75386;2836.401;-1759.471;1;143;-90;-93.5;44.5;44.6;15;14.9;27.0;0.0;
23/02/2025 08:38:50;100;0;146.14;-4;-19.19;-4.23;809.3;11.40;75386;2836.399;-1759.469;1;143;-90;-93.5;44.5;44.5;15;14.4;27.0;0.0;
23/02/2025 08:39:10;100;0;146.53;-4;-19.17;-4.22;811.8;11.40;75382;2836.397;-1759.467;1;143;-90;-96.8;44.5;44.6;15;14.4;27.0;0.0;
23/02/2025 08:39:30;100;0;146.51;-4;-19.21;-4.08;814.2;11.40;75375;2836.395;-1759.465;1;143;-90;-96.8;44.5;44.5;15;14.4;27.0;0.0;
23/02/2025 08:39:50;100;0;145.75;-4;-19.18;-4.23;816.5;11.40;75370;2836.394;-1759.463;1;143;-90;-96.8;44.5;44.5;15;14.9;27.0;0.0;
23/02/2025 08:40:10;100;0;145.86;-4;-18.59;-4.25;819.0;11.30;75358;2836.392;-1759.461;1;143;-90;-96.8;44.9;44.9;15;14.9;27.0;0.0;
23/02/2025 08:40:30;100;0;145.13;-4;-20.38;-4.23;821.4;11.30;75361;2836.390;-1759.459;1;143;-90;-96.8;44.9;45.2;15;14.9;27.0;0.0;
23/02/2025 08:40:50;100;0;144.17;-4;-19.77;-4.40;823.9;11.30;75360;2836.388;-1759.457;1;143;-90;-96.8;44.9;45.1;15;14.9;27.0;0.0;
23/02/2025 08:41:10;100;0;142.43;-4;-20.51;-4.24;826.3;11.30;75363;2836.387;-1759.455;1;143;-90;-96.8;44.9;45.1;12;11.7;27.0;0.0;
23/02/2025 08:41:30;100;0;143.62;-4;-20.36;-5.67;828.7;11.30;75352;2836.385;-1759.453;1;143;-90;-95.2;44.9;45.2;12;11.7;27.0;0.0;
23/02/2025 08:41:50;100;0;144.65;-4;-20.15;-5.68;831.2;11.30;75353;2836.383;-1759.451;1;143;-90;-96.8;44.9;45.1;14;14.0;27.0;0.0;
23/02/2025 08:42:10;100;0;143.51;-4;-20.44;-4.54;833.8;11.20;75343;2836.381;-1759.449;1;143;-90;-96.8;44.9;45.2;14;14.0;27.0;0.0;
23/02/2025 08:42:30;100;0;142.65;-4;-20.35;-4.59;836.3;11.20;75345;2836.380;-1759.447;1;143;-90;-96.8;44.9;45.2;14;14.0;27.0;0.0;
23/02/2025 08:42:50;100;0;141.18;-4;-20.41;-4.57;838.9;11.20;75342;2836.378;-1759.444;1;143;-90;-96.8;44.9;45.2;12;12.2;27.0;0.0;
23/02/2025 08:43:10;100;0;142.93;-4;-20.20;-5.58;841.5;11.20;75338;2836.376;-1759.442;1;143;-90;-96.8;44.9;45.2;12;12.2;27.0;0.0;
23/02/2025 08:43:30;100;0;145.49;-4;-20.22;-5.54;844.0;11.20;75314;2836.374;-1759.440;1;143;-90;-96.8;44.9;45.2;15;14.9;27.0;0.0;
23/02/2025 08:43:50;100;0;146.07;-4;-20.32;-3.91;846.7;11.10;75326;2836.372;-1759.438;1;143;-90;-96.8;44.9;45.1;15;15.3;27.0;0.0;
23/02/2025 08:44:10;100;0;147.37;-4;-20.48;-3.74;849.3;11.10;75319;2836.370;-1759.436;1;143;-90;-100.0;44.9;45.2;15;15.3;27.0;0.0;
23/02/2025 08:44:30;100;0;148.58;-4;-20.53;-3.70;851.9;11.10;75317;2836.368;-1759.434;1;143;-90;-96.8;44.9;45.2;15;15.3;27.0;0.0;
23/02/2025 08:44:50;100;0;151.95;-4;-20.25;-3.91;854.5;11.10;75309;2836.366;-1759.432;1;143;-90;-96.8;44.9;45.1;15;15.3;27.0;0.0;
23/02/2025 08:45:10;100;0;156.02;-4;-19.97;-3.86;856.9;11.10;75310;2836.364;-1759.431;1;143;-90;-96.8;44.9;45.1;15;15.3;27.0;0.0;
23/02/2025 08:45:30;100;0;157.00;-4;-20.21;-3.93;859.4;11.00;75297;2836.362;-1759.429;1;143;-90;-98.4;44.9;45.2;15;15.3;27.0;0.0;
23/02/2025 08:45:50;100;0;158.03;-4;-20.53;-3.86;861.8;11.00;75290;2836.360;-1759.428;1;143;-90;-96.8;44.9;45.2;15;15.3;27.0;0.0;
23/02/2025 08:46:10;100;0;158.61;-4;-20.29;-3.80;864.3;11.00;75287;2836.358;-1759.427;1;143;-90;-96.8;44.9;45.2;15;15.3;26.9;0.0;
23/02/2025 08:46:30;100;0;157.88;-4;-20.43;-3.97;866.8;11.00;75290;2836.356;-1759.425;1;143;-90;-98.4;44.9;45.2;15;15.3;27.0;0.0;
23/02/2025 08:46:50;100;0;157.07;-4;-20.34;-3.88;869.1;11.00;75282;2836.354;-1759.424;1;143;-90;-96.8;44.9;45.2;15;15.3;26.9;0.0;
23/02/2025 08:47:10;100;0;156.38;-4;-20.52;-3.87;871.7;10.90;75280;2836.351;-1759.423;1;143;-90;-96.8;44.9;45.2;15;15.3;27.0;0.0;
23/02/2025 08:47:30;100;0;153.24;-4;-20.36;-3.89;874.0;10.90;75261;2836.350;-1759.421;1;143;-90;-96.8;44.9;45.2;15;15.3;27.0;0.0;
23/02/2025 08:47:50;100;0;151.79;-4;-20.15;-3.99;876.3;10.90;75280;2836.348;-1759.420;1;143;-90;-96.8;44.9;45.2;15;15.3;27.0;0.0;
23/02/2025 08:48:10;100;0;150.78;-4;-20.54;-3.81;878.6;10.90;75259;2836.346;-1759.418;1;143;-90;-98.4;44.9;45.2;15;15.3;27.0;0.0;
23/02/2025 08:48:30;100;0;150.96;-4;-20.10;-3.98;880.9;10.90;75257;2836.344;-1759.417;1;143;-90;-96.8;44.9;45.2;15;15.3;27.0;0.0;
23/02/2025 08:48:50;100;0;151.39;-4;-20.27;-3.91;883.3;10.90;75247;2836.343;-1759.415;1;143;-90;-96.8;44.9;45.2;15;15.3;27.0;0.0;
23/02/2025 08:49:10;100;0;152.52;-4;-20.57;-3.89;885.5;10.80;75249;2836.341;-1759.413;1;143;-90;-96.8;44.9;45.2;15;15.3;26.9;0.0;
23/02/2025 08:49:30;100;0;154.21;-4;-20.43;-3.85;888.0;10.80;75243;2836.339;-1759.412;1;143;-90;-98.4;44.9;45.2;15;15.3;27.0;0.0;
23/02/2025 08:49:50;100;0;154.85;-4;-20.50;-3.86;890.4;10.80;75233;2836.337;-1759.411;1;143;-90;-96.8;44.9;45.2;15;15.3;27.0;0.0;
23/02/2025 08:50:10;100;0;153.97;-4;-20.28;-3.93;892.9;10.80;75240;2836.335;-1759.409;1;143;-90;-96.8;44.9;45.2;15;15.3;27.0;0.0;
23/02/2025 08:50:30;100;0;153.32;-4;-20.10;-3.88;895.2;10.80;75230;2836.333;-1759.407;1;143;-90;-96.8;44.9;45.2;15;15.3;27.0;0.0;
23/02/2025 08:50:50;100;0;150.80;-4;-20.06;-3.96;897.6;10.70;75225;2836.331;-1759.406;1;143;-90;-96.8;44.9;45.2;15;15.3;27.0;0.0;
23/02/2025 08:51:10;100;0;147.98;-4;-19.84;-3.96;900.0;10.70;75205;2836.329;-1759.404;1;143;-90;-96.8;44.9;45.2;15;15.3;27.0;0.0;
23/02/2025 08:51:30;100;0;147.85;-4;-19.81;-3.84;902.2;10.70;75208;2836.328;-1759.402;1;143;-90;-96.8;44.9;45.2;15;15.3;27.0;0.0;
23/02/2025 08:51:50;100;0;148.51;-4;-20.53;-3.84;904.6;10.70;75188;2836.326;-1759.401;1;143;-90;-96.8;44.9;45.2;15;15.3;27.0;0.0;
23/02/2025 08:52:10;100;0;150.56;-4;-20.47;-3.99;906.9;10.60;75189;2836.324;-1759.399;1;143;-90;-96.8;44.9;45.2;15;15.3;27.0;0.0;
23/02/2025 08:52:30;100;0;150.20;-4;-19.93;-3.75;909.3;10.60;75193;2836.322;-1759.397;1;143;-90;-96.8;44.9;45.2;15;15.3;27.0;0.0;
23/02/2025 08:52:50;100;0;149.30;-4;-20.06;-3.81;911.7;10.60;75183;2836.320;-1759.395;1;143;-90;-96.8;44.9;45.2;15;15.3;27.0;0.0;
23/02/2025 08:53:10;100;0;148.39;-4;-20.20;-3.83;914.1;10.60;75194;2836.319;-1759.394;1;143;-90;-96.8;44.9;45.2;15;15.3;27.0;0.0;
23/02/2025 08:53:30;100;0;148.73;-4;-20.17;-3.87;916.5;10.60;75176;2836.317;-1759.392;1;143;-90;-96.8;44.9;45.2;15;15.3;27.0;0.0;
23/02/2025 08:53:50;100;0;146.75;-4;-20.14;-3.88;918.8;10.60;75174;2836.315;-1759.390;1;143;-90;-96.8;44.9;45.2;15;15.3;27.0;0.0;
23/02/2025 08:54:10;100;0;145.73;-4;-19.94;-4.02;921.3;10.50;75165;2836.313;-1759.388;1;143;-90;-96.8;44.9;45.2;15;15.3;26.9;0.0;
23/02/2025 08:54:30;100;0;145.48;-4;-20.18;-3.85;923.7;10.50;75166;2836.312;-1759.386;1;143;-90;-96.8;44.9;45.2;15;15.3;27.0;0.0;
23/02/2025 08:54:50;100;0;144.05;-4;-20.10;-3.92;926.2;10.50;75162;2836.310;-1759.384;1;143;-90;-96.8;44.9;45.2;15;15.3;27.0;0.0;
23/02/2025 08:55:10;100;0;144.13;-4;-19.98;-3.90;928.7;10.50;75155;2836.308;-1759.382;1;143;-90;-96.8;44.9;45.2;15;15.3;27.0;0.0;
23/02/2025 08:55:30;100;0;143.28;-4;-20.27;-3.91;931.2;10.50;75162;2836.306;-1759.380;1;143;-90;-96.8;44.9;45.2;13;13.1;27.0;0.0;
23/02/2025 08:55:50;100;0;143.31;-4;-19.96;-5.01;933.9;10.40;75164;2836.304;-1759.377;1;143;-90;-98.4;44.9;45.2;13;12.6;27.0;0.0;
23/02/2025 08:56:10;100;0;143.05;-4;-19.58;-5.23;936.4;10.40;75149;2836.302;-1759.375;1;143;-90;-96.8;44.9;45.2;13;12.6;27.0;0.0;
23/02/2025 08:56:30;100;0;144.29;-4;-19.56;-5.14;938.8;10.40;75140;2836.301;-1759.373;1;143;-90;-96.8;44.9;45.2;13;12.6;27.0;0.0;
23/02/2025 08:56:50;100;0;145.09;-4;-19.95;-5.13;941.1;10.40;75143;2836.299;-1759.371;1;143;-90;-96.8;44.9;45.2;13;12.6;27.0;0.0;
23/02/2025 08:57:10;100;0;145.78;-4;-19.95;-5.16;943.4;10.40;75149;2836.297;-1759.369;1;143;-90;-96.8;44.9;45.4;13;13.1;27.0;0.0;
23/02/2025 08:57:30;100;0;145.16;-4;-20.12;-5.19;945.9;10.30;75139;2836.296;-1759.367;1;143;-90;-96.8;44.9;45.2;13;12.6;27.0;0.0;
23/02/2025 08:57:50;100;0;145.74;-4;-19.72;-5.28;948.3;10.30;75140;2836.294;-1759.365;1;143;-90;-98.4;44.9;45.2;13;12.6;27.0;0.0;
23/02/2025 08:58:10;100;0;146.99;-4;-19.91;-5.20;950.8;10.30;75144;2836.292;-1759.364;1;143;-90;-98.4;44.9;45.2;13;12.6;27.0;0.0;
23/02/2025 08:58:30;100;0;147.30;-4;-20.14;-5.15;953.3;10.30;75128;2836.290;-1759.362;1;143;-90;-96.8;44.9;45.2;13;13.1;27.0;0.0;
23/02/2025 08:58:50;100;0;148.73;-4;-20.10;-5.18;955.9;10.30;75143;2836.288;-1759.360;1;143;-90;-96.8;44.9;45.2;15;14.9;27.0;0.0;
23/02/2025 08:59:10;100;0;149.61;-4;-20.10;-3.84;958.4;10.20;75130;2836.286;-1759.358;1;143;-90;-96.8;44.9;45.2;15;15.3;27.0;0.0;
23/02/2025 08:59:30;100;0;149.08;-4;-20.21;-3.80;961.1;10.20;75134;2836.284;-1759.356;1;143;-90;-96.8;44.9;45.2;15;15.3;27.0;0.0;
23/02/2025 08:59:50;100;0;147.75;-4;-20.04;-3.67;964.0;10.20;75126;2836.282;-1759.354;1;143;-90;-96.8;44.9;45.2;15;15.3;27.0;0.0;
23/02/2025 09:00:10;100;0;146.81;-4;-19.93;-3.83;966.6;10.20;75121;2836.280;-1759.352;1;143;-90;-96.8;44.9;45.2;15;15.3;27.0;0.0;
23/02/2025 09:00:30;100;0;146.94;-4;-19.68;-3.90;969.2;10.20;75114;2836.278;-1759.349;1;143;-90;-96.8;44.9;45.2;15;15.3;27.0;0.0;
23/02/2025 09:00:51;100;0;145.35;-4;-20.17;-3.87;971.9;10.20;75119;2836.276;-1759.347;1;143;-90;-95.2;44.9;45.2;15;15.3;26.9;0.0;
23/02/2025 09:01:11;100;0;144.20;-4;-20.46;-3.80;974.6;10.20;75115;2836.274;-1759.345;1;143;-90;-98.4;44.9;45.2;13;13.1;27.0;0.0;
23/02/2025 09:01:31;100;0;143.46;-4;-20.31;-5.12;977.5;10.10;75103;2836.271;-1759.343;1;143;-90;-96.8;44.9;45.2;13;13.1;27.0;0.0;
23/02/2025 09:01:51;100;0;142.75;-4;-19.99;-5.12;980.5;10.10;75101;2836.269;-1759.340;1;143;-90;-98.4;44.9;45.2;13;13.1;27.0;0.0;
23/02/2025 09:02:11;100;0;143.19;-4;-19.60;-5.13;983.6;10.10;75115;2836.267;-1759.337;1;143;-90;-96.8;44.9;45.2;13;13.1;27.0;0.0;
23/02/2025 09:02:31;100;0;143.91;-4;-19.54;-5.16;986.5;10.10;75116;2836.265;-1759.335;1;143;-90;-96.8;44.9;45.2;13;13.1;27.0;0.0;
23/02/2025 09:02:51;100;0;145.30;-4;-19.70;-5.17;989.5;10.10;75103;2836.262;-1759.332;1;143;-90;-96.8;44.9;45.2;13;13.1;27.0;0.0;
23/02/2025 09:03:11;100;0;145.05;-4;-19.63;-5.11;992.3;10.10;75098;2836.260;-1759.330;1;143;-90;-96.8;44.9;45.2;13;13.1;27.0;0.0;
23/02/2025 09:03:31;100;0;146.73;-4;-19.69;-5.09;995.2;10.00;75097;2836.258;-1759.328;1;143;-90;-98.4;44.9;45.2;13;13.1;27.0;0.0;
23/02/2025 09:03:51;100;0;147.54;-4;-19.71;-5.01;997.9;10.00;75097;2836.256;-1759.326;1;143;-90;-100.0;44.9;45.2;13;13.1;27.0;0.0;
23/02/2025 09:03:58;118;0;148.34;-4;-19.31;-5.10;998.9;10.00;75092;2836.255;-1759.325;1;143;270;-93.5;26.0;26.1;7;6.8;27.0;0.0;
23/02/2025 09:04:08;118;0;120.13;-4;-6.59;-9.11;999.9;10.00;75075;2836.254;-1759.323;1;143;270;32.3;26.0;25.9;7;6.8;25.6;-1.0;
23/02/2025 09:04:18;118;0;103.96;-4;15.67;-8.89;1000.0;10.00;74823;2836.255;-1759.323;1;143;270;156.5;26.0;25.6;7;6.8;25.6;-1.0;
23/02/2025 09:04:28;118;0;101.16;-4;22.12;-9.40;999.6;10.00;74562;2836.255;-1759.322;1;143;270;272.6;26.0;26.1;7;6.8;25.3;-1.0;
23/02/2025 09:04:38;118;0;149.56;-4;20.27;-8.19;998.6;10.00;74339;2836.254;-1759.322;1;143;270;274.2;26.0;26.2;7;6.8;26.9;-1.0;
23/02/2025 09:04:48;118;0;145.48;-4;18.96;-8.66;997.6;10.00;74345;2836.254;-1759.321;1;143;270;272.6;26.0;26.2;7;6.8;26.9;-1.0;
23/02/2025 09:05:08;117;0;140.64;-4;17.93;-8.57;995.8;10.10;74351;2836.252;-1759.319;1;143;270;272.6;26.0;26.2;7;6.3;26.9;-1.0;
23/02/2025 09:05:28;117;0;135.74;-4;18.06;-8.67;993.7;10.10;74345;2836.251;-1759.317;1;143;270;272.6;25.4;25.2;41;41.1;26.9;-1.0;
23/02/2025 09:05:48;117;0;138.28;-4;21.67;9.28;991.5;10.10;74333;2836.250;-1759.315;1;143;270;272.6;25.4;24.9;37;32.5;26.9;-1.0;
23/02/2025 09:06:08;117;0;140.98;-4;22.58;7.58;989.0;10.10;74355;2836.249;-1759.313;1;143;270;271.0;26.2;26.2;33;32.9;26.9;-1.0;
23/02/2025 09:06:28;117;0;142.01;-4;20.49;5.17;986.7;10.10;74342;2836.247;-1759.311;1;143;270;272.6;26.2;26.4;33;32.9;27.0;-1.0;
23/02/2025 09:06:48;117;0;143.01;-4;20.80;5.41;984.4;10.10;74331;2836.246;-1759.309;1;143;270;272.6;26.2;26.4;31;31.1;27.0;-1.0;
23/02/2025 09:07:08;117;0;142.25;-4;19.78;4.16;982.2;10.10;74334;2836.244;-1759.307;1;143;270;272.6;26.2;26.4;31;31.1;27.0;-1.0;
23/02/2025 09:07:28;117;0;141.84;-4;19.58;4.20;980.2;10.10;74332;2836.243;-1759.305;1;143;270;271.0;26.2;26.4;33;32.9;27.0;-1.0;
23/02/2025 09:07:48;117;0;144.27;-4;19.89;5.75;978.1;10.00;74324;2836.242;-1759.303;1;143;270;272.6;26.2;26.4;31;31.1;27.0;-1.0;
23/02/2025 09:08:08;117;0;147.99;-4;19.97;4.00;976.1;10.00;74322;2836.240;-1759.302;1;143;270;272.6;26.2;26.4;29;28.9;27.0;-1.0;
23/02/2025 09:08:28;117;0;148.40;-4;19.50;3.01;974.2;10.00;74328;2836.239;-1759.300;1;143;290;293.5;26.2;26.4;29;28.9;26.9;-1.0;
23/02/2025 09:08:48;117;0;149.61;-4;19.58;3.00;972.3;10.00;74272;2836.238;-1759.299;1;143;310;311.3;26.2;26.4;29;28.9;27.0;-1.0;
23/02/2025 09:09:08;117;0;149.72;-4;19.10;2.95;970.2;10.00;74238;2836.236;-1759.298;1;143;310;311.3;26.2;26.4;29;28.9;27.0;-1.0;
23/02/2025 09:09:28;117;0;151.04;-4;18.86;3.20;968.0;10.00;74239;2836.234;-1759.296;1;143;310;311.3;25.9;25.9;29;28.9;26.9;-1.0;
23/02/2025 09:09:48;117;0;152.36;-4;18.90;3.08;965.9;10.00;74240;2836.233;-1759.294;1;143;310;312.9;25.5;25.5;29;28.9;27.0;-1.0;
23/02/2025 09:10:08;117;0;153.58;-4;20.35;3.03;963.6;10.00;74234;2836.231;-1759.293;1;143;310;312.9;25.5;25.0;29;28.9;27.0;-1.0;
23/02/2025 09:10:28;117;0;153.89;-4;20.66;3.06;961.3;10.00;74231;2836.229;-1759.292;1;143;310;311.3;25.5;25.0;29;28.9;27.0;-1.0;
23/02/2025 09:10:48;117;0;154.68;-4;20.74;3.06;958.9;9.90;74229;2836.227;-1759.290;1;143;310;309.7;25.5;25.0;29;28.9;27.0;-1.0;
23/02/2025 09:11:08;117;0;154.23;-4;20.83;3.03;956.5;9.90;74238;2836.225;-1759.289;1;143;310;311.3;25.5;25.0;29;28.9;26.9;-1.0;
23/02/2025 09:11:28;117;0;153.91;-4;20.55;2.90;954.2;9.90;74228;2836.224;-1759.287;1;143;310;311.3;25.5;25.0;29;28.9;27.0;-1.0;
23/02/2025 09:11:48;117;0;154.80;-4;20.57;3.09;951.8;9.90;74220;2836.222;-1759.286;1;143;310;311.3;25.5;25.0;29;28.9;27.0;-1.0;
23/02/2025 09:12:08;117;0;154.52;-4;20.89;3.08;949.5;9.90;74221;2836.220;-1759.285;1;143;310;311.3;25.5;25.0;29;28.9;27.0;-1.0;
23/02/2025 09:12:28;117;0;155.91;-4;20.66;2.99;947.3;9.90;74220;2836.218;-1759.283;1;143;310;311.3;25.5;24.9;29;28.9;27.0;-1.0;
23/02/2025 09:12:48;117;0;156.88;-4;20.60;2.97;944.9;9.90;74212;2836.216;-1759.282;1;143;310;312.9;25.5;25.0;29;28.9;27.0;-1.0;
23/02/2025 09:13:08;117;0;157.00;-4;20.50;2.95;942.6;9.90;74212;2836.215;-1759.281;1;143;310;311.3;25.5;25.0;29;28.9;26.9;-1.0;
23/02/2025 09:13:28;117;0;157.63;-4;20.89;2.92;940.3;9.90;74215;2836.213;-1759.280;1;143;310;312.9;25.5;25.0;29;28.9;27.0;-1.0;
23/02/2025 09:13:48;117;0;158.34;-4;20.65;2.89;938.0;9.80;74208;2836.211;-1759.279;1;143;310;312.9;25.5;24.9;29;28.9;27.0;-1.0;
23/02/2025 09:14:08;117;0;158.50;-4;20.54;3.02;935.7;9.90;74210;2836.209;-1759.277;1;143;310;311.3;25.5;25.0;29;28.9;27.0;-1.0;
23/02/2025 09:14:28;117;0;158.45;-4;20.80;3.06;933.4;9.80;74203;2836.207;-1759.276;1;143;310;312.9;25.5;25.0;29;28.9;27.0;-1.0;
23/02/2025 09:14:48;117;0;158.57;-4;20.59;2.95;931.0;9.80;74196;2836.205;-1759.275;1;143;310;311.3;25.5;24.9;29;28.9;26.9;-1.0;
23/02/2025 09:15:08;117;0;159.75;-4;20.64;3.02;928.8;9.80;74194;2836.203;-1759.274;1;143;310;312.9;25.5;25.5;27;27.1;27.0;-1.0;
23/02/2025 09:15:28;117;0;158.68;-4;19.67;1.82;926.6;9.80;74199;2836.202;-1759.273;1;143;310;312.9;25.5;25.6;27;27.1;26.9;-1.0;
23/02/2025 09:15:48;117;0;159.29;-4;19.51;1.96;924.5;9.80;74193;2836.200;-1759.272;1;143;310;311.3;25.5;25.6;27;27.1;26.9;-1.0;
23/02/2025 09:16:08;117;0;161.54;-4;19.70;1.93;922.5;9.80;74193;2836.198;-1759.271;1;143;310;311.3;25.5;25.6;27;27.1;27.0;-1.0;
23/02/2025 09:16:28;117;0;161.44;-4;20.18;1.97;920.5;9.80;74196;2836.197;-1759.270;1;143;330;332.3;25.5;25.8;27;27.1;26.9;-1.0;
23/02/2025 09:16:48;117;0;162.44;-4;19.69;2.04;918.6;9.80;74155;2836.195;-1759.269;1;143;350;353.2;25.5;25.6;27;26.6;26.9;-1.0;
23/02/2025 09:17:08;117;0;164.80;-4;19.08;2.18;916.5;9.80;74116;2836.193;-1759.268;1;143;350;351.6;25.5;25.6;23;23.0;27.0;-1.0;
23/02/2025 09:17:28;117;0;164.16;-4;18.59;-0.13;914.7;9.70;74099;2836.192;-1759.268;1;143;370;371.0;25.1;25.2;25;24.8;26.9;-1.0;
23/02/2025 09:17:48;117;0;162.85;-4;18.25;1.44;912.7;9.80;74071;2836.190;-1759.267;1;143;390;391.9;24.6;24.4;25;25.3;27.0;-1.0;
23/02/2025 09:18:08;117;0;162.37;-4;19.42;1.51;910.5;9.80;74030;2836.188;-1759.266;1;143;390;393.5;24.6;24.3;25;25.3;27.0;-1.0;
23/02/2025 09:18:28;117;0;160.50;-4;19.17;1.33;908.3;9.70;74033;2836.186;-1759.265;1;143;390;393.5;24.6;24.3;25;25.3;27.0;-1.0;
23/02/2025 09:18:48;117;0;158.82;-4;19.20;1.42;906.1;9.70;74022;2836.184;-1759.264;1;143;390;393.5;24.6;24.0;27;27.1;26.9;-1.0;
23/02/2025 09:19:08;117;0;159.08;-4;20.02;2.73;903.9;9.70;74033;2836.182;-1759.262;1;143;390;393.5;24.6;24.0;27;28.0;27.0;-1.0;
23/02/2025 09:19:28;117;0;159.44;-4;20.10;2.89;901.6;9.70;74025;2836.180;-1759.261;1;143;390;391.9;24.6;24.0;27;28.0;27.0;-1.0;
