Timestamp;NavState;SecurityLevel;Heading;Declination;Pitch;Roll;Depth;Temperature;Pa;Lat;Lon;DeadReckoning;DesiredH;BallastCmd;BallastPos;LinCmd;LinPos;AngCmd;AngPos;Voltage;Altitude;
13/02/2025 03:52:14;119;0;334.01;-4;-61.49;-8.11;0.0;18.30;76150;2834.651;-1758.401;0;330;500;508.1;100.0;100.7;0;-0.5;28.8;-1.0;
13/02/2025 03:52:24;116;0;3.77;-4;-46.96;-17.08;-0.1;18.30;76169;2834.649;-1758.400;0;330;500;508.1;100.0;100.7;0;-0.5;28.8;-1.0;
13/02/2025 03:52:50;116;0;40.99;-4;-49.04;-11.30;-0.0;18.40;76163;2834.650;-1758.399;0;330;500;508.1;100.0;100.7;0;-0.5;28.8;-1.0;
13/02/2025 03:53:08;116;0;42.15;-4;-51.76;-4.74;-0.0;18.40;76171;2834.650;-1758.399;0;330;500;508.1;100.0;100.9;0;-0.5;28.8;-1.0;
13/02/2025 03:53:28;116;0;41.34;-4;-54.73;-15.28;-0.0;18.50;76176;2834.648;-1758.397;0;330;500;508.1;100.0;100.7;0;-0.5;28.8;-1.0;
13/02/2025 03:53:48;116;0;32.19;-4;-56.23;-15.68;0.0;18.60;76181;2834.647;-1758.394;0;330;500;509.7;100.0;100.7;0;-0.5;28.8;-1.0;
13/02/2025 03:54:02;116;0;40.86;-4;-49.14;-11.64;-0.0;18.70;76187;2834.646;-1758.394;0;330;500;508.1;100.0;100.7;0;-0.5;28.8;-1.0;
13/02/2025 03:55:05;116;0;22.89;-4;-53.67;0.67;0.0;19.00;76219;2834.647;-1758.397;0;330;500;508.1;100.0;100.7;0;-0.5;28.8;-1.0;
13/02/2025 03:55:10;116;0;22.56;-4;-55.18;-16.66;-0.1;19.00;76217;2834.646;-1758.397;0;330;500;508.1;100.0;100.7;0;-0.5;28.8;-1.0;
13/02/2025 03:55:30;116;0;37.73;-4;-56.44;-23.72;0.0;19.20;76225;2834.645;-1758.393;0;330;500;508.1;100.0;100.7;0;-0.5;28.8;-1.0;
13/02/2025 03:55:51;116;0;39.28;-4;-54.90;-14.63;0.0;19.30;76229;2834.642;-1758.390;0;330;500;508.1;100.0;100.7;0;-0.5;28.8;-1.0;
13/02/2025 03:56:52;116;0;37.38;-4;-53.33;-17.20;-0.1;19.70;76246;2834.641;-1758.388;0;330;500;508.1;100.0;100.7;0;-0.5;28.8;-1.0;
13/02/2025 03:57:12;116;0;33.25;-4;-53.27;-11.17;-0.0;19.90;76258;2834.639;-1758.386;0;330;500;509.7;100.0;100.7;0;-0.5;28.8;-1.0;
13/02/2025 03:58:15;116;0;19.14;-4;-58.37;-15.39;0.0;20.20;76268;2834.639;-1758.389;0;330;500;508.1;100.0;100.7;0;-0.5;28.8;-1.0;
13/02/2025 03:58:47;116;0;39.63;-4;-54.49;-15.94;-0.1;20.40;76278;2834.638;-1758.390;0;330;500;508.1;100.0;100.7;0;-0.9;28.8;-1.0;
13/02/2025 03:58:58;116;0;34.38;-4;-55.52;-8.89;-0.0;20.50;76286;2834.638;-1758.390;0;330;500;508.1;100.0;100.9;0;-0.5;28.8;-1.0;
13/02/2025 03:59:18;110;0;40.26;-4;-52.31;-11.44;0.0;20.60;76280;2834.638;-1758.390;0;330;-100;395.2;100.0;99.9;-7;-7.7;28.8;-1.0;
13/02/2025 03:59:28;110;0;38.09;-4;-53.27;-16.25;0.1;20.70;76635;2834.637;-1758.390;1;330;-100;245.2;100.0;99.9;-7;-7.7;28.8;-1.0;
13/02/2025 03:59:38;110;0;36.70;-4;-59.56;-10.17;0.6;20.70;76867;2834.637;-1758.389;1;330;-100;83.9;100.0;99.9;-7;-7.7;28.8;-1.0;
13/02/2025 03:59:48;110;0;31.97;-4;-68.67;-12.95;0.9;20.70;77213;2834.636;-1758.388;1;330;-100;-75.8;100.0;100.0;-7;-7.7;28.8;-1.0;
13/02/2025 03:59:58;110;0;31.91;-4;-67.92;-22.29;1.3;20.80;77548;2834.636;-1758.388;1;330;-100;-100.0;49.2;49.2;-7;-7.7;28.8;-1.0;
13/02/2025 04:00:08;110;0;33.99;-4;-52.98;-17.31;2.9;20.80;77564;2834.636;-1758.386;1;330;-100;-100.0;49.2;48.9;-7;-7.7;28.8;-1.0;
13/02/2025 04:00:28;100;0;43.73;-4;-31.96;-15.41;7.2;20.80;77574;2834.637;-1758.382;1;330;-100;-98.4;49.2;48.7;-7;-7.7;28.8;-1.0;
13/02/2025 04:00:48;100;0;50.04;-4;-30.50;-15.41;12.1;20.90;77573;2834.638;-1758.377;1;329;-100;-98.4;49.2;48.7;70;69.9;28.8;-1.0;
13/02/2025 04:01:08;100;0;45.42;-4;-33.95;23.46;17.0;20.90;77594;2834.639;-1758.373;1;329;-100;-96.8;48.0;48.0;70;69.9;28.8;0.0;
13/02/2025 04:01:28;100;0;33.49;-4;-32.64;23.04;22.0;20.80;77589;2834.641;-1758.369;1;328;-100;-98.4;47.2;47.3;70;69.9;28.8;0.0;
13/02/2025 04:01:48;100;0;21.74;-4;-31.24;23.39;26.9;20.80;77599;2834.643;-1758.366;1;328;-100;-98.4;47.2;47.3;70;69.9;28.8;0.0;
13/02/2025 04:02:08;100;0;11.49;-4;-31.24;23.43;31.5;20.80;77614;2834.646;-1758.363;1;328;-100;-96.8;47.2;47.1;67;66.8;28.8;0.0;
13/02/2025 04:02:28;100;0;1.67;-4;-30.92;21.34;36.3;20.80;77600;2834.649;-1758.362;1;328;-100;-96.8;47.2;47.1;54;54.2;28.8;0.0;
13/02/2025 04:02:48;100;0;351.53;-4;-30.12;14.94;40.8;20.70;77599;2834.651;-1758.361;1;327;-100;-98.4;47.2;47.1;39;38.8;28.8;0.0;
13/02/2025 04:03:08;100;0;344.58;-4;-29.85;7.19;45.2;20.70;77610;2834.653;-1758.361;1;327;-100;-96.8;47.2;47.1;27;26.6;28.8;0.0;
13/02/2025 04:03:28;100;0;338.02;-4;-29.30;1.52;49.6;20.70;77606;2834.656;-1758.362;1;327;-100;-96.8;47.2;47.0;17;17.1;28.8;0.0;
13/02/2025 04:03:48;100;0;332.99;-4;-28.28;-3.33;53.9;20.70;77603;2834.658;-1758.362;1;327;-100;-96.8;47.8;47.9;12;12.2;28.8;0.0;
13/02/2025 04:04:08;100;0;332.29;-4;-28.80;-5.83;58.1;20.70;77601;2834.660;-1758.363;1;327;-100;-96.8;48.1;48.3;12;11.7;28.8;0.0;
13/02/2025 04:04:28;100;0;328.94;-4;-29.65;-5.81;62.5;20.70;77601;2834.662;-1758.364;1;327;-100;-100.0;48.1;48.5;10;9.9;28.8;0.0;
13/02/2025 04:04:48;100;0;327.04;-4;-29.92;-7.01;66.8;20.70;77603;2834.664;-1758.365;1;327;-100;-96.8;48.1;48.5;10;9.5;28.8;0.0;
13/02/2025 04:05:08;100;0;329.33;-4;-29.76;-6.99;71.1;20.60;77607;2834.666;-1758.366;1;327;-100;-96.8;48.1;48.5;10;9.5;28.8;0.0;
13/02/2025 04:05:28;100;0;329.50;-4;-29.89;-7.00;75.6;20.60;77608;2834.668;-1758.367;1;327;-100;-96.8;48.1;48.5;10;9.0;28.8;0.0;
13/02/2025 04:05:48;100;0;330.31;-4;-29.98;-6.97;80.1;20.60;77614;2834.670;-1758.368;1;327;-100;-96.8;48.1;48.5;10;9.5;28.8;0.0;
13/02/2025 04:06:08;100;0;330.84;-4;-29.87;-7.03;84.5;20.60;77612;2834.672;-1758.368;1;327;-100;-96.8;48.1;48.5;10;9.5;28.8;0.0;
13/02/2025 04:06:28;100;0;329.17;-4;-29.45;-7.08;88.9;20.60;77610;2834.674;-1758.370;1;327;-100;-96.8;48.1;48.5;10;9.5;28.8;0.0;
13/02/2025 04:06:48;100;0;330.13;-4;-29.64;-7.02;93.2;20.60;77608;2834.676;-1758.370;1;327;-100;-96.8;48.1;48.5;10;9.0;28.8;0.0;
13/02/2025 04:07:08;100;0;333.15;-4;-29.97;-6.98;97.5;20.50;77617;2834.678;-1758.371;1;327;-100;-96.8;48.1;48.5;12;12.2;28.8;0.0;
13/02/2025 04:07:28;100;0;336.07;-4;-30.41;-5.18;102.0;20.50;77606;2834.680;-1758.371;1;326;-100;-96.8;48.1;48.6;16;15.8;28.8;0.0;
13/02/2025 04:07:48;100;0;334.54;-4;-31.60;-3.54;106.9;20.50;77587;2834.682;-1758.372;1;326;-100;-96.8;48.1;48.6;16;16.2;28.8;0.0;
13/02/2025 04:08:08;100;0;331.31;-4;-31.62;-3.35;111.8;20.50;77562;2834.684;-1758.373;1;326;-100;-96.8;48.1;48.5;12;12.2;28.8;0.0;
13/02/2025 04:08:28;100;0;328.88;-4;-29.48;-5.49;116.6;20.40;77533;2834.687;-1758.374;1;326;-100;-96.8;48.1;48.5;12;12.6;28.8;0.0;
13/02/2025 04:08:48;100;0;329.04;-4;-30.27;-5.26;121.0;20.40;77508;2834.689;-1758.375;1;326;-100;-96.8;48.1;48.6;12;12.6;28.8;0.0;
13/02/2025 04:09:08;100;0;332.21;-4;-29.60;-5.46;125.5;20.40;77470;2834.691;-1758.376;1;326;-100;-98.4;48.1;48.6;12;12.6;28.8;0.0;
13/02/2025 04:09:28;100;0;330.52;-4;-30.05;-5.42;129.9;20.30;77446;2834.693;-1758.377;1;326;-100;-98.4;48.1;48.5;12;12.6;28.8;0.0;
13/02/2025 04:09:48;100;0;326.80;-4;-29.74;-5.50;134.3;20.30;77431;2834.694;-1758.378;1;326;-100;-96.8;48.1;48.5;10;9.9;28.8;0.0;
13/02/2025 04:10:08;100;0;322.93;-4;-29.13;-6.94;138.6;20.20;77407;2834.696;-1758.379;1;326;-100;-96.8;48.1;48.6;10;9.5;28.8;0.0;
13/02/2025 04:10:28;100;0;325.82;-4;-29.78;-6.94;143.1;20.20;77389;2834.698;-1758.380;1;326;-100;-96.8;48.1;48.6;10;9.5;28.8;0.0;
13/02/2025 04:10:48;100;0;329.06;-4;-29.31;-6.85;147.6;20.10;77371;2834.700;-1758.381;1;326;-100;-96.8;48.1;48.6;10;9.5;28.8;0.0;
13/02/2025 04:11:08;100;0;328.16;-4;-29.08;-7.10;152.0;20.10;77358;2834.702;-1758.382;1;326;-100;-96.8;48.1;48.5;10;9.5;28.8;0.0;
13/02/2025 04:11:28;100;0;326.87;-4;-28.79;-6.78;156.3;20.00;77343;2834.704;-1758.384;1;326;-100;-96.8;48.5;48.5;10;9.5;28.8;0.0;
13/02/2025 04:11:48;100;0;323.00;-4;-29.49;-7.00;160.7;20.00;77328;2834.706;-1758.385;1;326;-100;-98.4;48.5;48.6;10;9.5;28.8;0.0;
13/02/2025 04:12:08;100;0;319.45;-4;-30.17;-6.90;165.2;19.90;77308;2834.708;-1758.387;1;326;-100;-96.8;48.5;48.5;10;9.5;28.8;0.0;
13/02/2025 04:12:28;100;0;318.37;-4;-30.06;-6.85;170.0;19.90;77293;2834.709;-1758.389;1;326;-100;-98.4;48.5;48.5;10;9.5;28.8;0.0;
13/02/2025 04:12:48;100;0;319.88;-4;-30.27;-6.88;174.8;19.80;77287;2834.711;-1758.390;1;326;-100;-96.8;48.5;48.6;10;9.5;28.8;0.0;
13/02/2025 04:13:08;100;0;321.30;-4;-30.07;-6.79;179.9;19.80;77260;2834.713;-1758.392;1;326;-100;-96.8;48.5;48.5;10;9.5;28.8;0.0;
13/02/2025 04:13:29;100;0;319.79;-4;-29.31;-6.93;184.5;19.70;77254;2834.715;-1758.394;1;326;-100;-98.4;48.5;48.6;10;9.5;28.8;0.0;
13/02/2025 04:13:49;100;0;320.42;-4;-29.78;-6.95;189.1;19.70;77233;2834.717;-1758.396;1;326;-100;-96.8;48.5;48.6;10;9.5;28.8;0.0;
13/02/2025 04:14:09;100;0;320.77;-4;-29.29;-6.83;194.1;19.60;77215;2834.719;-1758.397;1;326;-100;-96.8;48.5;48.6;10;9.5;28.8;0.0;
13/02/2025 04:14:29;100;0;319.04;-4;-28.98;-6.99;198.6;19.60;77189;2834.721;-1758.399;1;326;-100;-96.8;48.8;48.9;10;9.5;28.8;0.0;
13/02/2025 04:14:49;100;0;320.25;-4;-30.15;-6.91;203.2;19.50;77181;2834.722;-1758.401;1;326;-100;-100.0;48.8;49.2;10;9.5;28.8;0.0;
13/02/2025 04:15:09;100;0;322.23;-4;-29.89;-6.89;207.9;19.50;77156;2834.724;-1758.402;1;326;-100;-96.8;48.8;49.0;10;9.5;28.8;0.0;
13/02/2025 04:15:29;100;0;320.72;-4;-29.90;-6.91;212.6;19.40;77157;2834.726;-1758.404;1;326;-100;-96.8;48.8;49.2;10;9.5;28.8;0.0;
13/02/2025 04:15:49;100;0;318.10;-4;-29.69;-6.97;217.2;19.40;77143;2834.728;-1758.406;1;326;-100;-98.4;48.8;49.2;10;9.5;28.8;0.0;
13/02/2025 04:16:09;100;0;319.42;-4;-29.81;-6.93;221.8;19.30;77124;2834.729;-1758.408;1;326;-100;-96.8;48.8;49.2;10;9.5;28.8;0.0;
13/02/2025 04:16:29;100;0;319.85;-4;-30.12;-6.95;226.5;19.20;77118;2834.731;-1758.409;1;326;-100;-98.4;48.8;49.2;10;9.5;28.8;0.0;
13/02/2025 04:16:49;100;0;321.92;-4;-29.99;-6.87;231.3;19.20;77104;2834.733;-1758.411;1;326;-100;-96.8;48.8;49.2;10;9.5;28.8;0.0;
13/02/2025 04:17:09;100;0;322.65;-4;-30.08;-6.91;235.9;19.10;77093;2834.735;-1758.412;1;326;-100;-96.8;48.8;49.0;10;9.5;28.8;0.0;
13/02/2025 04:17:29;100;0;326.25;-4;-30.50;-6.88;240.7;19.10;77087;2834.737;-1758.414;1;326;-100;-96.8;48.8;49.2;10;9.5;28.8;0.0;
13/02/2025 04:17:49;100;0;322.41;-4;-30.24;-6.86;245.5;19.00;77065;2834.739;-1758.415;1;326;-100;-98.4;48.8;49.2;10;9.5;28.8;0.0;
13/02/2025 04:18:09;100;0;318.48;-4;-30.32;-6.91;250.2;19.00;77030;2834.741;-1758.417;1;326;-100;-98.4;48.8;49.2;10;9.5;28.8;0.0;
13/02/2025 04:18:29;100;0;314.89;-4;-30.26;-6.89;255.0;18.90;77031;2834.742;-1758.419;1;326;-100;-96.8;48.8;49.0;8;8.1;28.8;0.0;
13/02/2025 04:18:49;100;0;314.37;-4;-30.27;-7.57;259.8;18.80;77024;2834.744;-1758.421;1;327;-100;-95.2;48.8;49.0;8;8.1;28.8;0.0;
13/02/2025 04:19:09;100;0;320.09;-4;-30.20;-7.64;264.7;18.80;77007;2834.746;-1758.423;1;327;-100;-98.4;48.8;49.2;10;9.9;28.8;0.0;
13/02/2025 04:19:29;100;0;325.94;-4;-30.78;-6.50;269.7;18.70;76997;2834.748;-1758.424;1;327;-100;-96.8;48.8;49.2;10;10.4;28.8;0.0;
13/02/2025 04:19:49;100;0;324.07;-4;-30.75;-6.48;274.6;18.70;76989;2834.750;-1758.426;1;327;-100;-96.8;48.8;49.2;10;10.4;28.8;0.0;
13/02/2025 04:20:09;100;0;322.98;-4;-30.13;-6.42;279.6;18.60;76969;2834.752;-1758.427;1;327;-100;-98.4;48.8;49.2;10;10.4;28.8;0.0;
13/02/2025 04:20:29;100;0;321.00;-4;-30.19;-6.49;284.3;18.50;76957;2834.754;-1758.429;1;327;-100;-96.8;48.8;49.2;10;10.4;28.8;0.0;
13/02/2025 04:20:49;100;0;319.52;-4;-30.30;-6.44;289.1;18.50;76947;2834.756;-1758.431;1;327;-100;-96.8;48.8;49.2;10;10.4;28.8;0.0;
13/02/2025 04:21:09;100;0;321.75;-4;-30.29;-6.42;294.0;18.40;76941;2834.758;-1758.433;1;327;-100;-96.8;48.8;49.2;10;10.4;28.8;0.0;
13/02/2025 04:21:29;100;0;323.47;-4;-30.29;-6.45;298.7;18.40;76921;2834.760;-1758.434;1;327;-100;-96.8;48.8;49.2;10;10.4;28.8;0.0;
13/02/2025 04:21:49;100;0;326.98;-4;-30.17;-6.46;303.6;18.30;76923;2834.762;-1758.435;1;327;-100;-96.8;48.8;49.2;10;10.4;28.8;0.0;
13/02/2025 04:22:09;100;0;328.84;-4;-29.76;-6.50;308.5;18.30;76910;2834.764;-1758.437;1;327;-100;-100.0;48.8;49.2;10;10.4;28.8;0.0;
13/02/2025 04:22:29;100;0;329.35;-4;-29.83;-6.52;313.2;18.20;76906;2834.766;-1758.438;1;327;-100;-96.8;48.8;49.2;10;10.4;28.8;0.0;
13/02/2025 04:22:49;100;0;328.37;-4;-29.66;-6.50;317.8;18.20;76892;2834.768;-1758.439;1;326;-100;-96.8;48.8;49.2;10;10.4;28.8;0.0;
13/02/2025 04:23:09;100;0;327.80;-4;-30.19;-6.49;322.4;18.10;76870;2834.770;-1758.440;1;326;-100;-96.8;48.8;49.2;10;10.4;28.8;0.0;
13/02/2025 04:23:29;100;0;328.40;-4;-30.49;-6.42;327.2;18.00;76867;2834.773;-1758.441;1;326;-100;-98.4;48.8;49.2;10;10.4;28.8;0.0;
13/02/2025 04:23:49;100;0;328.16;-4;-30.29;-6.43;332.0;18.00;76855;2834.775;-1758.442;1;326;-100;-96.8;48.8;49.2;10;10.4;28.8;0.0;
13/02/2025 04:24:09;100;0;324.39;-4;-29.39;-6.49;336.7;17.90;76828;2834.777;-1758.444;1;326;-100;-98.4;48.8;49.2;10;10.4;28.8;0.0;
13/02/2025 04:24:29;100;0;319.34;-4;-29.64;-6.59;341.1;17.80;76814;2834.778;-1758.445;1;326;-100;-96.8;48.8;49.2;10;10.4;28.8;0.0;
13/02/2025 04:24:49;100;0;316.33;-4;-29.34;-6.50;345.6;17.80;76805;2834.780;-1758.447;1;326;-100;-96.8;48.8;49.2;10;10.4;28.8;0.0;
13/02/2025 04:25:09;100;0;314.21;-4;-29.81;-6.49;350.1;17.70;76796;2834.781;-1758.449;1;327;-100;-96.8;48.8;49.2;7;7.2;28.8;0.0;
13/02/2025 04:25:29;100;0;314.19;-4;-30.09;-8.27;354.6;17.70;76790;2834.783;-1758.451;1;327;-100;-96.8;48.8;49.2;7;6.8;28.8;0.0;
13/02/2025 04:25:49;100;0;310.55;-4;-29.23;-8.26;359.0;17.60;76774;2834.784;-1758.453;1;327;-100;-96.8;48.8;49.2;3;3.2;28.8;0.0;
13/02/2025 04:26:09;100;0;314.83;-4;-29.33;-10.15;363.5;17.60;76745;2834.785;-1758.455;1;327;-100;-96.8;48.8;49.2;8;8.1;28.8;0.0;
13/02/2025 04:26:29;100;0;317.24;-4;-28.98;-7.37;367.8;17.50;76738;2834.787;-1758.457;1;327;-100;-98.4;49.1;49.0;8;8.1;28.8;0.0;
13/02/2025 04:26:49;100;0;312.13;-4;-29.71;-7.13;372.1;17.50;76729;2834.788;-1758.459;1;327;-100;-96.8;49.1;49.0;5;4.5;28.8;0.0;
13/02/2025 04:27:09;100;0;309.49;-4;-28.91;-9.56;376.3;17.40;76715;2834.789;-1758.461;1;327;-100;-96.8;49.4;49.6;2;1.8;28.8;0.0;
13/02/2025 04:27:29;100;0;310.88;-4;-30.04;-10.75;380.5;17.30;76705;2834.790;-1758.463;1;327;-100;-96.8;49.4;49.8;2;1.4;28.8;0.0;
13/02/2025 04:27:49;100;0;314.18;-4;-30.33;-10.92;384.9;17.30;76696;2834.791;-1758.465;1;327;-100;-96.8;49.4;49.8;7;7.2;28.8;0.0;
13/02/2025 04:28:09;100;0;318.89;-4;-31.48;-7.90;389.4;17.20;76683;2834.793;-1758.466;1;327;-100;-96.8;49.4;49.8;9;9.5;28.8;0.0;
13/02/2025 04:28:29;100;0;319.70;-4;-32.02;-6.70;394.3;17.20;76656;2834.795;-1758.468;1;327;-100;-100.0;48.8;48.7;9;9.5;28.8;0.0;
13/02/2025 04:28:49;100;0;319.52;-4;-30.23;-6.80;399.2;17.10;76648;2834.797;-1758.470;1;328;-100;-96.8;48.8;48.6;9;9.9;28.8;0.0;
13/02/2025 04:29:09;100;0;320.35;-4;-29.55;-6.74;403.8;17.10;76650;2834.798;-1758.471;1;328;-100;-96.8;48.8;48.5;9;9.5;28.8;0.0;
13/02/2025 04:29:29;100;0;322.56;-4;-29.46;-6.85;408.3;17.00;76638;2834.800;-1758.473;1;328;-100;-96.8;48.8;48.5;9;9.5;28.8;0.0;
13/02/2025 04:29:49;100;0;325.82;-4;-29.58;-6.78;412.7;16.90;76625;2834.802;-1758.474;1;328;-100;-98.4;48.8;48.5;9;9.9;28.8;0.0;
13/02/2025 04:30:09;100;0;328.71;-4;-29.55;-6.94;417.2;16.90;76620;2834.804;-1758.475;1;328;-100;-96.8;48.8;48.5;9;9.5;28.8;0.0;
13/02/2025 04:30:29;100;0;331.68;-4;-29.47;-6.75;421.8;16.80;76600;2834.806;-1758.476;1;327;-100;-98.4;48.8;48.5;11;10.8;28.8;0.0;
13/02/2025 04:30:49;100;0;334.19;-4;-28.34;-5.94;426.2;16.80;76594;2834.809;-1758.477;1;327;-100;-100.0;49.3;49.3;13;14.0;28.8;0.0;
13/02/2025 04:31:09;100;0;331.63;-4;-29.83;-4.76;430.4;16.70;76585;2834.810;-1758.477;1;327;-100;-96.8;49.3;49.5;11;10.8;28.8;0.0;
13/02/2025 04:31:29;100;0;331.87;-4;-29.84;-6.50;434.7;16.70;76563;2834.812;-1758.478;1;327;-100;-96.8;49.3;49.6;11;10.4;28.8;0.0;
13/02/2025 04:31:49;100;0;332.10;-4;-29.95;-6.41;439.2;16.60;76554;2834.815;-1758.479;1;327;-100;-96.8;49.3;49.6;11;10.4;28.8;0.0;
13/02/2025 04:32:09;100;0;329.00;-4;-30.18;-6.52;443.6;16.60;76545;2834.816;-1758.480;1;327;-100;-96.8;49.3;49.6;11;10.4;28.8;0.0;
13/02/2025 04:32:29;100;0;325.03;-4;-29.95;-6.43;448.0;16.50;76541;2834.818;-1758.481;1;327;-100;-96.8;49.3;49.6;11;10.4;28.8;0.0;
13/02/2025 04:32:49;100;0;321.70;-4;-29.83;-6.39;452.4;16.50;76525;2834.820;-1758.482;1;327;-100;-96.8;49.3;49.6;11;10.4;28.8;0.0;
13/02/2025 04:33:09;100;0;320.03;-4;-29.99;-6.59;456.7;16.40;76525;2834.821;-1758.484;1;327;-100;-96.8;49.3;49.5;11;10.4;28.8;0.0;
13/02/2025 04:33:29;100;0;317.62;-4;-29.86;-6.34;461.1;16.40;76507;2834.823;-1758.485;1;327;-100;-96.8;49.3;49.6;9;9.0;28.8;0.0;
13/02/2025 04:33:49;100;0;316.48;-4;-29.15;-7.21;465.3;16.30;76507;2834.824;-1758.487;1;327;-100;-96.8;49.3;49.6;9;9.0;28.8;0.0;
13/02/2025 04:34:09;100;0;317.84;-4;-29.33;-7.38;469.4;16.30;76495;2834.826;-1758.489;1;327;-100;-96.8;49.3;49.6;9;9.0;28.8;0.0;
13/02/2025 04:34:29;100;0;319.84;-4;-30.10;-7.30;473.7;16.20;76480;2834.827;-1758.490;1;327;-100;-96.8;49.3;49.6;9;8.6;28.8;0.0;
13/02/2025 04:34:49;100;0;319.07;-4;-30.47;-7.29;478.0;16.20;76479;2834.829;-1758.492;1;327;-100;-96.8;49.3;49.6;9;8.6;28.8;0.0;
13/02/2025 04:35:09;100;0;322.75;-4;-30.49;-7.20;482.5;16.10;76454;2834.830;-1758.493;1;327;-100;-100.0;49.3;49.6;9;9.0;28.8;0.0;
13/02/2025 04:35:29;100;0;326.83;-4;-30.30;-7.28;487.0;16.10;76448;2834.832;-1758.494;1;327;-100;-96.8;49.3;49.6;9;9.0;28.8;0.0;
13/02/2025 04:35:49;100;0;330.42;-4;-30.32;-7.16;491.4;16.00;76436;2834.834;-1758.495;1;327;-100;-96.8;49.3;49.5;11;10.8;28.8;0.0;
13/02/2025 04:36:09;100;0;325.93;-4;-30.45;-5.94;496.0;16.00;76435;2834.836;-1758.496;1;327;-100;-96.8;49.3;49.6;11;10.8;28.8;0.0;
13/02/2025 04:36:22;118;0;321.50;-4;-29.84;-6.54;498.8;15.90;76420;2834.837;-1758.497;1;327;220;-91.9;20.4;20.3;6;5.4;28.8;0.0;
13/02/2025 04:36:32;118;0;7.76;-4;-16.50;-9.61;500.4;15.90;76407;2834.839;-1758.496;1;327;220;38.7;20.4;20.0;6;5.4;28.1;-1.0;
13/02/2025 04:36:42;118;0;15.36;-4;12.04;-9.81;501.0;15.90;76122;2834.839;-1758.495;1;327;220;164.5;20.4;20.5;6;5.4;28.0;-1.0;
13/02/2025 04:36:52;118;0;14.22;-4;26.92;-10.42;500.2;15.90;75866;2834.839;-1758.494;1;327;220;222.6;20.4;20.6;6;5.4;28.1;-1.0;
13/02/2025 04:37:02;118;0;325.25;-4;29.70;-10.31;499.0;15.80;75744;2834.839;-1758.494;1;327;220;222.6;20.4;20.6;6;5.4;28.8;-1.0;
13/02/2025 04:37:22;117;0;324.03;-4;30.35;-10.05;496.2;15.80;75741;2834.840;-1758.495;1;327;220;222.6;20.4;20.6;6;5.4;28.8;-1.0;
13/02/2025 04:37:42;117;0;322.02;-4;30.28;-10.16;492.9;15.80;75739;2834.841;-1758.495;1;327;220;222.6;20.4;20.8;23;23.5;28.8;-1.0;
13/02/2025 04:38:02;117;0;320.07;-4;31.92;-0.16;489.9;15.70;75729;2834.841;-1758.496;1;327;220;221.0;20.4;20.6;23;23.9;28.8;-1.0;
13/02/2025 04:38:22;117;0;314.76;-4;32.00;-0.14;486.8;15.70;75729;2834.842;-1758.496;1;327;220;222.6;20.4;20.6;23;23.9;28.8;-1.0;
13/02/2025 04:38:42;117;0;309.46;-4;32.10;-0.21;483.6;15.60;75722;2834.842;-1758.497;1;327;220;222.6;21.1;21.2;29;29.3;28.8;-1.0;
13/02/2025 04:39:02;117;0;304.92;-4;31.81;2.88;480.4;15.60;75720;2834.842;-1758.499;1;327;220;222.6;21.1;21.4;35;35.2;28.8;-1.0;
13/02/2025 04:39:22;117;0;303.24;-4;32.04;6.15;477.3;15.50;75716;2834.842;-1758.500;1;327;220;224.2;21.7;21.8;38;37.9;28.8;-1.0;
13/02/2025 04:39:42;117;0;305.70;-4;31.30;7.49;474.1;15.50;75715;2834.842;-1758.501;1;327;220;222.6;21.7;21.8;34;33.8;28.8;-1.0;
13/02/2025 04:40:02;117;0;302.82;-4;31.48;4.98;471.0;15.50;75706;2834.842;-1758.502;1;327;220;222.6;21.7;21.8;38;37.9;28.8;-1.0;
13/02/2025 04:40:22;117;0;302.15;-4;31.69;7.40;467.9;15.40;75715;2834.842;-1758.503;1;328;220;221.0;21.7;21.8;40;40.2;28.8;-1.0;
13/02/2025 04:40:42;117;0;300.86;-4;32.00;8.67;464.6;15.40;75710;2834.842;-1758.504;1;328;220;221.0;21.7;21.8;44;44.7;28.8;-1.0;
13/02/2025 04:41:02;117;0;301.17;-4;32.21;11.24;461.3;15.40;75714;2834.842;-1758.506;1;328;220;222.6;22.3;22.4;44;44.7;28.8;-1.0;
13/02/2025 04:41:22;117;0;304.18;-4;30.73;11.19;457.9;15.30;75709;2834.842;-1758.507;1;328;220;222.6;22.3;22.5;38;37.9;28.8;-1.0;
13/02/2025 04:41:42;117;0;305.64;-4;30.06;7.09;454.8;15.30;75707;2834.843;-1758.508;1;328;220;222.6;22.3;22.5;36;34.3;28.8;-1.0;
13/02/2025 04:42:02;117;0;305.08;-4;29.95;6.52;451.7;15.30;75708;2834.843;-1758.510;1;328;220;224.2;22.3;22.5;36;36.6;28.8;-1.0;
13/02/2025 04:42:22;117;0;305.84;-4;29.93;6.44;448.7;15.20;75706;2834.843;-1758.511;1;329;220;222.6;22.3;22.5;36;36.6;28.8;-1.0;
13/02/2025 04:42:42;117;0;307.66;-4;29.59;6.35;445.7;15.20;75700;2834.843;-1758.512;1;329;220;224.2;22.3;22.5;33;30.2;28.8;-1.0;
13/02/2025 04:43:02;117;0;310.15;-4;29.67;4.85;442.8;15.20;75698;2834.843;-1758.513;1;329;220;222.6;22.3;22.5;28;28.0;28.8;-1.0;
13/02/2025 04:43:22;117;0;308.80;-4;29.31;1.63;439.8;15.20;75702;2834.844;-1758.514;1;329;220;224.2;22.3;22.7;31;31.1;28.8;-1.0;
13/02/2025 04:43:42;117;0;306.65;-4;29.56;3.98;437.0;15.10;75692;2834.844;-1758.515;1;329;220;222.6;22.3;22.5;33;33.4;28.8;-1.0;
13/02/2025 04:44:02;117;0;304.50;-4;29.63;4.84;434.1;15.10;75686;2834.844;-1758.516;1;329;220;219.4;22.3;22.5;38;37.9;28.8;-1.0;
13/02/2025 04:44:22;117;0;304.39;-4;30.20;7.55;431.1;15.10;75687;2834.844;-1758.517;1;329;220;221.0;22.3;22.5;38;38.4;28.8;-1.0;
13/02/2025 04:44:42;117;0;304.80;-4;30.36;7.49;428.0;15.10;75688;2834.844;-1758.518;1;329;220;221.0;22.3;22.5;38;38.4;28.8;-1.0;
13/02/2025 04:45:02;117;0;300.65;-4;29.42;7.69;424.9;15.00;75684;2834.844;-1758.519;1;330;220;222.6;22.3;22.5;44;44.7;28.8;-1.0;
13/02/2025 04:45:22;117;0;300.73;-4;30.03;10.99;422.0;15.00;75705;2834.844;-1758.521;1;330;220;222.6;22.3;22.5;44;44.7;28.8;-1.0;
13/02/2025 04:45:42;117;0;302.57;-4;30.06;11.12;419.1;15.00;75694;2834.844;-1758.522;1;330;220;222.6;22.3;22.5;41;41.1;28.8;-1.0;
13/02/2025 04:46:02;117;0;303.22;-4;29.86;8.65;416.2;15.00;75684;2834.844;-1758.523;1;330;220;224.2;22.3;22.5;41;40.6;28.8;-1.0;
13/02/2025 04:46:22;117;0;302.30;-4;29.77;8.66;413.4;15.00;75698;2834.844;-1758.524;1;330;220;222.6;22.3;22.5;41;40.6;28.8;-1.0;
13/02/2025 04:46:42;117;0;302.72;-4;29.76;8.69;410.5;14.90;75699;2834.844;-1758.525;1;330;220;222.6;22.3;22.5;41;40.6;28.8;-1.0;
13/02/2025 04:47:02;117;0;303.60;-4;29.81;8.59;407.5;14.90;75692;2834.844;-1758.526;1;331;220;221.0;22.3;22.5;39;38.4;28.8;-1.0;
13/02/2025 04:47:22;117;0;303.63;-4;29.44;7.36;404.5;14.90;75682;2834.844;-1758.528;1;331;220;222.6;22.3;22.5;41;41.1;28.8;-1.0;
13/02/2025 04:47:42;117;0;306.27;-4;29.67;9.11;401.5;14.90;75693;2834.844;-1758.529;1;331;220;222.6;22.3;22.5;35;34.7;28.8;-1.0;
13/02/2025 04:48:03;117;0;307.96;-4;29.36;6.61;398.5;14.90;75689;2834.844;-1758.530;1;331;220;222.6;22.3;22.5;35;37.0;28.8;-1.0;
13/02/2025 04:48:23;117;0;308.39;-4;29.28;6.50;395.7;14.90;75689;2834.845;-1758.531;1;331;220;219.4;22.3;22.5;32;32.0;28.8;-1.0;
13/02/2025 04:48:43;117;0;308.58;-4;29.06;4.05;392.8;14.80;75682;2834.845;-1758.532;1;331;220;222.6;22.3;22.5;32;32.0;28.8;-1.0;
13/02/2025 04:49:03;117;0;307.85;-4;29.06;4.04;390.0;14.80;75696;2834.845;-1758.533;1;331;220;222.6;22.3;22.5;32;32.0;28.8;-1.0;
13/02/2025 04:49:23;117;0;303.57;-4;29.06;4.14;387.1;14.80;75684;2834.845;-1758.534;1;331;220;221.0;22.3;22.5;40;40.2;28.8;-1.0;
13/02/2025 04:49:43;117;0;304.03;-4;29.80;8.62;384.2;14.80;75705;2834.845;-1758.535;1;332;220;222.6;22.3;22.5;40;40.6;28.8;-1.0;
13/02/2025 04:50:03;117;0;304.02;-4;30.08;8.62;381.2;14.80;75690;2834.845;-1758.536;1;332;220;222.6;22.3;22.5;40;40.6;28.8;-1.0;
13/02/2025 04:50:23;117;0;307.70;-4;30.57;8.91;378.2;14.80;75704;2834.845;-1758.537;1;332;220;222.6;22.3;22.5;33;32.5;28.8;-1.0;
13/02/2025 04:50:43;117;0;307.53;-4;29.26;4.55;375.2;14.80;75701;2834.846;-1758.538;1;332;220;219.4;22.3;22.5;35;35.2;28.8;-1.0;
13/02/2025 04:51:03;117;0;307.54;-4;29.88;6.09;372.2;14.80;75696;2834.846;-1758.539;1;332;220;222.6;22.3;22.5;35;35.6;28.8;-1.0;
13/02/2025 04:51:23;117;0;312.80;-4;29.62;5.97;369.3;14.80;75699;2834.846;-1758.540;1;332;220;222.6;22.3;22.5;28;27.5;28.8;-1.0;
13/02/2025 04:51:43;117;0;307.14;-4;28.80;1.67;366.3;14.80;75708;2834.846;-1758.541;1;332;220;222.6;22.0;21.6;36;36.1;28.8;-1.0;
13/02/2025 04:52:03;117;0;305.10;-4;30.46;6.33;363.4;14.80;75719;2834.847;-1758.542;1;333;220;224.2;22.0;21.6;39;38.8;28.8;-1.0;
13/02/2025 04:52:23;117;0;304.67;-4;31.11;8.01;360.4;14.80;75708;2834.847;-1758.543;1;333;220;222.6;22.0;21.8;39;39.3;28.8;-1.0;
13/02/2025 04:52:43;117;0;302.19;-4;30.99;7.93;357.4;14.80;75715;2834.847;-1758.544;1;333;220;221.0;22.0;21.8;44;44.7;28.8;-1.0;
13/02/2025 04:53:03;117;0;303.78;-4;30.90;11.02;354.4;14.80;75717;2834.847;-1758.546;1;333;220;222.6;22.0;21.6;41;41.1;28.8;-1.0;
13/02/2025 04:53:23;117;0;304.28;-4;31.11;8.53;351.4;14.80;75713;2834.847;-1758.547;1;333;220;222.6;22.0;21.8;41;40.6;28.8;-1.0;
13/02/2025 04:53:43;117;0;306.76;-4;31.17;8.51;348.5;14.80;75727;2834.847;-1758.547;1;333;220;222.6;22.0;21.6;37;34.7;28.8;-1.0;
13/02/2025 04:54:03;117;0;309.71;-4;30.80;6.22;345.5;14.80;75726;2834.847;-1758.548;1;333;220;221.0;22.0;21.6;32;32.0;28.8;-1.0;
13/02/2025 04:54:23;117;0;309.41;-4;30.42;4.07;342.6;14.70;75737;2834.847;-1758.549;1;334;220;222.6;22.0;21.6;32;32.0;28.8;-1.0;
13/02/2025 04:54:43;117;0;308.70;-4;30.49;4.00;339.8;14.80;75742;2834.847;-1758.550;1;334;220;222.6;22.0;21.6;34;33.8;28.8;-1.0;
13/02/2025 04:55:03;117;0;307.71;-4;30.51;5.22;336.9;14.80;75752;2834.847;-1758.551;1;334;220;222.6;22.0;21.8;34;34.3;28.8;-1.0;
13/02/2025 04:55:23;117;0;311.22;-4;30.28;5.21;334.1;14.80;75755;2834.848;-1758.552;1;334;220;222.6;22.0;21.6;30;29.8;28.8;-1.0;
13/02/2025 04:55:43;117;0;308.47;-4;30.21;2.53;331.4;14.80;75756;2834.848;-1758.553;1;334;220;221.0;22.0;21.6;33;32.9;28.8;-1.0;
13/02/2025 04:56:03;117;0;309.11;-4;30.22;4.74;328.6;14.80;75766;2834.848;-1758.553;1;334;220;222.6;22.0;21.8;33;33.4;28.8;-1.0;
13/02/2025 04:56:23;117;0;306.66;-4;30.42;4.85;325.9;14.80;75777;2834.848;-1758.554;1;334;220;222.6;22.0;21.6;35;35.6;28.8;-1.0;
13/02/2025 04:56:43;117;0;304.72;-4;30.56;6.19;323.1;14.80;75777;2834.848;-1758.555;1;334;220;222.6;22.0;21.8;39;38.8;28.8;-1.0;
13/02/2025 04:57:03;117;0;300.52;-4;31.05;7.88;320.3;14.80;75785;2834.848;-1758.556;1;335;220;224.2;22.0;21.6;47;46.9;28.8;-1.0;
13/02/2025 04:57:23;117;0;297.01;-4;31.66;12.42;317.4;14.80;75799;2834.847;-1758.557;1;335;220;222.6;22.0;21.6;53;52.8;28.8;-1.0;
13/02/2025 04:57:43;117;0;297.75;-4;31.66;15.54;314.3;14.80;75804;2834.847;-1758.559;1;335;220;222.6;22.0;21.6;53;53.2;28.8;-1.0;
13/02/2025 04:58:03;117;0;300.34;-4;31.64;15.54;311.2;14.80;75803;2834.847;-1758.560;1;335;220;222.6;22.0;21.6;48;47.8;28.8;-1.0;
13/02/2025 04:58:23;117;0;301.47;-4;31.46;12.21;308.2;14.80;75817;2834.847;-1758.561;1;335;220;224.2;22.0;21.8;46;46.0;28.8;-1.0;
13/02/2025 04:58:43;117;0;301.66;-4;31.35;11.35;305.2;14.90;75815;2834.847;-1758.562;1;335;220;222.6;22.0;21.8;46;45.6;28.8;-1.0;
13/02/2025 04:59:03;117;0;303.04;-4;31.56;11.33;302.1;14.90;75821;2834.847;-1758.563;1;336;220;222.6;22.0;21.6;46;45.6;28.8;-1.0;
13/02/2025 04:59:23;117;0;305.80;-4;31.33;11.33;299.1;14.90;75827;2834.847;-1758.564;1;336;220;222.6;22.0;21.6;40;40.2;28.8;-1.0;
13/02/2025 04:59:43;117;0;306.52;-4;30.99;7.97;295.9;14.90;75831;2834.847;-1758.565;1;336;220;219.4;22.0;21.6;40;39.3;28.8;-1.0;
13/02/2025 05:00:03;117;0;307.12;-4;31.03;7.96;292.8;14.90;75823;2834.847;-1758.566;1;336;220;222.6;22.0;21.6;38;37.5;28.8;-1.0;
13/02/2025 05:00:23;117;0;309.23;-4;30.74;6.60;289.7;14.90;75836;2834.848;-1758.567;1;336;220;222.6;22.0;21.6;35;35.2;28.8;-1.0;
13/02/2025 05:00:43;117;0;310.46;-4;30.56;5.22;286.7;14.90;75839;2834.848;-1758.568;1;336;220;222.6;22.0;21.6;33;32.9;28.8;-1.0;
13/02/2025 05:01:03;117;0;306.65;-4;30.27;4.09;283.6;14.90;75838;2834.848;-1758.569;1;336;220;222.6;22.0;21.6;39;38.8;28.8;-1.0;
13/02/2025 05:01:23;117;0;306.31;-4;30.72;7.87;280.5;14.90;75837;2834.848;-1758.570;1;337;220;224.2;22.0;21.8;39;39.3;28.8;-1.0;
13/02/2025 05:01:43;117;0;306.96;-4;30.74;7.85;277.4;14.90;75851;2834.848;-1758.571;1;337;220;222.6;22.0;21.6;39;39.3;28.8;-1.0;
13/02/2025 05:02:03;117;0;306.63;-4;30.68;7.84;274.2;14.90;75853;2834.849;-1758.573;1;337;220;222.6;22.0;21.6;41;41.1;28.8;-1.0;
13/02/2025 05:02:23;117;0;306.71;-4;30.67;9.02;271.0;15.00;75855;2834.849;-1758.574;1;337;220;222.6;22.0;21.8;41;41.1;28.8;-1.0;
13/02/2025 05:02:43;117;0;306.19;-4;30.77;8.99;267.8;15.00;75852;2834.849;-1758.575;1;337;220;222.6;22.0;21.8;41;41.1;28.8;-1.0;
13/02/2025 05:03:03;117;0;304.79;-4;30.60;8.95;264.6;15.00;75868;2834.849;-1758.576;1;337;220;222.6;22.0;21.6;44;44.2;28.8;-1.0;
13/02/2025 05:03:23;117;0;307.97;-4;31.21;10.91;261.4;15.00;75867;2834.850;-1758.577;1;338;220;224.2;22.0;21.6;39;38.4;28.8;-1.0;
13/02/2025 05:03:43;117;0;310.37;-4;30.69;7.05;258.0;15.00;75872;2834.850;-1758.578;1;338;220;222.6;22.0;21.8;35;34.3;28.8;-1.0;
13/02/2025 05:04:03;117;0;314.06;-4;30.49;5.44;254.7;15.00;75870;2834.851;-1758.579;1;338;220;224.2;22.0;21.6;31;31.1;28.8;-1.0;
13/02/2025 05:04:23;117;0;314.83;-4;30.25;3.20;251.4;15.00;75880;2834.851;-1758.580;1;338;220;222.6;22.0;21.6;31;30.7;28.8;-1.0;
13/02/2025 05:04:43;117;0;314.51;-4;29.87;3.18;248.1;15.10;75882;2834.852;-1758.581;1;338;220;222.6;22.0;21.8;31;30.7;28.8;-1.0;
13/02/2025 05:05:03;117;0;312.76;-4;29.92;3.19;244.9;15.10;75892;2834.852;-1758.583;1;338;220;222.6;22.0;21.6;33;32.9;28.8;-1.0;
13/02/2025 05:05:23;117;0;314.03;-4;29.99;4.70;241.7;15.10;75901;2834.853;-1758.583;1;338;220;224.2;22.0;21.6;31;31.1;28.8;-1.0;
13/02/2025 05:05:43;117;0;312.59;-4;30.14;3.24;238.5;15.10;75909;2834.854;-1758.585;1;339;220;224.2;22.0;21.6;34;33.8;28.8;-1.0;
13/02/2025 05:06:03;117;0;310.05;-4;30.35;5.42;235.3;15.10;75909;2834.854;-1758.586;1;339;220;222.6;22.0;21.6;37;37.5;28.8;-1.0;
13/02/2025 05:06:23;117;0;310.40;-4;30.29;6.99;232.0;15.10;75916;2834.854;-1758.587;1;339;220;224.2;22.0;21.8;37;37.9;28.8;-1.0;
13/02/2025 05:06:43;117;0;307.52;-4;30.28;7.07;228.8;15.20;75931;2834.855;-1758.588;1;339;220;222.6;22.0;21.8;42;42.0;28.8;-1.0;
13/02/2025 05:07:03;117;0;306.78;-4;31.17;9.70;225.6;15.20;75942;2834.855;-1758.589;1;339;220;224.2;22.0;21.6;42;42.4;28.8;-1.0;
13/02/2025 05:07:23;117;0;309.02;-4;31.09;9.70;222.2;15.20;75948;2834.855;-1758.590;1;339;220;224.2;22.0;21.6;39;38.4;28.8;-1.0;
13/02/2025 05:07:43;117;0;309.55;-4;30.72;6.93;218.8;15.20;75955;2834.856;-1758.592;1;340;220;222.6;22.0;21.6;39;37.9;28.8;-1.0;
13/02/2025 05:08:03;117;0;309.32;-4;30.72;7.22;215.5;15.20;75951;2834.856;-1758.593;1;340;220;224.2;22.0;21.6;39;37.9;28.8;-1.0;
13/02/2025 05:08:23;117;0;307.24;-4;30.51;7.18;212.1;15.20;75967;2834.857;-1758.594;1;340;220;222.6;22.0;21.6;42;42.0;28.8;-1.0;
13/02/2025 05:08:43;117;0;306.55;-4;30.80;9.44;208.8;15.30;75978;2834.857;-1758.595;1;340;220;222.6;22.0;21.8;42;42.0;28.8;-1.0;
13/02/2025 05:09:03;117;0;306.22;-4;30.77;9.53;205.5;15.30;75976;2834.857;-1758.597;1;340;220;224.2;22.0;21.6;44;44.2;28.8;-1.0;
13/02/2025 05:09:23;117;0;308.86;-4;30.72;10.91;202.1;15.30;75984;2834.858;-1758.598;1;340;220;222.6;22.0;21.6;41;40.6;28.8;-1.0;
13/02/2025 05:09:43;117;0;312.42;-4;30.39;8.70;198.9;15.30;75991;2834.858;-1758.599;1;341;220;224.2;22.0;21.6;36;36.1;28.8;-1.0;
13/02/2025 05:10:03;117;0;311.75;-4;30.50;6.08;195.7;15.40;76005;2834.858;-1758.600;1;341;220;224.2;22.0;21.6;36;35.6;28.8;-1.0;
13/02/2025 05:10:23;117;0;310.15;-4;30.10;6.05;192.4;15.40;76012;2834.859;-1758.601;1;341;220;224.2;22.0;21.8;39;38.8;28.8;-1.0;
13/02/2025 05:10:43;117;0;313.44;-4;30.19;7.83;189.2;15.40;76042;2834.859;-1758.602;1;341;220;224.2;22.0;21.6;33;32.5;28.8;-1.0;
13/02/2025 05:11:03;117;0;316.11;-4;29.91;5.02;186.1;15.40;76052;2834.860;-1758.603;1;341;220;224.2;22.0;21.6;30;29.3;28.8;-1.0;
13/02/2025 05:11:23;117;0;316.98;-4;29.02;2.30;183.1;15.50;76059;2834.861;-1758.604;1;341;220;224.2;22.0;21.6;30;29.3;28.8;-1.0;
13/02/2025 05:11:43;117;0;315.13;-4;29.39;2.42;180.1;15.50;76075;2834.861;-1758.604;1;341;220;222.6;22.0;21.6;30;29.3;28.8;-1.0;
13/02/2025 05:12:03;117;0;316.48;-4;29.67;2.41;177.1;15.50;76077;2834.862;-1758.605;1;341;220;224.2;22.0;21.6;30;29.3;28.8;-1.0;
13/02/2025 05:12:23;117;0;319.40;-4;29.82;2.36;174.1;15.60;76100;2834.862;-1758.606;1;342;220;222.6;22.0;21.8;28;28.0;28.8;-1.0;
13/02/2025 05:12:43;117;0;316.74;-4;29.65;1.73;170.9;15.60;76096;2834.863;-1758.607;1;342;220;224.2;22.0;21.6;31;31.6;28.8;-1.0;
13/02/2025 05:13:03;117;0;319.57;-4;29.96;3.90;167.9;15.60;76092;2834.864;-1758.607;1;342;220;224.2;22.0;21.6;28;28.0;28.8;-1.0;
13/02/2025 05:13:23;117;0;324.32;-4;30.33;1.44;164.7;15.60;76119;2834.865;-1758.608;1;342;220;224.2;22.0;21.6;28;27.5;28.8;-1.0;
13/02/2025 05:13:43;117;0;322.44;-4;29.32;1.56;161.5;15.70;76137;2834.865;-1758.609;1;342;220;224.2;22.0;21.6;28;27.5;28.8;-1.0;
13/02/2025 05:14:03;117;0;319.10;-4;29.81;1.64;158.3;15.70;76140;2834.866;-1758.609;1;342;220;222.6;22.0;21.6;28;27.5;28.8;-1.0;
13/02/2025 05:14:23;117;0;314.25;-4;29.54;1.64;155.2;15.70;76142;2834.867;-1758.610;1;342;220;224.2;22.0;21.6;34;33.8;28.8;-1.0;
13/02/2025 05:14:43;117;0;313.38;-4;29.99;5.17;152.0;15.80;76159;2834.867;-1758.611;1;342;220;224.2;22.0;21.6;34;33.8;28.8;-1.0;
13/02/2025 05:15:03;117;0;315.57;-4;30.03;5.28;148.8;15.80;76167;2834.868;-1758.612;1;342;220;222.6;22.0;21.6;32;31.6;28.8;-1.0;
13/02/2025 05:15:23;117;0;315.73;-4;29.63;3.69;145.7;15.80;76165;2834.868;-1758.613;1;342;220;221.0;22.0;21.6;32;31.6;28.8;-1.0;
13/02/2025 05:15:43;117;0;310.64;-4;29.89;3.67;142.7;15.80;76170;2834.869;-1758.614;1;343;220;224.2;22.0;21.6;39;38.8;28.8;-1.0;
13/02/2025 05:16:03;117;0;307.31;-4;30.47;7.88;139.6;15.90;76190;2834.869;-1758.615;1;343;220;224.2;22.0;21.6;45;45.1;28.8;-1.0;
13/02/2025 05:16:23;117;0;308.75;-4;30.85;11.46;136.6;15.90;76217;2834.869;-1758.616;1;343;220;224.2;22.0;21.8;40;40.2;28.8;-1.0;
13/02/2025 05:16:43;117;0;311.00;-4;29.64;8.02;133.5;16.00;76240;2834.870;-1758.617;1;343;220;224.2;22.0;21.6;40;39.7;28.8;-1.0;
13/02/2025 05:17:03;117;0;312.24;-4;29.84;8.07;130.7;16.00;76254;2834.870;-1758.618;1;343;220;224.2;22.0;21.6;34;33.8;28.8;-1.0;
13/02/2025 05:17:23;117;0;309.98;-4;29.49;4.63;127.8;16.00;76285;2834.870;-1758.619;1;343;220;224.2;22.0;21.6;39;38.8;28.8;-1.0;
13/02/2025 05:17:43;117;0;308.57;-4;29.84;7.80;125.2;16.10;76289;2834.870;-1758.619;1;343;220;224.2;22.0;21.8;39;39.3;28.8;-1.0;
13/02/2025 05:18:03;117;0;310.24;-4;30.01;7.75;122.4;16.10;76299;2834.870;-1758.620;1;344;220;225.8;22.0;21.6;37;37.0;28.8;-1.0;
13/02/2025 05:18:23;117;0;310.82;-4;30.01;6.47;119.7;16.10;76308;2834.871;-1758.621;1;344;220;222.6;22.0;21.6;37;36.6;28.8;-1.0;
13/02/2025 05:18:43;117;0;315.76;-4;29.81;6.54;116.9;16.20;76342;2834.871;-1758.622;1;344;220;224.2;22.0;21.6;30;29.8;28.8;-1.0;
13/02/2025 05:19:03;117;0;318.77;-4;28.69;2.48;114.3;16.20;76375;2834.871;-1758.622;1;344;220;224.2;21.6;21.8;28;28.0;28.8;-1.0;
13/02/2025 05:19:23;117;0;321.95;-4;28.79;1.55;111.7;16.30;76411;2834.872;-1758.622;1;344;220;224.2;21.2;21.2;28;27.5;28.8;-1.0;
13/02/2025 05:19:43;117;0;318.15;-4;30.62;1.63;109.2;16.40;76444;2834.872;-1758.623;1;344;220;224.2;21.2;20.8;28;27.5;28.8;-1.0;
13/02/2025 05:20:03;117;0;312.64;-4;30.81;1.69;106.4;16.40;76467;2834.872;-1758.623;1;344;220;224.2;21.2;20.9;34;33.8;28.8;-1.0;
13/02/2025 05:20:23;117;0;308.93;-4;31.41;5.30;103.6;16.50;76495;2834.872;-1758.624;1;344;220;225.8;21.2;20.9;39;38.8;28.8;-1.0;
13/02/2025 05:20:43;117;0;308.68;-4;32.03;7.99;100.6;16.50;76513;2834.872;-1758.625;1;344;220;224.2;21.8;21.8;39;39.3;28.8;-1.0;
13/02/2025 05:21:03;117;0;309.54;-4;30.71;7.94;97.6;16.60;76522;2834.873;-1758.626;1;344;220;224.2;21.8;21.9;39;39.3;28.8;-1.0;
13/02/2025 05:21:23;117;0;309.03;-4;29.79;7.93;94.7;16.60;76545;2834.873;-1758.627;1;345;220;224.2;21.8;21.9;41;41.1;28.8;-1.0;
13/02/2025 05:21:43;117;0;309.79;-4;29.92;9.07;91.9;16.70;76552;2834.873;-1758.628;1;345;220;224.2;21.8;21.9;39;38.4;28.8;-1.0;
13/02/2025 05:22:03;117;0;309.63;-4;29.85;7.22;89.1;16.70;76568;2834.873;-1758.628;1;345;220;224.2;21.8;21.9;39;37.5;28.8;-1.0;
13/02/2025 05:22:23;117;0;309.84;-4;29.74;7.17;86.2;16.80;76570;2834.873;-1758.629;1;345;220;224.2;21.8;21.9;36;35.6;28.8;-1.0;
13/02/2025 05:22:44;117;0;309.79;-4;29.60;6.28;83.5;16.90;76585;2834.874;-1758.630;1;345;220;224.2;21.8;21.9;43;42.9;28.8;-1.0;
13/02/2025 05:23:04;117;0;311.33;-4;29.94;10.28;80.7;16.90;76597;2834.874;-1758.631;1;345;220;224.2;21.8;21.9;36;36.1;28.8;-1.0;
13/02/2025 05:23:24;117;0;310.82;-4;29.63;5.99;78.0;17.00;76601;2834.874;-1758.632;1;346;220;225.8;21.8;21.9;38;37.9;28.8;-1.0;
13/02/2025 05:23:44;117;0;310.77;-4;29.58;7.56;75.2;17.00;76613;2834.874;-1758.632;1;346;220;224.2;21.8;21.9;38;38.4;28.8;-1.0;
13/02/2025 05:24:04;117;0;310.69;-4;29.79;7.60;72.5;17.10;76622;2834.874;-1758.633;1;346;220;224.2;21.8;21.9;38;38.4;28.8;-1.0;
13/02/2025 05:24:24;117;0;309.95;-4;29.90;7.56;69.7;17.10;76629;2834.874;-1758.634;1;346;220;224.2;21.8;21.9;38;38.4;28.8;-1.0;
13/02/2025 05:24:44;117;0;309.52;-4;29.96;7.58;66.9;17.20;76630;2834.875;-1758.635;1;346;220;224.2;21.8;21.9;40;40.2;28.8;-1.0;
13/02/2025 05:25:04;117;0;310.40;-4;30.11;8.69;64.0;17.20;76648;2834.875;-1758.636;1;346;220;222.6;21.8;21.9;40;40.6;28.8;-1.0;
13/02/2025 05:25:24;117;0;309.14;-4;30.27;8.81;61.2;17.30;76643;2834.875;-1758.636;1;346;220;224.2;21.8;21.9;40;40.6;28.8;-1.0;
13/02/2025 05:25:44;117;0;309.92;-4;30.01;8.75;58.3;17.30;76654;2834.875;-1758.637;1;347;220;224.2;21.8;21.9;40;40.6;28.8;-1.0;
13/02/2025 05:26:04;117;0;309.68;-4;30.21;8.78;55.3;17.40;76665;2834.876;-1758.638;1;347;220;224.2;21.8;21.9;42;42.4;28.8;-1.0;
13/02/2025 05:26:24;117;0;309.65;-4;30.51;9.99;52.4;17.40;76672;2834.876;-1758.639;1;347;220;224.2;21.8;21.9;40;39.7;28.8;-1.0;
13/02/2025 05:26:44;117;0;310.09;-4;29.74;7.97;49.4;17.50;76675;2834.876;-1758.640;1;347;220;224.2;21.8;21.9;43;43.3;28.8;-1.0;
13/02/2025 05:27:04;117;0;310.17;-4;29.75;10.51;46.6;17.50;76687;2834.876;-1758.641;1;347;220;225.8;21.8;21.9;39;38.8;28.8;-1.0;
13/02/2025 05:27:24;117;0;308.93;-4;29.24;7.49;43.9;17.60;76687;2834.876;-1758.642;1;347;220;225.8;21.8;21.9;43;42.9;28.8;-1.0;
13/02/2025 05:27:44;117;0;309.75;-4;30.19;10.39;41.2;17.60;76702;2834.876;-1758.643;1;347;220;224.2;21.8;21.9;38;37.9;28.8;-1.0;
13/02/2025 05:28:04;117;0;310.08;-4;29.98;7.00;38.6;17.70;76711;2834.877;-1758.643;1;348;220;224.2;21.8;21.9;38;37.5;28.8;-1.0;
13/02/2025 05:28:24;117;0;309.32;-4;29.89;6.99;35.8;17.70;76720;2834.877;-1758.644;1;348;220;224.2;21.8;21.9;42;42.0;28.8;-1.0;
13/02/2025 05:28:44;117;0;308.16;-4;29.95;9.74;33.2;17.80;76732;2834.877;-1758.645;1;348;220;224.2;21.8;22.1;42;42.4;28.8;-1.0;
13/02/2025 05:29:04;117;0;307.59;-4;30.08;9.85;30.5;17.80;76741;2834.877;-1758.646;1;348;220;224.2;21.8;21.9;44;44.2;28.8;-1.0;
13/02/2025 05:29:24;117;0;307.49;-4;30.37;11.23;27.9;17.80;76736;2834.877;-1758.646;1;348;220;224.2;21.8;21.9;42;41.5;28.8;-1.0;
13/02/2025 05:29:44;117;0;307.74;-4;29.21;8.95;25.1;17.90;76754;2834.877;-1758.647;1;348;220;224.2;21.8;21.9;45;45.1;28.8;-1.0;
13/02/2025 05:30:04;117;0;307.56;-4;29.82;11.14;22.6;17.90;76752;2834.877;-1758.648;1;349;220;222.6;21.8;21.9;41;41.1;28.8;-1.0;
13/02/2025 05:30:24;117;0;307.90;-4;28.76;8.53;20.2;18.00;76769;2834.877;-1758.649;1;349;220;224.2;21.5;21.5;41;40.2;28.8;-1.0;
13/02/2025 05:30:44;117;0;311.07;-4;29.99;8.28;17.6;18.00;76768;2834.877;-1758.649;1;349;220;224.2;21.5;21.4;37;37.0;28.8;-1.0;
13/02/2025 05:31:04;117;0;310.29;-4;30.31;6.86;15.0;18.10;76775;2834.877;-1758.650;1;349;220;225.8;21.5;21.4;37;37.0;28.8;-1.0;
13/02/2025 05:31:24;117;0;312.32;-4;31.16;7.03;12.6;18.10;76776;2834.877;-1758.650;1;349;220;224.2;21.5;21.2;34;33.4;28.8;-1.0;
13/02/2025 05:31:44;117;0;310.09;-4;31.86;4.96;9.5;18.10;76773;2834.877;-1758.651;1;349;220;224.2;21.5;21.4;42;42.0;28.8;-1.0;
13/02/2025 05:32:04;117;0;312.27;-4;30.84;9.23;6.3;18.20;76777;2834.878;-1758.652;1;349;220;224.2;21.5;21.4;42;42.4;28.8;-1.0;
13/02/2025 05:32:24;117;0;313.45;-4;30.58;9.72;3.1;18.20;76799;2834.878;-1758.653;1;350;220;224.2;21.5;21.4;39;42.4;28.8;-1.0;
13/02/2025 05:32:26;115;0;312.99;-4;31.16;6.94;2.6;18.20;76782;2834.878;-1758.653;1;350;500;232.3;100.0;65.4;0;-0.5;28.8;-1.0;
13/02/2025 05:32:36;115;0;319.75;-4;12.44;-13.64;1.4;18.20;76751;2834.879;-1758.654;1;350;500;351.6;100.0;100.0;0;-0.5;28.5;-1.0;
13/02/2025 05:32:46;115;0;292.49;-4;-59.88;-14.04;2.0;18.30;76507;2834.878;-1758.653;1;350;500;464.5;100.0;100.6;0;-0.5;28.6;-1.0;
13/02/2025 05:32:56;115;0;246.81;-4;-67.87;-12.49;1.6;18.30;76246;2834.878;-1758.653;1;350;500;508.1;100.0;100.6;0;-0.5;28.6;-1.0;
13/02/2025 05:33:06;115;0;273.53;-4;-33.01;-12.92;0.1;18.30;76174;2834.877;-1758.654;1;350;500;508.1;100.0;100.6;0;-0.5;28.8;-1.0;
13/02/2025 05:33:26;119;0;282.45;-4;-53.00;-11.72;0.0;18.40;76183;2834.877;-1758.654;1;350;500;509.7;100.0;100.6;0;-0.5;28.8;-1.0;
13/02/2025 05:33:36;119;0;294.40;-4;-57.88;-24.19;0.1;18.40;76186;2834.984;-1758.853;0;350;500;509.7;100.0;100.6;0;-0.5;28.8;-1.0;
