Timestamp;NavState;SecurityLevel;Heading;Declination;Pitch;Roll;Depth;Temperature;Pa;Lat;Lon;DeadReckoning;DesiredH;BallastCmd;BallastPos;LinCmd;LinPos;AngCmd;AngPos;Voltage;Altitude;
16/02/2025 10:27:50;119;0;295.94;-4;-61.40;-7.66;-0.2;19.40;76145;2837.814;-1801.652;0;134;500;509.7;100.0;100.7;0;-0.5;28.4;-1.0;
16/02/2025 10:27:59;116;0;310.49;-4;-59.83;-10.69;0.1;19.40;76141;2837.821;-1801.654;0;134;500;509.7;100.0;100.7;0;-0.5;28.4;-1.0;
16/02/2025 10:28:25;116;0;346.80;-4;-55.42;-10.89;0.1;19.50;76156;2837.823;-1801.656;0;135;500;509.7;100.0;100.7;0;-0.5;28.4;-1.0;
16/02/2025 10:28:51;116;0;9.06;-4;-53.02;-22.90;0.2;19.50;76156;2837.826;-1801.657;0;135;500;509.7;100.0;100.7;0;-0.5;28.4;-1.0;
16/02/2025 10:29:02;116;0;9.97;-4;-50.89;-14.11;-0.1;19.50;76158;2837.827;-1801.657;0;135;500;509.7;100.0;100.7;0;-0.5;28.4;-1.0;
16/02/2025 10:29:22;116;0;24.51;-4;-51.24;-7.46;0.0;19.50;76166;2837.831;-1801.658;0;135;500;509.7;100.0;100.7;0;-0.5;28.4;-1.0;
16/02/2025 10:29:41;116;0;20.29;-4;-56.31;-26.80;-0.1;19.60;76175;2837.836;-1801.659;0;136;500;509.7;100.0;100.7;0;-0.5;28.4;-1.0;
16/02/2025 10:30:01;116;0;28.88;-4;-62.14;-6.70;-0.0;19.60;76167;2837.840;-1801.659;0;136;500;508.1;100.0;100.7;0;-0.5;28.4;-1.0;
16/02/2025 10:30:21;116;0;18.22;-4;-54.83;-19.33;-0.1;19.70;76181;2837.842;-1801.659;0;136;500;509.7;100.0;100.7;0;-0.5;28.4;-1.0;
16/02/2025 10:30:41;116;0;16.08;-4;-57.23;-23.33;-0.0;19.70;76196;2837.846;-1801.662;0;137;500;509.7;100.0;100.7;0;-0.5;28.4;-1.0;
16/02/2025 10:31:02;116;0;36.80;-4;-61.52;-16.37;-0.1;19.80;76183;2837.855;-1801.665;0;137;500;509.7;100.0;100.7;0;-0.5;28.4;-1.0;
16/02/2025 10:31:26;116;0;22.95;-4;-53.63;-9.76;0.0;19.80;76203;2837.855;-1801.663;0;137;500;509.7;100.0;100.7;0;-0.5;28.4;-1.0;
16/02/2025 10:31:47;116;0;29.67;-4;-56.58;-15.83;0.2;19.80;76195;2837.859;-1801.664;0;137;500;509.7;100.0;100.7;0;-0.5;28.4;-1.0;
16/02/2025 10:32:30;116;0;28.13;-4;-55.17;-13.87;0.2;19.90;76211;2837.867;-1801.667;0;138;500;509.7;100.0;100.7;0;-0.5;28.4;-1.0;
16/02/2025 10:32:50;116;0;21.69;-4;-53.78;-3.56;0.1;20.00;76200;2837.870;-1801.667;0;138;500;511.3;100.0;100.7;0;-0.5;28.4;-1.0;
16/02/2025 10:33:38;116;0;67.19;-4;-53.98;-3.05;0.1;20.10;76216;2837.881;-1801.670;0;139;500;509.7;100.0;100.7;0;-0.5;28.4;-1.0;
16/02/2025 10:33:58;116;0;67.71;-4;-60.89;-26.38;-0.1;20.20;76230;2837.884;-1801.670;0;139;500;508.1;100.0;100.7;0;-0.5;28.4;-1.0;
16/02/2025 10:34:09;116;0;38.61;-4;-53.19;-22.75;-0.1;20.20;76232;2837.887;-1801.671;0;139;500;509.7;100.0;100.7;0;-0.5;28.4;-1.0;
16/02/2025 10:34:30;110;0;31.17;-4;-53.70;-18.27;0.1;20.20;76232;2837.887;-1801.671;0;140;-50;393.5;100.0;99.9;-9;-9.0;28.4;-1.0;
16/02/2025 10:34:40;110;0;32.65;-4;-53.00;-12.03;0.1;20.30;76591;2837.888;-1801.672;1;140;-50;241.9;100.0;99.7;-9;-9.5;28.4;-1.0;
16/02/2025 10:34:50;110;0;31.69;-4;-57.22;-17.73;0.7;20.30;76834;2837.889;-1801.673;1;140;-50;83.9;100.0;99.9;-9;-9.0;28.4;-1.0;
16/02/2025 10:35:00;110;0;35.62;-4;-66.04;-17.14;1.0;20.30;77161;2837.890;-1801.674;1;140;-50;-51.6;100.0;99.9;-9;-9.0;28.4;-1.0;
16/02/2025 10:35:10;110;0;32.47;-4;-67.23;-24.41;1.3;20.40;77444;2837.891;-1801.675;1;140;-50;-51.6;47.6;47.6;-9;-9.0;28.4;-1.0;
16/02/2025 10:35:30;100;0;45.48;-4;-32.48;-17.10;4.4;20.40;77408;2837.895;-1801.675;1;140;-50;-48.4;47.6;47.1;-9;-9.0;28.4;-1.0;
16/02/2025 10:35:50;100;0;52.52;-4;-27.58;-16.79;7.9;20.40;77417;2837.899;-1801.674;1;140;-50;-45.2;48.4;48.6;-70;-69.9;28.4;-1.0;
16/02/2025 10:36:10;100;0;64.58;-4;-32.02;-45.61;11.5;20.50;77412;2837.903;-1801.674;1;141;-50;-45.2;47.7;47.6;-70;-70.4;28.4;-1.0;
16/02/2025 10:36:30;100;0;76.51;-4;-29.83;-45.54;15.3;20.50;77415;2837.905;-1801.672;1;141;-50;-45.2;47.7;47.3;-61;-60.9;28.4;0.0;
16/02/2025 10:36:50;100;0;85.89;-4;-28.42;-40.21;18.9;20.50;77416;2837.908;-1801.670;1;141;-50;-45.2;48.2;48.3;-50;-50.1;28.4;0.0;
16/02/2025 10:37:10;100;0;95.88;-4;-29.77;-34.93;22.5;20.50;77411;2837.909;-1801.669;1;142;-50;-45.2;48.2;48.5;-38;-37.5;28.4;0.0;
16/02/2025 10:37:30;100;0;105.59;-4;-30.28;-29.21;26.2;20.50;77421;2837.911;-1801.668;1;142;-50;-45.2;48.2;48.5;-25;-24.8;28.4;0.0;
16/02/2025 10:37:50;100;0;114.65;-4;-30.74;-22.90;30.0;20.50;77429;2837.911;-1801.666;1;142;-50;-46.8;48.2;48.6;-10;-9.9;28.4;0.0;
16/02/2025 10:38:10;100;0;122.89;-4;-29.49;-15.87;33.8;20.50;77435;2837.911;-1801.665;1;142;-50;-45.2;48.2;48.6;4;4.1;28.4;0.0;
16/02/2025 10:38:30;100;0;126.95;-4;-30.82;-9.29;37.6;20.50;77431;2837.912;-1801.664;1;142;-50;-45.2;48.2;48.6;9;9.0;28.4;0.0;
16/02/2025 10:38:50;100;0;130.21;-4;-31.79;-6.83;41.4;20.50;77441;2837.912;-1801.664;1;142;-50;-45.2;48.2;48.6;11;11.3;28.4;0.0;
16/02/2025 10:39:10;100;0;130.01;-4;-31.57;-5.92;45.4;20.50;77441;2837.912;-1801.663;1;142;-50;-45.2;48.2;48.6;11;11.7;28.4;0.0;
16/02/2025 10:39:30;100;0;130.30;-4;-31.14;-5.75;49.4;20.50;77439;2837.911;-1801.662;1;142;-50;-45.2;48.2;48.6;11;11.7;28.4;0.0;
16/02/2025 10:39:50;100;0;132.47;-4;-30.81;-5.77;53.2;20.50;77448;2837.911;-1801.662;1;142;-50;-45.2;48.2;48.6;11;11.7;28.4;0.0;
16/02/2025 10:40:10;100;0;133.25;-4;-31.15;-5.85;57.1;20.50;77446;2837.911;-1801.661;1;142;-50;-45.2;48.2;48.6;11;11.7;28.4;0.0;
16/02/2025 10:40:30;100;0;134.92;-4;-30.99;-5.69;61.0;20.50;77448;2837.911;-1801.661;1;142;-50;-45.2;48.2;48.6;11;11.7;28.4;0.0;
16/02/2025 10:40:50;100;0;136.44;-4;-30.81;-5.82;64.8;20.50;77446;2837.910;-1801.660;1;142;-50;-45.2;48.2;48.6;11;11.7;28.4;0.0;
16/02/2025 10:41:10;100;0;137.98;-4;-31.33;-5.74;68.7;20.50;77443;2837.910;-1801.660;1;142;-50;-45.2;48.2;48.6;11;11.7;28.4;0.0;
16/02/2025 10:41:30;100;0;136.75;-4;-31.46;-5.84;72.7;20.50;77452;2837.910;-1801.660;1;142;-50;-45.2;48.2;48.6;11;11.7;28.4;0.0;
16/02/2025 10:41:50;100;0;132.45;-4;-31.16;-5.75;76.7;20.50;77438;2837.909;-1801.659;1;142;-50;-45.2;48.2;48.6;11;11.7;28.4;0.0;
16/02/2025 10:42:10;100;0;129.00;-4;-31.17;-5.76;80.7;20.50;77444;2837.909;-1801.658;1;142;-50;-45.2;48.2;48.6;11;11.7;28.4;0.0;
16/02/2025 10:42:30;100;0;128.18;-4;-31.46;-5.68;84.6;20.50;77441;2837.909;-1801.657;1;143;-50;-45.2;48.2;48.6;9;9.0;28.4;0.0;
16/02/2025 10:42:50;100;0;127.74;-4;-30.90;-7.37;88.4;20.50;77448;2837.909;-1801.656;1;143;-50;-45.2;48.2;48.6;9;8.6;28.4;0.0;
16/02/2025 10:43:10;100;0;127.89;-4;-30.71;-7.35;92.2;20.50;77450;2837.909;-1801.656;1;143;-50;-46.8;48.2;48.6;9;8.6;28.4;0.0;
16/02/2025 10:43:30;100;0;127.43;-4;-30.95;-7.33;96.0;20.40;77451;2837.909;-1801.655;1;143;-50;-45.2;48.2;48.6;9;8.6;28.4;0.0;
16/02/2025 10:43:50;100;0;128.14;-4;-31.13;-7.35;99.7;20.40;77452;2837.909;-1801.654;1;143;-50;-45.2;48.2;48.6;9;8.6;28.4;0.0;
16/02/2025 10:44:10;100;0;128.21;-4;-30.81;-7.32;103.5;20.40;77452;2837.910;-1801.654;1;143;-50;-45.2;48.2;48.6;9;8.6;28.4;0.0;
16/02/2025 10:44:30;100;0;128.14;-4;-30.77;-7.37;107.3;20.40;77455;2837.910;-1801.653;1;143;-50;-45.2;48.2;48.6;9;8.6;28.4;0.0;
16/02/2025 10:44:50;100;0;126.04;-4;-30.99;-7.23;111.0;20.40;77442;2837.910;-1801.652;1;143;-50;-45.2;48.2;48.6;7;7.2;28.4;0.0;
16/02/2025 10:45:10;100;0;123.99;-4;-30.88;-8.34;114.6;20.40;77444;2837.910;-1801.651;1;143;-50;-45.2;48.2;48.6;5;5.0;28.4;0.0;
16/02/2025 10:45:30;100;0;124.82;-4;-30.37;-9.50;118.2;20.40;77439;2837.910;-1801.651;1;143;-50;-46.8;48.2;48.6;5;4.5;28.4;0.0;
16/02/2025 10:45:50;100;0;127.09;-4;-30.46;-9.51;121.6;20.40;77442;2837.911;-1801.650;1;143;-50;-45.2;48.2;48.6;8;8.6;28.4;0.0;
16/02/2025 10:46:10;100;0;128.81;-4;-30.67;-7.23;125.0;20.40;77446;2837.911;-1801.650;1;143;-50;-45.2;48.2;48.6;10;9.9;28.4;0.0;
16/02/2025 10:46:30;100;0;126.69;-4;-30.95;-6.45;128.4;20.40;77444;2837.911;-1801.649;1;143;-50;-45.2;48.2;48.6;10;10.4;28.4;0.0;
16/02/2025 10:46:50;100;0;128.76;-4;-30.34;-6.55;131.8;20.40;77436;2837.911;-1801.649;1;143;-50;-45.2;48.2;48.6;10;10.4;28.4;0.0;
16/02/2025 10:47:10;100;0;137.62;-4;-30.47;-6.73;135.0;20.30;77428;2837.911;-1801.649;1;143;-50;-45.2;48.2;48.6;12;12.2;28.4;0.0;
16/02/2025 10:47:30;100;0;145.39;-4;-30.55;-5.34;138.0;20.30;77400;2837.911;-1801.649;1;143;-50;-46.8;48.2;48.6;15;14.9;28.4;0.0;
16/02/2025 10:47:50;100;0;146.88;-4;-31.19;-4.23;141.2;20.30;77381;2837.911;-1801.650;1;143;-50;-45.2;48.2;48.6;15;15.3;28.4;0.0;
16/02/2025 10:48:10;100;0;146.54;-4;-30.80;-4.18;144.4;20.30;77341;2837.911;-1801.650;1;143;-50;-46.8;48.2;48.6;15;15.3;28.4;0.0;
16/02/2025 10:48:30;100;0;149.45;-4;-30.27;-4.04;147.5;20.20;77333;2837.910;-1801.651;1;143;-50;-45.2;48.2;48.6;18;18.1;28.4;0.0;
16/02/2025 10:48:50;100;0;148.63;-4;-29.90;-2.47;150.4;20.20;77294;2837.910;-1801.651;1;143;-50;-45.2;48.2;48.6;18;18.5;28.4;0.0;
16/02/2025 10:49:10;100;0;148.07;-4;-30.36;-2.57;153.2;20.20;77281;2837.910;-1801.652;1;143;-50;-45.2;48.2;48.6;18;18.5;28.4;0.0;
16/02/2025 10:49:30;100;0;149.06;-4;-31.23;-2.53;156.3;20.10;77261;2837.910;-1801.653;1;143;-50;-45.2;48.2;48.6;18;18.5;28.4;0.0;
16/02/2025 10:49:50;100;0;143.44;-4;-29.38;-2.67;159.6;20.10;77258;2837.910;-1801.653;1;143;-50;-46.8;48.2;48.6;13;12.6;28.4;0.0;
16/02/2025 10:50:10;100;0;138.32;-4;-31.10;-5.51;162.8;20.10;77254;2837.910;-1801.653;1;143;-50;-43.5;48.2;48.6;13;12.6;28.4;0.0;
16/02/2025 10:50:30;100;0;132.67;-4;-31.10;-5.56;166.3;20.00;77239;2837.910;-1801.653;1;143;-50;-45.2;48.2;48.6;13;12.6;28.4;0.0;
16/02/2025 10:50:50;100;0;134.52;-4;-30.21;-5.34;169.7;20.00;77217;2837.910;-1801.652;1;143;-50;-45.2;48.2;48.7;13;12.6;28.4;0.0;
16/02/2025 10:51:10;100;0;125.56;-4;-30.22;-5.29;172.9;20.00;77216;2837.910;-1801.652;1;143;-50;-45.2;48.2;48.6;8;8.1;28.4;0.0;
16/02/2025 10:51:30;100;0;123.63;-4;-30.14;-7.92;176.3;19.90;77192;2837.910;-1801.651;1;143;-50;-45.2;48.2;48.6;5;5.0;28.4;0.0;
16/02/2025 10:51:50;100;0;128.34;-4;-29.25;-9.70;179.6;19.90;77179;2837.911;-1801.651;1;143;-50;-45.2;48.2;48.6;10;10.4;28.4;0.0;
16/02/2025 10:52:10;100;0;129.44;-4;-30.37;-6.37;182.8;19.90;77161;2837.911;-1801.650;1;143;-50;-46.8;48.2;48.6;10;10.8;28.4;0.0;
16/02/2025 10:52:30;100;0;125.47;-4;-30.46;-6.43;186.3;19.80;77146;2837.911;-1801.650;1;143;-50;-43.5;48.2;48.6;6;5.9;28.4;0.0;
16/02/2025 10:52:50;100;0;125.40;-4;-29.70;-9.04;189.7;19.80;77151;2837.911;-1801.649;1;143;-50;-45.2;48.2;48.6;6;5.4;28.4;0.0;
16/02/2025 10:53:10;100;0;129.85;-4;-29.88;-9.07;193.1;19.70;77117;2837.911;-1801.649;1;143;-50;-46.8;48.2;48.6;11;10.8;28.4;0.0;
16/02/2025 10:53:30;100;0;130.83;-4;-30.06;-5.96;196.6;19.70;77107;2837.911;-1801.648;1;143;-50;-45.2;48.2;48.6;11;11.3;28.4;0.0;
16/02/2025 10:53:44;118;0;129.28;-4;-29.93;-5.94;199.0;19.70;77094;2837.912;-1801.648;1;144;150;-40.3;22.0;22.1;11;11.3;28.4;0.0;
16/02/2025 10:53:54;118;0;117.93;-4;-15.89;-6.86;200.2;19.70;77069;2837.911;-1801.647;1;144;150;90.3;22.0;21.8;11;11.3;28.0;-1.0;
16/02/2025 10:54:04;118;0;112.76;-4;11.43;-6.49;200.5;19.60;76789;2837.912;-1801.647;1;144;150;154.8;22.0;22.2;11;11.3;28.0;-1.0;
16/02/2025 10:54:14;118;0;128.54;-4;23.46;-6.84;199.7;19.60;76677;2837.913;-1801.648;1;144;150;154.8;22.0;22.4;11;11.3;28.4;-1.0;
16/02/2025 10:54:34;117;0;126.57;-4;28.02;-6.76;197.6;19.60;76672;2837.914;-1801.648;1;144;150;154.8;22.0;22.2;11;11.3;28.4;-1.0;
16/02/2025 10:54:54;117;0;124.20;-4;28.23;-6.84;195.2;19.60;76661;2837.915;-1801.648;1;144;150;154.8;21.5;21.2;36;36.1;28.4;-1.0;
16/02/2025 10:55:14;117;0;121.40;-4;31.93;6.85;192.9;19.50;76657;2837.916;-1801.649;1;144;150;156.5;21.5;21.2;36;36.6;28.4;-1.0;
16/02/2025 10:55:34;117;0;119.56;-4;32.54;6.77;190.5;19.40;76663;2837.917;-1801.649;1;144;150;154.8;22.3;22.2;40;40.2;28.4;-1.0;
16/02/2025 10:55:54;117;0;114.39;-4;31.39;8.89;188.1;19.40;76659;2837.918;-1801.649;1;144;150;154.8;22.3;22.4;48;47.8;28.4;-1.0;
16/02/2025 10:56:14;117;0;115.95;-4;31.58;13.26;185.5;19.40;76666;2837.919;-1801.649;1;144;150;156.5;22.3;22.4;48;48.3;28.4;-1.0;
16/02/2025 10:56:34;117;0;121.32;-4;31.22;13.17;183.0;19.30;76658;2837.920;-1801.649;1;144;150;154.8;22.3;22.5;39;38.8;28.4;-1.0;
16/02/2025 10:56:54;117;0;124.32;-4;30.39;7.52;180.7;19.30;76660;2837.921;-1801.649;1;144;150;154.8;22.3;22.4;36;34.3;28.4;-1.0;
16/02/2025 10:57:14;117;0;127.69;-4;30.61;6.64;178.4;19.30;76653;2837.922;-1801.650;1;144;150;154.8;22.3;22.4;33;32.9;28.4;-1.0;
16/02/2025 10:57:34;117;0;123.96;-4;30.38;4.38;176.0;19.20;76663;2837.923;-1801.650;1;144;150;154.8;22.3;22.4;36;36.1;28.4;-1.0;
16/02/2025 10:57:54;117;0;121.10;-4;30.92;6.77;173.5;19.20;76659;2837.924;-1801.650;1;144;150;156.5;22.3;22.4;39;38.8;28.4;-1.0;
16/02/2025 10:58:14;117;0;117.68;-4;31.18;8.11;170.9;19.20;76658;2837.925;-1801.650;1;144;150;154.8;22.3;22.4;44;44.7;28.4;-1.0;
16/02/2025 10:58:34;117;0;124.77;-4;31.43;11.23;168.2;19.10;76667;2837.925;-1801.650;1;144;150;156.5;22.3;22.4;35;33.4;28.4;-1.0;
16/02/2025 10:58:54;117;0;132.60;-4;30.42;5.89;165.6;19.10;76663;2837.926;-1801.650;1;144;150;156.5;22.3;22.4;32;31.6;28.4;-1.0;
16/02/2025 10:59:14;117;0;135.18;-4;29.98;3.65;163.2;19.10;76661;2837.926;-1801.651;1;144;150;156.5;22.3;22.4;32;31.1;28.4;-1.0;
16/02/2025 10:59:34;117;0;134.95;-4;29.72;3.65;160.8;19.10;76673;2837.927;-1801.651;1;144;150;154.8;22.3;22.4;32;31.1;28.4;-1.0;
16/02/2025 10:59:54;117;0;131.83;-4;29.89;3.77;158.4;19.10;76671;2837.928;-1801.651;1;144;150;154.8;22.3;22.4;32;31.1;28.4;-1.0;
16/02/2025 11:00:14;117;0;128.62;-4;30.09;3.63;155.9;19.00;76676;2837.928;-1801.652;1;144;150;154.8;22.3;22.4;32;31.1;28.4;-1.0;
16/02/2025 11:00:34;117;0;129.59;-4;29.64;3.67;153.3;19.00;76674;2837.929;-1801.652;1;144;150;154.8;22.3;22.4;32;31.1;28.4;-1.0;
16/02/2025 11:00:54;117;0;129.93;-4;29.64;3.65;151.0;19.00;76681;2837.930;-1801.652;1;144;150;154.8;22.3;22.5;32;31.1;28.4;-1.0;
16/02/2025 11:01:14;117;0;133.32;-4;29.61;3.78;148.7;19.00;76681;2837.930;-1801.653;1;144;150;154.8;22.3;22.4;32;31.1;28.4;-1.0;
16/02/2025 11:01:34;117;0;133.32;-4;29.29;3.72;146.3;19.00;76684;2837.931;-1801.653;1;144;150;154.8;22.3;22.4;32;31.1;28.4;-1.0;
16/02/2025 11:01:54;117;0;131.99;-4;29.47;3.80;144.1;19.00;76691;2837.931;-1801.653;1;144;150;156.5;22.3;22.4;32;31.1;28.4;-1.0;
16/02/2025 11:02:14;117;0;131.04;-4;30.23;3.69;141.8;18.90;76684;2837.932;-1801.654;1;144;150;154.8;22.3;22.4;32;31.1;28.4;-1.0;
16/02/2025 11:02:34;117;0;129.67;-4;29.69;3.70;139.6;18.90;76683;2837.933;-1801.654;1;144;150;154.8;22.3;22.4;32;31.1;28.4;-1.0;
16/02/2025 11:02:54;117;0;125.71;-4;29.31;3.78;137.4;18.90;76682;2837.934;-1801.655;1;145;150;154.8;22.3;22.4;34;33.8;28.4;-1.0;
16/02/2025 11:03:14;117;0;120.38;-4;30.52;5.59;135.3;18.90;76688;2837.935;-1801.655;1;145;150;153.2;22.3;22.4;37;37.5;28.4;-1.0;
16/02/2025 11:03:34;117;0;112.17;-4;30.69;7.27;133.1;18.90;76705;2837.936;-1801.655;1;145;150;154.8;22.3;22.4;51;51.0;28.4;-1.0;
16/02/2025 11:03:54;117;0;111.81;-4;30.98;14.79;130.9;18.90;76717;2837.938;-1801.655;1;145;150;154.8;22.3;22.4;51;51.0;28.4;-1.0;
16/02/2025 11:04:14;117;0;115.01;-4;31.04;14.79;128.8;18.90;76740;2837.939;-1801.656;1;145;150;154.8;22.3;22.4;44;44.2;28.4;-1.0;
16/02/2025 11:04:34;117;0;119.02;-4;30.14;10.38;126.6;18.90;76747;2837.940;-1801.656;1;145;150;154.8;22.3;22.4;40;39.7;28.4;-1.0;
16/02/2025 11:04:54;117;0;113.98;-4;30.60;8.05;124.7;18.90;76765;2837.941;-1801.657;1;145;170;172.6;22.3;22.4;44;44.2;28.4;-1.0;
16/02/2025 11:05:14;117;0;109.47;-4;29.73;11.17;122.8;18.90;76755;2837.943;-1801.657;1;145;190;191.9;22.3;22.4;54;54.2;28.4;-1.0;
16/02/2025 11:05:34;117;0;110.42;-4;30.05;16.68;120.7;18.90;76734;2837.944;-1801.657;1;145;190;193.5;22.3;22.5;54;54.6;28.4;-1.0;
16/02/2025 11:05:54;117;0;111.69;-4;30.49;16.64;118.4;18.90;76750;2837.946;-1801.657;1;145;190;195.2;22.3;22.4;54;54.6;28.4;-1.0;
16/02/2025 11:06:15;117;0;111.93;-4;30.28;16.64;115.9;18.90;76774;2837.947;-1801.657;1;145;190;193.5;22.3;22.4;54;54.6;28.4;-1.0;
16/02/2025 11:06:35;117;0;114.35;-4;30.33;16.67;113.5;18.90;76782;2837.948;-1801.657;1;145;190;195.2;22.3;22.5;51;51.0;28.4;-1.0;
16/02/2025 11:06:55;117;0;117.46;-4;29.65;14.22;111.1;19.00;76792;2837.949;-1801.657;1;145;190;193.5;22.3;22.4;44;43.8;28.4;-1.0;
16/02/2025 11:07:15;117;0;118.61;-4;29.35;10.52;108.8;19.00;76798;2837.950;-1801.657;1;145;190;195.2;22.3;22.4;42;41.5;28.4;-1.0;
16/02/2025 11:07:35;117;0;119.85;-4;28.88;9.13;106.5;19.00;76811;2837.951;-1801.657;1;145;190;195.2;21.9;21.8;39;38.8;28.4;-1.0;
16/02/2025 11:07:55;117;0;124.16;-4;29.19;7.29;104.4;19.00;76824;2837.952;-1801.657;1;146;190;195.2;21.9;21.8;37;36.1;28.4;-1.0;
16/02/2025 11:08:15;117;0;122.88;-4;28.86;6.44;102.0;19.00;76840;2837.953;-1801.658;1;146;190;195.2;21.6;21.6;37;36.1;28.4;-1.0;
16/02/2025 11:08:35;117;0;123.18;-4;30.31;6.46;99.8;19.00;76837;2837.954;-1801.658;1;146;190;195.2;21.6;21.5;37;36.1;28.4;-1.0;
16/02/2025 11:08:55;117;0;122.44;-4;30.51;6.48;97.6;19.00;76845;2837.955;-1801.658;1;146;190;195.2;21.6;21.5;37;36.1;28.4;-1.0;
16/02/2025 11:09:15;117;0;123.00;-4;30.29;6.48;95.2;19.10;76852;2837.956;-1801.658;1;146;190;195.2;21.6;21.5;37;36.1;28.4;-1.0;
16/02/2025 11:09:35;117;0;123.73;-4;30.14;6.45;92.8;19.10;76863;2837.957;-1801.659;1;146;190;195.2;21.6;21.5;37;36.1;28.4;-1.0;
16/02/2025 11:09:55;117;0;124.18;-4;29.86;6.45;90.4;19.10;76865;2837.958;-1801.659;1;146;190;195.2;21.6;21.5;37;36.1;28.4;-1.0;
16/02/2025 11:10:15;117;0;124.35;-4;30.08;6.43;88.0;19.10;76864;2837.958;-1801.659;1;146;190;195.2;21.6;21.6;37;36.1;28.4;-1.0;
16/02/2025 11:10:35;117;0;123.92;-4;30.25;6.54;85.6;19.10;76877;2837.959;-1801.659;1;146;190;193.5;21.6;21.5;37;36.1;28.4;-1.0;
16/02/2025 11:10:55;117;0;124.47;-4;29.97;6.45;83.0;19.10;76885;2837.960;-1801.659;1;146;190;195.2;21.6;21.5;37;36.1;28.4;-1.0;
16/02/2025 11:11:15;117;0;124.07;-4;29.95;6.44;80.5;19.20;76878;2837.961;-1801.659;1;146;190;195.2;21.6;21.5;37;36.1;28.4;-1.0;
16/02/2025 11:11:35;117;0;125.75;-4;30.05;6.51;78.0;19.20;76888;2837.962;-1801.659;1;146;190;195.2;21.6;21.5;35;35.2;28.4;-1.0;
16/02/2025 11:11:55;117;0;127.20;-4;29.91;5.79;75.5;19.20;76885;2837.962;-1801.660;1;146;190;195.2;21.6;21.5;35;34.7;28.4;-1.0;
16/02/2025 11:12:15;117;0;129.87;-4;29.66;5.78;73.2;19.20;76893;2837.963;-1801.660;1;146;190;193.5;21.6;21.5;33;32.5;28.4;-1.0;
16/02/2025 11:12:35;117;0;132.26;-4;29.82;4.15;70.7;19.20;76903;2837.964;-1801.660;1;146;190;195.2;21.6;21.5;33;32.0;28.4;-1.0;
16/02/2025 11:12:55;117;0;133.15;-4;29.89;4.19;68.3;19.20;76900;2837.964;-1801.661;1;146;190;195.2;21.6;21.6;33;32.0;28.4;-1.0;
16/02/2025 11:13:15;117;0;134.55;-4;29.18;4.08;66.0;19.30;76908;2837.965;-1801.661;1;146;190;195.2;21.6;21.5;33;32.0;28.4;-1.0;
16/02/2025 11:13:35;117;0;131.67;-4;29.95;4.17;63.6;19.30;76907;2837.965;-1801.661;1;146;190;195.2;21.6;21.5;33;32.0;28.4;-1.0;
16/02/2025 11:13:55;117;0;129.68;-4;29.71;4.17;61.2;19.30;76910;2837.966;-1801.662;1;146;190;195.2;21.6;21.5;33;32.0;28.4;-1.0;
16/02/2025 11:14:15;117;0;126.81;-4;30.03;4.19;58.7;19.30;76933;2837.967;-1801.662;1;146;190;195.2;21.6;21.5;35;35.6;28.4;-1.0;
16/02/2025 11:14:35;117;0;125.16;-4;29.90;6.45;56.2;19.30;76930;2837.968;-1801.662;1;146;190;195.2;21.6;21.5;35;36.1;28.4;-1.0;
16/02/2025 11:14:55;117;0;124.41;-4;29.54;6.39;53.7;19.40;76940;2837.968;-1801.662;1;146;190;195.2;21.6;21.5;35;36.1;28.4;-1.0;
16/02/2025 11:15:15;117;0;120.99;-4;30.36;6.40;51.2;19.40;76942;2837.969;-1801.662;1;146;190;195.2;21.6;21.5;41;41.1;28.4;-1.0;
16/02/2025 11:15:35;117;0;119.76;-4;30.69;9.40;48.5;19.40;76944;2837.970;-1801.662;1;146;190;195.2;21.6;21.5;43;42.9;28.4;-1.0;
16/02/2025 11:15:55;117;0;117.90;-4;31.07;10.64;46.0;19.40;76946;2837.972;-1801.662;1;146;190;193.5;21.6;21.5;43;43.3;28.4;-1.0;
16/02/2025 11:16:15;117;0;118.54;-4;30.51;10.64;43.4;19.40;76948;2837.972;-1801.662;1;146;190;193.5;21.6;21.5;45;45.1;28.4;-1.0;
16/02/2025 11:16:35;117;0;117.38;-4;31.57;12.00;40.8;19.40;76945;2837.973;-1801.662;1;146;190;195.2;21.6;21.5;45;45.6;28.4;-1.0;
16/02/2025 11:16:55;117;0;119.43;-4;29.74;11.75;38.2;19.50;76963;2837.974;-1801.662;1;147;190;195.2;21.6;21.5;43;42.4;28.4;-1.0;
16/02/2025 11:17:15;117;0;120.66;-4;30.63;9.60;35.4;19.50;76965;2837.975;-1801.662;1;147;190;193.5;21.6;21.5;43;42.0;28.4;-1.0;
16/02/2025 11:17:35;117;0;117.65;-4;29.58;9.64;32.7;19.50;76957;2837.976;-1801.662;1;147;190;193.5;21.6;21.5;46;46.0;28.4;-1.0;
16/02/2025 11:17:55;117;0;119.92;-4;30.39;12.11;30.1;19.50;76961;2837.977;-1801.662;1;147;190;193.5;21.6;21.6;43;42.9;28.4;-1.0;
16/02/2025 11:18:15;117;0;118.69;-4;30.11;9.68;27.6;19.50;76969;2837.978;-1801.661;1;147;190;195.2;21.6;21.5;45;45.6;28.4;-1.0;
16/02/2025 11:18:35;117;0;116.74;-4;30.78;11.72;24.9;19.50;76965;2837.979;-1801.661;1;147;190;195.2;21.6;21.5;48;47.8;28.4;-1.0;
16/02/2025 11:18:55;117;0;118.26;-4;30.72;12.99;22.2;19.60;76978;2837.980;-1801.661;1;147;190;195.2;21.6;21.5;45;45.1;28.4;-1.0;
16/02/2025 11:19:15;117;0;118.11;-4;31.87;11.34;19.4;19.60;76983;2837.981;-1801.661;1;147;190;195.2;21.6;21.5;45;44.2;28.4;-1.0;
16/02/2025 11:19:35;117;0;120.65;-4;30.21;10.75;16.8;19.60;76985;2837.982;-1801.661;1;147;190;193.5;21.6;21.5;42;42.0;28.4;-1.0;
16/02/2025 11:19:55;117;0;122.26;-4;29.75;9.46;14.1;19.60;76989;2837.983;-1801.661;1;147;190;195.2;21.6;21.5;40;40.2;28.4;-1.0;
16/02/2025 11:20:15;117;0;122.76;-4;28.05;8.48;11.6;19.60;76986;2837.983;-1801.661;1;147;190;193.5;21.0;20.9;40;39.7;28.4;-1.0;
16/02/2025 11:20:35;117;0;122.41;-4;30.41;8.42;8.9;19.70;77002;2837.984;-1801.661;1;147;190;195.2;21.0;20.8;40;39.7;28.4;-1.0;
16/02/2025 11:20:55;117;0;118.46;-4;33.34;8.78;6.1;19.70;76993;2837.985;-1801.660;1;147;190;195.2;22.0;22.2;45;45.1;28.4;-1.0;
16/02/2025 11:21:15;117;0;121.24;-4;26.55;11.80;3.4;19.70;77000;2837.986;-1801.660;1;147;190;195.2;21.0;22.2;43;45.1;28.4;-1.0;
16/02/2025 11:21:18;115;0;120.88;-4;28.44;9.30;3.1;19.70;76990;2837.986;-1801.660;1;147;500;201.6;100.0;64.8;0;-0.5;28.4;-1.0;
16/02/2025 11:21:28;115;0;109.24;-4;11.93;-12.11;2.1;19.70;76963;2837.986;-1801.659;1;147;500;321.0;100.0;100.0;0;-0.5;28.2;-1.0;
16/02/2025 11:21:38;115;0;108.51;-4;-64.80;-5.10;2.8;19.70;76696;2837.987;-1801.660;1;147;500;440.3;100.0;100.6;0;-0.5;28.2;-1.0;
16/02/2025 11:21:48;115;0;100.65;-4;-67.50;-17.08;2.4;19.70;76446;2837.988;-1801.661;1;147;500;508.1;100.0;100.7;0;-0.5;28.2;-1.0;
16/02/2025 11:21:58;115;0;64.35;-4;-34.58;-10.29;-0.1;19.70;76317;2837.990;-1801.660;1;148;500;508.1;100.0;100.6;0;-0.5;28.4;-1.0;
16/02/2025 11:22:18;119;0;65.43;-4;-63.48;-20.66;0.1;19.80;76327;2837.990;-1801.660;1;148;500;508.1;100.0;100.7;0;-0.5;28.4;-1.0;
16/02/2025 11:22:28;119;0;45.58;-4;-48.86;-19.83;0.0;19.80;76337;2838.075;-1801.685;0;148;500;508.1;100.0;100.6;0;-0.5;28.4;-1.0;
