Timestamp;NavState;SecurityLevel;Heading;Declination;Pitch;Roll;Depth;Temperature;Pa;Lat;Lon;DeadReckoning;DesiredH;BallastCmd;BallastPos;LinCmd;LinPos;AngCmd;AngPos;Voltage;Altitude;
15/02/2025 16:31:28;119;0;322.00;-4;-46.85;-6.74;-0.1;19.00;76072;2834.900;-1756.739;0;168;500;509.7;100.0;100.6;0;-0.5;28.5;-1.0;
15/02/2025 16:31:38;116;0;336.36;-4;-54.52;-19.23;-0.2;19.00;76071;2834.896;-1756.741;0;168;500;509.7;100.0;100.6;0;-0.5;28.5;-1.0;
15/02/2025 16:32:11;116;0;338.62;-4;-46.44;-20.13;-0.1;19.10;76089;2834.894;-1756.741;0;167;500;509.7;100.0;100.4;0;-0.5;28.5;-1.0;
15/02/2025 16:32:27;116;0;338.79;-4;-57.44;-26.98;0.0;19.10;76082;2834.893;-1756.742;0;-9999;500;509.7;100.0;100.6;0;-0.5;28.5;-1.0;
15/02/2025 16:32:49;116;0;341.66;-4;-48.29;-26.15;-0.2;19.20;76097;2834.891;-1756.742;0;278;500;508.1;100.0;100.6;0;-0.5;28.5;-1.0;
15/02/2025 16:33:09;116;0;336.15;-4;-52.26;-3.80;-0.1;19.20;76096;2834.890;-1756.742;0;278;500;509.7;100.0;100.6;0;-0.5;28.5;-1.0;
15/02/2025 16:33:55;116;0;352.11;-4;-50.38;-27.86;-0.1;19.30;76111;2834.887;-1756.743;0;278;500;509.7;100.0;100.6;0;-0.5;28.5;-1.0;
15/02/2025 16:34:07;116;0;342.22;-4;-52.58;0.10;-0.1;19.30;76112;2834.886;-1756.743;0;278;500;509.7;100.0;100.6;0;-0.5;28.5;-1.0;
15/02/2025 16:34:56;116;0;342.21;-4;-47.60;-16.13;-0.1;19.50;76134;2834.882;-1756.745;0;278;500;508.1;100.0;100.6;0;-0.5;28.5;-1.0;
15/02/2025 16:35:07;116;0;342.66;-4;-47.87;-14.22;-0.1;19.50;76134;2834.880;-1756.745;0;278;500;509.7;100.0;100.6;0;-0.5;28.5;-1.0;
15/02/2025 16:35:27;110;0;333.87;-4;-53.57;-0.83;0.1;19.50;76135;2834.880;-1756.745;0;278;-50;396.8;100.0;100.6;-9;-9.5;28.5;-1.0;
15/02/2025 16:35:37;110;0;345.69;-4;-57.25;-25.96;0.3;19.60;76479;2834.880;-1756.745;1;278;-50;245.2;100.0;100.6;-9;-9.9;28.5;-1.0;
15/02/2025 16:35:47;110;0;347.57;-4;-56.45;-18.14;0.7;19.60;76735;2834.880;-1756.745;1;278;-50;88.7;100.0;100.4;-9;-9.9;28.5;-1.0;
15/02/2025 16:35:57;110;0;329.48;-4;-70.77;-26.53;0.9;19.60;77056;2834.881;-1756.745;1;278;-50;-50.0;100.0;100.6;-9;-9.9;28.5;-1.0;
15/02/2025 16:36:07;110;0;336.81;-4;-69.19;-25.26;1.4;19.70;77350;2834.881;-1756.745;1;278;-50;-50.0;50.0;49.9;-9;-9.9;28.5;-1.0;
15/02/2025 16:36:27;100;0;343.18;-4;-32.19;-18.16;4.6;19.70;77316;2834.883;-1756.746;1;278;-50;-48.4;50.0;49.6;-9;-9.9;28.5;-1.0;
15/02/2025 16:36:47;100;0;352.13;-4;-34.01;-16.13;8.5;19.80;77324;2834.886;-1756.746;1;278;-50;-46.8;45.8;45.5;70;69.9;28.5;-1.0;
15/02/2025 16:37:07;100;0;348.04;-4;-29.81;23.15;12.2;19.80;77323;2834.889;-1756.747;1;278;-50;-46.8;42.9;42.7;70;69.9;28.5;-1.0;
15/02/2025 16:37:27;100;0;335.39;-4;-23.92;23.46;15.5;19.80;77320;2834.893;-1756.748;1;278;-50;-46.8;41.7;41.7;70;70.4;28.5;0.0;
15/02/2025 16:37:47;100;0;324.55;-4;-20.33;23.44;18.4;19.80;77320;2834.896;-1756.751;1;277;-50;-46.8;41.7;41.5;70;69.9;28.5;0.0;
15/02/2025 16:38:07;100;0;315.58;-4;-19.45;23.42;21.1;19.80;77314;2834.898;-1756.753;1;277;-50;-45.2;41.7;41.4;59;59.1;28.5;0.0;
15/02/2025 16:38:27;100;0;305.45;-4;-19.05;17.24;23.7;19.80;77308;2834.900;-1756.756;1;277;-50;-46.8;41.7;41.2;44;44.2;28.5;0.0;
15/02/2025 16:38:47;100;0;299.06;-4;-18.50;9.66;26.1;19.80;77313;2834.901;-1756.760;1;277;-50;-45.2;42.1;42.6;33;32.9;28.5;0.0;
15/02/2025 16:39:07;100;0;294.58;-4;-19.13;4.27;28.5;19.80;77315;2834.903;-1756.763;1;277;-50;-46.8;42.1;42.4;25;24.8;28.5;0.0;
15/02/2025 16:39:27;100;0;290.07;-4;-19.58;0.06;31.1;19.80;77313;2834.904;-1756.766;1;277;-50;-46.8;42.1;42.6;19;19.0;28.5;0.0;
15/02/2025 16:39:47;100;0;288.83;-4;-18.74;-2.87;33.6;19.90;77317;2834.905;-1756.770;1;277;-50;-45.2;42.5;42.6;19;18.5;28.5;0.0;
15/02/2025 16:40:07;100;0;287.15;-4;-19.46;-2.93;36.0;19.90;77322;2834.906;-1756.773;1;277;-50;-45.2;42.5;42.7;17;17.1;28.5;0.0;
15/02/2025 16:40:27;100;0;285.97;-4;-19.06;-3.69;38.6;19.90;77319;2834.907;-1756.777;1;277;-50;-45.2;42.5;42.7;17;16.7;28.5;0.0;
15/02/2025 16:40:47;100;0;285.02;-4;-19.08;-3.59;41.1;19.90;77319;2834.908;-1756.780;1;277;-50;-45.2;42.5;42.7;17;16.7;28.5;0.0;
15/02/2025 16:41:07;100;0;284.90;-4;-19.26;-3.71;43.7;19.90;77330;2834.908;-1756.784;1;277;-50;-46.8;42.5;42.7;17;16.7;28.5;0.0;
15/02/2025 16:41:27;100;0;284.34;-4;-19.08;-3.64;46.4;19.90;77338;2834.909;-1756.788;1;277;-50;-45.2;42.5;42.7;15;14.9;28.5;0.0;
15/02/2025 16:41:47;100;0;283.90;-4;-19.23;-4.80;49.1;19.90;77338;2834.910;-1756.792;1;277;-50;-45.2;42.5;42.7;15;14.4;28.5;0.0;
15/02/2025 16:42:08;100;0;282.62;-4;-18.60;-4.83;51.6;19.90;77335;2834.911;-1756.795;1;277;-50;-45.2;42.9;43.0;15;14.4;28.5;0.0;
15/02/2025 16:42:28;100;0;280.76;-4;-19.83;-4.85;54.2;19.90;77338;2834.911;-1756.799;1;277;-50;-45.2;42.9;43.3;15;14.4;28.5;0.0;
15/02/2025 16:42:48;100;0;279.04;-4;-19.52;-4.86;56.6;19.90;77329;2834.912;-1756.802;1;277;-50;-45.2;42.9;43.3;15;14.4;28.5;0.0;
15/02/2025 16:43:08;100;0;278.76;-4;-20.45;-4.96;59.1;19.90;77347;2834.912;-1756.806;1;277;-50;-45.2;42.9;43.3;15;14.4;28.5;0.0;
15/02/2025 16:43:28;100;0;281.90;-4;-20.24;-4.81;61.8;19.90;77344;2834.913;-1756.810;1;277;-50;-45.2;42.9;43.3;15;14.4;28.5;0.0;
15/02/2025 16:43:48;100;0;283.70;-4;-19.86;-4.84;64.4;19.90;77341;2834.914;-1756.813;1;277;-50;-45.2;42.9;43.3;15;14.4;28.5;0.0;
15/02/2025 16:44:08;100;0;283.85;-4;-20.03;-4.84;67.1;19.90;77341;2834.914;-1756.817;1;277;-50;-45.2;42.9;43.3;15;14.0;28.5;0.0;
15/02/2025 16:44:28;100;0;282.97;-4;-20.50;-4.86;69.6;19.90;77338;2834.915;-1756.820;1;277;-50;-43.5;42.9;43.3;15;14.4;28.5;0.0;
15/02/2025 16:44:48;100;0;280.28;-4;-20.44;-4.82;72.3;19.90;77351;2834.916;-1756.824;1;277;-50;-45.2;42.9;43.3;15;14.4;28.5;0.0;
15/02/2025 16:45:08;100;0;279.81;-4;-19.23;-4.86;75.0;19.90;77344;2834.916;-1756.828;1;277;-50;-45.2;42.9;43.3;15;14.4;28.5;0.0;
15/02/2025 16:45:28;100;0;279.06;-4;-20.12;-4.96;77.6;19.90;77350;2834.917;-1756.832;1;277;-50;-45.2;42.9;43.4;15;14.4;28.5;0.0;
15/02/2025 16:45:48;100;0;280.11;-4;-19.66;-4.96;80.1;19.90;77352;2834.917;-1756.835;1;277;-50;-45.2;42.9;43.3;15;14.4;28.5;0.0;
15/02/2025 16:46:08;100;0;280.39;-4;-20.26;-4.77;82.7;19.90;77355;2834.918;-1756.839;1;277;-50;-46.8;42.9;43.3;15;14.4;28.5;0.0;
15/02/2025 16:46:28;100;0;279.66;-4;-20.34;-4.86;85.3;19.90;77358;2834.918;-1756.843;1;277;-50;-45.2;42.9;43.3;15;14.4;28.5;0.0;
15/02/2025 16:46:48;100;0;279.66;-4;-19.77;-4.85;87.9;19.90;77367;2834.919;-1756.846;1;277;-50;-45.2;42.9;43.3;15;14.4;28.5;0.0;
15/02/2025 16:47:08;100;0;280.19;-4;-20.32;-4.83;90.4;19.90;77361;2834.919;-1756.850;1;277;-50;-45.2;42.9;43.3;15;14.4;28.5;0.0;
15/02/2025 16:47:28;100;0;279.32;-4;-19.38;-4.67;93.0;19.90;77361;2834.920;-1756.853;1;277;-50;-46.8;42.9;43.3;15;14.4;28.5;0.0;
15/02/2025 16:47:48;100;0;277.87;-4;-20.03;-4.86;95.4;19.90;77371;2834.920;-1756.857;1;277;-50;-46.8;42.9;43.3;15;14.4;28.5;0.0;
15/02/2025 16:48:08;100;0;277.52;-4;-20.05;-4.84;97.9;19.90;77369;2834.920;-1756.860;1;277;-50;-45.2;42.9;43.3;15;14.4;28.5;0.0;
15/02/2025 16:48:28;100;0;277.59;-4;-19.97;-4.86;100.4;19.90;77369;2834.921;-1756.864;1;277;-50;-45.2;42.9;43.3;15;14.4;28.5;0.0;
15/02/2025 16:48:48;100;0;278.56;-4;-20.25;-4.88;102.8;19.90;77369;2834.921;-1756.867;1;277;-50;-45.2;42.9;43.3;15;14.4;28.5;0.0;
15/02/2025 16:49:08;100;0;278.11;-4;-19.90;-4.85;105.4;19.90;77380;2834.922;-1756.871;1;277;-50;-45.2;42.9;43.3;15;14.4;28.5;0.0;
15/02/2025 16:49:28;100;0;279.83;-4;-19.94;-4.85;107.8;19.90;77374;2834.922;-1756.874;1;277;-50;-45.2;42.9;43.3;15;14.4;28.5;0.0;
15/02/2025 16:49:48;100;0;285.86;-4;-20.09;-4.95;110.3;19.90;77367;2834.923;-1756.878;1;277;-50;-45.2;42.9;43.3;15;14.4;28.5;0.0;
15/02/2025 16:50:08;100;0;289.50;-4;-19.81;-4.81;112.8;19.90;77353;2834.924;-1756.881;1;277;-50;-45.2;42.9;43.3;19;19.0;28.5;0.0;
15/02/2025 16:50:28;100;0;290.99;-4;-20.00;-2.24;115.3;19.90;77328;2834.925;-1756.884;1;277;-50;-43.5;42.9;43.3;21;21.2;28.5;0.0;
15/02/2025 16:50:48;100;0;285.13;-4;-19.44;-1.19;117.7;19.90;77308;2834.926;-1756.888;1;277;-50;-45.2;42.9;43.3;16;15.8;28.5;0.0;
15/02/2025 16:51:08;100;0;276.20;-4;-19.15;-4.36;119.9;19.80;77278;2834.926;-1756.891;1;277;-50;-46.8;42.9;43.3;16;15.3;28.5;0.0;
15/02/2025 16:51:28;100;0;271.46;-4;-19.26;-4.40;122.1;19.80;77276;2834.926;-1756.894;1;277;-50;-45.2;42.9;43.3;14;14.0;28.5;0.0;
15/02/2025 16:51:48;100;0;265.83;-4;-18.89;-5.23;124.3;19.80;77251;2834.926;-1756.897;1;277;-50;-46.8;43.3;43.3;10;9.9;28.5;0.0;
15/02/2025 16:52:08;100;0;262.40;-4;-19.11;-7.29;126.3;19.80;77234;2834.925;-1756.900;1;277;-50;-45.2;43.3;43.4;5;5.0;28.5;0.0;
15/02/2025 16:52:28;100;0;265.05;-4;-18.79;-9.81;128.4;19.80;77226;2834.925;-1756.903;1;277;-50;-45.2;43.6;43.9;9;9.0;28.5;0.0;
15/02/2025 16:52:48;100;0;270.53;-4;-20.43;-7.23;130.6;19.70;77197;2834.925;-1756.907;1;277;-50;-43.5;43.6;44.0;13;13.1;28.5;0.0;
15/02/2025 16:53:08;100;0;272.73;-4;-20.70;-5.25;132.9;19.70;77190;2834.925;-1756.910;1;277;-50;-46.8;43.6;44.0;13;13.1;28.5;0.0;
15/02/2025 16:53:28;100;0;271.53;-4;-21.09;-5.25;135.3;19.70;77188;2834.925;-1756.913;1;277;-50;-45.2;43.6;44.0;13;13.1;28.5;0.0;
15/02/2025 16:53:48;100;0;271.66;-4;-21.04;-5.28;137.8;19.70;77168;2834.925;-1756.916;1;277;-50;-45.2;43.6;44.0;13;13.5;28.5;0.0;
15/02/2025 16:54:08;100;0;273.60;-4;-20.89;-5.22;140.2;19.60;77159;2834.925;-1756.920;1;277;-50;-45.2;43.6;44.0;13;13.5;28.5;0.0;
15/02/2025 16:54:28;100;0;275.51;-4;-20.79;-5.29;142.6;19.60;77163;2834.926;-1756.923;1;277;-50;-45.2;43.6;44.0;13;13.1;28.5;0.0;
15/02/2025 16:54:48;100;0;274.79;-4;-20.94;-5.32;145.0;19.60;77142;2834.926;-1756.926;1;277;-50;-46.8;43.6;44.0;13;13.5;28.5;0.0;
15/02/2025 16:55:08;100;0;272.98;-4;-20.78;-5.29;147.5;19.50;77131;2834.926;-1756.930;1;277;-50;-48.4;43.6;44.0;13;13.1;28.5;0.0;
15/02/2025 16:55:28;100;0;270.36;-4;-20.79;-5.32;150.0;19.50;77125;2834.926;-1756.933;1;277;-50;-45.2;43.6;44.0;13;13.1;28.5;0.0;
15/02/2025 16:55:48;100;0;268.61;-4;-20.66;-5.34;152.5;19.50;77120;2834.926;-1756.936;1;277;-50;-46.8;43.6;44.0;13;13.1;28.5;0.0;
15/02/2025 16:56:08;100;0;265.77;-4;-21.13;-5.27;155.0;19.50;77106;2834.926;-1756.940;1;277;-50;-45.2;43.6;44.0;9;9.0;28.5;0.0;
15/02/2025 16:56:28;100;0;268.87;-4;-21.05;-7.62;157.9;19.40;77101;2834.925;-1756.944;1;277;-50;-45.2;43.6;44.0;12;12.2;28.5;0.0;
15/02/2025 16:56:48;100;0;271.22;-4;-21.23;-5.60;160.8;19.40;77080;2834.926;-1756.948;1;277;-50;-45.2;43.6;44.0;12;12.6;28.5;0.0;
15/02/2025 16:57:08;100;0;272.50;-4;-21.39;-5.65;163.7;19.40;77070;2834.926;-1756.952;1;277;-50;-46.8;43.6;44.0;14;14.0;28.5;0.0;
15/02/2025 16:57:28;100;0;272.98;-4;-21.30;-4.53;166.7;19.30;77071;2834.926;-1756.956;1;277;-50;-45.2;43.6;43.9;14;14.9;28.5;0.0;
15/02/2025 16:57:48;100;0;275.03;-4;-21.18;-4.53;169.7;19.30;77040;2834.926;-1756.960;1;277;-50;-46.8;43.6;44.0;14;14.9;28.5;0.0;
15/02/2025 16:58:08;100;0;277.93;-4;-20.76;-4.55;172.6;19.30;77035;2834.926;-1756.964;1;277;-50;-45.2;43.6;44.0;14;14.9;28.5;0.0;
15/02/2025 16:58:28;100;0;274.62;-4;-20.23;-4.61;175.4;19.20;77031;2834.927;-1756.968;1;277;-50;-45.2;43.6;44.0;14;14.9;28.5;0.0;
15/02/2025 16:58:48;100;0;273.10;-4;-20.10;-4.69;177.9;19.20;77018;2834.927;-1756.972;1;277;-50;-45.2;43.6;44.0;14;14.9;28.5;0.0;
15/02/2025 16:59:08;100;0;270.88;-4;-20.35;-4.63;180.4;19.10;76999;2834.927;-1756.975;1;277;-50;-45.2;43.6;44.0;14;14.9;28.5;0.0;
15/02/2025 16:59:28;100;0;268.41;-4;-19.24;-4.64;182.9;19.10;77006;2834.927;-1756.979;1;277;-50;-43.5;43.6;44.0;11;10.8;28.5;0.0;
15/02/2025 16:59:48;100;0;269.20;-4;-20.31;-6.75;185.2;19.10;76991;2834.927;-1756.982;1;277;-50;-45.2;43.6;44.0;11;10.4;28.5;0.0;
15/02/2025 17:00:08;100;0;270.93;-4;-20.04;-6.82;187.6;19.00;76974;2834.927;-1756.986;1;277;-50;-45.2;43.6;44.0;13;13.1;28.5;0.0;
15/02/2025 17:00:28;100;0;274.71;-4;-21.02;-5.30;190.1;19.00;76964;2834.927;-1756.989;1;277;-50;-45.2;43.6;44.0;13;13.5;28.5;0.0;
15/02/2025 17:00:48;100;0;272.68;-4;-21.24;-5.22;192.7;19.00;76957;2834.927;-1756.993;1;277;-50;-43.5;43.6;44.0;13;13.5;28.5;0.0;
15/02/2025 17:01:08;100;0;271.24;-4;-21.07;-5.22;195.5;18.90;76942;2834.927;-1756.996;1;277;-50;-45.2;43.6;44.0;13;13.5;28.5;0.0;
15/02/2025 17:01:28;100;0;271.21;-4;-21.40;-5.20;198.2;18.90;76929;2834.927;-1757.000;1;277;-50;-45.2;43.6;44.0;13;13.5;28.5;0.0;
15/02/2025 17:01:48;100;0;271.66;-4;-21.30;-5.27;201.0;18.90;76927;2834.927;-1757.004;1;277;-50;-45.2;43.6;44.2;13;13.5;28.5;0.0;
15/02/2025 17:02:08;100;0;271.26;-4;-21.09;-5.26;203.8;18.80;76918;2834.927;-1757.008;1;277;-50;-46.8;43.6;44.0;13;13.5;28.5;0.0;
15/02/2025 17:02:28;100;0;269.44;-4;-21.09;-5.22;206.7;18.80;76904;2834.927;-1757.012;1;277;-50;-46.8;43.6;44.0;13;13.1;28.5;0.0;
15/02/2025 17:02:48;100;0;272.41;-4;-20.88;-5.21;209.4;18.80;76899;2834.927;-1757.016;1;277;-50;-45.2;43.6;44.0;13;13.5;28.5;0.0;
15/02/2025 17:03:08;100;0;272.98;-4;-20.64;-5.31;212.1;18.70;76881;2834.927;-1757.019;1;277;-50;-45.2;43.6;44.0;13;13.5;28.5;0.0;
15/02/2025 17:03:28;100;0;271.64;-4;-20.55;-5.27;214.8;18.70;76876;2834.927;-1757.023;1;277;-50;-45.2;43.6;44.0;13;13.5;28.5;0.0;
15/02/2025 17:03:48;100;0;270.26;-4;-20.36;-5.24;217.5;18.60;76866;2834.927;-1757.027;1;277;-50;-45.2;43.6;44.0;13;13.5;28.5;0.0;
15/02/2025 17:04:08;100;0;267.96;-4;-20.41;-5.37;220.1;18.60;76859;2834.927;-1757.030;1;277;-50;-45.2;43.6;44.0;11;10.8;28.5;0.0;
15/02/2025 17:04:28;100;0;266.40;-4;-20.38;-6.92;222.8;18.50;76847;2834.927;-1757.034;1;278;-50;-45.2;43.6;44.0;8;7.7;28.5;0.0;
15/02/2025 17:04:48;100;0;266.71;-4;-20.11;-8.17;225.5;18.50;76835;2834.927;-1757.038;1;278;-50;-46.8;43.6;44.0;8;7.7;28.5;0.0;
15/02/2025 17:05:08;100;0;268.41;-4;-19.65;-8.18;228.1;18.50;76828;2834.926;-1757.042;1;278;-50;-45.2;43.6;44.0;10;9.9;28.5;0.0;
15/02/2025 17:05:28;100;0;269.10;-4;-20.30;-6.66;230.7;18.40;76821;2834.926;-1757.046;1;278;-50;-45.2;43.6;44.0;10;10.4;28.5;0.0;
15/02/2025 17:05:48;100;0;268.73;-4;-20.40;-6.82;233.4;18.40;76820;2834.926;-1757.049;1;278;-50;-45.2;43.6;44.0;10;10.4;28.5;0.0;
15/02/2025 17:06:08;100;0;268.11;-4;-20.38;-6.78;236.0;18.40;76819;2834.926;-1757.053;1;278;-50;-46.8;43.6;44.0;10;10.4;28.5;0.0;
15/02/2025 17:06:28;100;0;265.97;-4;-20.24;-6.82;238.6;18.30;76812;2834.926;-1757.057;1;278;-50;-45.2;43.6;44.0;7;7.2;28.5;0.0;
15/02/2025 17:06:48;100;0;266.97;-4;-19.95;-8.64;241.2;18.30;76801;2834.926;-1757.060;1;278;-50;-45.2;43.6;44.0;7;6.8;28.5;0.0;
15/02/2025 17:07:08;100;0;270.16;-4;-19.96;-8.61;243.7;18.20;76794;2834.925;-1757.064;1;278;-50;-45.2;43.6;44.0;11;10.8;28.5;0.0;
15/02/2025 17:07:28;100;0;272.35;-4;-20.21;-6.35;246.3;18.20;76782;2834.926;-1757.068;1;278;-50;-45.2;43.6;44.0;11;11.3;28.5;0.0;
15/02/2025 17:07:48;100;0;274.33;-4;-20.27;-6.30;248.9;18.20;76783;2834.926;-1757.071;1;278;-50;-45.2;43.6;44.0;13;13.5;28.5;0.0;
15/02/2025 17:08:08;100;0;273.81;-4;-20.60;-4.97;251.4;18.20;76776;2834.926;-1757.075;1;278;-50;-45.2;43.6;44.0;13;14.0;28.5;0.0;
15/02/2025 17:08:28;100;0;271.19;-4;-20.51;-5.01;254.0;18.10;76767;2834.926;-1757.078;1;278;-50;-45.2;43.6;44.0;13;14.0;28.5;0.0;
15/02/2025 17:08:48;100;0;269.16;-4;-20.25;-5.00;256.5;18.10;76766;2834.926;-1757.082;1;278;-50;-45.2;43.6;44.2;10;9.5;28.5;0.0;
15/02/2025 17:09:08;100;0;270.48;-4;-20.22;-7.36;259.1;18.00;76746;2834.926;-1757.086;1;278;-50;-45.2;43.6;44.0;10;9.0;28.5;0.0;
15/02/2025 17:09:28;100;0;273.12;-4;-20.20;-7.38;261.5;18.00;76734;2834.926;-1757.089;1;278;-50;-45.2;43.6;44.0;13;13.1;28.5;0.0;
15/02/2025 17:09:48;100;0;275.83;-4;-20.53;-5.14;264.2;17.90;76725;2834.926;-1757.093;1;278;-50;-46.8;43.6;44.0;13;13.5;28.5;0.0;
15/02/2025 17:10:08;100;0;276.33;-4;-20.32;-5.12;266.6;17.90;76720;2834.927;-1757.096;1;278;-50;-45.2;43.6;44.0;13;13.5;28.5;0.0;
15/02/2025 17:10:28;100;0;276.88;-4;-20.37;-5.13;269.1;17.90;76708;2834.927;-1757.100;1;278;-50;-46.8;43.6;44.0;13;13.5;28.5;0.0;
15/02/2025 17:10:48;100;0;277.71;-4;-20.41;-5.11;271.5;17.80;76693;2834.927;-1757.103;1;278;-50;-45.2;43.6;44.0;13;13.5;28.5;0.0;
15/02/2025 17:11:08;100;0;277.95;-4;-20.17;-5.10;274.1;17.80;76684;2834.928;-1757.107;1;278;-50;-45.2;43.6;44.0;13;13.5;28.5;0.0;
15/02/2025 17:11:28;100;0;276.85;-4;-20.07;-5.18;276.5;17.80;76682;2834.928;-1757.110;1;278;-50;-45.2;43.6;44.0;13;13.5;28.5;0.0;
15/02/2025 17:11:48;100;0;277.54;-4;-20.40;-5.10;279.0;17.70;76667;2834.928;-1757.114;1;278;-50;-45.2;43.6;43.9;13;13.5;28.5;0.0;
15/02/2025 17:12:08;100;0;277.71;-4;-20.25;-5.14;281.4;17.70;76669;2834.929;-1757.117;1;278;-50;-45.2;43.6;44.0;13;13.5;28.5;0.0;
15/02/2025 17:12:28;100;0;278.81;-4;-20.42;-5.13;283.7;17.70;76665;2834.929;-1757.120;1;278;-50;-45.2;43.6;44.0;13;14.0;28.5;0.0;
15/02/2025 17:12:48;100;0;280.68;-4;-19.98;-5.02;286.2;17.60;76656;2834.930;-1757.124;1;278;-50;-45.2;43.6;44.0;13;13.5;28.5;0.0;
15/02/2025 17:13:08;100;0;283.44;-4;-19.92;-5.14;288.5;17.60;76646;2834.930;-1757.127;1;278;-50;-45.2;43.6;44.0;13;13.5;28.5;0.0;
15/02/2025 17:13:28;100;0;281.30;-4;-19.88;-5.19;290.8;17.50;76634;2834.931;-1757.130;1;278;-50;-45.2;43.6;44.0;13;13.5;28.5;0.0;
15/02/2025 17:13:48;100;0;280.45;-4;-20.56;-5.10;293.0;17.50;76628;2834.931;-1757.133;1;278;-50;-45.2;43.6;44.0;13;13.5;28.5;0.0;
15/02/2025 17:14:08;100;0;279.28;-4;-20.34;-5.07;295.4;17.50;76610;2834.932;-1757.136;1;278;-50;-45.2;43.6;44.0;13;13.5;28.5;0.0;
15/02/2025 17:14:28;100;0;278.44;-4;-20.25;-5.17;297.6;17.40;76606;2834.932;-1757.139;1;278;-50;-45.2;43.6;44.0;13;14.0;28.5;0.0;
15/02/2025 17:14:48;100;0;278.28;-4;-20.63;-5.14;299.9;17.40;76600;2834.932;-1757.143;1;278;-50;-46.8;43.6;44.0;13;13.5;28.5;0.0;
15/02/2025 17:15:08;100;0;276.75;-4;-20.36;-5.23;302.2;17.40;76591;2834.933;-1757.146;1;278;-50;-45.2;43.6;44.0;13;13.5;28.5;0.0;
15/02/2025 17:15:28;100;0;276.21;-4;-20.58;-5.15;304.5;17.30;76582;2834.933;-1757.149;1;278;-50;-45.2;43.6;43.9;13;13.5;28.5;0.0;
15/02/2025 17:15:49;100;0;276.22;-4;-20.42;-5.12;306.9;17.30;76590;2834.933;-1757.152;1;278;-50;-45.2;43.6;44.0;13;13.5;28.5;0.0;
15/02/2025 17:16:09;100;0;275.55;-4;-20.67;-5.08;309.2;17.20;76576;2834.933;-1757.155;1;278;-50;-45.2;43.6;44.0;13;13.5;28.5;0.0;
15/02/2025 17:16:29;100;0;276.09;-4;-20.33;-5.08;311.7;17.20;76569;2834.934;-1757.159;1;278;-50;-43.5;43.6;44.0;13;13.5;28.5;0.0;
15/02/2025 17:16:49;100;0;273.05;-4;-20.14;-5.13;314.0;17.20;76554;2834.934;-1757.162;1;278;-50;-45.2;43.6;44.0;13;13.5;28.5;0.0;
15/02/2025 17:17:09;100;0;268.45;-4;-20.46;-5.15;316.4;17.10;76538;2834.934;-1757.166;1;278;-50;-45.2;43.6;44.0;9;9.0;28.5;0.0;
15/02/2025 17:17:29;100;0;268.05;-4;-19.98;-7.26;318.8;17.10;76532;2834.934;-1757.169;1;278;-50;-45.2;43.6;44.0;9;9.0;28.5;0.0;
15/02/2025 17:17:49;100;0;269.08;-4;-21.07;-7.45;321.2;17.10;76528;2834.934;-1757.172;1;278;-50;-45.2;43.6;44.0;9;9.0;28.5;0.0;
15/02/2025 17:18:09;100;0;271.12;-4;-20.54;-7.44;323.6;17.00;76507;2834.934;-1757.176;1;278;-50;-45.2;43.6;44.0;11;10.8;28.5;0.0;
15/02/2025 17:18:29;100;0;270.74;-4;-20.58;-6.30;326.2;17.00;76506;2834.934;-1757.179;1;278;-50;-45.2;43.6;44.2;11;11.3;28.5;0.0;
15/02/2025 17:18:49;100;0;268.94;-4;-20.10;-6.27;328.7;17.00;76498;2834.933;-1757.183;1;278;-50;-45.2;43.6;44.0;11;11.3;28.5;0.0;
15/02/2025 17:19:09;100;0;266.55;-4;-19.97;-6.34;331.1;16.90;76487;2834.933;-1757.186;1;278;-50;-45.2;43.6;44.0;7;7.2;28.5;0.0;
15/02/2025 17:19:29;100;0;265.97;-4;-19.92;-8.43;333.5;16.90;76477;2834.933;-1757.190;1;278;-50;-46.8;43.6;44.0;7;7.2;28.5;0.0;
15/02/2025 17:19:49;100;0;267.12;-4;-19.97;-8.40;336.0;16.90;76467;2834.933;-1757.193;1;278;-50;-45.2;43.6;44.0;7;7.2;28.5;0.0;
15/02/2025 17:20:09;100;0;267.03;-4;-20.02;-8.41;338.5;16.80;76469;2834.932;-1757.197;1;278;-50;-45.2;43.6;44.0;7;7.2;28.5;0.0;
15/02/2025 17:20:29;100;0;268.76;-4;-20.01;-8.38;341.1;16.80;76456;2834.932;-1757.200;1;278;-50;-45.2;43.6;43.9;9;9.0;28.5;0.0;
15/02/2025 17:20:49;100;0;269.43;-4;-19.17;-7.05;343.8;16.80;76449;2834.932;-1757.204;1;278;-50;-45.2;43.6;44.0;9;9.5;28.5;0.0;
15/02/2025 17:21:09;100;0;271.59;-4;-19.28;-7.33;346.4;16.70;76440;2834.932;-1757.208;1;278;-50;-46.8;43.6;44.0;11;10.8;28.5;0.0;
15/02/2025 17:21:29;100;0;275.69;-4;-19.75;-6.40;349.0;16.70;76436;2834.933;-1757.212;1;278;-50;-45.2;43.6;44.0;11;11.7;28.5;0.0;
15/02/2025 17:21:49;100;0;276.69;-4;-19.16;-6.41;351.7;16.60;76435;2834.933;-1757.216;1;278;-50;-45.2;43.6;44.0;13;13.1;28.5;0.0;
15/02/2025 17:22:09;100;0;276.69;-4;-20.05;-5.23;354.4;16.60;76420;2834.933;-1757.220;1;278;-50;-45.2;43.6;44.0;13;13.5;28.5;0.0;
15/02/2025 17:22:29;100;0;274.47;-4;-19.99;-5.24;357.1;16.60;76410;2834.934;-1757.224;1;278;-50;-45.2;43.6;44.0;13;13.5;28.5;0.0;
15/02/2025 17:22:49;100;0;274.48;-4;-19.96;-5.18;359.9;16.50;76409;2834.934;-1757.228;1;278;-50;-46.8;43.6;44.0;13;13.5;28.5;0.0;
15/02/2025 17:23:09;100;0;274.39;-4;-20.03;-5.09;362.8;16.50;76406;2834.934;-1757.232;1;278;-50;-45.2;43.6;44.0;13;13.5;28.5;0.0;
15/02/2025 17:23:29;100;0;275.68;-4;-20.21;-5.12;365.6;16.50;76384;2834.934;-1757.236;1;278;-50;-45.2;43.6;44.0;13;13.5;28.5;0.0;
15/02/2025 17:23:49;100;0;275.82;-4;-20.21;-5.15;368.4;16.40;76383;2834.935;-1757.240;1;278;-50;-45.2;43.6;44.0;13;13.5;28.5;0.0;
15/02/2025 17:24:09;100;0;274.57;-4;-20.11;-5.15;371.2;16.40;76387;2834.935;-1757.244;1;278;-50;-46.8;43.6;44.0;13;13.5;28.5;0.0;
15/02/2025 17:24:29;100;0;273.45;-4;-20.21;-5.19;374.0;16.40;76386;2834.935;-1757.248;1;278;-50;-46.8;43.6;44.0;13;13.5;28.5;0.0;
15/02/2025 17:24:49;100;0;272.23;-4;-20.13;-5.18;376.8;16.30;76364;2834.935;-1757.252;1;278;-50;-45.2;43.6;44.0;11;10.8;28.5;0.0;
15/02/2025 17:25:09;100;0;273.23;-4;-19.67;-6.69;379.5;16.30;76363;2834.935;-1757.255;1;278;-50;-45.2;43.6;44.0;11;10.8;28.5;0.0;
15/02/2025 17:25:29;100;0;276.57;-4;-19.38;-6.75;382.1;16.30;76353;2834.936;-1757.259;1;278;-50;-46.8;43.6;44.0;11;10.8;28.5;0.0;
15/02/2025 17:25:49;100;0;278.00;-4;-19.17;-6.76;384.6;16.20;76338;2834.936;-1757.263;1;278;-50;-45.2;43.6;44.0;11;10.8;28.5;0.0;
15/02/2025 17:26:09;100;0;278.82;-4;-19.50;-6.82;386.9;16.20;76333;2834.936;-1757.266;1;278;-50;-46.8;43.6;44.0;11;10.8;28.5;0.0;
15/02/2025 17:26:29;100;0;279.48;-4;-19.91;-6.83;389.3;16.20;76334;2834.937;-1757.269;1;278;-50;-45.2;43.6;44.0;11;10.4;28.5;0.0;
15/02/2025 17:26:49;100;0;280.19;-4;-19.59;-6.75;391.7;16.10;76331;2834.937;-1757.273;1;278;-50;-45.2;43.6;44.0;11;10.8;28.5;0.0;
15/02/2025 17:27:09;100;0;280.89;-4;-19.86;-6.85;394.1;16.10;76321;2834.938;-1757.276;1;278;-50;-45.2;43.6;44.0;11;10.8;28.5;0.0;
15/02/2025 17:27:29;100;0;281.71;-4;-19.53;-6.75;396.6;16.10;76313;2834.939;-1757.280;1;278;-50;-45.2;43.6;44.0;11;10.8;28.5;0.0;
15/02/2025 17:27:49;100;0;282.85;-4;-19.15;-6.82;399.0;16.00;76311;2834.939;-1757.283;1;278;-50;-46.8;43.6;44.0;13;13.1;28.5;0.0;
15/02/2025 17:28:09;100;0;279.57;-4;-18.96;-5.17;401.3;16.00;76296;2834.940;-1757.286;1;278;-50;-45.2;43.9;43.9;13;13.5;28.5;0.0;
15/02/2025 17:28:29;100;0;280.49;-4;-19.74;-5.24;403.5;16.00;76296;2834.940;-1757.290;1;278;-50;-45.2;43.9;43.9;13;14.0;28.5;0.0;
15/02/2025 17:28:49;100;0;284.44;-4;-19.46;-5.08;405.9;16.00;76280;2834.941;-1757.293;1;278;-50;-46.8;43.9;44.0;13;14.0;28.5;0.0;
15/02/2025 17:29:09;100;0;287.33;-4;-19.59;-5.10;408.1;15.90;76283;2834.942;-1757.296;1;278;-50;-45.2;43.9;43.9;13;14.0;28.5;0.0;
15/02/2025 17:29:29;100;0;290.32;-4;-19.37;-5.02;410.2;15.90;76276;2834.943;-1757.299;1;278;-50;-45.2;43.9;44.0;17;17.1;28.5;0.0;
15/02/2025 17:29:49;100;0;288.08;-4;-19.75;-3.28;412.3;15.90;76267;2834.943;-1757.302;1;278;-50;-45.2;43.9;43.9;15;14.9;28.5;0.0;
15/02/2025 17:30:09;100;0;287.08;-4;-19.49;-4.70;414.2;15.80;76248;2834.944;-1757.304;1;278;-70;-69.4;43.9;43.9;15;14.4;28.5;0.0;
15/02/2025 17:30:29;100;0;287.66;-4;-18.60;-4.71;416.2;15.80;76312;2834.945;-1757.307;1;278;-90;-90.3;44.4;44.3;15;14.4;28.5;0.0;
15/02/2025 17:30:49;100;0;287.30;-4;-20.48;-4.67;418.3;15.80;76348;2834.946;-1757.310;1;278;-90;-96.8;44.4;44.6;15;14.4;28.5;0.0;
15/02/2025 17:31:09;100;0;289.78;-4;-20.11;-4.47;420.6;15.70;76356;2834.946;-1757.313;1;278;-90;-98.4;44.4;44.6;15;14.4;28.5;0.0;
15/02/2025 17:31:29;100;0;290.35;-4;-20.13;-4.49;422.8;15.70;76346;2834.947;-1757.316;1;278;-90;-101.6;44.4;44.6;17;17.1;28.5;0.0;
15/02/2025 17:31:49;100;0;286.44;-4;-20.31;-3.17;425.1;15.60;76342;2834.948;-1757.319;1;278;-90;-101.6;44.4;44.6;14;14.0;28.5;0.0;
15/02/2025 17:32:09;100;0;285.45;-4;-21.27;-4.74;427.4;15.60;76321;2834.949;-1757.322;1;278;-90;-103.2;44.4;44.6;14;14.0;28.5;0.0;
15/02/2025 17:32:29;100;0;284.45;-4;-20.57;-4.68;429.7;15.60;76323;2834.950;-1757.325;1;278;-90;-103.2;44.4;44.6;14;14.0;28.5;0.0;
15/02/2025 17:32:49;100;0;283.53;-4;-21.00;-4.91;432.1;15.60;76316;2834.950;-1757.328;1;278;-90;-101.6;44.4;44.6;14;14.0;28.5;0.0;
15/02/2025 17:33:09;100;0;281.62;-4;-20.94;-4.90;434.4;15.50;76309;2834.951;-1757.331;1;278;-90;-101.6;44.4;44.6;14;13.5;28.5;0.0;
15/02/2025 17:33:29;100;0;278.01;-4;-21.01;-4.86;437.0;15.50;76297;2834.951;-1757.335;1;278;-90;-101.6;44.4;44.6;14;14.0;28.5;0.0;
15/02/2025 17:33:49;100;0;273.55;-4;-20.75;-4.89;439.5;15.50;76295;2834.951;-1757.338;1;278;-90;-103.2;44.4;44.6;12;11.7;28.5;0.0;
15/02/2025 17:34:09;100;0;271.79;-4;-20.83;-5.95;442.0;15.40;76288;2834.951;-1757.342;1;278;-90;-103.2;44.4;44.8;12;11.7;28.5;0.0;
15/02/2025 17:34:29;100;0;272.83;-4;-20.69;-5.90;444.5;15.40;76282;2834.951;-1757.345;1;278;-90;-103.2;44.4;44.8;12;11.3;28.5;0.0;
15/02/2025 17:34:49;100;0;273.58;-4;-20.76;-5.92;447.1;15.40;76272;2834.952;-1757.349;1;278;-90;-101.6;44.4;44.6;12;11.7;28.5;0.0;
15/02/2025 17:35:09;100;0;273.78;-4;-20.65;-5.95;449.6;15.30;76266;2834.952;-1757.352;1;278;-90;-103.2;44.4;44.6;12;11.7;28.5;0.0;
15/02/2025 17:35:29;100;0;275.59;-4;-20.57;-5.88;452.2;15.30;76251;2834.952;-1757.356;1;278;-90;-103.2;44.4;44.6;12;11.7;28.5;0.0;
15/02/2025 17:35:49;100;0;276.52;-4;-20.45;-5.90;454.9;15.30;76260;2834.952;-1757.359;1;278;-90;-103.2;44.4;44.6;12;11.7;28.5;0.0;
15/02/2025 17:36:09;100;0;276.98;-4;-20.47;-5.90;457.5;15.20;76253;2834.953;-1757.363;1;278;-90;-103.2;44.4;44.6;12;11.7;28.5;0.0;
15/02/2025 17:36:29;100;0;278.52;-4;-20.36;-5.95;460.2;15.20;76242;2834.953;-1757.367;1;278;-90;-103.2;44.4;44.6;12;11.7;28.5;0.0;
15/02/2025 17:36:49;100;0;279.33;-4;-20.34;-5.94;462.8;15.20;76237;2834.954;-1757.371;1;278;-90;-103.2;44.4;44.6;12;11.3;28.5;0.0;
15/02/2025 17:37:09;100;0;279.83;-4;-20.68;-5.94;465.5;15.10;76234;2834.954;-1757.374;1;278;-90;-101.6;44.4;44.6;12;11.3;28.5;0.0;
15/02/2025 17:37:29;100;0;281.10;-4;-20.45;-5.83;468.2;15.10;76227;2834.955;-1757.378;1;278;-90;-103.2;44.4;44.6;12;11.7;28.5;0.0;
15/02/2025 17:37:49;100;0;282.67;-4;-20.56;-5.91;470.8;15.10;76213;2834.956;-1757.382;1;278;-90;-104.8;44.4;44.6;12;11.7;28.5;0.0;
15/02/2025 17:38:09;100;0;284.56;-4;-20.53;-5.99;473.6;15.00;76216;2834.956;-1757.385;1;278;-90;-100.0;44.4;44.6;12;11.7;28.5;0.0;
15/02/2025 17:38:29;100;0;286.22;-4;-20.39;-5.96;476.3;15.00;76212;2834.957;-1757.389;1;278;-90;-103.2;44.4;44.6;14;14.0;28.5;0.0;
15/02/2025 17:38:49;100;0;286.97;-4;-20.31;-4.43;479.0;15.00;76205;2834.958;-1757.393;1;278;-90;-101.6;44.4;44.6;14;14.4;28.5;0.0;
15/02/2025 17:39:09;100;0;288.18;-4;-20.40;-4.45;481.8;15.00;76201;2834.959;-1757.396;1;278;-90;-101.6;44.4;44.6;14;14.4;28.5;0.0;
15/02/2025 17:39:29;100;0;288.49;-4;-20.38;-4.42;484.7;14.90;76201;2834.960;-1757.400;1;278;-90;-103.2;44.4;44.6;16;15.8;28.5;0.0;
15/02/2025 17:39:49;100;0;287.83;-4;-20.49;-3.66;487.5;14.90;76190;2834.961;-1757.404;1;278;-90;-101.6;44.4;44.6;16;16.2;28.5;0.0;
15/02/2025 17:40:09;100;0;285.70;-4;-20.69;-3.66;490.3;14.90;76180;2834.962;-1757.408;1;278;-90;-103.2;44.4;44.6;14;14.0;28.5;0.0;
15/02/2025 17:40:29;100;0;284.42;-4;-20.60;-4.86;493.1;14.90;76180;2834.963;-1757.412;1;278;-90;-101.6;44.4;44.6;14;14.0;28.5;0.0;
15/02/2025 17:40:49;100;0;285.00;-4;-20.72;-4.87;496.1;14.80;76175;2834.964;-1757.416;1;278;-90;-103.2;44.4;44.6;14;13.5;28.5;0.0;
15/02/2025 17:41:09;100;0;284.97;-4;-20.69;-4.88;499.1;14.80;76173;2834.965;-1757.419;1;278;-90;-103.2;44.4;44.8;14;14.0;28.5;0.0;
15/02/2025 17:41:29;100;0;285.17;-4;-20.57;-4.91;502.0;14.80;76174;2834.966;-1757.423;1;278;-90;-103.2;44.4;44.8;14;14.0;28.5;0.0;
15/02/2025 17:41:49;100;0;285.78;-4;-20.46;-4.86;505.0;14.70;76159;2834.967;-1757.427;1;278;-90;-103.2;44.4;44.6;14;14.0;28.5;0.0;
15/02/2025 17:42:09;100;0;285.63;-4;-20.34;-4.92;507.8;14.70;76152;2834.968;-1757.431;1;278;-90;-103.2;44.4;44.6;14;13.5;28.5;0.0;
15/02/2025 17:42:29;100;0;285.03;-4;-20.28;-4.86;510.6;14.70;76158;2834.969;-1757.435;1;278;-90;-101.6;44.4;44.8;14;14.0;28.5;0.0;
15/02/2025 17:42:49;100;0;284.03;-4;-20.30;-4.91;513.4;14.60;76140;2834.969;-1757.439;1;278;-90;-104.8;44.4;44.6;14;14.0;28.5;0.0;
15/02/2025 17:43:09;100;0;283.64;-4;-20.22;-4.92;516.4;14.60;76142;2834.970;-1757.443;1;278;-90;-101.6;44.4;44.6;14;14.0;28.5;0.0;
15/02/2025 17:43:29;100;0;284.25;-4;-20.28;-4.92;519.3;14.60;76145;2834.971;-1757.447;1;278;-90;-103.2;44.4;44.8;14;14.0;28.5;0.0;
15/02/2025 17:43:49;100;0;285.16;-4;-20.30;-4.83;522.1;14.60;76139;2834.972;-1757.451;1;278;-90;-103.2;44.4;44.6;14;14.0;28.5;0.0;
15/02/2025 17:44:09;100;0;287.50;-4;-20.20;-4.89;525.0;14.60;76134;2834.973;-1757.455;1;278;-90;-103.2;44.4;44.6;14;14.0;28.5;0.0;
15/02/2025 17:44:29;100;0;291.66;-4;-19.79;-4.88;527.8;14.50;76131;2834.974;-1757.459;1;278;-90;-103.2;44.4;44.6;19;19.4;28.5;0.0;
15/02/2025 17:44:49;100;0;291.75;-4;-20.11;-2.10;530.4;14.50;76107;2834.976;-1757.462;1;278;-90;-101.6;44.4;44.6;19;19.4;28.5;0.0;
15/02/2025 17:45:09;100;0;291.24;-4;-20.23;-2.12;533.0;14.50;76114;2834.977;-1757.466;1;278;-90;-101.6;44.4;44.6;19;19.4;28.5;0.0;
15/02/2025 17:45:29;100;0;290.59;-4;-20.55;-2.10;535.6;14.50;76109;2834.978;-1757.469;1;277;-90;-103.2;44.4;44.8;19;19.4;28.5;0.0;
15/02/2025 17:45:49;100;0;289.39;-4;-20.34;-1.99;538.3;14.40;76105;2834.979;-1757.473;1;277;-90;-103.2;44.4;44.6;19;19.4;28.5;0.0;
15/02/2025 17:46:09;100;0;288.41;-4;-20.52;-1.99;540.9;14.40;76089;2834.980;-1757.476;1;277;-90;-103.2;44.4;44.6;17;17.1;28.5;0.0;
15/02/2025 17:46:29;100;0;284.97;-4;-20.51;-3.49;543.5;14.40;76090;2834.981;-1757.479;1;277;-90;-103.2;44.4;44.6;15;14.4;28.5;0.0;
15/02/2025 17:46:49;100;0;280.19;-4;-20.41;-4.63;546.2;14.40;76080;2834.981;-1757.483;1;277;-90;-103.2;44.4;44.6;15;14.4;28.5;0.0;
15/02/2025 17:47:09;100;0;279.52;-4;-20.45;-4.44;549.0;14.30;76077;2834.982;-1757.487;1;277;-90;-103.2;44.4;44.8;15;14.4;28.5;0.0;
15/02/2025 17:47:29;100;0;277.53;-4;-20.84;-4.56;551.6;14.30;76062;2834.982;-1757.491;1;277;-90;-103.2;44.4;44.6;15;14.4;28.5;0.0;
15/02/2025 17:47:49;100;0;276.55;-4;-20.47;-4.63;554.3;14.30;76057;2834.983;-1757.495;1;277;-90;-103.2;44.4;44.6;15;14.4;28.5;0.0;
15/02/2025 17:48:09;100;0;275.27;-4;-20.52;-4.60;557.0;14.20;76061;2834.983;-1757.498;1;277;-90;-103.2;44.4;44.6;13;13.1;28.5;0.0;
15/02/2025 17:48:29;100;0;274.73;-4;-20.47;-5.02;559.8;14.20;76051;2834.983;-1757.502;1;277;-90;-103.2;44.4;44.8;13;13.5;28.5;0.0;
15/02/2025 17:48:49;100;0;273.64;-4;-20.10;-5.07;562.5;14.20;76051;2834.983;-1757.506;1;277;-90;-101.6;44.4;44.8;13;13.5;28.5;0.0;
15/02/2025 17:49:09;100;0;273.48;-4;-20.38;-5.09;565.2;14.20;76045;2834.983;-1757.510;1;277;-90;-103.2;44.4;44.6;13;13.5;28.5;0.0;
15/02/2025 17:49:29;100;0;272.07;-4;-20.21;-5.09;567.8;14.20;76045;2834.983;-1757.514;1;277;-90;-101.6;44.4;44.8;13;13.5;28.5;0.0;
15/02/2025 17:49:49;100;0;271.65;-4;-20.61;-5.09;570.5;14.10;76039;2834.984;-1757.517;1;277;-90;-104.8;44.4;44.8;13;13.5;28.5;0.0;
15/02/2025 17:50:09;100;0;269.32;-4;-20.49;-5.08;573.3;14.10;76040;2834.983;-1757.521;1;277;-90;-103.2;44.4;44.8;11;10.8;28.5;0.0;
15/02/2025 17:50:29;100;0;267.89;-4;-20.21;-6.40;576.1;14.10;76021;2834.983;-1757.525;1;278;-90;-103.2;44.4;44.6;9;9.0;28.5;0.0;
15/02/2025 17:50:49;100;0;268.22;-4;-20.14;-6.99;579.0;14.10;76038;2834.983;-1757.529;1;278;-90;-103.2;44.4;44.6;9;9.5;28.5;0.0;
15/02/2025 17:51:09;100;0;269.07;-4;-20.09;-6.92;581.8;14.00;76027;2834.983;-1757.533;1;278;-90;-103.2;44.4;44.6;9;9.5;28.5;0.0;
15/02/2025 17:51:30;100;0;269.00;-4;-20.16;-6.96;584.6;14.00;76017;2834.983;-1757.537;1;278;-90;-103.2;44.4;44.6;9;9.5;28.5;0.0;
15/02/2025 17:51:50;100;0;267.80;-4;-20.44;-6.93;587.5;14.00;76016;2834.983;-1757.542;1;278;-90;-103.2;44.4;44.6;9;9.5;28.5;0.0;
15/02/2025 17:52:10;100;0;269.06;-4;-20.50;-7.00;590.6;14.00;76016;2834.983;-1757.546;1;278;-90;-101.6;44.4;44.6;9;9.5;28.5;0.0;
15/02/2025 17:52:30;100;0;269.05;-4;-20.14;-6.86;593.7;13.90;76020;2834.982;-1757.550;1;278;-90;-101.6;44.4;44.6;9;9.5;28.5;0.0;
15/02/2025 17:52:50;100;0;267.53;-4;-20.22;-6.95;596.6;13.90;76015;2834.982;-1757.555;1;278;-90;-103.2;44.4;44.6;9;9.5;28.5;0.0;
15/02/2025 17:53:10;100;0;266.08;-4;-19.96;-6.96;599.7;13.90;75998;2834.982;-1757.559;1;278;-90;-103.2;44.4;44.6;7;7.2;28.5;0.0;
15/02/2025 17:53:30;100;0;266.18;-4;-19.44;-8.38;602.7;13.90;75994;2834.982;-1757.563;1;278;-90;-104.8;44.4;44.6;7;7.2;28.5;0.0;
15/02/2025 17:53:50;100;0;269.83;-4;-19.71;-8.37;605.6;13.90;75996;2834.982;-1757.568;1;278;-90;-103.2;44.4;44.6;10;10.4;28.5;0.0;
15/02/2025 17:54:10;100;0;273.29;-4;-19.66;-6.46;608.6;13.80;75982;2834.982;-1757.572;1;278;-90;-101.6;44.4;44.8;12;12.2;28.5;0.0;
15/02/2025 17:54:30;100;0;274.73;-4;-19.79;-5.49;611.6;13.80;75977;2834.982;-1757.576;1;278;-90;-104.8;44.4;44.6;12;12.6;28.5;0.0;
15/02/2025 17:54:50;100;0;276.58;-4;-19.79;-5.47;614.5;13.80;75984;2834.982;-1757.580;1;278;-90;-103.2;44.4;44.8;12;12.6;28.5;0.0;
15/02/2025 17:55:10;100;0;278.26;-4;-19.70;-5.45;617.5;13.80;75964;2834.983;-1757.584;1;278;-90;-103.2;44.4;44.6;12;12.6;28.5;0.0;
15/02/2025 17:55:30;100;0;280.11;-4;-19.74;-5.52;620.5;13.70;75967;2834.983;-1757.589;1;278;-90;-101.6;44.4;44.6;12;12.6;28.5;0.0;
15/02/2025 17:55:50;100;0;281.11;-4;-19.78;-5.44;623.5;13.70;75961;2834.984;-1757.593;1;278;-90;-103.2;44.4;44.8;12;12.6;28.5;0.0;
15/02/2025 17:56:10;100;0;281.94;-4;-19.81;-5.44;626.6;13.70;75957;2834.985;-1757.597;1;278;-90;-103.2;44.4;44.6;12;12.6;28.5;0.0;
15/02/2025 17:56:30;100;0;282.80;-4;-19.76;-5.45;629.6;13.70;75954;2834.986;-1757.601;1;278;-90;-103.2;44.4;44.6;12;12.6;28.5;0.0;
15/02/2025 17:56:50;100;0;283.70;-4;-19.81;-5.45;632.8;13.70;75954;2834.987;-1757.606;1;278;-90;-103.2;44.4;44.6;12;12.6;28.5;0.0;
15/02/2025 17:57:10;100;0;286.20;-4;-19.22;-5.27;635.8;13.60;75939;2834.988;-1757.610;1;278;-90;-103.2;44.4;44.6;14;14.0;28.5;0.0;
15/02/2025 17:57:30;100;0;287.83;-4;-19.83;-4.59;639.0;13.60;75940;2834.989;-1757.614;1;278;-90;-103.2;44.4;44.6;14;14.4;28.5;0.0;
15/02/2025 17:57:50;100;0;290.33;-4;-19.67;-4.52;642.0;13.60;75935;2834.990;-1757.618;1;278;-90;-104.8;44.4;44.8;17;17.1;28.5;0.0;
15/02/2025 17:58:10;100;0;291.23;-4;-19.70;-3.10;645.1;13.60;75923;2834.992;-1757.623;1;278;-90;-103.2;44.4;44.6;17;17.6;28.5;0.0;
15/02/2025 17:58:30;100;0;289.97;-4;-19.83;-2.99;648.1;13.50;75922;2834.993;-1757.627;1;278;-90;-101.6;44.4;44.8;17;17.6;28.5;0.0;
15/02/2025 17:58:50;100;0;286.35;-4;-19.89;-2.98;651.2;13.50;75924;2834.994;-1757.631;1;278;-90;-101.6;44.4;44.6;14;14.0;28.5;0.0;
15/02/2025 17:59:10;100;0;287.37;-4;-20.00;-4.65;654.3;13.50;75913;2834.995;-1757.635;1;278;-90;-101.6;44.4;44.6;14;14.0;28.5;0.0;
15/02/2025 17:59:30;100;0;287.44;-4;-19.79;-4.74;657.4;13.50;75916;2834.996;-1757.639;1;278;-90;-101.6;44.4;44.6;14;14.4;28.5;0.0;
15/02/2025 17:59:50;100;0;289.06;-4;-19.83;-4.66;660.5;13.50;75897;2834.997;-1757.643;1;277;-90;-103.2;44.4;44.6;17;17.1;28.5;0.0;
15/02/2025 18:00:10;100;0;289.37;-4;-19.86;-3.03;663.6;13.40;75899;2834.999;-1757.648;1;277;-90;-101.6;44.4;44.6;17;17.6;28.5;0.0;
15/02/2025 18:00:30;100;0;289.46;-4;-19.99;-3.03;666.6;13.40;75884;2835.000;-1757.652;1;277;-90;-103.2;44.4;44.8;17;17.6;28.5;0.0;
15/02/2025 18:00:50;100;0;289.75;-4;-19.92;-3.02;669.6;13.40;75883;2835.001;-1757.656;1;277;-90;-103.2;44.4;44.6;17;17.6;28.5;0.0;
15/02/2025 18:01:10;100;0;288.47;-4;-19.96;-3.04;672.8;13.40;75881;2835.002;-1757.660;1;277;-90;-103.2;44.4;44.6;17;17.6;28.5;0.0;
15/02/2025 18:01:30;100;0;287.53;-4;-19.93;-3.06;675.8;13.30;75877;2835.004;-1757.664;1;277;-90;-101.6;44.4;44.6;17;17.6;28.5;0.0;
15/02/2025 18:01:50;100;0;288.21;-4;-19.96;-3.00;678.8;13.30;75863;2835.005;-1757.668;1;277;-90;-106.5;44.4;44.8;17;17.6;28.5;0.0;
15/02/2025 18:02:10;100;0;287.35;-4;-19.89;-3.04;681.9;13.30;75865;2835.006;-1757.672;1;277;-90;-103.2;44.4;44.6;17;17.6;28.5;0.0;
15/02/2025 18:02:30;100;0;285.17;-4;-19.63;-3.13;684.9;13.30;75863;2835.007;-1757.677;1;277;-90;-103.2;44.4;44.6;15;14.9;28.5;0.0;
15/02/2025 18:02:50;100;0;284.97;-4;-19.45;-4.56;687.8;13.30;75855;2835.008;-1757.681;1;277;-90;-101.6;44.4;44.6;15;14.4;28.5;0.0;
15/02/2025 18:03:10;100;0;284.30;-4;-19.66;-4.53;690.8;13.20;75848;2835.009;-1757.685;1;277;-90;-103.2;44.4;44.6;15;14.4;28.5;0.0;
15/02/2025 18:03:30;100;0;283.95;-4;-19.44;-4.56;693.6;13.20;75842;2835.010;-1757.689;1;277;-90;-103.2;44.4;44.6;15;14.9;28.5;0.0;
15/02/2025 18:03:50;100;0;283.79;-4;-19.59;-4.52;696.6;13.20;75843;2835.010;-1757.693;1;277;-90;-103.2;44.4;44.6;15;14.9;28.5;0.0;
15/02/2025 18:04:10;100;0;284.21;-4;-19.56;-4.48;699.6;13.20;75833;2835.011;-1757.697;1;277;-90;-101.6;44.4;44.6;15;14.4;28.5;0.0;
15/02/2025 18:04:30;100;0;285.52;-4;-19.57;-4.57;702.7;13.10;75834;2835.012;-1757.701;1;277;-90;-103.2;44.4;44.6;15;14.4;28.5;0.0;
15/02/2025 18:04:50;100;0;286.60;-4;-19.56;-4.49;705.6;13.10;75826;2835.013;-1757.705;1;277;-90;-101.6;44.4;44.6;15;14.4;28.5;0.0;
15/02/2025 18:05:10;100;0;285.88;-4;-19.80;-4.51;708.7;13.10;75808;2835.014;-1757.710;1;277;-90;-101.6;44.4;44.6;15;14.4;28.5;0.0;
15/02/2025 18:05:30;100;0;281.86;-4;-19.89;-4.59;711.8;13.10;75800;2835.015;-1757.714;1;277;-90;-103.2;44.4;44.6;15;14.4;28.5;0.0;
15/02/2025 18:05:50;100;0;278.40;-4;-20.09;-4.48;714.8;13.00;75801;2835.016;-1757.718;1;277;-90;-103.2;44.4;44.6;15;14.4;28.5;0.0;
15/02/2025 18:06:10;100;0;276.58;-4;-19.71;-4.48;717.9;13.00;75778;2835.016;-1757.723;1;277;-90;-103.2;44.4;44.6;15;14.4;28.5;0.0;
15/02/2025 18:06:30;100;0;276.55;-4;-19.57;-4.53;721.0;13.00;75769;2835.016;-1757.727;1;277;-90;-103.2;44.4;44.6;15;14.4;28.5;0.0;
15/02/2025 18:06:50;100;0;275.90;-4;-19.21;-4.64;724.0;13.00;75764;2835.017;-1757.732;1;277;-90;-103.2;44.4;44.6;15;14.4;28.5;0.0;
15/02/2025 18:07:10;100;0;273.71;-4;-19.48;-4.50;726.9;12.90;75757;2835.017;-1757.736;1;277;-90;-103.2;44.4;44.6;13;13.1;28.5;0.0;
15/02/2025 18:07:30;100;0;271.78;-4;-19.22;-5.31;729.9;12.90;75755;2835.017;-1757.740;1;277;-90;-101.6;44.4;44.6;13;13.1;28.5;0.0;
15/02/2025 18:07:50;100;0;268.12;-4;-19.18;-5.37;732.8;12.90;75743;2835.017;-1757.745;1;277;-90;-103.2;44.4;44.6;11;10.8;28.5;0.0;
15/02/2025 18:08:10;100;0;267.10;-4;-19.21;-6.31;735.8;12.90;75747;2835.017;-1757.749;1;277;-90;-101.6;44.4;44.6;11;10.8;28.5;0.0;
15/02/2025 18:08:30;100;0;266.36;-4;-19.51;-6.36;738.8;12.80;75735;2835.016;-1757.753;1;277;-90;-103.2;44.4;44.6;9;9.0;28.5;0.0;
15/02/2025 18:08:50;100;0;265.31;-4;-19.25;-7.60;741.7;12.80;75723;2835.016;-1757.758;1;277;-90;-101.6;44.4;44.6;9;9.0;28.5;0.0;
15/02/2025 18:09:10;100;0;263.42;-4;-18.85;-7.45;744.7;12.80;75726;2835.016;-1757.762;1;277;-90;-103.2;44.7;44.6;5;5.0;28.5;0.0;
15/02/2025 18:09:30;100;0;265.67;-4;-18.91;-9.51;747.6;12.80;75708;2835.015;-1757.766;1;277;-90;-101.6;45.0;45.2;8;8.1;28.5;0.0;
15/02/2025 18:09:50;100;0;265.17;-4;-20.51;-7.45;750.6;12.70;75701;2835.015;-1757.770;1;277;-90;-101.6;45.0;45.4;8;8.6;28.5;0.0;
15/02/2025 18:10:10;100;0;269.77;-4;-20.31;-7.41;753.8;12.70;75705;2835.015;-1757.775;1;277;-90;-103.2;45.0;45.4;12;12.2;28.5;0.0;
15/02/2025 18:10:30;100;0;270.43;-4;-20.92;-5.52;756.9;12.70;75696;2835.015;-1757.779;1;277;-90;-103.2;45.0;45.4;12;12.6;28.5;0.0;
15/02/2025 18:10:50;100;0;270.48;-4;-20.54;-5.57;760.1;12.70;75694;2835.015;-1757.784;1;277;-90;-103.2;45.0;45.4;12;12.6;28.5;0.0;
15/02/2025 18:11:10;100;0;269.33;-4;-20.56;-5.66;763.1;12.60;75678;2835.015;-1757.788;1;277;-90;-103.2;45.0;45.4;12;12.6;28.5;0.0;
15/02/2025 18:11:30;100;0;268.94;-4;-21.04;-5.54;766.4;12.60;75682;2835.015;-1757.792;1;278;-90;-101.6;45.0;45.4;10;9.9;28.5;0.0;
15/02/2025 18:11:50;100;0;270.54;-4;-20.43;-6.94;769.6;12.60;75675;2835.015;-1757.797;1;278;-90;-103.2;45.0;45.4;10;9.9;28.5;0.0;
15/02/2025 18:12:10;100;0;273.63;-4;-20.51;-6.84;772.6;12.60;75668;2835.015;-1757.801;1;278;-90;-103.2;45.0;45.4;13;13.5;28.5;0.0;
15/02/2025 18:12:30;100;0;273.82;-4;-20.78;-4.73;775.8;12.60;75669;2835.015;-1757.805;1;278;-90;-103.2;45.0;45.4;13;14.0;28.5;0.0;
15/02/2025 18:12:50;100;0;272.67;-4;-20.66;-4.78;779.0;12.50;75660;2835.015;-1757.810;1;278;-90;-101.6;45.0;45.4;13;13.5;28.5;0.0;
15/02/2025 18:13:10;100;0;273.81;-4;-21.02;-4.79;782.2;12.50;75660;2835.015;-1757.814;1;278;-90;-103.2;45.0;45.4;13;14.0;28.5;0.0;
15/02/2025 18:13:30;100;0;273.16;-4;-20.47;-4.78;785.4;12.50;75646;2835.015;-1757.819;1;278;-90;-101.6;45.0;45.4;13;13.5;28.5;0.0;
15/02/2025 18:13:50;100;0;273.88;-4;-20.76;-4.78;788.5;12.40;75652;2835.016;-1757.823;1;278;-90;-104.8;45.0;45.4;13;14.0;28.5;0.0;
15/02/2025 18:14:10;100;0;276.34;-4;-20.80;-4.75;791.8;12.40;75646;2835.016;-1757.828;1;278;-90;-103.2;45.0;45.5;13;13.5;28.5;0.0;
15/02/2025 18:14:30;100;0;276.06;-4;-20.71;-4.82;795.0;12.40;75631;2835.016;-1757.832;1;278;-90;-103.2;45.0;45.4;13;14.0;28.5;0.0;
15/02/2025 18:14:50;100;0;277.13;-4;-20.84;-4.83;798.2;12.40;75646;2835.017;-1757.836;1;278;-90;-103.2;45.0;45.4;13;13.5;28.5;0.0;
15/02/2025 18:15:10;100;0;277.39;-4;-20.77;-4.84;801.5;12.30;75633;2835.017;-1757.841;1;278;-90;-103.2;45.0;45.5;13;13.5;28.5;0.0;
15/02/2025 18:15:30;100;0;279.50;-4;-20.77;-4.78;804.6;12.30;75626;2835.018;-1757.845;1;278;-90;-103.2;45.0;45.4;13;14.0;28.5;0.0;
15/02/2025 18:15:50;100;0;282.24;-4;-21.43;-4.85;807.8;12.30;75629;2835.019;-1757.849;1;278;-90;-103.2;45.0;45.4;13;14.0;28.5;0.0;
15/02/2025 18:16:10;100;0;274.94;-4;-21.02;-4.81;811.2;12.30;75619;2835.019;-1757.854;1;278;-90;-103.2;45.0;45.4;13;14.0;28.5;0.0;
15/02/2025 18:16:30;100;0;271.28;-4;-20.56;-4.80;814.4;12.30;75595;2835.019;-1757.858;1;278;-90;-103.2;45.0;45.4;13;14.0;28.5;0.0;
15/02/2025 18:16:50;100;0;269.33;-4;-20.32;-4.90;817.3;12.20;75591;2835.019;-1757.863;1;278;-90;-101.6;45.0;45.4;10;9.9;28.5;0.0;
15/02/2025 18:17:10;100;0;270.33;-4;-20.19;-6.98;820.2;12.20;75582;2835.019;-1757.867;1;278;-90;-103.2;45.0;45.4;10;9.5;28.5;0.0;
15/02/2025 18:17:30;100;0;269.65;-4;-20.27;-7.01;823.2;12.20;75566;2835.019;-1757.871;1;278;-90;-103.2;45.0;45.4;10;9.5;28.5;0.0;
15/02/2025 18:17:50;100;0;269.37;-4;-20.00;-7.08;826.0;12.10;75562;2835.019;-1757.875;1;278;-90;-103.2;45.0;45.4;10;9.5;28.5;0.0;
15/02/2025 18:18:10;100;0;270.53;-4;-20.08;-7.02;828.7;12.10;75565;2835.019;-1757.879;1;278;-90;-103.2;45.0;45.4;10;9.5;28.5;0.0;
15/02/2025 18:18:30;100;0;272.13;-4;-19.70;-7.00;831.4;12.10;75548;2835.019;-1757.883;1;278;-90;-103.2;45.0;45.4;12;12.2;28.5;0.0;
15/02/2025 18:18:50;100;0;274.12;-4;-20.33;-5.44;834.0;12.10;75551;2835.019;-1757.886;1;278;-90;-103.2;45.0;45.4;12;12.6;28.5;0.0;
15/02/2025 18:19:10;100;0;275.99;-4;-20.43;-5.50;836.7;12.10;75541;2835.019;-1757.890;1;278;-90;-101.6;45.0;45.4;12;12.6;28.5;0.0;
15/02/2025 18:19:30;100;0;276.67;-4;-20.45;-5.46;839.4;12.00;75540;2835.020;-1757.894;1;278;-90;-101.6;45.0;45.4;12;12.6;28.5;0.0;
15/02/2025 18:19:50;100;0;276.88;-4;-20.61;-5.46;842.1;12.00;75529;2835.020;-1757.898;1;278;-90;-101.6;45.0;45.4;12;12.6;28.5;0.0;
15/02/2025 18:20:10;100;0;277.06;-4;-20.27;-5.44;844.8;12.00;75524;2835.020;-1757.902;1;278;-90;-103.2;45.0;45.4;12;12.6;28.5;0.0;
15/02/2025 18:20:30;100;0;277.10;-4;-20.41;-5.45;847.4;11.90;75499;2835.021;-1757.905;1;278;-90;-101.6;45.0;45.4;12;12.6;28.5;0.0;
15/02/2025 18:20:50;100;0;275.88;-4;-20.43;-5.55;850.0;11.90;75506;2835.021;-1757.909;1;278;-90;-101.6;45.0;45.4;12;12.6;28.5;0.0;
15/02/2025 18:21:10;100;0;274.02;-4;-20.43;-5.48;852.5;11.90;75492;2835.021;-1757.912;1;278;-90;-103.2;45.0;45.4;12;12.6;28.5;0.0;
15/02/2025 18:21:30;100;0;274.37;-4;-20.23;-5.47;855.1;11.90;75496;2835.021;-1757.916;1;278;-90;-101.6;45.0;45.4;12;12.6;28.5;0.0;
15/02/2025 18:21:50;100;0;273.70;-4;-20.25;-5.53;857.6;11.80;75498;2835.022;-1757.920;1;278;-90;-101.6;45.0;45.5;12;12.6;28.5;0.0;
15/02/2025 18:22:10;100;0;272.61;-4;-20.48;-5.49;860.3;11.80;75487;2835.022;-1757.923;1;278;-90;-101.6;45.0;45.5;12;12.6;28.5;0.0;
15/02/2025 18:22:30;100;0;272.72;-4;-20.52;-5.47;862.9;11.80;75476;2835.022;-1757.927;1;278;-90;-101.6;45.0;45.4;12;12.6;28.5;0.0;
15/02/2025 18:22:50;100;0;272.40;-4;-20.50;-5.49;865.5;11.80;75458;2835.022;-1757.931;1;278;-90;-101.6;45.0;45.4;12;12.6;28.5;0.0;
15/02/2025 18:23:10;100;0;272.50;-4;-20.32;-5.47;868.2;11.70;75453;2835.022;-1757.934;1;278;-90;-103.2;45.0;45.4;12;12.6;28.5;0.0;
15/02/2025 18:23:30;100;0;273.28;-4;-20.41;-5.42;870.7;11.70;75446;2835.022;-1757.938;1;278;-90;-103.2;45.0;45.4;12;12.6;28.5;0.0;
15/02/2025 18:23:50;100;0;273.46;-4;-20.48;-5.38;873.3;11.70;75456;2835.022;-1757.942;1;278;-90;-103.2;45.0;45.4;12;12.6;28.5;0.0;
15/02/2025 18:24:10;100;0;273.59;-4;-20.34;-5.57;875.8;11.60;75430;2835.022;-1757.945;1;278;-90;-103.2;45.0;45.4;12;12.6;28.5;0.0;
15/02/2025 18:24:30;100;0;276.68;-4;-20.07;-5.36;878.3;11.60;75429;2835.023;-1757.949;1;278;-90;-101.6;45.0;45.4;12;12.6;28.5;0.0;
15/02/2025 18:24:50;100;0;278.83;-4;-19.88;-5.41;880.8;11.60;75419;2835.023;-1757.952;1;278;-90;-103.2;45.0;45.4;12;12.6;28.5;0.0;
15/02/2025 18:25:10;100;0;279.49;-4;-20.37;-5.60;883.4;11.60;75428;2835.024;-1757.956;1;278;-90;-103.2;45.0;45.4;12;12.6;28.5;0.0;
15/02/2025 18:25:30;100;0;281.01;-4;-20.30;-5.50;885.9;11.60;75418;2835.024;-1757.959;1;278;-90;-103.2;45.0;45.4;12;12.6;28.5;0.0;
15/02/2025 18:25:50;100;0;281.40;-4;-20.25;-5.44;888.4;11.50;75419;2835.025;-1757.963;1;278;-90;-103.2;45.0;45.4;12;12.6;28.5;0.0;
15/02/2025 18:26:10;100;0;282.05;-4;-20.46;-5.47;891.0;11.50;75415;2835.026;-1757.967;1;278;-90;-101.6;45.0;45.4;12;12.6;28.5;0.0;
15/02/2025 18:26:30;100;0;284.35;-4;-19.78;-5.37;893.4;11.50;75414;2835.026;-1757.970;1;278;-90;-103.2;45.0;45.4;12;12.6;28.5;0.0;
15/02/2025 18:26:50;100;0;285.12;-4;-20.74;-5.50;896.0;11.50;75408;2835.027;-1757.973;1;278;-90;-103.2;45.0;45.4;12;12.6;28.5;0.0;
15/02/2025 18:27:11;100;0;286.61;-4;-20.43;-5.50;898.6;11.40;75398;2835.028;-1757.977;1;278;-90;-100.0;45.0;45.4;14;14.0;28.5;0.0;
15/02/2025 18:27:31;100;0;288.43;-4;-20.32;-4.56;901.1;11.40;75401;2835.029;-1757.980;1;278;-90;-103.2;45.0;45.4;14;14.4;28.5;0.0;
15/02/2025 18:27:51;100;0;289.12;-4;-20.36;-4.56;903.8;11.40;75395;2835.030;-1757.984;1;278;-90;-103.2;45.0;45.4;16;15.8;28.5;0.0;
15/02/2025 18:28:11;100;0;290.90;-4;-20.60;-3.68;906.5;11.40;75399;2835.031;-1757.987;1;278;-90;-103.2;45.0;45.4;18;18.1;28.5;0.0;
15/02/2025 18:28:31;100;0;290.32;-4;-20.22;-2.63;909.3;11.30;75391;2835.032;-1757.991;1;278;-90;-101.6;45.0;45.4;18;18.1;28.5;0.0;
15/02/2025 18:28:51;100;0;289.18;-4;-19.91;-2.71;911.9;11.30;75390;2835.033;-1757.994;1;278;-90;-103.2;45.0;45.4;16;15.3;28.5;0.0;
15/02/2025 18:29:11;100;0;286.61;-4;-20.87;-4.13;914.5;11.30;75380;2835.034;-1757.998;1;278;-90;-103.2;45.0;45.4;14;14.0;28.5;0.0;
15/02/2025 18:29:31;100;0;285.95;-4;-20.34;-4.45;917.3;11.30;75381;2835.035;-1758.002;1;278;-90;-101.6;45.0;45.4;14;14.4;28.5;0.0;
15/02/2025 18:29:51;100;0;283.07;-4;-20.42;-4.72;920.0;11.20;75371;2835.036;-1758.006;1;278;-90;-103.2;45.0;45.4;14;14.4;28.5;0.0;
15/02/2025 18:30:11;100;0;282.78;-4;-20.24;-4.68;922.8;11.20;75374;2835.037;-1758.009;1;278;-90;-101.6;45.0;45.4;14;14.4;28.5;0.0;
15/02/2025 18:30:31;100;0;282.50;-4;-20.38;-4.54;925.7;11.20;75365;2835.037;-1758.013;1;278;-90;-103.2;45.0;45.4;14;14.4;28.5;0.0;
15/02/2025 18:30:51;100;0;282.71;-4;-20.15;-4.58;928.5;11.20;75366;2835.038;-1758.017;1;278;-90;-103.2;45.0;45.4;14;14.4;28.5;0.0;
15/02/2025 18:31:11;100;0;281.97;-4;-20.28;-4.48;931.3;11.20;75350;2835.039;-1758.021;1;278;-90;-103.2;45.0;45.5;14;14.4;28.5;0.0;
15/02/2025 18:31:31;100;0;282.25;-4;-19.81;-4.64;934.0;11.10;75347;2835.040;-1758.025;1;278;-90;-101.6;45.0;45.4;14;14.4;28.5;0.0;
15/02/2025 18:31:51;100;0;282.84;-4;-20.14;-4.59;936.8;11.10;75337;2835.040;-1758.029;1;278;-90;-103.2;45.0;45.5;14;14.4;28.5;0.0;
15/02/2025 18:32:11;100;0;282.70;-4;-20.07;-4.55;939.6;11.10;75338;2835.041;-1758.033;1;278;-90;-103.2;45.0;45.4;14;14.4;28.5;0.0;
15/02/2025 18:32:31;100;0;281.99;-4;-20.08;-4.58;942.4;11.10;75347;2835.042;-1758.037;1;278;-90;-104.8;45.0;45.4;14;14.4;28.5;0.0;
15/02/2025 18:32:51;100;0;282.95;-4;-20.23;-4.56;945.2;11.00;75340;2835.043;-1758.041;1;278;-90;-103.2;45.0;45.4;14;14.4;28.5;0.0;
15/02/2025 18:33:11;100;0;283.24;-4;-20.24;-4.60;948.0;11.00;75332;2835.043;-1758.045;1;278;-90;-101.6;45.0;45.5;14;14.4;28.5;0.0;
15/02/2025 18:33:31;100;0;285.69;-4;-19.94;-4.65;950.8;11.00;75330;2835.044;-1758.048;1;278;-90;-103.2;45.0;45.4;14;14.4;28.5;0.0;
15/02/2025 18:33:51;100;0;286.87;-4;-19.84;-4.74;953.5;11.00;75318;2835.045;-1758.052;1;277;-90;-103.2;45.0;45.4;14;14.4;28.5;0.0;
15/02/2025 18:34:11;100;0;287.47;-4;-19.98;-4.63;956.1;11.00;75313;2835.046;-1758.056;1;277;-90;-103.2;45.0;45.4;16;15.8;28.5;0.0;
15/02/2025 18:34:31;100;0;286.65;-4;-20.23;-3.60;958.8;10.90;75317;2835.047;-1758.059;1;277;-90;-101.6;45.0;45.4;16;16.7;28.5;0.0;
15/02/2025 18:34:51;100;0;286.83;-4;-19.91;-3.63;961.5;10.90;75306;2835.048;-1758.063;1;277;-90;-104.8;45.0;45.4;16;16.7;28.5;0.0;
15/02/2025 18:35:11;100;0;288.16;-4;-20.28;-3.79;964.3;10.90;75306;2835.049;-1758.067;1;277;-90;-101.6;45.0;45.4;16;16.2;28.5;0.0;
15/02/2025 18:35:31;100;0;291.31;-4;-20.47;-3.67;967.2;10.90;75299;2835.050;-1758.071;1;277;-90;-101.6;45.0;45.4;20;19.9;28.5;0.0;
15/02/2025 18:35:51;100;0;289.10;-4;-20.15;-1.90;970.0;10.90;75296;2835.052;-1758.074;1;277;-90;-101.6;45.0;45.4;17;17.1;28.5;0.0;
15/02/2025 18:36:11;100;0;288.57;-4;-20.09;-3.47;972.9;10.80;75292;2835.053;-1758.078;1;277;-90;-103.2;45.0;45.4;17;16.7;28.5;0.0;
15/02/2025 18:36:31;100;0;288.29;-4;-20.08;-3.36;975.6;10.80;75291;2835.054;-1758.082;1;277;-90;-101.6;45.0;45.4;17;17.1;28.5;0.0;
15/02/2025 18:36:51;100;0;288.32;-4;-20.20;-3.37;978.4;10.80;75292;2835.055;-1758.086;1;277;-90;-101.6;45.0;45.4;17;17.1;28.5;0.0;
15/02/2025 18:37:11;100;0;287.19;-4;-20.24;-3.42;981.0;10.80;75284;2835.056;-1758.089;1;277;-90;-103.2;45.0;45.4;17;17.1;28.5;0.0;
15/02/2025 18:37:31;100;0;286.67;-4;-20.31;-3.42;983.9;10.80;75288;2835.057;-1758.093;1;277;-90;-103.2;45.0;45.5;17;17.1;28.5;0.0;
15/02/2025 18:37:51;100;0;285.19;-4;-20.10;-3.39;986.6;10.70;75283;2835.058;-1758.097;1;277;-90;-103.2;45.0;45.4;15;14.9;28.5;0.0;
15/02/2025 18:38:11;100;0;284.06;-4;-20.43;-4.48;989.2;10.70;75283;2835.058;-1758.101;1;277;-90;-101.6;45.0;45.4;15;14.9;28.5;0.0;
15/02/2025 18:38:31;100;0;284.60;-4;-19.93;-4.36;992.1;10.70;75279;2835.059;-1758.104;1;277;-90;-103.2;45.0;45.5;15;14.9;28.5;0.0;
15/02/2025 18:38:51;100;0;286.15;-4;-19.80;-4.39;994.7;10.70;75269;2835.060;-1758.108;1;277;-90;-101.6;45.0;45.4;15;14.9;28.5;0.0;
15/02/2025 18:39:11;100;0;285.26;-4;-19.96;-4.45;997.4;10.70;75255;2835.061;-1758.112;1;276;-90;-103.2;45.0;45.4;15;14.9;28.5;0.0;
15/02/2025 18:39:23;118;0;285.29;-4;-20.05;-4.40;998.8;10.70;75271;2835.061;-1758.114;1;276;150;-98.4;34.0;33.9;9;9.0;28.5;0.0;
15/02/2025 18:39:33;118;0;81.25;-4;-10.74;-8.18;999.9;10.60;75248;2835.062;-1758.112;1;276;150;25.8;34.0;33.6;9;8.6;27.4;-1.0;
15/02/2025 18:39:43;118;0;68.58;-4;0.51;-8.04;1000.5;10.60;74984;2835.062;-1758.112;1;276;150;153.2;34.0;33.4;9;8.6;27.2;-1.0;
15/02/2025 18:39:53;118;0;60.10;-4;2.21;-8.18;1000.6;10.60;74729;2835.062;-1758.111;1;276;150;153.2;34.0;33.4;9;8.6;28.4;-1.0;
15/02/2025 18:40:03;118;0;280.38;-4;1.80;-8.21;1000.4;10.60;74748;2835.062;-1758.112;1;276;150;153.2;34.0;33.4;9;8.6;28.5;-1.0;
15/02/2025 18:40:23;117;0;274.38;-4;2.48;-8.15;1000.1;10.70;74746;2835.062;-1758.112;1;276;150;153.2;34.0;33.4;9;8.6;28.5;-1.0;
15/02/2025 18:40:43;117;0;270.42;-4;1.71;-8.58;999.6;10.70;74743;2835.062;-1758.112;1;276;150;153.2;28.5;28.3;38;37.9;28.5;-1.0;
15/02/2025 18:41:03;117;0;274.31;-4;16.50;6.63;998.8;10.70;74743;2835.062;-1758.113;1;276;150;154.8;27.5;27.0;32;32.0;28.5;-1.0;
15/02/2025 18:41:23;117;0;280.53;-4;21.97;3.47;997.6;10.60;74744;2835.062;-1758.115;1;276;150;154.8;27.5;26.7;32;31.6;28.5;-1.0;
15/02/2025 18:41:43;117;0;279.07;-4;21.44;4.07;996.1;10.60;74739;2835.062;-1758.117;1;276;150;154.8;27.5;26.5;32;31.6;28.5;-1.0;
15/02/2025 18:42:03;117;0;280.57;-4;22.15;3.73;994.6;10.60;74732;2835.062;-1758.119;1;276;150;154.8;28.1;28.3;32;31.6;28.5;-1.0;
15/02/2025 18:42:23;117;0;281.14;-4;19.62;3.86;993.1;10.60;74733;2835.063;-1758.121;1;276;150;154.8;28.1;28.6;32;31.6;28.5;-1.0;
15/02/2025 18:42:43;117;0;280.35;-4;18.47;3.83;991.6;10.60;74734;2835.063;-1758.123;1;276;150;154.8;27.6;27.7;32;31.6;28.5;-1.0;
15/02/2025 18:43:03;117;0;281.01;-4;20.63;3.94;990.2;10.60;74720;2835.063;-1758.125;1;276;150;154.8;27.6;27.2;32;31.6;28.5;-1.0;
15/02/2025 18:43:23;117;0;281.61;-4;20.89;3.81;988.6;10.50;74724;2835.064;-1758.127;1;276;150;154.8;27.6;27.2;32;31.6;28.5;-1.0;
15/02/2025 18:43:43;117;0;280.13;-4;20.35;3.98;987.0;10.50;74722;2835.064;-1758.129;1;276;150;156.5;27.6;27.2;32;31.6;28.5;-1.0;
15/02/2025 18:44:03;117;0;280.75;-4;20.42;3.81;985.5;10.50;74715;2835.064;-1758.131;1;276;150;154.8;27.6;27.2;32;31.6;28.5;-1.0;
15/02/2025 18:44:23;117;0;281.08;-4;20.29;3.96;983.8;10.50;74708;2835.065;-1758.133;1;276;150;154.8;27.6;27.2;32;31.6;28.5;-1.0;
15/02/2025 18:44:43;117;0;280.77;-4;20.57;3.90;982.2;10.50;74714;2835.065;-1758.135;1;276;150;151.6;27.6;27.2;32;31.6;28.5;-1.0;
15/02/2025 18:45:03;117;0;282.53;-4;20.34;3.78;980.7;10.50;74704;2835.065;-1758.138;1;276;150;154.8;27.6;27.2;32;31.6;28.5;-1.0;
15/02/2025 18:45:23;117;0;280.86;-4;20.61;3.92;979.1;10.40;74700;2835.066;-1758.140;1;276;170;171.0;27.6;27.2;32;31.6;28.5;-1.0;
15/02/2025 18:45:43;117;0;288.35;-4;19.79;3.88;977.5;10.40;74664;2835.066;-1758.142;1;276;190;191.9;27.6;27.1;28;28.0;28.5;-1.0;
15/02/2025 18:46:03;117;0;289.51;-4;20.87;1.80;975.8;10.40;74623;2835.067;-1758.144;1;276;210;212.9;27.6;27.1;26;25.7;28.5;-1.0;
15/02/2025 18:46:23;117;0;287.62;-4;19.84;1.15;974.0;10.40;74569;2835.068;-1758.146;1;276;230;230.6;27.6;27.7;28;28.4;28.5;-1.0;
15/02/2025 18:46:43;117;0;288.85;-4;18.39;2.48;972.1;10.40;74531;2835.068;-1758.149;1;276;250;253.2;27.2;27.1;28;28.4;28.5;-1.0;
15/02/2025 18:47:03;117;0;287.35;-4;18.48;2.43;970.0;10.40;74494;2835.069;-1758.152;1;276;250;253.2;26.7;26.5;28;28.4;28.5;-1.0;
15/02/2025 18:47:23;117;0;285.94;-4;19.99;2.47;967.8;10.40;74489;2835.070;-1758.155;1;276;250;254.8;26.7;26.1;28;28.9;28.5;-1.0;
15/02/2025 18:47:43;117;0;285.09;-4;20.40;2.46;965.6;10.40;74486;2835.071;-1758.158;1;276;250;253.2;26.7;26.7;30;30.2;28.5;-1.0;
15/02/2025 18:48:03;117;0;283.67;-4;19.67;3.46;963.2;10.40;74489;2835.071;-1758.161;1;276;250;251.6;26.7;26.7;30;30.2;28.5;-1.0;
15/02/2025 18:48:23;117;0;283.28;-4;19.46;3.51;961.0;10.30;74485;2835.072;-1758.165;1;276;250;253.2;26.7;26.8;30;30.2;28.5;-1.0;
15/02/2025 18:48:43;117;0;282.13;-4;19.82;3.49;958.8;10.30;74491;2835.072;-1758.168;1;276;250;251.6;26.7;26.8;30;30.2;28.5;-1.0;
15/02/2025 18:49:03;117;0;282.15;-4;19.71;3.42;956.5;10.30;74480;2835.073;-1758.171;1;276;250;253.2;26.7;26.8;30;30.2;28.5;-1.0;
15/02/2025 18:49:23;117;0;281.10;-4;19.64;3.44;954.3;10.30;74477;2835.074;-1758.174;1;276;250;251.6;26.7;26.8;30;30.2;28.5;-1.0;
15/02/2025 18:49:43;117;0;281.61;-4;19.40;3.41;952.0;10.30;74474;2835.074;-1758.177;1;276;250;254.8;26.7;26.8;30;30.2;28.5;-1.0;
15/02/2025 18:50:03;117;0;281.74;-4;19.64;3.40;949.9;10.30;74479;2835.075;-1758.180;1;276;250;253.2;26.7;26.8;30;30.7;28.5;-1.0;
15/02/2025 18:50:23;117;0;280.98;-4;19.59;3.32;947.6;10.30;74474;2835.075;-1758.183;1;276;250;253.2;26.7;26.8;30;30.2;28.5;-1.0;
15/02/2025 18:50:43;117;0;281.78;-4;19.41;3.42;945.4;10.30;74478;2835.076;-1758.186;1;276;250;253.2;26.7;26.8;30;30.2;28.5;-1.0;
15/02/2025 18:51:03;117;0;280.48;-4;19.37;3.51;943.3;10.20;74471;2835.076;-1758.190;1;276;250;253.2;26.7;26.8;30;30.2;28.5;-1.0;
15/02/2025 18:51:23;117;0;280.35;-4;19.38;3.35;941.1;10.30;74478;2835.077;-1758.193;1;276;250;251.6;26.7;26.8;30;30.2;28.5;-1.0;
15/02/2025 18:51:43;117;0;280.44;-4;19.61;3.49;939.0;10.20;74472;2835.077;-1758.196;1;275;250;253.2;26.7;26.8;30;30.2;28.5;-1.0;
15/02/2025 18:52:03;117;0;281.87;-4;19.25;3.26;936.9;10.20;74475;2835.078;-1758.199;1;275;250;253.2;26.7;26.8;30;30.2;28.5;-1.0;
15/02/2025 18:52:23;117;0;280.92;-4;20.04;3.43;934.8;10.20;74475;2835.078;-1758.202;1;275;250;253.2;26.7;26.8;30;30.2;28.5;-1.0;
15/02/2025 18:52:43;117;0;281.27;-4;19.50;3.50;932.5;10.20;74468;2835.079;-1758.205;1;275;250;251.6;26.7;26.8;30;30.2;28.5;-1.0;
15/02/2025 18:53:03;117;0;281.52;-4;19.91;3.43;930.4;10.20;74465;2835.079;-1758.208;1;275;250;251.6;26.7;26.8;30;30.2;28.5;-1.0;
15/02/2025 18:53:23;117;0;283.25;-4;19.88;3.60;928.3;10.20;74449;2835.080;-1758.211;1;275;250;250.0;26.7;26.7;30;30.2;28.5;-1.0;
15/02/2025 18:53:43;117;0;282.92;-4;19.45;3.33;926.1;10.20;74465;2835.080;-1758.214;1;275;250;251.6;26.7;26.7;30;30.2;28.5;-1.0;
15/02/2025 18:54:03;117;0;285.21;-4;19.23;3.79;924.0;10.20;74463;2835.081;-1758.217;1;275;250;253.2;26.7;26.8;30;30.2;28.5;-1.0;
15/02/2025 18:54:23;117;0;286.13;-4;19.35;3.48;921.8;10.20;74461;2835.082;-1758.220;1;275;250;251.6;26.7;26.8;28;28.0;28.5;-1.0;
15/02/2025 18:54:43;117;0;285.09;-4;19.32;1.95;919.6;10.20;74466;2835.082;-1758.223;1;275;250;253.2;26.7;26.7;28;27.5;28.5;-1.0;
15/02/2025 18:55:03;117;0;284.68;-4;19.35;1.95;917.4;10.10;74452;2835.083;-1758.226;1;275;250;251.6;26.7;26.7;28;27.5;28.5;-1.0;
15/02/2025 18:55:23;117;0;284.80;-4;19.38;1.91;915.2;10.20;74451;2835.084;-1758.229;1;275;250;251.6;26.7;26.8;28;27.5;28.5;-1.0;
15/02/2025 18:55:43;117;0;283.88;-4;19.35;2.00;912.8;10.10;74439;2835.085;-1758.233;1;275;250;251.6;26.7;26.8;30;29.8;28.5;-1.0;
15/02/2025 18:56:03;117;0;283.30;-4;19.53;3.20;910.6;10.10;74450;2835.085;-1758.236;1;275;250;253.2;26.7;26.8;30;29.8;28.5;-1.0;
15/02/2025 18:56:23;117;0;281.44;-4;19.65;3.32;908.1;10.10;74433;2835.086;-1758.239;1;275;250;251.6;26.7;26.8;30;29.8;28.5;-1.0;
15/02/2025 18:56:43;117;0;280.74;-4;19.56;3.23;905.6;10.10;74438;2835.086;-1758.243;1;275;250;253.2;26.7;26.7;30;29.8;28.5;-1.0;
15/02/2025 18:57:03;117;0;280.52;-4;19.30;3.25;903.0;10.10;74438;2835.087;-1758.246;1;275;250;251.6;26.7;26.8;30;30.2;28.5;-1.0;
15/02/2025 18:57:23;117;0;279.41;-4;19.34;3.27;900.6;10.10;74438;2835.087;-1758.250;1;275;250;251.6;26.7;26.8;30;29.8;28.5;-1.0;
15/02/2025 18:57:43;117;0;278.51;-4;19.66;3.44;898.0;10.10;74426;2835.088;-1758.254;1;275;250;253.2;26.7;26.8;30;29.8;28.5;-1.0;
15/02/2025 18:58:03;117;0;277.82;-4;19.61;3.39;895.5;10.10;74437;2835.088;-1758.257;1;275;250;251.6;26.7;26.8;30;29.8;28.5;-1.0;
15/02/2025 18:58:23;117;0;276.35;-4;19.94;3.35;892.9;10.10;74421;2835.088;-1758.261;1;275;250;253.2;26.7;26.8;30;29.8;28.5;-1.0;
15/02/2025 18:58:43;117;0;274.86;-4;19.37;3.26;890.3;10.10;74427;2835.089;-1758.265;1;275;250;251.6;26.7;26.7;30;30.2;28.5;-1.0;
15/02/2025 18:59:03;117;0;273.84;-4;19.35;3.23;887.7;10.00;74414;2835.089;-1758.269;1;275;250;251.6;26.7;26.8;30;29.8;28.5;-1.0;
15/02/2025 18:59:23;117;0;273.22;-4;19.55;3.24;885.1;10.00;74420;2835.089;-1758.272;1;275;250;251.6;26.7;26.7;30;29.8;28.5;-1.0;
15/02/2025 18:59:43;117;0;272.30;-4;19.63;3.31;882.6;10.00;74414;2835.089;-1758.276;1;275;250;251.6;26.7;26.8;30;29.8;28.5;-1.0;
15/02/2025 19:00:03;117;0;273.34;-4;19.52;3.28;880.0;10.00;74420;2835.089;-1758.280;1;275;250;253.2;26.7;26.8;30;29.8;28.5;-1.0;
15/02/2025 19:00:23;117;0;273.45;-4;19.54;3.30;877.4;10.00;74409;2835.089;-1758.283;1;275;250;253.2;26.7;26.8;30;29.8;28.5;-1.0;
15/02/2025 19:00:43;117;0;274.49;-4;19.45;3.25;874.8;10.00;74412;2835.090;-1758.287;1;275;250;251.6;26.7;26.8;30;30.2;28.5;-1.0;
15/02/2025 19:01:04;117;0;274.72;-4;19.39;3.29;872.3;10.00;74424;2835.090;-1758.291;1;275;250;250.0;26.7;26.7;30;29.8;28.5;-1.0;
15/02/2025 19:01:24;117;0;275.19;-4;19.36;3.22;869.8;10.00;74421;2835.090;-1758.294;1;275;250;253.2;26.7;26.8;30;29.8;28.5;-1.0;
15/02/2025 19:01:44;117;0;276.03;-4;19.40;3.25;867.3;10.00;74430;2835.090;-1758.298;1;275;250;251.6;26.7;26.8;30;29.8;28.5;-1.0;
15/02/2025 19:02:04;117;0;276.85;-4;19.43;3.23;865.0;10.00;74425;2835.091;-1758.301;1;275;250;253.2;26.7;26.8;30;29.8;28.5;-1.0;
15/02/2025 19:02:24;117;0;276.68;-4;19.53;3.32;862.7;10.00;74425;2835.091;-1758.305;1;275;250;253.2;26.7;26.7;30;29.8;28.5;-1.0;
15/02/2025 19:02:44;117;0;277.21;-4;19.34;3.17;860.5;10.00;74430;2835.091;-1758.308;1;275;250;253.2;26.7;26.8;30;30.2;28.5;-1.0;
15/02/2025 19:03:04;117;0;277.45;-4;19.30;3.33;858.1;10.00;74430;2835.092;-1758.311;1;275;250;253.2;26.7;26.8;30;29.8;28.5;-1.0;
15/02/2025 19:03:24;117;0;277.40;-4;19.44;3.28;855.9;10.00;74443;2835.092;-1758.315;1;275;250;253.2;26.7;26.8;30;29.8;28.5;-1.0;
