Timestamp;NavState;SecurityLevel;Heading;Declination;Pitch;Roll;Depth;Temperature;Pa;Lat;Lon;DeadReckoning;DesiredH;BallastCmd;BallastPos;LinCmd;LinPos;AngCmd;AngPos;Voltage;Altitude;
23/02/2025 02:33:04;119;0;136.30;-4;-54.83;-16.23;-0.2;17.50;75680;2838.285;-1801.765;0;138;500;509.7;100.0;100.6;0;-0.5;27.0;-1.0;
23/02/2025 02:33:14;116;0;138.75;-4;-62.26;-12.63;-0.1;17.50;75668;2838.291;-1801.766;0;138;500;509.7;100.0;100.6;0;-0.5;27.0;-1.0;
23/02/2025 02:33:39;116;0;148.42;-4;-62.48;-14.43;-0.3;17.60;75684;2838.295;-1801.768;0;138;500;508.1;100.0;100.6;0;-0.5;27.0;-1.0;
23/02/2025 02:33:58;116;0;161.03;-4;-54.52;-13.87;-0.2;17.60;75680;2838.293;-1801.767;0;139;500;509.7;100.0;100.6;0;0.0;27.0;-1.0;
23/02/2025 02:34:21;116;0;143.47;-4;-57.03;-6.31;-0.3;17.70;75694;2838.298;-1801.768;0;139;500;509.7;100.0;100.6;0;-0.5;27.0;-1.0;
23/02/2025 02:35:23;116;0;157.26;-4;-54.08;-19.43;-0.3;17.80;75714;2838.311;-1801.772;0;139;500;509.7;100.0;100.6;0;-0.5;27.0;-1.0;
23/02/2025 02:36:38;116;0;154.08;-4;-58.15;-5.21;-0.3;18.10;75747;2838.326;-1801.774;0;139;500;509.7;100.0;100.6;0;-0.5;27.0;-1.0;
23/02/2025 02:38:10;116;0;157.36;-4;-58.89;-15.61;-0.3;18.40;75768;2838.343;-1801.777;0;139;500;509.7;100.0;100.6;0;0.0;27.0;-1.0;
23/02/2025 02:39:30;116;0;154.37;-4;-61.24;-15.60;-0.1;18.80;75787;2838.360;-1801.782;0;139;500;509.7;100.0;100.6;0;0.0;27.0;-1.0;
23/02/2025 02:39:41;116;0;154.65;-4;-64.02;-17.13;-0.3;18.80;75798;2838.363;-1801.783;0;139;500;511.3;100.0;100.6;0;-0.5;27.0;-1.0;
23/02/2025 02:40:01;110;0;156.14;-4;-42.47;-7.31;0.1;18.90;75794;2838.363;-1801.783;0;139;-70;391.9;100.0;99.7;-7;-7.2;27.0;-1.0;
23/02/2025 02:40:11;110;0;156.64;-4;-56.35;-26.43;0.3;18.90;76143;2838.363;-1801.783;1;139;-70;240.3;100.0;99.7;-7;-7.7;27.0;-1.0;
23/02/2025 02:40:21;110;0;154.37;-4;-53.48;-13.64;0.7;18.90;76385;2838.363;-1801.783;1;139;-70;80.6;100.0;99.7;-7;-7.7;27.0;-1.0;
23/02/2025 02:40:31;110;0;140.97;-4;-66.40;-7.99;1.0;19.00;76719;2838.364;-1801.783;1;139;-70;-69.4;100.0;99.9;-7;-7.2;27.0;-1.0;
23/02/2025 02:40:41;110;0;113.75;-4;-70.98;6.72;1.3;19.00;77025;2838.364;-1801.783;1;139;-70;-69.4;41.5;41.5;-7;-7.7;27.0;-1.0;
23/02/2025 02:41:01;100;0;136.13;-4;-27.54;-15.86;4.6;19.10;77002;2838.362;-1801.781;1;139;-70;-66.1;41.5;41.2;-7;-7.7;27.0;-1.0;
23/02/2025 02:41:21;100;0;142.19;-4;-18.26;-14.80;7.4;19.10;77017;2838.360;-1801.778;1;139;-70;-62.9;42.0;42.4;14;14.0;27.0;-1.0;
23/02/2025 02:41:42;100;0;139.72;-4;-20.04;-4.22;9.9;19.20;77014;2838.358;-1801.776;1;139;-70;-62.9;42.0;42.4;14;14.4;27.0;-1.0;
23/02/2025 02:42:02;100;0;140.24;-4;-18.52;-4.37;12.4;19.20;77029;2838.356;-1801.774;1;139;-70;-62.9;42.4;42.4;14;14.4;27.0;-1.0;
23/02/2025 02:42:22;100;0;138.24;-4;-18.89;-4.33;14.9;19.20;77026;2838.354;-1801.772;1;139;-70;-64.5;42.8;42.9;14;14.4;27.0;0.0;
23/02/2025 02:42:42;100;0;138.07;-4;-20.39;-4.41;17.4;19.20;77023;2838.352;-1801.770;1;139;-70;-64.5;42.8;43.0;14;14.4;27.0;0.0;
23/02/2025 02:43:02;100;0;140.29;-4;-20.47;-4.36;20.0;19.20;77036;2838.350;-1801.768;1;139;-70;-61.3;42.8;43.0;14;14.4;27.0;0.0;
23/02/2025 02:43:22;100;0;141.00;-4;-19.88;-4.33;22.6;19.20;77036;2838.348;-1801.766;1;139;-70;-62.9;42.8;43.0;14;14.4;27.0;0.0;
23/02/2025 02:43:42;100;0;140.00;-4;-19.95;-4.58;25.2;19.30;77038;2838.346;-1801.764;1;139;-70;-62.9;42.8;43.0;14;14.4;27.0;0.0;
23/02/2025 02:44:02;100;0;140.20;-4;-20.60;-4.30;27.7;19.30;77047;2838.344;-1801.762;1;139;-70;-61.3;42.8;43.0;14;14.4;27.0;0.0;
23/02/2025 02:44:22;100;0;138.69;-4;-20.30;-4.26;30.3;19.30;77046;2838.342;-1801.760;1;139;-70;-62.9;42.8;43.0;14;14.4;27.0;0.0;
23/02/2025 02:44:42;100;0;139.33;-4;-20.22;-4.26;32.8;19.30;77054;2838.340;-1801.758;1;139;-70;-62.9;42.8;43.0;14;14.4;27.0;0.0;
23/02/2025 02:45:02;100;0;139.38;-4;-19.68;-4.36;35.4;19.30;77051;2838.338;-1801.756;1;139;-70;-62.9;42.8;43.0;14;14.4;27.0;0.0;
23/02/2025 02:45:22;100;0;139.16;-4;-20.20;-4.39;37.9;19.30;77057;2838.337;-1801.754;1;139;-70;-62.9;42.8;43.2;14;14.4;27.0;0.0;
23/02/2025 02:45:42;100;0;140.14;-4;-19.74;-4.35;40.4;19.30;77057;2838.335;-1801.752;1;139;-70;-62.9;42.8;43.0;14;14.4;27.0;0.0;
23/02/2025 02:46:02;100;0;138.96;-4;-19.77;-4.36;42.9;19.30;77064;2838.333;-1801.750;1;139;-70;-62.9;42.8;43.0;14;14.4;27.0;0.0;
23/02/2025 02:46:22;100;0;139.44;-4;-20.18;-4.30;45.4;19.30;77065;2838.331;-1801.748;1;139;-70;-62.9;42.8;43.0;14;14.4;27.0;0.0;
23/02/2025 02:46:42;100;0;138.74;-4;-20.05;-4.29;47.8;19.30;77081;2838.329;-1801.746;1;139;-70;-62.9;42.8;43.2;14;14.4;27.0;0.0;
23/02/2025 02:47:02;100;0;139.28;-4;-20.31;-4.27;50.3;19.30;77065;2838.327;-1801.744;1;139;-70;-62.9;42.8;43.0;14;14.4;27.0;0.0;
23/02/2025 02:47:22;100;0;138.89;-4;-19.50;-4.41;52.6;19.30;77077;2838.326;-1801.742;1;139;-70;-62.9;42.8;43.0;14;14.4;27.0;0.0;
23/02/2025 02:47:42;100;0;138.31;-4;-19.96;-4.35;55.0;19.30;77088;2838.324;-1801.740;1;139;-70;-62.9;42.8;43.0;14;14.4;27.0;0.0;
23/02/2025 02:48:02;100;0;139.09;-4;-19.94;-4.21;57.4;19.30;77088;2838.322;-1801.738;1;139;-70;-62.9;42.8;43.0;14;14.4;27.0;0.0;
23/02/2025 02:48:22;100;0;138.26;-4;-19.67;-4.30;59.8;19.30;77088;2838.320;-1801.736;1;139;-70;-61.3;42.8;43.0;14;14.4;27.0;0.0;
23/02/2025 02:48:42;100;0;137.20;-4;-19.84;-4.26;62.2;19.30;77094;2838.319;-1801.734;1;139;-70;-62.9;42.8;43.0;14;14.4;27.0;0.0;
23/02/2025 02:49:02;100;0;136.06;-4;-19.85;-4.31;64.5;19.30;77102;2838.317;-1801.732;1;139;-70;-66.1;42.8;43.0;14;14.4;27.0;0.0;
23/02/2025 02:49:22;100;0;134.76;-4;-19.76;-4.35;66.7;19.30;77103;2838.316;-1801.730;1;139;-70;-62.9;42.8;43.0;14;14.4;27.0;0.0;
23/02/2025 02:49:42;100;0;134.18;-4;-19.54;-4.37;69.0;19.30;77106;2838.314;-1801.728;1;139;-70;-62.9;42.8;43.0;14;14.4;27.0;0.0;
23/02/2025 02:50:02;100;0;134.56;-4;-19.68;-4.28;71.3;19.30;77106;2838.313;-1801.726;1;139;-70;-61.3;42.8;43.0;14;14.4;27.0;0.0;
23/02/2025 02:50:22;100;0;136.06;-4;-19.63;-4.38;73.5;19.40;77113;2838.311;-1801.724;1;139;-70;-62.9;42.8;43.0;14;14.4;27.0;0.0;
23/02/2025 02:50:42;100;0;138.92;-4;-19.71;-4.35;75.8;19.30;77100;2838.310;-1801.723;1;139;-70;-64.5;42.8;43.0;14;14.4;27.0;0.0;
23/02/2025 02:51:02;100;0;141.37;-4;-19.71;-4.27;78.0;19.30;77106;2838.308;-1801.721;1;139;-70;-62.9;42.8;43.0;14;14.4;27.0;0.0;
23/02/2025 02:51:22;100;0;141.71;-4;-19.84;-4.32;80.3;19.30;77114;2838.306;-1801.719;1;139;-70;-62.9;42.8;43.0;14;14.4;27.0;0.0;
23/02/2025 02:51:42;100;0;136.30;-4;-19.23;-4.26;82.5;19.30;77111;2838.305;-1801.717;1;139;-70;-62.9;42.8;43.0;14;14.4;27.0;0.0;
23/02/2025 02:52:02;100;0;134.07;-4;-19.66;-4.67;84.6;19.30;77107;2838.303;-1801.715;1;139;-70;-64.5;42.8;43.0;12;12.2;27.0;0.0;
23/02/2025 02:52:22;100;0;136.36;-4;-19.23;-5.98;86.8;19.30;77101;2838.302;-1801.714;1;139;-70;-61.3;42.8;43.0;12;11.3;27.0;0.0;
23/02/2025 02:52:42;100;0;138.09;-4;-18.98;-5.85;88.8;19.30;77085;2838.300;-1801.712;1;139;-70;-62.9;43.1;43.0;14;14.0;27.0;0.0;
23/02/2025 02:53:02;100;0;137.39;-4;-19.47;-4.50;91.0;19.30;77083;2838.299;-1801.710;1;139;-70;-61.3;43.1;43.0;14;14.4;27.0;0.0;
23/02/2025 02:53:22;100;0;134.61;-4;-19.47;-4.43;93.1;19.30;77077;2838.297;-1801.708;1;139;-70;-62.9;43.1;43.0;14;14.4;27.0;0.0;
23/02/2025 02:53:42;100;0;129.82;-4;-19.63;-4.43;95.3;19.30;77060;2838.296;-1801.706;1;139;-70;-62.9;43.1;43.0;8;7.7;27.0;0.0;
23/02/2025 02:54:02;100;0;129.12;-4;-19.34;-7.84;97.5;19.30;77052;2838.295;-1801.704;1;139;-70;-62.9;43.1;43.2;8;7.7;27.0;0.0;
23/02/2025 02:54:22;100;0;130.12;-4;-19.24;-7.80;99.6;19.20;77039;2838.294;-1801.702;1;139;-70;-62.9;43.1;43.0;8;7.7;27.0;0.0;
23/02/2025 02:54:42;100;0;134.64;-4;-19.28;-7.87;101.9;19.20;77039;2838.292;-1801.700;1;139;-70;-64.5;43.1;43.0;13;13.1;27.0;0.0;
23/02/2025 02:55:02;100;0;135.38;-4;-19.51;-4.89;104.1;19.20;77026;2838.291;-1801.698;1;139;-70;-62.9;43.1;43.0;13;13.5;27.0;0.0;
23/02/2025 02:55:22;100;0;138.20;-4;-19.75;-4.80;106.5;19.20;77015;2838.289;-1801.696;1;139;-70;-62.9;43.1;43.2;13;13.1;27.0;0.0;
23/02/2025 02:55:42;100;0;139.55;-4;-19.41;-4.91;108.9;19.20;77004;2838.287;-1801.694;1;139;-70;-62.9;43.1;43.0;13;13.5;27.0;0.0;
23/02/2025 02:56:02;100;0;140.51;-4;-19.23;-4.89;111.3;19.10;76994;2838.285;-1801.692;1;139;-70;-64.5;43.1;43.0;13;13.5;27.0;0.0;
23/02/2025 02:56:22;100;0;137.07;-4;-19.24;-4.92;113.6;19.10;76994;2838.283;-1801.690;1;139;-70;-61.3;43.1;43.2;13;13.5;27.0;0.0;
23/02/2025 02:56:42;100;0;140.19;-4;-19.11;-4.91;115.8;19.10;76978;2838.282;-1801.688;1;139;-70;-62.9;43.1;43.0;13;13.1;27.0;0.0;
23/02/2025 02:57:02;100;0;145.48;-4;-19.24;-4.84;118.2;19.10;76968;2838.280;-1801.686;1;139;-70;-62.9;43.1;43.0;13;13.5;27.0;0.0;
23/02/2025 02:57:22;100;0;141.19;-4;-19.40;-4.95;120.6;19.10;76960;2838.278;-1801.685;1;139;-70;-62.9;43.1;43.2;13;13.1;27.0;0.0;
23/02/2025 02:57:42;100;0;138.40;-4;-19.44;-4.96;123.0;19.00;76948;2838.276;-1801.683;1;139;-70;-61.3;43.1;43.0;13;13.5;27.0;0.0;
23/02/2025 02:58:02;100;0;134.36;-4;-18.92;-4.95;125.4;19.00;76941;2838.274;-1801.680;1;139;-70;-62.9;43.4;43.4;13;13.5;27.0;0.0;
23/02/2025 02:58:22;100;0;136.07;-4;-20.13;-4.91;127.9;19.00;76930;2838.272;-1801.678;1;139;-70;-62.9;43.4;43.6;13;13.1;27.0;0.0;
23/02/2025 02:58:42;100;0;134.76;-4;-19.62;-5.09;130.5;19.00;76926;2838.271;-1801.676;1;139;-70;-62.9;43.4;43.6;13;13.5;27.0;0.0;
23/02/2025 02:59:02;100;0;134.59;-4;-19.97;-4.89;133.0;18.90;76917;2838.269;-1801.674;1;139;-70;-62.9;43.4;43.6;13;13.5;27.0;0.0;
23/02/2025 02:59:22;100;0;135.11;-4;-19.91;-4.92;135.5;18.90;76911;2838.267;-1801.671;1;139;-70;-62.9;43.4;43.6;13;13.5;27.0;0.0;
23/02/2025 02:59:42;100;0;137.19;-4;-20.37;-4.89;138.0;18.90;76896;2838.265;-1801.669;1;139;-70;-61.3;43.4;43.6;13;13.5;27.0;0.0;
23/02/2025 03:00:02;100;0;139.04;-4;-20.64;-4.77;140.7;18.80;76891;2838.264;-1801.667;1;139;-70;-62.9;43.4;43.6;13;13.5;27.0;0.0;
23/02/2025 03:00:22;100;0;140.56;-4;-20.29;-4.84;143.5;18.80;76883;2838.261;-1801.665;1;139;-70;-62.9;43.4;43.6;13;13.5;27.0;0.0;
23/02/2025 03:00:42;100;0;142.56;-4;-20.10;-4.81;146.2;18.80;76882;2838.259;-1801.663;1;139;-70;-62.9;43.4;43.6;13;13.5;27.0;0.0;
23/02/2025 03:01:02;100;0;146.18;-4;-20.16;-4.93;148.8;18.80;76865;2838.257;-1801.661;1;139;-70;-62.9;43.4;43.6;13;13.5;27.0;0.0;
23/02/2025 03:01:22;100;0;150.10;-4;-19.98;-4.92;151.3;18.70;76863;2838.255;-1801.660;1;139;-70;-62.9;43.4;43.6;16;15.8;27.0;0.0;
23/02/2025 03:01:42;100;0;150.12;-4;-20.77;-3.34;153.9;18.70;76851;2838.253;-1801.658;1;139;-70;-62.9;43.4;43.6;16;16.7;27.0;0.0;
23/02/2025 03:02:02;100;0;147.32;-4;-20.64;-3.37;156.6;18.70;76836;2838.250;-1801.657;1;139;-70;-62.9;43.4;43.6;14;14.0;27.0;0.0;
23/02/2025 03:02:22;100;0;145.00;-4;-20.31;-4.91;159.3;18.60;76834;2838.248;-1801.655;1;139;-70;-64.5;43.4;43.6;14;13.5;27.0;0.0;
23/02/2025 03:02:42;100;0;144.97;-4;-20.48;-4.85;162.0;18.60;76820;2838.246;-1801.653;1;139;-70;-62.9;43.4;43.7;14;13.5;27.0;0.0;
23/02/2025 03:03:02;100;0;143.42;-4;-20.39;-4.89;164.7;18.60;76817;2838.243;-1801.651;1;139;-70;-62.9;43.4;43.6;14;13.1;27.0;0.0;
23/02/2025 03:03:22;100;0;140.42;-4;-20.30;-4.89;167.4;18.50;76809;2838.241;-1801.649;1;139;-70;-64.5;43.4;43.7;14;13.5;27.0;0.0;
23/02/2025 03:03:42;100;0;143.27;-4;-20.17;-4.85;170.0;18.50;76790;2838.239;-1801.647;1;139;-70;-62.9;43.4;43.7;14;13.5;27.0;0.0;
23/02/2025 03:04:02;100;0;145.83;-4;-20.27;-4.85;172.8;18.50;76777;2838.237;-1801.645;1;139;-70;-62.9;43.4;43.7;14;13.5;27.0;0.0;
23/02/2025 03:04:22;100;0;147.80;-4;-20.05;-4.79;175.4;18.40;76773;2838.235;-1801.643;1;139;-70;-62.9;43.4;43.6;14;13.5;27.0;0.0;
23/02/2025 03:04:42;100;0;149.65;-4;-20.28;-4.80;178.1;18.40;76773;2838.232;-1801.642;1;139;-70;-62.9;43.4;43.6;16;15.8;27.0;0.0;
23/02/2025 03:05:02;100;0;150.18;-4;-20.61;-3.46;180.8;18.40;76749;2838.230;-1801.640;1;139;-70;-62.9;43.4;43.7;16;16.2;27.0;0.0;
23/02/2025 03:05:22;100;0;147.74;-4;-20.98;-3.48;183.5;18.30;76748;2838.228;-1801.638;1;139;-70;-62.9;43.4;43.6;16;16.2;27.0;0.0;
23/02/2025 03:05:42;100;0;149.53;-4;-20.44;-3.55;186.4;18.30;76749;2838.225;-1801.637;1;139;-70;-62.9;43.4;43.7;16;16.2;27.0;0.0;
23/02/2025 03:06:02;100;0;150.29;-4;-20.36;-3.46;189.2;18.30;76737;2838.222;-1801.635;1;139;-70;-62.9;43.4;43.6;16;16.2;27.0;0.0;
23/02/2025 03:06:22;100;0;152.33;-4;-20.30;-3.49;192.0;18.20;76730;2838.220;-1801.633;1;139;-70;-62.9;43.4;43.6;18;18.1;27.0;0.0;
23/02/2025 03:06:42;100;0;155.78;-4;-20.27;-2.26;194.7;18.20;76718;2838.217;-1801.632;1;139;-70;-62.9;43.4;43.6;22;22.1;27.0;0.0;
23/02/2025 03:07:02;100;0;154.23;-4;-20.45;-0.28;197.4;18.20;76709;2838.215;-1801.631;1;139;-70;-62.9;43.4;43.6;20;19.9;27.0;0.0;
23/02/2025 03:07:22;100;0;151.43;-4;-20.53;-1.69;200.2;18.10;76702;2838.212;-1801.629;1;139;-70;-62.9;43.4;43.6;17;17.1;27.0;0.0;
23/02/2025 03:07:42;100;0;149.96;-4;-20.18;-3.13;203.0;18.10;76701;2838.210;-1801.628;1;139;-70;-62.9;43.4;43.7;17;17.1;27.0;0.0;
23/02/2025 03:08:02;100;0;148.88;-4;-20.26;-3.11;205.7;18.10;76688;2838.207;-1801.626;1;139;-70;-62.9;43.4;43.6;17;17.1;27.0;0.0;
23/02/2025 03:08:22;100;0;146.73;-4;-20.17;-3.09;208.4;18.00;76690;2838.205;-1801.624;1;139;-70;-61.3;43.4;43.7;15;14.9;27.0;0.0;
23/02/2025 03:08:42;100;0;146.62;-4;-19.99;-4.51;211.1;18.00;76671;2838.203;-1801.622;1;139;-70;-62.9;43.4;43.6;15;14.4;27.0;0.0;
23/02/2025 03:09:02;100;0;146.06;-4;-19.81;-4.56;213.6;17.90;76668;2838.200;-1801.621;1;139;-70;-62.9;43.4;43.6;15;14.4;27.0;0.0;
23/02/2025 03:09:22;100;0;146.25;-4;-20.01;-4.55;216.2;17.90;76658;2838.198;-1801.619;1;139;-70;-62.9;43.4;43.6;15;14.4;27.0;0.0;
23/02/2025 03:09:42;100;0;145.14;-4;-20.10;-4.51;218.8;17.90;76654;2838.196;-1801.617;1;139;-70;-62.9;43.4;43.7;15;14.4;27.0;0.0;
23/02/2025 03:10:02;100;0;146.39;-4;-19.91;-4.49;221.4;17.80;76639;2838.194;-1801.615;1;139;-70;-62.9;43.4;43.7;15;14.4;27.0;0.0;
23/02/2025 03:10:22;100;0;149.39;-4;-19.90;-4.49;223.9;17.80;76631;2838.192;-1801.614;1;139;-70;-62.9;43.4;43.7;15;14.0;27.0;0.0;
23/02/2025 03:10:42;100;0;152.48;-4;-19.86;-4.49;226.6;17.80;76630;2838.189;-1801.612;1;139;-70;-62.9;43.4;43.7;19;19.0;27.0;0.0;
23/02/2025 03:11:02;100;0;152.86;-4;-20.34;-1.83;229.2;17.70;76619;2838.187;-1801.611;1;139;-70;-62.9;43.4;43.7;19;19.4;27.0;0.0;
23/02/2025 03:11:22;100;0;149.42;-4;-20.43;-1.84;231.8;17.70;76607;2838.184;-1801.609;1;139;-70;-64.5;43.4;43.6;16;15.8;27.0;0.0;
23/02/2025 03:11:42;100;0;147.09;-4;-20.23;-3.95;234.4;17.70;76612;2838.182;-1801.608;1;139;-70;-62.9;43.4;43.6;16;15.3;27.0;0.0;
23/02/2025 03:12:02;100;0;145.10;-4;-20.31;-3.93;237.0;17.60;76599;2838.180;-1801.606;1;139;-70;-64.5;43.4;43.6;16;15.3;27.0;0.0;
23/02/2025 03:12:22;100;0;145.42;-4;-19.98;-3.85;239.7;17.60;76587;2838.178;-1801.604;1;139;-70;-62.9;43.4;43.6;16;15.3;27.0;0.0;
23/02/2025 03:12:42;100;0;145.81;-4;-19.93;-4.04;242.2;17.60;76583;2838.176;-1801.602;1;139;-70;-62.9;43.4;43.6;16;15.3;27.0;0.0;
23/02/2025 03:13:02;100;0;144.86;-4;-20.02;-3.91;244.9;17.50;76585;2838.173;-1801.601;1;139;-70;-62.9;43.4;43.7;16;15.3;27.0;0.0;
23/02/2025 03:13:22;100;0;147.38;-4;-20.28;-3.90;247.5;17.50;76569;2838.171;-1801.599;1;139;-70;-61.3;43.4;43.6;16;15.3;27.0;0.0;
23/02/2025 03:13:42;100;0;147.86;-4;-20.28;-3.92;250.1;17.50;76567;2838.169;-1801.597;1;139;-70;-61.3;43.4;43.7;16;15.3;27.0;0.0;
23/02/2025 03:14:02;100;0;148.16;-4;-20.43;-3.88;252.9;17.40;76562;2838.166;-1801.595;1;139;-70;-62.9;43.4;43.7;16;15.3;27.0;0.0;
23/02/2025 03:14:22;100;0;145.60;-4;-20.24;-3.89;255.7;17.40;76535;2838.164;-1801.593;1;139;-70;-62.9;43.4;43.7;16;15.3;27.0;0.0;
23/02/2025 03:14:42;100;0;144.56;-4;-20.43;-3.84;258.4;17.40;76542;2838.162;-1801.592;1;139;-70;-62.9;43.4;43.7;16;15.3;27.0;0.0;
23/02/2025 03:15:02;100;0;143.94;-4;-20.29;-3.87;261.2;17.30;76529;2838.159;-1801.590;1;139;-70;-62.9;43.4;43.7;16;15.3;27.0;0.0;
23/02/2025 03:15:22;100;0;144.29;-4;-20.28;-3.91;264.1;17.30;76537;2838.157;-1801.587;1;139;-70;-62.9;43.4;43.6;16;15.3;27.0;0.0;
23/02/2025 03:15:42;100;0;143.50;-4;-20.32;-3.87;266.9;17.20;76522;2838.155;-1801.585;1;139;-70;-61.3;43.4;43.6;16;15.3;27.0;0.0;
23/02/2025 03:16:02;100;0;140.63;-4;-20.21;-3.90;269.8;17.20;76515;2838.152;-1801.583;1;139;-70;-62.9;43.4;43.7;16;15.3;27.0;0.0;
23/02/2025 03:16:22;100;0;140.99;-4;-20.12;-3.89;272.5;17.20;76514;2838.150;-1801.581;1;139;-70;-62.9;43.4;43.6;16;15.3;27.0;0.0;
23/02/2025 03:16:42;100;0;141.52;-4;-20.37;-3.82;275.4;17.10;76500;2838.148;-1801.579;1;139;-70;-62.9;43.4;43.6;16;15.3;27.0;0.0;
23/02/2025 03:17:03;100;0;143.30;-4;-20.20;-3.83;278.2;17.10;76491;2838.146;-1801.577;1;139;-70;-62.9;43.4;43.6;16;15.3;27.0;0.0;
23/02/2025 03:17:23;100;0;144.21;-4;-20.01;-3.92;281.1;17.10;76481;2838.143;-1801.575;1;139;-70;-62.9;43.4;43.7;16;15.3;27.0;0.0;
23/02/2025 03:17:43;100;0;144.41;-4;-19.71;-3.87;283.8;17.00;76483;2838.141;-1801.573;1;139;-70;-62.9;43.4;43.6;16;15.3;27.0;0.0;
23/02/2025 03:18:03;100;0;144.80;-4;-18.96;-4.42;286.5;17.00;76487;2838.138;-1801.571;1;139;-70;-62.9;43.7;43.7;16;15.3;27.0;0.0;
23/02/2025 03:18:23;100;0;147.80;-4;-19.72;-4.28;289.0;17.00;76469;2838.136;-1801.569;1;139;-70;-62.9;43.7;43.9;16;15.3;27.0;0.0;
23/02/2025 03:18:43;100;0;146.64;-4;-19.95;-4.10;291.6;17.00;76473;2838.134;-1801.567;1;139;-70;-62.9;43.7;43.9;16;15.3;27.0;0.0;
23/02/2025 03:19:03;100;0;148.75;-4;-19.98;-4.06;294.1;16.90;76458;2838.132;-1801.566;1;139;-70;-62.9;43.7;43.9;16;15.3;27.0;0.0;
23/02/2025 03:19:23;100;0;150.46;-4;-19.67;-4.07;296.5;16.90;76446;2838.130;-1801.564;1;139;-70;-62.9;43.7;43.7;16;15.3;27.0;0.0;
23/02/2025 03:19:43;100;0;146.75;-4;-20.05;-3.96;299.0;16.80;76442;2838.128;-1801.563;1;139;-70;-62.9;43.7;43.7;16;15.3;27.0;0.0;
23/02/2025 03:20:03;100;0;143.31;-4;-20.11;-3.80;301.6;16.80;76435;2838.126;-1801.561;1;139;-70;-61.3;43.7;43.9;16;15.3;27.0;0.0;
23/02/2025 03:20:23;100;0;140.36;-4;-20.06;-3.92;304.4;16.80;76426;2838.123;-1801.559;1;139;-70;-62.9;43.7;43.9;16;15.3;27.0;0.0;
23/02/2025 03:20:43;100;0;136.22;-4;-20.15;-3.93;307.1;16.70;76410;2838.121;-1801.556;1;139;-70;-62.9;43.7;43.9;14;14.0;27.0;0.0;
23/02/2025 03:21:03;100;0;133.43;-4;-19.91;-4.72;309.7;16.70;76417;2838.120;-1801.554;1;139;-70;-62.9;43.7;43.9;14;14.0;27.0;0.0;
23/02/2025 03:21:23;100;0;132.05;-4;-20.10;-4.73;312.3;16.70;76405;2838.118;-1801.551;1;139;-70;-62.9;43.7;43.9;12;12.2;27.0;0.0;
23/02/2025 03:21:43;100;0;132.09;-4;-19.98;-5.70;315.1;16.70;76409;2838.116;-1801.549;1;139;-70;-62.9;43.7;43.9;12;11.7;27.0;0.0;
23/02/2025 03:22:03;100;0;132.19;-4;-20.09;-5.73;317.7;16.60;76397;2838.114;-1801.546;1;139;-70;-62.9;43.7;43.9;12;11.7;27.0;0.0;
23/02/2025 03:22:23;100;0;130.98;-4;-20.14;-5.70;320.5;16.60;76382;2838.113;-1801.544;1;139;-70;-62.9;43.7;43.9;12;11.7;27.0;0.0;
23/02/2025 03:22:43;100;0;130.23;-4;-19.99;-5.78;323.1;16.60;76386;2838.111;-1801.541;1;139;-70;-62.9;43.7;43.9;12;11.7;27.0;0.0;
23/02/2025 03:23:03;100;0;129.97;-4;-19.88;-5.71;325.7;16.50;76384;2838.110;-1801.539;1;139;-70;-62.9;43.7;43.9;10;9.9;27.0;0.0;
23/02/2025 03:23:23;100;0;130.38;-4;-19.84;-6.83;328.3;16.50;76381;2838.108;-1801.536;1;139;-70;-62.9;43.7;43.9;10;9.5;27.0;0.0;
23/02/2025 03:23:43;100;0;135.19;-4;-19.77;-6.72;330.8;16.50;76369;2838.106;-1801.534;1;139;-70;-62.9;43.7;43.9;14;14.0;27.0;0.0;
23/02/2025 03:24:03;100;0;136.96;-4;-20.14;-4.43;333.4;16.40;76370;2838.104;-1801.532;1;139;-70;-61.3;43.7;43.9;14;14.4;27.0;0.0;
23/02/2025 03:24:23;100;0;137.42;-4;-20.32;-4.39;335.9;16.40;76357;2838.103;-1801.529;1;139;-70;-62.9;43.7;43.9;14;14.4;27.0;0.0;
23/02/2025 03:24:43;100;0;135.22;-4;-20.55;-4.39;338.4;16.40;76354;2838.101;-1801.527;1;139;-70;-62.9;43.7;43.9;14;14.4;27.0;0.0;
23/02/2025 03:25:03;100;0;132.14;-4;-20.69;-4.43;341.1;16.30;76344;2838.099;-1801.525;1;139;-70;-62.9;43.7;43.9;12;12.2;27.0;0.0;
23/02/2025 03:25:23;100;0;132.68;-4;-20.16;-5.61;343.6;16.30;76340;2838.098;-1801.523;1;139;-70;-62.9;43.7;43.9;12;11.7;27.0;0.0;
23/02/2025 03:25:43;100;0;133.30;-4;-19.90;-5.63;346.2;16.30;76336;2838.096;-1801.520;1;139;-70;-62.9;43.7;43.9;12;11.7;27.0;0.0;
23/02/2025 03:26:03;100;0;135.36;-4;-19.63;-5.63;348.5;16.20;76323;2838.094;-1801.518;1;139;-70;-62.9;43.7;43.9;14;14.0;27.0;0.0;
23/02/2025 03:26:23;100;0;138.53;-4;-19.65;-4.43;350.8;16.20;76308;2838.093;-1801.516;1;139;-70;-62.9;43.7;43.9;14;14.4;27.0;0.0;
23/02/2025 03:26:43;100;0;141.20;-4;-19.98;-4.35;353.1;16.20;76310;2838.091;-1801.515;1;139;-70;-62.9;43.7;43.9;14;14.4;27.0;0.0;
23/02/2025 03:27:03;100;0;142.92;-4;-19.91;-4.25;355.4;16.10;76305;2838.089;-1801.513;1;139;-70;-62.9;43.7;43.9;14;14.4;27.0;0.0;
23/02/2025 03:27:23;100;0;145.55;-4;-19.91;-4.19;357.7;16.10;76299;2838.087;-1801.511;1;139;-70;-62.9;43.7;43.9;14;14.4;27.0;0.0;
23/02/2025 03:27:43;100;0;147.64;-4;-20.06;-4.07;359.9;16.10;76291;2838.085;-1801.510;1;139;-70;-62.9;43.7;43.9;14;14.4;27.0;0.0;
23/02/2025 03:28:03;100;0;149.73;-4;-19.97;-4.36;362.1;16.00;76285;2838.084;-1801.509;1;139;-70;-62.9;43.7;43.9;16;15.8;27.0;0.0;
23/02/2025 03:28:23;100;0;152.35;-4;-20.14;-3.36;364.3;16.00;76266;2838.082;-1801.508;1;139;-70;-62.9;43.7;43.7;18;18.1;27.0;0.0;
23/02/2025 03:28:43;100;0;153.64;-4;-20.25;-2.09;366.6;16.00;76260;2838.080;-1801.507;1;139;-70;-61.3;43.7;43.9;20;20.3;27.0;0.0;
23/02/2025 03:29:03;100;0;151.95;-4;-20.59;-0.97;368.7;16.00;76261;2838.078;-1801.506;1;139;-70;-62.9;43.7;43.9;18;18.1;27.0;0.0;
23/02/2025 03:29:23;100;0;152.45;-4;-20.04;-2.65;370.8;15.90;76248;2838.076;-1801.505;1;139;-70;-62.9;43.7;43.9;18;18.1;27.0;0.0;
23/02/2025 03:29:43;100;0;151.30;-4;-20.12;-2.72;373.0;15.90;76243;2838.074;-1801.503;1;139;-70;-62.9;43.7;43.9;18;18.1;27.0;0.0;
23/02/2025 03:30:03;100;0;147.71;-4;-20.07;-2.76;375.0;15.90;76234;2838.073;-1801.502;1;139;-90;-90.3;43.7;43.9;15;14.9;27.0;0.0;
23/02/2025 03:30:23;100;0;146.76;-4;-19.42;-4.22;377.2;15.80;76299;2838.071;-1801.501;1;139;-90;-90.3;43.7;43.9;15;14.9;27.0;0.0;
23/02/2025 03:30:43;100;0;146.85;-4;-19.38;-4.22;379.5;15.80;76295;2838.069;-1801.499;1;139;-90;-91.9;43.7;43.9;15;14.9;27.0;0.0;
23/02/2025 03:31:03;100;0;146.78;-4;-19.32;-4.21;381.7;15.80;76291;2838.067;-1801.498;1;139;-90;-91.9;43.7;43.9;15;14.9;27.0;0.0;
23/02/2025 03:31:23;100;0;145.71;-4;-19.23;-4.25;384.0;15.70;76273;2838.065;-1801.496;1;139;-90;-91.9;43.7;43.9;15;14.4;27.0;0.0;
23/02/2025 03:31:43;100;0;146.08;-4;-19.22;-4.20;386.2;15.70;76269;2838.063;-1801.495;1;139;-90;-91.9;43.7;43.9;15;14.9;27.0;0.0;
23/02/2025 03:32:03;100;0;145.46;-4;-19.42;-4.22;388.6;15.70;76268;2838.061;-1801.493;1;139;-90;-93.5;43.7;43.9;15;14.9;27.0;0.0;
23/02/2025 03:32:23;100;0;145.07;-4;-19.41;-4.21;390.9;15.60;76269;2838.059;-1801.491;1;139;-90;-93.5;43.7;43.9;15;14.9;27.0;0.0;
23/02/2025 03:32:43;100;0;146.39;-4;-19.51;-4.15;393.2;15.60;76252;2838.057;-1801.490;1;139;-90;-93.5;43.7;43.9;15;14.4;27.0;0.0;
23/02/2025 03:33:03;100;0;145.80;-4;-19.58;-4.15;395.7;15.60;76250;2838.055;-1801.488;1;139;-90;-93.5;43.7;43.9;15;14.4;27.0;0.0;
23/02/2025 03:33:23;100;0;147.16;-4;-19.67;-4.12;398.1;15.60;76236;2838.053;-1801.487;1;139;-90;-93.5;43.7;43.9;15;14.4;27.0;0.0;
23/02/2025 03:33:43;100;0;150.65;-4;-19.48;-4.26;400.5;15.50;76243;2838.051;-1801.485;1;139;-90;-93.5;43.7;43.9;18;19.0;27.0;0.0;
23/02/2025 03:34:03;100;0;148.76;-4;-20.00;-1.85;402.9;15.50;76241;2838.049;-1801.484;1;139;-90;-95.2;43.7;43.9;16;15.8;27.0;0.0;
23/02/2025 03:34:23;100;0;149.11;-4;-19.08;-3.74;405.3;15.50;76223;2838.046;-1801.482;1;139;-90;-93.5;43.7;43.9;16;15.3;27.0;0.0;
23/02/2025 03:34:43;100;0;149.81;-4;-19.41;-3.90;407.7;15.40;76224;2838.044;-1801.481;1;139;-90;-93.5;43.7;43.9;16;15.3;27.0;0.0;
23/02/2025 03:35:03;100;0;149.29;-4;-19.54;-4.05;410.0;15.40;76232;2838.042;-1801.479;1;139;-90;-93.5;43.7;43.9;16;15.3;27.0;0.0;
23/02/2025 03:35:23;100;0;149.63;-4;-19.70;-3.90;412.4;15.40;76225;2838.040;-1801.478;1;139;-90;-93.5;43.7;43.9;16;15.3;27.0;0.0;
23/02/2025 03:35:43;100;0;148.10;-4;-19.56;-3.89;414.7;15.30;76209;2838.038;-1801.477;1;139;-90;-93.5;43.7;43.9;16;15.3;27.0;0.0;
23/02/2025 03:36:03;100;0;146.48;-4;-19.47;-3.88;417.0;15.30;76200;2838.036;-1801.475;1;139;-90;-93.5;43.7;43.9;16;15.3;27.0;0.0;
23/02/2025 03:36:23;100;0;143.50;-4;-19.31;-3.89;419.2;15.30;76207;2838.034;-1801.473;1;139;-90;-95.2;43.7;43.9;16;15.3;27.0;0.0;
23/02/2025 03:36:43;100;0;142.53;-4;-19.36;-3.86;421.5;15.20;76189;2838.033;-1801.472;1;139;-90;-95.2;43.7;43.9;16;15.3;27.0;0.0;
23/02/2025 03:37:03;100;0;142.73;-4;-19.22;-3.97;423.7;15.20;76192;2838.031;-1801.470;1;139;-90;-95.2;43.7;43.9;16;15.3;27.0;0.0;
23/02/2025 03:37:23;100;0;138.84;-4;-19.25;-3.94;425.9;15.20;76188;2838.029;-1801.468;1;139;-90;-95.2;43.7;43.9;16;15.3;27.0;0.0;
23/02/2025 03:37:43;100;0;135.26;-4;-19.38;-3.93;428.1;15.20;76184;2838.028;-1801.466;1;139;-90;-93.5;43.7;43.9;14;14.0;27.0;0.0;
23/02/2025 03:38:03;100;0;133.69;-4;-19.21;-4.71;430.3;15.20;76182;2838.026;-1801.464;1;139;-90;-95.2;43.7;43.9;14;13.5;27.0;0.0;
23/02/2025 03:38:23;100;0;134.43;-4;-19.42;-4.63;432.6;15.10;76181;2838.025;-1801.462;1;139;-90;-93.5;43.7;43.9;14;13.5;27.0;0.0;
23/02/2025 03:38:43;100;0;134.37;-4;-19.41;-4.63;434.8;15.10;76176;2838.023;-1801.460;1;139;-90;-93.5;43.7;43.9;14;13.5;27.0;0.0;
23/02/2025 03:39:03;100;0;135.20;-4;-19.44;-4.59;437.1;15.10;76159;2838.022;-1801.458;1;139;-90;-93.5;43.7;43.9;14;13.5;27.0;0.0;
23/02/2025 03:39:23;100;0;136.60;-4;-19.72;-4.53;439.3;15.00;76154;2838.020;-1801.456;1;139;-90;-95.2;43.7;43.9;14;13.5;27.0;0.0;
23/02/2025 03:39:43;100;0;137.02;-4;-19.60;-4.54;441.6;15.00;76153;2838.019;-1801.454;1;139;-90;-95.2;43.7;43.9;14;14.0;27.0;0.0;
23/02/2025 03:40:03;100;0;138.29;-4;-19.22;-4.65;443.8;15.00;76151;2838.017;-1801.452;1;139;-90;-93.5;43.7;43.9;14;13.5;27.0;0.0;
23/02/2025 03:40:23;100;0;139.73;-4;-19.34;-4.67;446.0;15.00;76136;2838.015;-1801.451;1;139;-90;-95.2;43.7;43.9;14;13.5;27.0;0.0;
23/02/2025 03:40:43;100;0;138.61;-4;-18.99;-4.65;448.1;15.00;76142;2838.014;-1801.449;1;139;-90;-93.5;44.0;44.0;14;13.5;27.0;0.0;
23/02/2025 03:41:03;100;0;139.42;-4;-19.72;-4.65;450.1;14.90;76136;2838.012;-1801.447;1;139;-90;-93.5;44.0;44.3;14;13.5;27.0;0.0;
23/02/2025 03:41:23;100;0;140.72;-4;-19.69;-4.63;452.2;14.90;76128;2838.011;-1801.446;1;139;-90;-93.5;44.0;44.3;14;13.5;27.0;0.0;
23/02/2025 03:41:43;100;0;143.21;-4;-19.53;-4.57;454.3;14.90;76124;2838.009;-1801.444;1;139;-90;-93.5;44.0;44.2;14;13.5;27.0;0.0;
23/02/2025 03:42:03;100;0;143.35;-4;-19.60;-4.76;456.1;14.80;76123;2838.008;-1801.443;1;139;-110;-111.3;44.0;44.3;14;14.0;27.0;0.0;
23/02/2025 03:42:23;100;0;144.91;-4;-19.85;-4.58;458.3;14.80;76147;2838.006;-1801.442;1;139;-110;-111.3;44.0;44.3;14;13.5;27.0;0.0;
23/02/2025 03:42:43;100;0;146.87;-4;-20.11;-4.58;460.5;14.80;76148;2838.004;-1801.440;1;139;-110;-111.3;44.0;44.2;16;15.8;27.0;0.0;
23/02/2025 03:43:03;100;0;146.90;-4;-20.17;-3.23;463.0;14.80;76136;2838.002;-1801.439;1;139;-110;-112.9;44.0;44.3;16;16.2;27.0;0.0;
23/02/2025 03:43:23;100;0;148.35;-4;-20.17;-3.21;465.4;14.70;76134;2838.000;-1801.437;1;139;-110;-111.3;44.0;44.2;16;16.2;27.0;0.0;
23/02/2025 03:43:43;100;0;148.78;-4;-19.95;-3.22;467.7;14.70;76124;2837.998;-1801.436;1;139;-110;-112.9;44.0;44.2;16;16.2;27.0;0.0;
23/02/2025 03:44:03;100;0;147.70;-4;-20.16;-3.27;470.2;14.70;76126;2837.996;-1801.434;1;139;-110;-112.9;44.0;44.3;16;16.2;27.0;0.0;
23/02/2025 03:44:23;100;0;147.63;-4;-20.10;-3.29;472.7;14.70;76126;2837.994;-1801.433;1;139;-110;-111.3;44.0;44.2;16;16.2;27.0;0.0;
23/02/2025 03:44:43;100;0;147.22;-4;-20.02;-3.29;475.1;14.60;76119;2837.992;-1801.431;1;139;-110;-111.3;44.0;44.2;16;16.2;27.0;0.0;
23/02/2025 03:45:03;100;0;145.86;-4;-20.00;-3.31;477.7;14.60;76115;2837.990;-1801.429;1;139;-110;-112.9;44.0;44.3;16;16.2;27.0;0.0;
23/02/2025 03:45:23;100;0;145.43;-4;-20.00;-3.29;480.2;14.60;76108;2837.988;-1801.428;1;139;-110;-111.3;44.0;44.3;16;16.2;27.0;0.0;
23/02/2025 03:45:43;100;0;145.61;-4;-20.00;-3.31;482.8;14.60;76106;2837.985;-1801.426;1;139;-110;-112.9;44.0;44.3;16;16.2;27.0;0.0;
23/02/2025 03:46:03;100;0;143.69;-4;-19.96;-3.30;485.4;14.50;76103;2837.983;-1801.424;1;139;-110;-112.9;44.0;44.3;16;16.2;27.0;0.0;
23/02/2025 03:46:23;100;0;141.16;-4;-19.98;-3.30;487.8;14.50;76100;2837.981;-1801.422;1;139;-110;-112.9;44.0;44.3;16;16.2;27.0;0.0;
23/02/2025 03:46:43;100;0;135.62;-4;-20.02;-3.32;490.4;14.50;76085;2837.980;-1801.420;1;139;-110;-112.9;44.0;44.3;16;16.2;27.0;0.0;
23/02/2025 03:47:03;100;0;131.47;-4;-20.13;-3.24;493.0;14.50;76085;2837.978;-1801.417;1;139;-110;-111.3;44.0;44.3;12;12.2;27.0;0.0;
23/02/2025 03:47:23;100;0;130.58;-4;-20.09;-5.42;495.7;14.40;76081;2837.976;-1801.415;1;139;-110;-112.9;44.0;44.2;12;11.7;27.0;0.0;
23/02/2025 03:47:43;100;0;128.17;-4;-20.02;-5.50;498.3;14.40;76074;2837.975;-1801.412;1;139;-110;-112.9;44.0;44.3;9;9.0;27.0;0.0;
23/02/2025 03:48:03;100;0;127.57;-4;-19.85;-6.78;500.9;14.40;76073;2837.973;-1801.410;1;139;-110;-111.3;44.0;44.3;9;9.0;27.0;0.0;
23/02/2025 03:48:23;100;0;126.99;-4;-19.79;-6.82;503.6;14.40;76069;2837.972;-1801.407;1;139;-110;-112.9;44.0;44.3;7;7.2;27.0;0.0;
23/02/2025 03:48:43;100;0;127.95;-4;-19.58;-7.90;506.3;14.40;76063;2837.970;-1801.404;1;139;-110;-112.9;44.0;44.2;9;9.0;27.0;0.0;
23/02/2025 03:49:03;100;0;131.30;-4;-19.58;-6.65;509.0;14.30;76060;2837.969;-1801.401;1;139;-110;-112.9;44.0;44.2;12;12.2;27.0;0.0;
23/02/2025 03:49:23;100;0;133.18;-4;-19.66;-5.24;511.8;14.30;76046;2837.967;-1801.399;1;139;-110;-112.9;44.0;44.3;12;12.2;27.0;0.0;
23/02/2025 03:49:43;100;0;134.55;-4;-19.63;-5.25;514.5;14.30;76045;2837.965;-1801.396;1;139;-110;-112.9;44.0;44.3;14;14.0;27.0;0.0;
23/02/2025 03:50:03;100;0;134.65;-4;-19.73;-4.25;517.3;14.30;76043;2837.963;-1801.394;1;139;-110;-112.9;44.0;44.2;14;14.4;27.0;0.0;
23/02/2025 03:50:23;100;0;134.71;-4;-19.84;-4.33;520.1;14.20;76039;2837.961;-1801.391;1;139;-110;-112.9;44.0;44.3;14;14.4;27.0;0.0;
23/02/2025 03:50:43;100;0;135.32;-4;-19.77;-4.22;522.9;14.20;76037;2837.959;-1801.389;1;139;-110;-112.9;44.0;44.3;14;14.4;27.0;0.0;
23/02/2025 03:51:03;100;0;135.76;-4;-19.79;-4.21;525.8;14.20;76032;2837.957;-1801.386;1;139;-110;-112.9;44.0;44.3;14;14.4;27.0;0.0;
23/02/2025 03:51:23;100;0;136.72;-4;-20.20;-4.21;528.7;14.20;76031;2837.955;-1801.384;1;139;-110;-112.9;44.0;44.3;14;14.4;27.0;0.0;
23/02/2025 03:51:44;100;0;135.72;-4;-20.49;-4.13;531.9;14.10;76027;2837.952;-1801.381;1;139;-110;-112.9;44.0;44.2;14;14.4;27.0;0.0;
23/02/2025 03:52:04;100;0;134.25;-4;-20.24;-4.18;535.2;14.10;76017;2837.950;-1801.378;1;139;-110;-114.5;44.0;44.2;14;14.4;27.0;0.0;
23/02/2025 03:52:24;100;0;133.87;-4;-20.08;-4.19;538.3;14.10;76012;2837.948;-1801.375;1;139;-110;-112.9;44.0;44.3;14;14.4;27.0;0.0;
23/02/2025 03:52:44;100;0;134.62;-4;-20.23;-4.33;541.4;14.10;76013;2837.945;-1801.372;1;139;-110;-111.3;44.0;44.2;14;14.4;27.0;0.0;
23/02/2025 03:53:04;100;0;134.17;-4;-19.81;-4.19;544.4;14.00;76000;2837.943;-1801.369;1;139;-110;-111.3;44.0;44.2;14;14.4;27.0;0.0;
23/02/2025 03:53:24;100;0;133.38;-4;-20.19;-4.37;547.4;14.00;75982;2837.941;-1801.366;1;139;-110;-112.9;44.0;44.3;14;14.4;27.0;0.0;
23/02/2025 03:53:44;100;0;132.95;-4;-19.61;-4.25;550.6;14.00;75997;2837.939;-1801.363;1;139;-110;-111.3;44.0;44.3;14;14.4;27.0;0.0;
23/02/2025 03:54:04;100;0;134.80;-4;-19.89;-4.14;553.6;14.00;75994;2837.937;-1801.361;1;139;-110;-112.9;44.0;44.3;14;14.4;27.0;0.0;
23/02/2025 03:54:24;100;0;137.34;-4;-19.90;-4.18;556.6;14.00;75976;2837.935;-1801.358;1;139;-110;-112.9;44.0;44.3;14;14.4;27.0;0.0;
23/02/2025 03:54:44;100;0;136.59;-4;-19.68;-4.24;559.7;13.90;75980;2837.932;-1801.355;1;139;-110;-111.3;44.0;44.3;14;14.4;27.0;0.0;
23/02/2025 03:55:04;100;0;137.31;-4;-19.79;-4.21;562.7;13.90;75973;2837.930;-1801.353;1;139;-110;-112.9;44.0;44.3;14;14.0;27.0;0.0;
23/02/2025 03:55:24;100;0;137.87;-4;-19.60;-4.21;565.7;13.90;75970;2837.928;-1801.350;1;139;-110;-111.3;44.0;44.3;14;14.4;27.0;0.0;
23/02/2025 03:55:44;100;0;139.37;-4;-19.40;-4.22;568.5;13.80;75959;2837.925;-1801.348;1;139;-110;-112.9;44.0;44.2;14;14.4;27.0;0.0;
23/02/2025 03:56:04;100;0;140.39;-4;-19.47;-4.30;571.4;13.80;75957;2837.923;-1801.345;1;139;-110;-111.3;44.0;44.3;14;14.4;27.0;0.0;
23/02/2025 03:56:24;100;0;141.36;-4;-19.34;-4.26;574.2;13.80;75958;2837.921;-1801.343;1;139;-110;-111.3;44.0;44.3;14;14.4;27.0;0.0;
23/02/2025 03:56:44;100;0;141.97;-4;-19.29;-4.23;577.0;13.80;75950;2837.918;-1801.341;1;139;-110;-112.9;44.0;44.3;14;14.4;27.0;0.0;
23/02/2025 03:57:04;100;0;143.45;-4;-19.34;-4.25;579.7;13.80;75941;2837.916;-1801.339;1;139;-110;-114.5;44.0;44.3;14;14.4;27.0;0.0;
23/02/2025 03:57:24;100;0;145.07;-4;-19.20;-4.20;582.4;13.80;75944;2837.914;-1801.337;1;139;-110;-111.3;44.0;44.3;14;14.4;27.0;0.0;
23/02/2025 03:57:44;100;0;144.86;-4;-18.79;-4.24;584.9;13.70;75942;2837.911;-1801.335;1;139;-110;-112.9;44.4;44.3;14;14.4;27.0;0.0;
23/02/2025 03:58:04;100;0;144.92;-4;-18.95;-4.26;587.3;13.70;75941;2837.909;-1801.333;1;139;-110;-112.9;44.7;44.6;14;14.4;27.0;0.0;
23/02/2025 03:58:24;100;0;145.96;-4;-20.03;-4.21;589.8;13.70;75923;2837.907;-1801.332;1;139;-110;-112.9;44.7;44.8;14;14.4;27.0;0.0;
23/02/2025 03:58:44;100;0;146.74;-4;-20.44;-4.22;592.3;13.70;75918;2837.905;-1801.330;1;139;-110;-114.5;44.7;44.8;14;14.4;27.0;0.0;
23/02/2025 03:59:04;100;0;147.11;-4;-20.95;-4.27;594.9;13.60;75925;2837.903;-1801.328;1;139;-110;-111.3;44.7;44.9;14;14.4;27.0;0.0;
23/02/2025 03:59:24;100;0;144.43;-4;-20.60;-4.34;597.8;13.60;75917;2837.901;-1801.326;1;139;-110;-111.3;44.7;44.8;14;14.4;27.0;0.0;
23/02/2025 03:59:44;100;0;140.36;-4;-20.63;-4.26;600.6;13.60;75904;2837.899;-1801.324;1;139;-110;-112.9;44.7;44.8;14;14.4;27.0;0.0;
23/02/2025 04:00:04;100;0;138.41;-4;-21.09;-4.43;603.5;13.60;75905;2837.897;-1801.322;1;139;-110;-111.3;44.7;44.8;14;14.4;27.0;0.0;
23/02/2025 04:00:24;100;0;138.18;-4;-20.24;-4.26;606.4;13.60;75892;2837.894;-1801.319;1;139;-110;-112.9;44.7;44.8;14;14.4;27.0;0.0;
23/02/2025 04:00:44;100;0;137.58;-4;-20.13;-4.30;609.3;13.50;75889;2837.892;-1801.317;1;139;-110;-111.3;44.7;44.9;14;14.4;27.0;0.0;
23/02/2025 04:01:04;100;0;135.62;-4;-20.27;-4.24;612.0;13.50;75874;2837.890;-1801.314;1;139;-110;-112.9;44.7;44.8;14;14.4;27.0;0.0;
23/02/2025 04:01:24;100;0;132.23;-4;-20.53;-4.28;614.9;13.50;75869;2837.888;-1801.312;1;139;-110;-112.9;44.7;44.8;12;12.2;27.0;0.0;
23/02/2025 04:01:44;100;0;131.78;-4;-20.45;-5.65;617.7;13.40;75871;2837.887;-1801.309;1;139;-110;-112.9;44.7;44.8;12;11.7;27.0;0.0;
23/02/2025 04:02:04;100;0;130.87;-4;-20.46;-5.66;620.4;13.40;75866;2837.885;-1801.307;1;139;-110;-112.9;44.7;44.9;12;11.7;27.0;0.0;
23/02/2025 04:02:24;100;0;130.82;-4;-20.65;-5.55;623.1;13.40;75869;2837.883;-1801.304;1;139;-110;-112.9;44.7;44.8;12;11.7;27.0;0.0;
23/02/2025 04:02:44;100;0;130.70;-4;-20.42;-5.55;625.9;13.40;75854;2837.881;-1801.301;1;139;-110;-112.9;44.7;44.9;12;11.7;27.0;0.0;
23/02/2025 04:03:04;100;0;130.15;-4;-20.51;-5.56;628.7;13.40;75858;2837.880;-1801.299;1;139;-110;-112.9;44.7;44.9;10;9.9;27.0;0.0;
23/02/2025 04:03:24;100;0;130.10;-4;-20.42;-6.53;631.5;13.30;75849;2837.878;-1801.296;1;139;-110;-111.3;44.7;44.8;10;9.5;27.0;0.0;
23/02/2025 04:03:44;100;0;130.76;-4;-20.35;-6.56;634.3;13.30;75854;2837.876;-1801.293;1;139;-110;-112.9;44.7;44.9;10;9.5;27.0;0.0;
23/02/2025 04:04:04;100;0;130.54;-4;-20.54;-6.53;637.0;13.30;75838;2837.875;-1801.291;1;139;-110;-112.9;44.7;44.9;10;9.5;27.0;0.0;
23/02/2025 04:04:24;100;0;130.09;-4;-20.34;-6.54;639.8;13.30;75834;2837.873;-1801.288;1;139;-110;-112.9;44.7;44.8;10;9.5;27.0;0.0;
23/02/2025 04:04:44;100;0;129.58;-4;-20.34;-6.42;642.7;13.30;75846;2837.871;-1801.285;1;139;-110;-111.3;44.7;44.9;10;9.5;27.0;0.0;
23/02/2025 04:05:04;100;0;128.59;-4;-20.39;-6.53;645.4;13.20;75829;2837.869;-1801.282;1;139;-110;-112.9;44.7;44.9;8;8.1;27.0;0.0;
23/02/2025 04:05:24;100;0;128.67;-4;-20.35;-7.33;648.2;13.20;75830;2837.868;-1801.279;1;139;-110;-112.9;44.7;44.8;8;8.1;27.0;0.0;
23/02/2025 04:05:44;100;0;129.09;-4;-19.99;-7.32;651.0;13.20;75826;2837.866;-1801.277;1;139;-110;-111.3;44.7;44.8;8;8.1;27.0;0.0;
23/02/2025 04:06:04;100;0;132.69;-4;-19.94;-7.34;653.8;13.20;75817;2837.864;-1801.274;1;139;-110;-112.9;44.7;44.9;12;12.2;27.0;0.0;
23/02/2025 04:06:24;100;0;132.55;-4;-20.10;-5.15;656.6;13.10;75816;2837.862;-1801.271;1;139;-110;-111.3;44.7;44.9;12;12.6;27.0;0.0;
23/02/2025 04:06:44;100;0;133.08;-4;-20.26;-5.11;659.4;13.10;75802;2837.860;-1801.269;1;139;-110;-112.9;44.7;44.9;12;12.6;27.0;0.0;
23/02/2025 04:07:04;100;0;133.11;-4;-20.32;-5.16;662.3;13.10;75801;2837.858;-1801.266;1;139;-110;-112.9;44.7;44.9;12;12.6;27.0;0.0;
23/02/2025 04:07:24;100;0;134.68;-4;-20.18;-5.09;665.1;13.10;75789;2837.856;-1801.263;1;139;-110;-112.9;44.7;44.9;12;12.6;27.0;0.0;
23/02/2025 04:07:44;100;0;137.38;-4;-20.26;-5.10;667.9;13.10;75795;2837.854;-1801.261;1;139;-110;-111.3;44.7;44.8;14;14.0;27.0;0.0;
23/02/2025 04:08:04;100;0;139.45;-4;-20.03;-4.23;670.9;13.00;75788;2837.852;-1801.259;1;139;-110;-112.9;44.7;44.9;14;14.4;27.0;0.0;
23/02/2025 04:08:24;100;0;140.81;-4;-20.30;-4.41;673.6;13.00;75778;2837.850;-1801.256;1;139;-110;-111.3;44.7;44.9;14;14.4;27.0;0.0;
23/02/2025 04:08:44;100;0;143.78;-4;-20.35;-4.15;676.5;13.00;75765;2837.848;-1801.254;1;139;-110;-112.9;44.7;44.9;14;14.4;27.0;0.0;
23/02/2025 04:09:04;100;0;145.05;-4;-20.27;-4.20;679.3;13.00;75769;2837.845;-1801.252;1;139;-110;-112.9;44.7;44.9;14;14.4;27.0;0.0;
23/02/2025 04:09:24;100;0;149.81;-4;-20.74;-4.08;682.3;13.00;75756;2837.842;-1801.251;1;139;-110;-112.9;44.7;44.8;16;15.8;27.0;0.0;
23/02/2025 04:09:44;100;0;146.47;-4;-20.76;-3.30;685.3;12.90;75757;2837.840;-1801.249;1;139;-110;-112.9;44.7;44.9;14;14.0;27.0;0.0;
23/02/2025 04:10:04;100;0;145.44;-4;-20.29;-4.34;688.2;12.90;75746;2837.837;-1801.247;1;139;-110;-112.9;44.7;44.9;14;14.4;27.0;0.0;
23/02/2025 04:10:24;100;0;143.51;-4;-20.73;-4.34;691.2;12.90;75741;2837.835;-1801.244;1;139;-110;-112.9;44.7;44.8;14;14.0;27.0;0.0;
23/02/2025 04:10:44;100;0;144.05;-4;-20.59;-4.32;694.2;12.80;75729;2837.833;-1801.242;1;139;-110;-112.9;44.7;44.9;14;14.4;27.0;0.0;
23/02/2025 04:11:04;100;0;148.45;-4;-20.27;-4.22;697.2;12.80;75727;2837.830;-1801.240;1;139;-110;-112.9;44.7;44.9;14;14.0;27.0;0.0;
23/02/2025 04:11:24;100;0;147.72;-4;-20.48;-4.34;700.2;12.80;75717;2837.827;-1801.238;1;139;-110;-111.3;44.7;44.9;14;14.4;27.0;0.0;
23/02/2025 04:11:44;100;0;148.95;-4;-20.25;-4.31;703.0;12.80;75710;2837.825;-1801.237;1;139;-110;-112.9;44.7;44.8;16;15.8;27.0;0.0;
23/02/2025 04:12:04;100;0;148.51;-4;-20.33;-3.37;705.8;12.70;75700;2837.822;-1801.235;1;139;-110;-112.9;44.7;44.9;16;15.8;27.0;0.0;
23/02/2025 04:12:24;100;0;147.27;-4;-20.35;-3.40;708.6;12.70;75704;2837.820;-1801.233;1;139;-110;-112.9;44.7;44.9;16;16.2;27.0;0.0;
23/02/2025 04:12:44;100;0;142.15;-4;-20.31;-3.43;711.3;12.70;75694;2837.818;-1801.231;1;139;-110;-112.9;44.7;44.9;14;14.0;27.0;0.0;
23/02/2025 04:13:04;100;0;141.24;-4;-20.08;-4.58;714.0;12.70;75683;2837.815;-1801.229;1;139;-110;-112.9;44.7;44.9;14;14.0;27.0;0.0;
23/02/2025 04:13:24;100;0;140.73;-4;-20.03;-4.46;716.7;12.70;75675;2837.813;-1801.227;1;139;-110;-111.3;44.7;44.9;14;14.0;27.0;0.0;
23/02/2025 04:13:44;100;0;140.95;-4;-19.91;-4.54;719.4;12.60;75675;2837.811;-1801.225;1;139;-110;-112.9;44.7;44.9;14;14.0;27.0;0.0;
23/02/2025 04:14:04;100;0;139.57;-4;-19.99;-4.53;722.0;12.60;75655;2837.809;-1801.223;1;139;-110;-111.3;44.7;44.9;14;14.0;27.0;0.0;
23/02/2025 04:14:24;100;0;138.41;-4;-20.03;-4.41;724.6;12.60;75655;2837.807;-1801.221;1;139;-110;-112.9;44.7;44.9;14;14.0;27.0;0.0;
23/02/2025 04:14:44;100;0;138.11;-4;-20.05;-4.53;727.2;12.60;75649;2837.805;-1801.218;1;139;-110;-111.3;44.7;44.9;14;14.0;27.0;0.0;
23/02/2025 04:15:04;100;0;139.52;-4;-19.94;-4.45;729.9;12.50;75639;2837.803;-1801.216;1;139;-110;-112.9;44.7;44.8;14;14.0;27.0;0.0;
23/02/2025 04:15:24;100;0;141.72;-4;-19.93;-4.46;732.5;12.50;75627;2837.801;-1801.214;1;139;-110;-112.9;44.7;44.9;14;14.0;27.0;0.0;
23/02/2025 04:15:44;100;0;142.72;-4;-20.01;-4.53;735.2;12.50;75628;2837.799;-1801.212;1;139;-110;-111.3;44.7;44.9;14;14.0;27.0;0.0;
23/02/2025 04:16:04;100;0;142.90;-4;-20.02;-4.45;737.8;12.40;75608;2837.797;-1801.210;1;139;-110;-112.9;44.7;44.9;14;14.0;27.0;0.0;
23/02/2025 04:16:24;100;0;144.49;-4;-19.96;-4.53;740.4;12.40;75612;2837.795;-1801.208;1;139;-110;-112.9;44.7;44.9;14;14.0;27.0;0.0;
23/02/2025 04:16:44;100;0;145.54;-4;-20.01;-4.52;742.9;12.40;75597;2837.793;-1801.207;1;139;-110;-111.3;44.7;44.9;14;14.0;27.0;0.0;
23/02/2025 04:17:04;100;0;147.93;-4;-19.87;-4.52;745.5;12.40;75595;2837.790;-1801.205;1;139;-110;-114.5;44.7;44.9;14;14.0;27.0;0.0;
23/02/2025 04:17:24;100;0;148.92;-4;-20.05;-4.45;748.2;12.30;75585;2837.788;-1801.203;1;139;-110;-111.3;44.7;44.8;16;15.8;27.0;0.0;
23/02/2025 04:17:44;100;0;152.93;-4;-19.90;-3.26;750.8;12.30;75575;2837.786;-1801.202;1;139;-110;-114.5;44.7;44.9;19;19.0;27.0;0.0;
23/02/2025 04:18:04;100;0;152.38;-4;-20.42;-1.93;753.6;12.30;75568;2837.783;-1801.200;1;139;-110;-112.9;44.7;44.9;19;19.0;27.0;0.0;
23/02/2025 04:18:24;100;0;151.17;-4;-20.34;-1.97;756.4;12.30;75556;2837.780;-1801.199;1;139;-110;-112.9;44.7;44.9;17;16.7;27.0;0.0;
23/02/2025 04:18:44;100;0;147.33;-4;-20.95;-3.14;759.3;12.30;75561;2837.778;-1801.197;1;139;-110;-112.9;44.7;44.9;15;14.4;27.0;0.0;
23/02/2025 04:19:04;100;0;145.93;-4;-20.13;-4.12;762.2;12.20;75548;2837.775;-1801.195;1;139;-110;-111.3;44.7;44.9;15;14.9;27.0;0.0;
23/02/2025 04:19:24;100;0;144.71;-4;-20.35;-4.10;765.1;12.20;75546;2837.773;-1801.193;1;139;-110;-112.9;44.7;44.9;15;14.4;27.0;0.0;
23/02/2025 04:19:44;100;0;145.42;-4;-20.36;-4.13;768.2;12.10;75528;2837.770;-1801.191;1;139;-110;-114.5;44.7;44.9;15;14.9;27.0;0.0;
23/02/2025 04:20:04;100;0;144.99;-4;-19.99;-4.17;771.3;12.10;75537;2837.768;-1801.188;1;139;-110;-112.9;44.7;44.9;15;14.9;27.0;0.0;
23/02/2025 04:20:24;100;0;144.36;-4;-19.95;-4.25;774.5;12.10;75523;2837.765;-1801.186;1;139;-110;-112.9;44.7;44.9;15;14.4;27.0;0.0;
23/02/2025 04:20:44;100;0;144.59;-4;-19.86;-4.18;777.4;12.10;75526;2837.762;-1801.184;1;139;-110;-112.9;44.7;44.9;15;14.9;27.0;0.0;
23/02/2025 04:21:04;100;0;144.54;-4;-19.83;-4.24;780.5;12.00;75516;2837.760;-1801.182;1;139;-110;-111.3;44.7;44.9;15;14.9;27.0;0.0;
23/02/2025 04:21:24;100;0;146.13;-4;-19.77;-4.14;783.5;12.00;75512;2837.757;-1801.180;1;139;-110;-112.9;44.7;44.9;15;14.4;27.0;0.0;
23/02/2025 04:21:44;100;0;147.35;-4;-20.04;-4.20;786.6;12.00;75510;2837.754;-1801.178;1;139;-110;-112.9;44.7;44.9;15;14.4;27.0;0.0;
23/02/2025 04:22:04;100;0;147.08;-4;-19.64;-4.17;789.7;12.00;75509;2837.751;-1801.176;1;139;-110;-112.9;44.7;44.9;15;14.4;27.0;0.0;
23/02/2025 04:22:24;100;0;146.47;-4;-19.78;-4.19;792.8;11.90;75496;2837.749;-1801.173;1;139;-110;-112.9;44.7;45.1;15;14.4;27.0;0.0;
23/02/2025 04:22:44;100;0;145.75;-4;-19.79;-4.22;795.8;11.90;75482;2837.746;-1801.171;1;139;-110;-111.3;44.7;44.9;15;14.9;27.0;0.0;
23/02/2025 04:23:04;100;0;146.23;-4;-19.85;-4.18;798.9;11.90;75486;2837.743;-1801.169;1;139;-110;-112.9;44.7;44.9;15;14.9;27.0;0.0;
23/02/2025 04:23:24;100;0;146.00;-4;-19.50;-4.16;802.0;11.90;75484;2837.741;-1801.167;1;139;-110;-112.9;44.7;44.8;15;14.9;27.0;0.0;
23/02/2025 04:23:44;100;0;142.84;-4;-19.41;-4.16;805.0;11.80;75481;2837.738;-1801.165;1;139;-110;-112.9;44.7;44.9;15;14.4;27.0;0.0;
23/02/2025 04:24:04;100;0;141.88;-4;-19.70;-4.25;808.0;11.80;75458;2837.735;-1801.162;1;139;-110;-111.3;44.7;44.9;15;14.4;27.0;0.0;
23/02/2025 04:24:24;100;0;143.66;-4;-19.47;-4.27;811.0;11.80;75448;2837.733;-1801.160;1;139;-110;-111.3;44.7;44.8;15;14.4;27.0;0.0;
23/02/2025 04:24:44;100;0;146.33;-4;-19.56;-4.24;813.8;11.70;75447;2837.730;-1801.158;1;139;-110;-112.9;44.7;44.8;15;14.9;27.0;0.0;
23/02/2025 04:25:04;100;0;149.75;-4;-19.46;-4.21;817.0;11.70;75442;2837.727;-1801.156;1;139;-110;-112.9;44.7;44.9;17;18.1;27.0;0.0;
23/02/2025 04:25:24;100;0;151.56;-4;-19.62;-2.36;819.9;11.70;75432;2837.725;-1801.154;1;139;-110;-112.9;44.7;44.9;17;18.1;27.0;0.0;
23/02/2025 04:25:44;100;0;149.96;-4;-19.91;-2.38;823.0;11.70;75420;2837.722;-1801.152;1;139;-110;-111.3;44.7;44.9;17;18.5;27.0;0.0;
23/02/2025 04:26:04;100;0;148.18;-4;-19.88;-2.41;826.0;11.70;75419;2837.719;-1801.150;1;139;-110;-112.9;44.7;44.9;17;18.5;27.0;0.0;
23/02/2025 04:26:24;100;0;144.88;-4;-19.67;-2.40;829.1;11.60;75414;2837.716;-1801.148;1;139;-110;-112.9;44.7;44.9;15;14.9;27.0;0.0;
23/02/2025 04:26:45;100;0;143.80;-4;-19.61;-4.16;832.2;11.60;75405;2837.714;-1801.146;1;139;-110;-111.3;44.7;44.9;15;14.9;27.0;0.0;
23/02/2025 04:27:05;100;0;143.37;-4;-19.54;-4.12;835.2;11.60;75404;2837.711;-1801.144;1;139;-110;-112.9;44.7;44.9;15;14.4;27.0;0.0;
23/02/2025 04:27:25;100;0;142.83;-4;-19.49;-4.18;838.3;11.50;75397;2837.708;-1801.141;1;139;-110;-116.1;44.7;44.8;15;14.9;27.0;0.0;
23/02/2025 04:27:45;100;0;141.39;-4;-19.51;-4.14;841.2;11.50;75402;2837.706;-1801.139;1;139;-110;-112.9;44.7;44.9;15;14.9;27.0;0.0;
23/02/2025 04:28:05;100;0;140.53;-4;-19.45;-4.18;844.2;11.50;75394;2837.704;-1801.136;1;139;-110;-112.9;44.7;44.9;15;14.9;27.0;0.0;
23/02/2025 04:28:25;100;0;141.09;-4;-19.59;-4.22;847.2;11.50;75384;2837.701;-1801.134;1;139;-110;-112.9;44.7;44.9;15;14.4;27.0;0.0;
23/02/2025 04:28:45;100;0;140.91;-4;-19.54;-4.21;850.0;11.40;75369;2837.699;-1801.132;1;139;-110;-112.9;44.7;44.8;15;14.4;27.0;0.0;
23/02/2025 04:29:05;100;0;141.78;-4;-19.58;-4.16;853.1;11.40;75372;2837.696;-1801.129;1;139;-110;-111.3;44.7;44.8;15;14.4;27.0;0.0;
23/02/2025 04:29:25;100;0;142.38;-4;-19.62;-4.16;856.0;11.40;75366;2837.694;-1801.127;1;139;-110;-112.9;44.7;44.9;15;14.9;27.0;0.0;
23/02/2025 04:29:45;100;0;142.19;-4;-19.42;-4.18;858.9;11.40;75356;2837.691;-1801.125;1;139;-110;-112.9;44.7;44.9;15;14.4;27.0;0.0;
23/02/2025 04:30:05;100;0;143.99;-4;-19.44;-3.98;861.8;11.30;75341;2837.689;-1801.123;1;139;-110;-112.9;44.7;44.9;15;14.4;27.0;0.0;
23/02/2025 04:30:25;100;0;144.80;-4;-19.86;-4.15;864.7;11.30;75347;2837.686;-1801.121;1;139;-110;-112.9;44.7;44.9;15;14.9;27.0;0.0;
23/02/2025 04:30:45;100;0;144.54;-4;-19.43;-3.83;867.6;11.30;75338;2837.684;-1801.118;1;139;-110;-112.9;44.7;44.9;15;14.9;27.0;0.0;
23/02/2025 04:31:05;100;0;145.25;-4;-19.15;-4.09;870.3;11.30;75339;2837.681;-1801.116;1;139;-110;-112.9;44.7;44.9;15;14.9;27.0;0.0;
23/02/2025 04:31:25;100;0;146.39;-4;-19.35;-4.16;873.0;11.20;75335;2837.679;-1801.115;1;139;-110;-112.9;44.7;44.9;15;14.9;27.0;0.0;
23/02/2025 04:31:45;100;0;147.01;-4;-19.48;-4.23;875.8;11.20;75339;2837.676;-1801.113;1;139;-110;-112.9;44.7;44.9;15;14.9;27.0;0.0;
23/02/2025 04:32:05;100;0;148.12;-4;-19.94;-4.19;878.6;11.20;75326;2837.674;-1801.111;1;139;-110;-112.9;44.7;44.8;15;14.9;27.0;0.0;
23/02/2025 04:32:25;100;0;148.25;-4;-20.39;-4.09;881.4;11.20;75328;2837.671;-1801.109;1;139;-110;-112.9;44.7;44.9;15;14.4;27.0;0.0;
23/02/2025 04:32:45;100;0;146.99;-4;-19.76;-4.17;884.3;11.20;75325;2837.669;-1801.107;1;139;-110;-112.9;44.7;44.9;15;14.9;27.0;0.0;
23/02/2025 04:33:05;100;0;145.60;-4;-19.64;-4.20;887.1;11.10;75297;2837.667;-1801.105;1;139;-110;-111.3;44.7;44.9;15;14.9;27.0;0.0;
23/02/2025 04:33:25;100;0;145.03;-4;-19.52;-4.15;889.8;11.10;75298;2837.664;-1801.103;1;139;-110;-112.9;44.7;44.9;15;14.9;27.0;0.0;
23/02/2025 04:33:45;100;0;145.80;-4;-19.32;-4.15;892.7;11.10;75302;2837.662;-1801.101;1;139;-110;-112.9;44.7;44.9;15;14.4;27.0;0.0;
23/02/2025 04:34:05;100;0;145.26;-4;-19.67;-4.23;895.4;11.00;75295;2837.659;-1801.099;1;139;-110;-112.9;44.7;44.8;15;14.4;27.0;0.0;
23/02/2025 04:34:25;100;0;144.13;-4;-19.58;-4.07;898.3;11.00;75287;2837.657;-1801.097;1;139;-110;-112.9;44.7;44.9;15;14.9;27.0;0.0;
23/02/2025 04:34:45;100;0;144.27;-4;-19.66;-4.24;901.0;11.00;75288;2837.655;-1801.095;1;139;-110;-112.9;44.7;44.9;15;14.9;27.0;0.0;
23/02/2025 04:35:05;100;0;145.06;-4;-19.59;-4.29;904.0;11.00;75292;2837.652;-1801.093;1;139;-110;-111.3;44.7;44.8;15;14.9;27.0;0.0;
23/02/2025 04:35:25;100;0;144.98;-4;-19.50;-4.16;906.5;11.00;75279;2837.650;-1801.091;1;139;-110;-112.9;44.7;44.8;15;14.9;27.0;0.0;
23/02/2025 04:35:45;100;0;145.71;-4;-19.94;-4.10;909.4;10.90;75283;2837.647;-1801.089;1;139;-110;-112.9;44.7;44.9;15;14.9;27.0;0.0;
23/02/2025 04:36:05;100;0;145.63;-4;-19.62;-4.19;912.2;10.90;75283;2837.645;-1801.087;1;139;-110;-112.9;44.7;44.9;15;14.9;27.0;0.0;
23/02/2025 04:36:25;100;0;143.90;-4;-19.35;-4.14;914.9;10.90;75284;2837.643;-1801.085;1;139;-110;-111.3;44.7;44.9;15;14.9;27.0;0.0;
23/02/2025 04:36:45;100;0;142.96;-4;-19.29;-4.18;917.5;10.90;75276;2837.641;-1801.083;1;139;-110;-112.9;44.7;44.9;15;14.9;27.0;0.0;
23/02/2025 04:37:05;100;0;142.19;-4;-19.25;-4.16;920.1;10.80;75256;2837.638;-1801.081;1;139;-110;-112.9;44.7;44.9;15;14.9;27.0;0.0;
23/02/2025 04:37:25;100;0;141.98;-4;-19.35;-4.14;922.6;10.80;75257;2837.636;-1801.079;1;139;-110;-112.9;44.7;44.9;15;14.9;27.0;0.0;
23/02/2025 04:37:45;100;0;141.11;-4;-19.43;-4.22;925.1;10.80;75258;2837.634;-1801.077;1;139;-110;-114.5;44.7;44.9;15;14.9;27.0;0.0;
23/02/2025 04:38:05;100;0;139.99;-4;-19.33;-4.23;927.8;10.80;75251;2837.632;-1801.075;1;139;-110;-112.9;44.7;44.9;15;14.9;27.0;0.0;
23/02/2025 04:38:25;100;0;139.98;-4;-19.05;-4.15;930.4;10.80;75247;2837.630;-1801.073;1;139;-110;-112.9;44.7;44.9;15;14.9;27.0;0.0;
23/02/2025 04:38:45;100;0;132.88;-4;-19.61;-4.55;933.0;10.80;75252;2837.628;-1801.071;1;139;-110;-112.9;44.7;44.8;13;13.1;27.0;0.0;
23/02/2025 04:39:05;100;0;130.69;-4;-19.09;-4.90;935.8;10.70;75253;2837.626;-1801.068;1;139;-110;-111.3;44.7;44.9;13;13.1;27.0;0.0;
23/02/2025 04:39:25;100;0;131.08;-4;-18.97;-4.93;938.6;10.70;75238;2837.625;-1801.065;1;139;-110;-112.9;45.0;44.9;13;13.1;27.0;0.0;
23/02/2025 04:39:45;100;0;132.30;-4;-18.78;-4.82;941.3;10.70;75240;2837.623;-1801.062;1;139;-110;-112.9;45.4;45.4;13;13.5;27.0;0.0;
23/02/2025 04:40:05;100;0;132.79;-4;-20.32;-4.89;944.2;10.70;75227;2837.621;-1801.060;1;139;-110;-112.9;45.4;45.7;13;13.5;27.0;0.0;
23/02/2025 04:40:25;100;0;130.86;-4;-20.76;-4.85;947.1;10.60;75228;2837.619;-1801.057;1;139;-110;-112.9;45.4;45.7;13;13.5;27.0;0.0;
23/02/2025 04:40:45;100;0;130.92;-4;-20.51;-4.88;950.0;10.60;75234;2837.617;-1801.054;1;139;-110;-112.9;45.4;45.7;13;13.1;27.0;0.0;
23/02/2025 04:41:05;100;0;131.49;-4;-20.57;-4.78;953.0;10.60;75233;2837.615;-1801.051;1;139;-110;-111.3;45.4;45.7;13;13.1;27.0;0.0;
23/02/2025 04:41:25;100;0;132.32;-4;-20.16;-4.92;955.9;10.60;75215;2837.613;-1801.049;1;139;-110;-112.9;45.4;45.7;13;13.1;27.0;0.0;
23/02/2025 04:41:45;100;0;132.68;-4;-20.59;-4.84;958.6;10.60;75218;2837.612;-1801.046;1;139;-110;-111.3;45.4;45.5;13;13.5;27.0;0.0;
23/02/2025 04:42:05;100;0;132.82;-4;-20.43;-4.89;961.5;10.50;75214;2837.610;-1801.043;1;139;-110;-112.9;45.4;45.7;13;13.1;27.0;0.0;
23/02/2025 04:42:25;100;0;133.23;-4;-20.52;-4.83;964.3;10.50;75210;2837.608;-1801.041;1;139;-110;-112.9;45.4;45.7;13;13.1;27.0;0.0;
23/02/2025 04:42:45;100;0;133.30;-4;-20.52;-4.88;967.1;10.50;75210;2837.606;-1801.038;1;139;-110;-111.3;45.4;45.7;13;13.1;27.0;0.0;
23/02/2025 04:43:05;100;0;133.71;-4;-20.37;-4.86;970.0;10.50;75205;2837.604;-1801.036;1;139;-110;-112.9;45.4;45.7;13;13.1;27.0;0.0;
23/02/2025 04:43:25;100;0;134.76;-4;-20.50;-4.98;972.8;10.50;75205;2837.602;-1801.033;1;139;-110;-112.9;45.4;45.7;13;13.1;27.0;0.0;
23/02/2025 04:43:45;100;0;134.32;-4;-20.79;-4.88;975.6;10.40;75188;2837.600;-1801.031;1;139;-110;-111.3;45.4;45.7;13;13.5;27.0;0.0;
23/02/2025 04:44:05;100;0;134.05;-4;-20.64;-4.85;978.5;10.40;75198;2837.598;-1801.028;1;139;-110;-112.9;45.4;45.7;13;13.1;27.0;0.0;
23/02/2025 04:44:25;100;0;134.50;-4;-20.43;-4.87;981.3;10.40;75182;2837.596;-1801.026;1;139;-110;-112.9;45.4;45.7;13;13.1;27.0;0.0;
23/02/2025 04:44:45;100;0;137.17;-4;-20.52;-4.80;984.1;10.40;75192;2837.594;-1801.023;1;139;-110;-112.9;45.4;45.8;13;13.5;27.0;0.0;
23/02/2025 04:45:05;100;0;138.68;-4;-20.47;-4.84;986.9;10.40;75181;2837.592;-1801.021;1;139;-110;-112.9;45.4;45.5;15;14.9;27.0;0.0;
23/02/2025 04:45:25;100;0;138.55;-4;-20.69;-3.73;989.8;10.40;75176;2837.590;-1801.019;1;139;-110;-112.9;45.4;45.7;15;15.3;27.0;0.0;
23/02/2025 04:45:45;100;0;139.43;-4;-20.98;-3.66;992.6;10.30;75178;2837.588;-1801.016;1;139;-110;-112.9;45.4;45.7;15;15.3;27.0;0.0;
23/02/2025 04:46:05;100;0;139.67;-4;-21.24;-3.88;995.5;10.30;75171;2837.586;-1801.014;1;139;-110;-111.3;45.4;45.7;15;15.3;27.0;0.0;
23/02/2025 04:46:25;100;0;139.44;-4;-20.59;-3.18;998.4;10.30;75169;2837.584;-1801.012;1;139;-110;-112.9;45.4;45.7;15;15.3;27.0;0.0;
23/02/2025 04:46:29;118;0;140.35;-4;-21.00;-3.74;998.9;10.30;75161;2837.583;-1801.011;1;139;270;-108.1;25.4;25.3;7;7.2;27.0;0.0;
23/02/2025 04:46:39;118;0;117.05;-4;-8.62;-8.70;1000.0;10.30;75146;2837.583;-1801.010;1;139;270;19.4;25.4;25.0;7;6.8;25.6;-1.0;
23/02/2025 04:46:49;118;0;103.49;-4;13.07;-8.40;1000.3;10.30;74889;2837.583;-1801.009;1;139;270;143.5;25.4;25.5;7;6.8;25.5;-1.0;
23/02/2025 04:46:59;118;0;99.77;-4;21.40;-8.90;999.7;10.30;74632;2837.583;-1801.009;1;139;270;267.7;25.4;25.6;7;6.8;25.6;-1.0;
23/02/2025 04:47:09;118;0;99.30;-4;20.53;-8.64;998.8;10.30;74381;2837.583;-1801.008;1;139;270;271.0;25.4;25.6;7;7.2;26.9;-1.0;
23/02/2025 04:47:19;118;0;138.57;-4;20.15;-8.44;997.8;10.30;74386;2837.582;-1801.007;1;139;270;271.0;25.4;25.6;7;6.8;27.0;-1.0;
23/02/2025 04:47:39;117;0;132.00;-4;19.86;-8.17;995.8;10.30;74396;2837.581;-1801.005;1;139;270;269.4;25.4;25.6;7;6.8;27.0;-1.0;
23/02/2025 04:47:59;117;0;126.03;-4;19.04;-8.29;993.5;10.30;74392;2837.580;-1801.003;1;139;270;271.0;25.4;25.6;39;38.8;27.0;-1.0;
23/02/2025 04:48:19;117;0;128.69;-4;21.32;8.40;991.4;10.30;74392;2837.579;-1801.001;1;139;270;272.6;25.4;25.6;36;35.6;27.0;-1.0;
23/02/2025 04:48:39;117;0;130.27;-4;22.04;6.84;988.9;10.30;74386;2837.578;-1800.999;1;139;270;269.4;26.0;26.1;33;32.5;27.0;-1.0;
23/02/2025 04:48:59;117;0;131.44;-4;20.89;5.78;986.6;10.30;74388;2837.576;-1800.996;1;139;270;271.0;26.0;26.2;33;34.3;27.0;-1.0;
23/02/2025 04:49:19;117;0;132.93;-4;20.48;5.82;984.3;10.30;74386;2837.575;-1800.994;1;139;270;271.0;26.0;26.2;31;31.1;27.0;-1.0;
23/02/2025 04:49:39;117;0;134.10;-4;20.49;4.16;982.0;10.30;74391;2837.573;-1800.992;1;139;270;272.6;26.0;26.2;31;31.1;27.0;-1.0;
23/02/2025 04:49:59;117;0;135.44;-4;20.25;4.16;979.7;10.30;74374;2837.572;-1800.990;1;139;270;269.4;26.0;26.2;31;31.1;27.0;-1.0;
23/02/2025 04:50:19;117;0;135.67;-4;20.12;4.18;977.3;10.30;74378;2837.570;-1800.988;1;139;270;271.0;26.0;26.2;31;31.1;27.0;-1.0;
23/02/2025 04:50:39;117;0;136.30;-4;20.19;4.15;975.2;10.30;74379;2837.569;-1800.987;1;139;270;271.0;26.0;26.2;31;31.1;27.0;-1.0;
23/02/2025 04:50:59;117;0;137.18;-4;20.18;4.12;973.0;10.30;74371;2837.567;-1800.985;1;139;270;271.0;26.0;26.2;29;28.9;27.0;-1.0;
23/02/2025 04:51:19;117;0;137.37;-4;20.30;2.83;970.9;10.20;74369;2837.566;-1800.983;1;139;270;271.0;26.0;26.4;29;28.9;27.0;-1.0;
23/02/2025 04:51:39;117;0;137.27;-4;20.28;2.75;968.7;10.20;74364;2837.564;-1800.981;1;139;270;271.0;26.0;26.2;29;28.9;27.0;-1.0;
23/02/2025 04:51:59;117;0;137.04;-4;20.39;2.80;966.6;10.20;74356;2837.563;-1800.979;1;139;270;271.0;26.0;26.2;29;28.4;27.0;-1.0;
23/02/2025 04:52:19;117;0;136.56;-4;20.14;2.82;964.4;10.20;74366;2837.562;-1800.978;1;139;270;271.0;26.0;26.2;29;28.4;27.0;-1.0;
23/02/2025 04:52:39;117;0;136.50;-4;20.16;2.86;962.2;10.20;74358;2837.560;-1800.976;1;139;270;271.0;26.0;26.2;29;28.4;27.0;-1.0;
23/02/2025 04:52:59;117;0;137.18;-4;20.21;2.78;960.0;10.20;74359;2837.559;-1800.974;1;139;270;271.0;26.0;26.2;29;28.4;27.0;-1.0;
23/02/2025 04:53:19;117;0;137.17;-4;19.97;2.79;957.9;10.20;74357;2837.557;-1800.972;1;139;270;271.0;26.0;26.2;29;28.4;27.0;-1.0;
23/02/2025 04:53:39;117;0;136.31;-4;20.15;2.79;955.8;10.10;74350;2837.556;-1800.971;1;139;270;271.0;26.0;26.2;29;28.4;27.0;-1.0;
23/02/2025 04:53:59;117;0;135.87;-4;19.45;2.93;953.6;10.10;74340;2837.554;-1800.969;1;139;270;271.0;26.0;26.2;29;28.4;27.0;-1.0;
23/02/2025 04:54:19;117;0;136.43;-4;19.90;2.77;951.5;10.10;74346;2837.553;-1800.967;1;139;270;271.0;26.0;26.2;29;28.4;27.0;-1.0;
23/02/2025 04:54:39;117;0;136.51;-4;19.85;2.85;949.4;10.10;74322;2837.551;-1800.965;1;139;270;271.0;26.0;26.2;29;28.4;27.0;-1.0;
23/02/2025 04:54:59;117;0;135.87;-4;20.02;2.89;947.5;10.10;74333;2837.550;-1800.963;1;139;290;291.9;26.0;26.2;29;28.4;27.0;-1.0;
23/02/2025 04:55:19;117;0;135.11;-4;19.78;2.84;945.4;10.10;74287;2837.549;-1800.962;1;139;290;291.9;26.0;26.2;31;31.6;27.0;-1.0;
23/02/2025 04:55:39;117;0;136.46;-4;19.81;4.67;943.4;10.00;74292;2837.548;-1800.960;1;139;290;291.9;26.0;26.2;31;32.0;27.0;-1.0;
23/02/2025 04:55:59;117;0;138.30;-4;19.87;4.61;941.3;10.10;74288;2837.546;-1800.958;1;139;290;291.9;26.0;26.2;31;32.0;27.0;-1.0;
23/02/2025 04:56:19;117;0;140.42;-4;19.95;4.70;939.3;10.00;74281;2837.545;-1800.957;1;139;290;291.9;26.0;26.2;31;32.0;27.0;-1.0;
23/02/2025 04:56:39;117;0;142.14;-4;19.81;4.76;937.1;10.00;74284;2837.543;-1800.955;1;139;290;291.9;26.0;26.2;31;32.0;27.0;-1.0;
23/02/2025 04:56:59;117;0;143.85;-4;19.73;4.70;935.1;10.00;74276;2837.542;-1800.954;1;139;310;311.3;26.0;26.2;31;32.0;27.0;-1.0;
23/02/2025 04:57:19;117;0;148.75;-4;19.45;4.69;932.9;10.00;74230;2837.540;-1800.953;1;139;310;312.9;26.0;26.2;28;27.5;27.0;-1.0;
23/02/2025 04:57:39;117;0;148.80;-4;19.09;2.38;931.0;10.00;74228;2837.538;-1800.951;1;139;330;332.3;26.0;26.2;28;27.5;27.0;-1.0;
23/02/2025 04:57:59;117;0;146.31;-4;18.62;2.47;928.9;10.00;74185;2837.536;-1800.950;1;139;330;333.9;25.6;25.6;28;27.5;27.0;-1.0;
23/02/2025 04:58:19;117;0;146.68;-4;19.84;2.48;926.8;10.00;74183;2837.535;-1800.949;1;139;330;333.9;25.6;25.0;28;27.5;27.0;-1.0;
23/02/2025 04:58:39;117;0;147.57;-4;20.07;2.47;924.7;10.00;74188;2837.533;-1800.948;1;139;330;333.9;25.6;25.2;28;27.5;27.0;-1.0;
23/02/2025 04:58:59;117;0;147.52;-4;20.00;2.48;922.5;10.00;74191;2837.531;-1800.946;1;139;330;332.3;25.6;25.2;28;28.0;27.0;-1.0;
23/02/2025 04:59:19;117;0;147.58;-4;19.70;2.50;920.4;10.00;74191;2837.529;-1800.945;1;139;330;332.3;25.6;25.2;28;27.5;27.0;-1.0;
23/02/2025 04:59:39;117;0;148.06;-4;19.91;2.39;918.2;9.90;74180;2837.528;-1800.944;1;139;330;333.9;25.6;25.0;28;28.0;27.0;-1.0;
23/02/2025 04:59:59;117;0;148.12;-4;20.09;2.44;916.1;9.90;74184;2837.526;-1800.942;1;139;330;333.9;25.6;25.2;28;28.0;27.0;-1.0;
23/02/2025 05:00:19;117;0;148.36;-4;19.88;2.47;914.0;9.90;74174;2837.524;-1800.941;1;139;330;333.9;25.6;25.0;28;27.5;27.0;-1.0;
23/02/2025 05:00:39;117;0;147.68;-4;19.99;2.45;912.1;9.90;74175;2837.523;-1800.940;1;139;350;353.2;25.6;25.2;28;28.0;27.0;-1.0;
23/02/2025 05:01:00;117;0;147.60;-4;19.70;2.41;910.0;9.90;74136;2837.521;-1800.939;1;139;350;353.2;25.6;25.2;28;28.0;27.0;-1.0;
23/02/2025 05:01:20;117;0;147.65;-4;19.59;2.48;908.1;9.90;74133;2837.519;-1800.938;1;139;370;372.6;25.6;25.2;28;28.0;27.0;-1.0;
23/02/2025 05:01:40;117;0;152.01;-4;19.02;2.52;905.9;9.90;74098;2837.517;-1800.936;1;139;370;372.6;25.6;25.0;25;24.8;27.0;-1.0;
23/02/2025 05:02:00;117;0;151.80;-4;18.98;2.03;904.0;9.90;74098;2837.516;-1800.935;1;139;390;393.5;25.3;25.5;25;24.8;27.0;-1.0;
23/02/2025 05:02:20;117;0;149.61;-4;18.44;1.04;902.0;9.90;74046;2837.514;-1800.934;1;139;410;411.3;24.8;24.6;28;28.0;26.9;-1.0;
23/02/2025 05:02:40;117;0;147.73;-4;19.03;3.22;899.8;9.90;74010;2837.512;-1800.933;1;139;410;411.3;24.8;24.4;28;28.9;27.0;-1.0;
23/02/2025 05:03:00;117;0;147.53;-4;18.96;3.20;897.7;9.90;73996;2837.510;-1800.931;1;139;410;411.3;24.5;24.6;28;28.9;27.0;-1.0;
23/02/2025 05:03:20;117;0;148.04;-4;18.98;3.17;895.6;9.90;73998;2837.508;-1800.930;1;139;410;411.3;24.2;24.2;28;28.9;27.0;-1.0;
23/02/2025 05:03:40;117;0;148.54;-4;20.50;3.16;893.1;9.90;74005;2837.506;-1800.929;1;139;410;411.3;24.2;23.6;28;28.9;27.0;-1.0;
23/02/2025 05:04:00;117;0;148.79;-4;20.93;3.25;890.7;9.90;74001;2837.504;-1800.927;1;139;410;411.3;24.2;23.7;28;28.9;27.0;-1.0;
23/02/2025 05:04:20;117;0;149.42;-4;21.01;3.19;888.0;9.90;73999;2837.502;-1800.926;1;139;410;411.3;24.2;23.6;28;28.9;27.0;-1.0;
23/02/2025 05:04:40;117;0;149.61;-4;20.90;3.24;885.3;9.90;73991;2837.500;-1800.924;1;139;410;411.3;24.2;23.6;28;28.9;27.0;-1.0;
23/02/2025 05:05:00;117;0;150.25;-4;20.74;3.23;882.5;9.80;73994;2837.497;-1800.923;1;139;410;411.3;24.2;24.3;26;26.2;27.0;-1.0;
23/02/2025 05:05:20;117;0;149.42;-4;20.01;1.70;879.9;9.80;73995;2837.495;-1800.921;1;139;410;411.3;24.2;24.4;26;26.2;27.0;-1.0;
23/02/2025 05:05:40;117;0;148.61;-4;19.91;1.60;877.4;9.80;74001;2837.493;-1800.919;1;139;410;411.3;24.2;24.6;26;26.2;27.0;-1.0;
23/02/2025 05:06:00;117;0;147.68;-4;19.75;1.55;874.7;9.80;73999;2837.490;-1800.918;1;139;410;409.7;24.2;24.4;28;28.0;27.0;-1.0;
23/02/2025 05:06:20;117;0;148.30;-4;19.88;3.12;871.9;9.80;73989;2837.488;-1800.916;1;139;410;409.7;24.2;24.4;28;28.9;27.0;-1.0;
23/02/2025 05:06:40;117;0;148.04;-4;19.54;3.26;869.1;9.80;73992;2837.485;-1800.914;1;139;410;411.3;24.2;24.6;28;28.9;27.0;-1.0;
23/02/2025 05:07:00;117;0;147.84;-4;19.47;3.21;866.4;9.80;73980;2837.483;-1800.912;1;139;410;411.3;24.2;24.4;28;28.9;27.0;-1.0;
23/02/2025 05:07:20;117;0;148.28;-4;19.52;3.17;863.5;9.80;73997;2837.480;-1800.910;1;139;410;411.3;24.2;24.4;28;28.4;27.0;-1.0;
