Timestamp;NavState;SecurityLevel;Heading;Declination;Pitch;Roll;Depth;Temperature;Pa;Lat;Lon;DeadReckoning;DesiredH;BallastCmd;BallastPos;LinCmd;LinPos;AngCmd;AngPos;Voltage;Altitude;
01/03/2025 01:55:01;119;0;354.31;-4;-42.98;3.41;0.2;16.20;75493;2840.079;-1802.944;0;324;500;506.5;100.0;100.4;0;-0.5;25.5;-1.0;
01/03/2025 01:55:11;116;0;8.02;-4;-46.28;-8.54;0.2;16.30;75502;2840.081;-1802.944;0;324;500;508.1;100.0;100.4;0;-0.5;25.5;-1.0;
01/03/2025 01:55:35;116;0;356.32;-4;-32.09;-8.41;0.1;16.40;75514;2840.077;-1802.941;0;324;500;506.5;100.0;100.3;0;-0.5;25.5;-1.0;
01/03/2025 01:56:02;116;0;357.44;-4;-48.01;-20.61;0.2;16.50;75526;2840.079;-1802.940;0;141;500;506.5;100.0;100.4;0;-0.5;25.5;-1.0;
01/03/2025 01:56:18;116;0;8.76;-4;-48.03;-21.75;0.0;16.50;75524;2840.079;-1802.939;0;141;500;506.5;100.0;100.3;0;-0.5;25.5;-1.0;
01/03/2025 01:57:20;116;0;5.12;-4;-50.20;-6.63;0.3;16.70;75555;2840.094;-1802.938;0;141;500;504.8;100.0;100.4;0;-0.5;25.5;-1.0;
01/03/2025 01:59:41;116;0;29.71;-4;-48.25;-9.52;-0.0;17.40;75613;2840.107;-1802.938;0;141;500;508.1;100.0;100.3;0;-0.5;25.5;-1.0;
01/03/2025 02:01:51;116;0;18.08;-4;-45.82;-10.37;0.2;18.00;75669;2840.120;-1802.934;0;141;500;508.1;100.0;100.4;0;-0.5;25.5;-1.0;
01/03/2025 02:03:41;116;0;5.80;-4;-43.72;-20.68;-0.0;18.50;75700;2840.129;-1802.933;0;141;500;506.5;100.0;100.4;0;-0.5;25.5;-1.0;
01/03/2025 02:03:58;116;0;8.85;-4;-50.66;-15.53;-0.0;18.60;75705;2840.129;-1802.933;0;141;500;508.1;100.0;100.4;0;-0.5;25.5;-1.0;
01/03/2025 02:04:18;116;0;7.25;-4;-50.32;-8.82;-0.1;18.70;75709;2840.131;-1802.932;0;141;500;508.1;100.0;100.4;0;-0.5;25.5;-1.0;
01/03/2025 02:04:29;116;0;10.02;-4;-53.25;-15.69;-0.0;18.70;75708;2840.131;-1802.932;0;141;500;508.1;100.0;100.4;0;-0.5;25.5;-1.0;
01/03/2025 02:04:49;116;0;14.25;-4;-60.33;-16.41;0.1;18.80;75724;2840.131;-1802.931;0;141;500;506.5;100.0;100.4;0;-0.5;25.5;-1.0;
01/03/2025 02:05:09;116;0;25.92;-4;-48.57;0.86;0.1;18.80;75724;2840.133;-1802.931;0;141;500;506.5;100.0;100.3;0;-0.5;25.5;-1.0;
01/03/2025 02:05:29;116;0;12.34;-4;-51.58;0.19;-0.1;18.90;75725;2840.135;-1802.931;0;141;500;508.1;100.0;100.4;0;-0.5;25.4;-1.0;
01/03/2025 02:05:49;116;0;18.90;-4;-39.80;-11.82;-0.1;19.00;75729;2840.137;-1802.931;0;141;500;508.1;100.0;100.3;0;-0.5;25.5;-1.0;
01/03/2025 02:06:09;116;0;7.12;-4;-47.86;-1.41;-0.1;19.00;75738;2840.138;-1802.930;0;141;500;508.1;100.0;100.3;0;-0.5;25.5;-1.0;
01/03/2025 02:06:29;116;0;24.97;-4;-52.98;-6.13;-0.0;19.00;75744;2840.140;-1802.929;0;141;500;508.1;100.0;100.4;0;-0.5;25.5;-1.0;
01/03/2025 02:06:49;116;0;16.33;-4;-51.75;-3.33;-0.1;19.10;75751;2840.140;-1802.928;0;141;500;508.1;100.0;100.4;0;-0.5;25.5;-1.0;
01/03/2025 02:07:09;116;0;45.45;-4;-56.66;-20.44;-0.1;19.20;75753;2840.141;-1802.928;0;141;500;508.1;100.0;100.4;0;0.0;25.5;-1.0;
01/03/2025 02:07:20;116;0;30.95;-4;-47.66;-21.43;0.1;19.20;75758;2840.143;-1802.928;0;141;500;506.5;100.0;100.4;0;-0.5;25.5;-1.0;
01/03/2025 02:07:40;116;0;15.13;-4;-52.83;-12.20;-0.0;19.20;75751;2840.145;-1802.927;0;141;500;506.5;100.0;100.4;0;-0.5;25.5;-1.0;
01/03/2025 02:08:00;116;0;4.09;-4;-52.76;-11.77;-0.0;19.30;75757;2840.146;-1802.926;0;141;500;508.1;100.0;100.4;0;-0.5;25.5;-1.0;
01/03/2025 02:08:20;116;0;18.55;-4;-55.54;-8.96;-0.0;19.30;75771;2840.149;-1802.926;0;141;500;508.1;100.0;100.4;0;-0.5;25.5;-1.0;
01/03/2025 02:08:40;116;0;15.19;-4;-45.95;-25.32;-0.1;19.40;75769;2840.150;-1802.925;0;141;500;508.1;100.0;100.4;0;-0.5;25.5;-1.0;
01/03/2025 02:09:00;116;0;7.09;-4;-42.92;-22.14;-0.1;19.40;75777;2840.152;-1802.926;0;141;500;506.5;100.0;100.4;0;-0.5;25.3;-1.0;
01/03/2025 02:09:20;116;0;8.79;-4;-37.04;-14.59;0.1;19.40;75784;2840.154;-1802.926;0;141;500;508.1;100.0;100.4;0;-0.5;25.5;-1.0;
01/03/2025 02:09:40;116;0;23.03;-4;-64.56;1.22;-0.1;19.50;75782;2840.155;-1802.925;0;141;500;508.1;100.0;100.3;0;0.0;25.5;-1.0;
01/03/2025 02:10:00;116;0;21.10;-4;-44.94;-12.96;-0.2;19.50;75791;2840.157;-1802.925;0;141;500;508.1;100.0;100.4;0;-0.5;25.5;-1.0;
01/03/2025 02:10:21;116;0;16.03;-4;-53.09;-3.43;-0.0;19.60;75803;2840.158;-1802.924;0;141;500;508.1;100.0;100.4;0;-0.5;25.5;-1.0;
01/03/2025 02:10:41;116;0;19.01;-4;-39.69;-15.47;-0.1;19.60;75799;2840.161;-1802.924;0;141;500;508.1;100.0;100.4;0;-0.5;25.5;-1.0;
01/03/2025 02:11:01;116;0;4.62;-4;-42.89;-14.35;0.1;19.60;75800;2840.161;-1802.924;0;141;500;508.1;100.0;100.3;0;-0.5;25.5;-1.0;
01/03/2025 02:11:21;116;0;354.14;-4;-43.73;-14.80;0.0;19.70;75812;2840.163;-1802.922;0;141;500;506.5;100.0;100.4;0;-0.5;25.5;-1.0;
01/03/2025 02:11:41;116;0;14.26;-4;-34.75;-17.59;0.1;19.70;75816;2840.165;-1802.923;0;141;500;508.1;100.0;100.4;0;-0.5;25.5;-1.0;
01/03/2025 02:12:01;116;0;3.05;-4;-53.63;-7.54;0.1;19.80;75817;2840.166;-1802.922;0;141;500;508.1;100.0;100.4;0;-0.5;25.5;-1.0;
01/03/2025 02:12:21;116;0;18.38;-4;-49.42;-16.64;-0.1;19.80;75826;2840.167;-1802.922;0;141;500;506.5;100.0;100.4;0;-0.5;25.5;-1.0;
01/03/2025 02:12:41;116;0;1.45;-4;-46.12;-23.62;-0.1;19.80;75830;2840.168;-1802.921;0;141;500;509.7;100.0;100.4;0;-0.5;25.5;-1.0;
01/03/2025 02:13:01;116;0;10.15;-4;-48.00;-18.04;0.0;19.90;75823;2840.170;-1802.921;0;141;500;506.5;100.0;100.4;0;-0.5;25.5;-1.0;
01/03/2025 02:13:21;116;0;340.67;-4;-46.54;-21.17;-0.0;19.90;75830;2840.171;-1802.921;0;141;500;506.5;100.0;100.4;0;-0.5;25.5;-1.0;
01/03/2025 02:13:41;116;0;5.01;-4;-50.22;-7.86;-0.0;19.90;75831;2840.174;-1802.922;0;141;500;508.1;100.0;100.4;0;-0.5;25.5;-1.0;
01/03/2025 02:14:01;116;0;5.56;-4;-58.16;1.72;-0.1;19.90;75844;2840.174;-1802.919;0;141;500;509.7;100.0;100.4;0;-0.5;25.5;-1.0;
01/03/2025 02:14:21;116;0;354.98;-4;-56.99;-7.95;-0.0;20.00;75839;2840.176;-1802.920;0;141;500;508.1;100.0;100.4;0;0.0;25.5;-1.0;
01/03/2025 02:14:41;116;0;13.37;-4;-55.84;-12.39;-0.1;20.00;75841;2840.177;-1802.920;0;141;500;506.5;100.0;100.4;0;-0.5;25.5;-1.0;
01/03/2025 02:15:01;116;0;341.30;-4;-42.47;-10.98;0.3;20.00;75842;2840.178;-1802.920;0;141;500;508.1;100.0;100.4;0;-0.5;25.5;-1.0;
01/03/2025 02:15:21;116;0;357.50;-4;-30.96;-13.66;-0.0;20.10;75857;2840.179;-1802.919;0;141;500;506.5;100.0;100.4;0;-0.5;25.5;-1.0;
01/03/2025 02:15:41;116;0;358.63;-4;-35.41;-7.39;-0.1;20.10;75858;2840.179;-1802.920;0;141;500;506.5;100.0;100.4;0;-0.5;25.5;-1.0;
01/03/2025 02:16:01;116;0;14.75;-4;-37.75;-15.43;-0.1;20.10;75866;2840.181;-1802.920;0;141;500;506.5;100.0;100.4;0;-0.5;25.5;-1.0;
01/03/2025 02:16:21;116;0;9.42;-4;-51.38;-20.27;-0.0;20.20;75873;2840.183;-1802.921;0;141;500;508.1;100.0;100.3;0;0.0;25.5;-1.0;
01/03/2025 02:16:41;116;0;357.83;-4;-42.13;-25.04;-0.0;20.20;75875;2840.183;-1802.921;0;141;500;508.1;100.0;100.4;0;-0.5;25.5;-1.0;
01/03/2025 02:16:52;116;0;350.98;-4;-43.97;-8.30;-0.1;20.20;75871;2840.183;-1802.921;0;141;500;508.1;100.0;100.4;0;-0.5;25.5;-1.0;
01/03/2025 02:17:12;116;0;3.83;-4;-35.93;-13.31;0.1;20.20;75873;2840.185;-1802.921;0;141;500;508.1;100.0;100.4;0;-0.5;25.5;-1.0;
01/03/2025 02:17:32;116;0;23.92;-4;-51.52;0.25;-0.0;20.20;75869;2840.187;-1802.922;0;141;500;506.5;100.0;100.4;0;-0.5;25.5;-1.0;
01/03/2025 02:17:52;116;0;17.27;-4;-49.80;-18.32;-0.1;20.30;75879;2840.187;-1802.922;0;141;500;506.5;100.0;100.4;0;-0.5;25.5;-1.0;
01/03/2025 02:18:12;116;0;17.59;-4;-44.49;-6.97;0.1;20.30;75881;2840.190;-1802.921;0;141;500;508.1;100.0;100.4;0;-0.5;25.5;-1.0;
01/03/2025 02:18:32;116;0;332.82;-4;-47.33;-21.76;0.0;20.30;75885;2840.191;-1802.922;0;141;500;506.5;100.0;100.4;0;-0.5;25.5;-1.0;
01/03/2025 02:18:52;116;0;9.22;-4;-56.55;-17.73;-0.1;20.30;75891;2840.193;-1802.923;0;141;500;508.1;100.0;100.4;0;-0.5;25.5;-1.0;
01/03/2025 02:19:12;116;0;12.84;-4;-43.90;-10.96;-0.2;20.40;75893;2840.194;-1802.923;0;141;500;506.5;100.0;100.6;0;-0.5;25.5;-1.0;
01/03/2025 02:19:32;116;0;2.97;-4;-54.04;-2.54;-0.2;20.40;75888;2840.195;-1802.923;0;141;500;508.1;100.0;100.4;0;-0.5;25.5;-1.0;
01/03/2025 02:19:52;116;0;38.22;-4;-43.71;-12.22;-0.0;20.40;75897;2840.197;-1802.924;0;141;500;506.5;100.0;100.4;0;-0.5;25.5;-1.0;
01/03/2025 02:20:12;116;0;357.44;-4;-39.46;-14.93;-0.0;20.40;75901;2840.197;-1802.923;0;141;500;506.5;100.0;100.4;0;-0.5;25.5;-1.0;
01/03/2025 02:20:32;116;0;359.48;-4;-50.95;-12.60;-0.3;20.40;75906;2840.200;-1802.924;0;141;500;508.1;100.0;100.4;0;-0.5;25.5;-1.0;
01/03/2025 02:20:52;116;0;4.44;-4;-50.56;-7.94;0.1;20.50;75908;2840.202;-1802.924;0;141;500;508.1;100.0;100.4;0;-0.5;25.5;-1.0;
01/03/2025 02:21:13;116;0;352.65;-4;-51.12;-5.31;0.1;20.50;75908;2840.203;-1802.924;0;141;500;508.1;100.0;100.4;0;-0.5;25.5;-1.0;
01/03/2025 02:21:33;116;0;351.34;-4;-45.65;4.60;-0.1;20.50;75923;2840.204;-1802.924;0;141;500;506.5;100.0;100.4;0;-0.5;25.5;-1.0;
01/03/2025 02:21:53;116;0;12.58;-4;-42.44;-9.37;0.1;20.50;75912;2840.205;-1802.925;0;141;500;508.1;100.0;100.4;0;-0.5;25.4;-1.0;
01/03/2025 02:22:13;116;0;3.34;-4;-44.79;-21.24;-0.0;20.50;75922;2840.206;-1802.925;0;141;500;508.1;100.0;100.4;0;-0.5;25.5;-1.0;
01/03/2025 02:22:33;116;0;15.04;-4;-55.28;-14.26;-0.0;20.50;75925;2840.207;-1802.925;0;141;500;508.1;100.0;100.4;0;-0.5;25.5;-1.0;
01/03/2025 02:22:53;116;0;15.51;-4;-44.23;-26.47;-0.1;20.50;75924;2840.209;-1802.925;0;141;500;508.1;100.0;100.4;0;-0.5;25.5;-1.0;
01/03/2025 02:23:13;116;0;2.41;-4;-56.13;-13.20;-0.0;20.60;75923;2840.211;-1802.924;0;141;500;508.1;100.0;100.4;0;-0.5;25.5;-1.0;
01/03/2025 02:23:33;116;0;359.03;-4;-48.50;-14.45;-0.2;20.60;75923;2840.213;-1802.924;0;141;500;506.5;100.0;100.4;0;-0.5;25.5;-1.0;
01/03/2025 02:23:53;116;0;359.25;-4;-33.25;-11.65;0.1;20.60;75933;2840.213;-1802.924;0;141;500;508.1;100.0;100.4;0;-0.5;25.5;-1.0;
01/03/2025 02:24:13;116;0;24.22;-4;-54.08;-10.23;-0.2;20.60;75924;2840.215;-1802.925;0;141;500;508.1;100.0;100.4;0;-0.5;25.5;-1.0;
01/03/2025 02:24:33;116;0;357.11;-4;-53.10;-23.81;-0.1;20.60;75930;2840.217;-1802.924;0;141;500;508.1;100.0;100.4;0;-0.5;25.5;-1.0;
01/03/2025 02:24:53;116;0;359.75;-4;-51.84;-16.36;-0.1;20.60;75940;2840.217;-1802.924;0;141;500;508.1;100.0;100.4;0;-0.5;25.5;-1.0;
01/03/2025 02:25:13;116;0;24.47;-4;-44.99;-8.49;-0.1;20.60;75934;2840.218;-1802.925;0;141;500;506.5;100.0;100.4;0;-0.5;25.5;-1.0;
01/03/2025 02:25:24;116;0;20.60;-4;-47.69;-8.27;-0.2;20.60;75946;2840.218;-1802.925;0;141;500;508.1;100.0;100.4;0;-0.5;25.5;-1.0;
01/03/2025 02:25:44;116;0;8.25;-4;-47.47;-8.07;-0.1;20.60;75939;2840.221;-1802.924;0;141;500;508.1;100.0;100.4;0;-0.5;25.5;-1.0;
01/03/2025 02:26:04;116;0;8.77;-4;-40.67;-12.70;-0.1;20.70;75950;2840.221;-1802.924;0;141;500;506.5;100.0;100.4;0;-0.5;25.5;-1.0;
01/03/2025 02:26:23;116;0;20.04;-4;-46.47;-10.02;-0.0;20.70;75954;2840.222;-1802.925;0;141;500;508.1;100.0;100.4;0;-0.5;25.5;-1.0;
01/03/2025 02:26:43;116;0;1.58;-4;-43.48;-13.66;-0.2;20.70;75951;2840.224;-1802.925;0;141;500;506.5;100.0;100.4;0;-0.5;25.5;-1.0;
01/03/2025 02:26:54;116;0;359.83;-4;-37.90;-10.89;0.1;20.70;75954;2840.223;-1802.924;0;141;500;508.1;100.0;100.4;0;-0.5;25.5;-1.0;
01/03/2025 02:27:14;116;0;1.79;-4;-40.28;-16.03;-0.2;20.70;75968;2840.226;-1802.924;0;141;500;506.5;100.0;100.4;0;-0.5;25.5;-1.0;
01/03/2025 02:27:34;116;0;2.32;-4;-45.39;-8.52;-0.2;20.70;75958;2840.226;-1802.925;0;141;500;504.8;100.0;100.4;0;-0.5;25.5;-1.0;
01/03/2025 02:27:54;116;0;359.94;-4;-45.66;-13.10;-0.1;20.70;75972;2840.228;-1802.925;0;141;500;508.1;100.0;100.4;0;-0.5;25.5;-1.0;
01/03/2025 02:28:14;116;0;8.79;-4;-45.72;-11.04;-0.1;20.70;75961;2840.228;-1802.924;0;141;500;506.5;100.0;100.3;0;-0.5;25.5;-1.0;
01/03/2025 02:28:34;116;0;12.66;-4;-54.28;-16.29;-0.1;20.70;75966;2840.229;-1802.924;0;141;500;508.1;100.0;100.4;0;-0.5;25.5;-1.0;
01/03/2025 02:28:54;116;0;357.82;-4;-42.09;-19.49;-0.2;20.70;75968;2840.231;-1802.923;0;141;500;504.8;100.0;100.4;0;-0.5;25.5;-1.0;
01/03/2025 02:29:14;116;0;357.44;-4;-40.72;-14.80;-0.0;20.70;75976;2840.233;-1802.924;0;141;500;508.1;100.0;100.4;0;-0.5;25.5;-1.0;
01/03/2025 02:29:25;116;0;359.77;-4;-49.98;-3.33;-0.2;20.80;75978;2840.233;-1802.923;0;141;500;508.1;100.0;100.4;0;-0.5;25.5;-1.0;
01/03/2025 02:29:45;116;0;356.84;-4;-50.66;-14.40;-0.2;20.80;75978;2840.235;-1802.924;0;141;500;506.5;100.0;100.4;0;-0.5;25.5;-1.0;
01/03/2025 02:30:05;116;0;5.18;-4;-47.77;-18.04;-0.1;20.80;75974;2840.236;-1802.924;0;141;500;506.5;100.0;100.4;0;-0.5;25.5;-1.0;
01/03/2025 02:30:25;116;0;12.71;-4;-48.98;-5.96;-0.2;20.80;75982;2840.237;-1802.925;0;141;500;508.1;100.0;100.4;0;-0.5;25.5;-1.0;
01/03/2025 02:30:45;116;0;353.13;-4;-40.47;-14.15;0.1;20.80;75994;2840.238;-1802.925;0;141;500;506.5;100.0;100.4;0;-0.5;25.5;-1.0;
01/03/2025 02:31:05;116;0;0.10;-4;-46.39;-15.99;-0.2;20.80;75997;2840.239;-1802.925;0;141;500;508.1;100.0;100.4;0;-0.5;25.5;-1.0;
01/03/2025 02:31:25;116;0;356.16;-4;-43.17;-7.01;-0.2;20.80;75984;2840.242;-1802.925;0;141;500;508.1;100.0;100.4;0;-0.5;25.5;-1.0;
01/03/2025 02:31:44;116;0;354.21;-4;-48.14;-7.65;-0.2;20.80;75997;2840.242;-1802.925;0;141;500;508.1;100.0;100.4;0;-0.5;25.5;-1.0;
01/03/2025 02:31:55;116;0;8.79;-4;-51.18;-3.23;-0.1;20.80;75994;2840.244;-1802.926;0;141;500;506.5;100.0;100.4;0;-0.5;25.5;-1.0;
01/03/2025 02:32:15;116;0;7.06;-4;-61.99;-22.44;0.1;20.90;75985;2840.246;-1802.925;0;141;500;508.1;100.0;100.4;0;0.0;25.5;-1.0;
01/03/2025 02:32:35;116;0;2.68;-4;-45.45;-6.55;-0.1;20.90;75997;2840.247;-1802.925;0;141;500;508.1;100.0;100.4;0;-0.5;25.5;-1.0;
01/03/2025 02:32:55;116;0;354.60;-4;-44.82;-12.50;-0.1;20.90;76007;2840.249;-1802.925;0;141;500;508.1;100.0;100.4;0;-0.5;25.5;-1.0;
01/03/2025 02:33:15;116;0;1.26;-4;-49.10;-0.99;-0.2;20.90;76007;2840.250;-1802.925;0;141;500;508.1;100.0;100.4;0;-0.5;25.5;-1.0;
01/03/2025 02:33:29;116;0;3.17;-4;-46.64;-7.79;-0.1;20.90;75999;2840.253;-1802.925;0;141;500;506.5;100.0;100.4;0;-0.5;25.5;-1.0;
01/03/2025 02:33:49;116;0;18.77;-4;-53.53;-10.93;-0.0;20.90;76012;2840.258;-1802.926;0;141;500;508.1;100.0;100.4;0;-0.5;25.5;-1.0;
01/03/2025 02:34:15;116;0;0.40;-4;-41.70;-17.24;-0.1;20.90;76015;2840.260;-1802.925;0;141;500;508.1;100.0;100.4;0;-0.5;25.5;-1.0;
01/03/2025 02:34:39;116;0;12.54;-4;-45.71;-8.83;-0.2;20.90;76015;2840.259;-1802.926;0;141;500;508.1;100.0;100.4;0;-0.5;25.5;-1.0;
01/03/2025 02:34:59;116;0;5.34;-4;-41.76;-15.07;-0.1;20.90;76010;2840.261;-1802.926;0;141;500;508.1;100.0;100.4;0;0.0;25.5;-1.0;
01/03/2025 02:35:13;116;0;357.23;-4;-40.47;-19.93;-0.2;21.00;76017;2840.262;-1802.926;0;141;500;504.8;100.0;100.6;0;-0.5;25.5;-1.0;
01/03/2025 02:35:33;116;0;3.53;-4;-47.59;-16.39;-0.1;21.00;76023;2840.264;-1802.926;0;141;500;508.1;100.0;100.4;0;-0.5;25.5;-1.0;
01/03/2025 02:35:53;116;0;358.51;-4;-52.82;-11.42;-0.0;21.00;76030;2840.266;-1802.926;0;141;500;508.1;100.0;100.4;0;-0.5;25.5;-1.0;
01/03/2025 02:36:04;116;0;2.12;-4;-38.74;-16.61;-0.1;21.00;76020;2840.266;-1802.927;0;141;500;508.1;100.0;100.4;0;-0.5;25.5;-1.0;
01/03/2025 02:36:24;116;0;16.74;-4;-51.70;-9.02;-0.1;21.00;76023;2840.267;-1802.928;0;141;500;508.1;100.0;100.4;0;-0.5;25.5;-1.0;
01/03/2025 02:36:44;116;0;25.32;-4;-50.66;-9.62;-0.2;21.00;76030;2840.269;-1802.929;0;141;500;506.5;100.0;100.4;0;-0.5;25.5;-1.0;
01/03/2025 02:37:04;116;0;5.90;-4;-41.81;-17.89;-0.1;21.00;76027;2840.271;-1802.928;0;141;500;508.1;100.0;100.4;0;-0.5;25.5;-1.0;
01/03/2025 02:37:24;116;0;10.18;-4;-34.49;-22.76;-0.2;21.00;76024;2840.272;-1802.929;0;141;500;508.1;100.0;100.4;0;-0.5;25.5;-1.0;
01/03/2025 02:37:44;116;0;17.05;-4;-45.97;-4.48;-0.1;21.00;76023;2840.274;-1802.930;0;141;500;508.1;100.0;100.4;0;-0.5;25.5;-1.0;
01/03/2025 02:38:04;116;0;22.77;-4;-41.69;-7.88;-0.2;21.00;76034;2840.277;-1802.931;0;141;500;506.5;100.0;100.4;0;-0.5;25.5;-1.0;
01/03/2025 02:38:26;116;0;29.06;-4;-47.42;-15.66;0.2;21.00;76037;2840.278;-1802.932;0;141;500;506.5;100.0;100.4;0;-0.5;25.5;-1.0;
01/03/2025 02:38:46;116;0;0.99;-4;-57.00;-7.82;-0.2;21.00;76040;2840.279;-1802.931;0;141;500;508.1;100.0;100.4;0;-0.5;25.5;-1.0;
01/03/2025 02:39:06;116;0;354.52;-4;-37.37;-26.12;-0.1;21.10;76044;2840.280;-1802.932;0;141;500;508.1;100.0;100.4;0;-0.5;25.5;-1.0;
01/03/2025 02:39:26;116;0;11.41;-4;-36.48;-22.64;-0.1;21.10;76041;2840.283;-1802.933;0;141;500;506.5;100.0;100.4;0;-0.5;25.5;-1.0;
01/03/2025 02:39:46;116;0;27.79;-4;-45.33;-3.89;0.1;21.10;76049;2840.285;-1802.934;0;141;500;508.1;100.0;100.4;0;-0.5;25.5;-1.0;
01/03/2025 02:40:06;116;0;14.60;-4;-49.30;-12.98;0.1;21.10;76036;2840.286;-1802.934;0;141;500;508.1;100.0;100.4;0;-0.5;25.5;-1.0;
01/03/2025 02:40:26;116;0;22.03;-4;-54.73;-13.70;-0.2;21.10;76038;2840.288;-1802.936;0;141;500;508.1;100.0;100.4;0;-0.5;25.5;-1.0;
01/03/2025 02:40:46;116;0;14.68;-4;-44.00;-5.32;-0.1;21.10;76046;2840.290;-1802.937;0;141;500;508.1;100.0;100.4;0;-0.5;25.5;-1.0;
01/03/2025 02:41:06;116;0;12.99;-4;-43.73;0.48;-0.1;21.10;76040;2840.291;-1802.937;0;141;500;508.1;100.0;100.4;0;-0.5;25.5;-1.0;
01/03/2025 02:41:26;116;0;5.58;-4;-47.42;-11.89;-0.1;21.10;76054;2840.293;-1802.938;0;141;500;508.1;100.0;100.4;0;-0.5;25.5;-1.0;
01/03/2025 02:41:46;116;0;8.51;-4;-40.77;-5.67;0.1;21.10;76057;2840.294;-1802.938;0;141;500;508.1;100.0;100.4;0;-0.5;25.5;-1.0;
01/03/2025 02:42:06;116;0;358.36;-4;-41.31;-6.52;0.0;21.10;76049;2840.295;-1802.940;0;141;500;508.1;100.0;100.4;0;-0.5;25.5;-1.0;
01/03/2025 02:42:25;116;0;8.72;-4;-48.30;-8.89;-0.2;21.10;76061;2840.296;-1802.941;0;141;500;508.1;100.0;100.4;0;-0.5;25.5;-1.0;
01/03/2025 02:42:45;116;0;15.36;-4;-59.61;-19.38;-0.1;21.20;76068;2840.300;-1802.943;0;141;500;506.5;100.0;100.4;0;-0.5;25.5;-1.0;
01/03/2025 02:43:10;116;0;16.69;-4;-47.85;-9.08;0.0;21.20;76065;2840.299;-1802.943;0;141;500;508.1;100.0;100.4;0;-0.5;25.5;-1.0;
01/03/2025 02:43:30;116;0;11.12;-4;-53.31;-28.99;-0.0;21.20;76067;2840.301;-1802.942;0;141;500;508.1;100.0;100.4;0;-0.5;25.5;-1.0;
01/03/2025 02:43:37;116;0;19.97;-4;-53.24;-2.69;-0.2;21.20;76068;2840.301;-1802.943;0;141;500;508.1;100.0;100.3;0;-0.5;25.5;-1.0;
01/03/2025 02:43:57;116;0;16.24;-4;-46.04;-4.00;-0.1;21.20;76061;2840.303;-1802.945;0;141;500;508.1;100.0;100.4;0;0.0;25.5;-1.0;
01/03/2025 02:44:17;116;0;23.00;-4;-52.75;-35.13;0.1;21.20;76068;2840.304;-1802.946;0;141;500;508.1;100.0;100.4;0;-0.5;25.5;-1.0;
01/03/2025 02:44:37;116;0;359.69;-4;-56.06;-18.18;-0.2;21.20;76073;2840.305;-1802.946;0;141;500;506.5;100.0;100.4;0;-0.5;25.5;-1.0;
01/03/2025 02:44:57;116;0;9.68;-4;-50.21;-23.07;-0.1;21.20;76065;2840.305;-1802.948;0;141;500;508.1;100.0;100.4;0;-0.5;25.5;-1.0;
01/03/2025 02:45:17;116;0;22.04;-4;-58.13;-18.89;-0.2;21.20;76068;2840.306;-1802.948;0;141;500;508.1;100.0;100.4;0;-0.5;25.5;-1.0;
01/03/2025 02:45:38;116;0;31.92;-4;-50.37;-6.98;-0.2;21.20;76068;2840.306;-1802.948;0;141;500;508.1;100.0;100.4;0;-0.5;25.5;-1.0;
01/03/2025 02:45:58;116;0;29.77;-4;-53.80;-17.06;-0.1;21.20;76068;2840.308;-1802.950;0;141;500;508.1;100.0;100.4;0;-0.5;25.5;-1.0;
01/03/2025 02:46:09;116;0;8.74;-4;-39.06;-10.80;-0.2;21.20;76071;2840.309;-1802.949;0;141;500;506.5;100.0;100.4;0;-0.5;25.5;-1.0;
01/03/2025 02:46:29;116;0;7.61;-4;-32.49;-4.17;0.1;21.20;76071;2840.310;-1802.951;0;141;500;506.5;100.0;100.4;0;0.0;25.5;-1.0;
01/03/2025 02:46:49;116;0;20.41;-4;-46.60;-10.28;-0.2;21.20;76085;2840.311;-1802.950;0;141;500;508.1;100.0;100.4;0;-0.5;25.5;-1.0;
01/03/2025 02:47:09;116;0;27.06;-4;-50.42;-14.98;-0.2;21.20;76088;2840.312;-1802.951;0;141;500;506.5;100.0;100.4;0;-0.5;25.4;-1.0;
01/03/2025 02:47:29;116;0;16.46;-4;-51.75;-4.98;-0.2;21.20;76091;2840.312;-1802.953;0;141;500;508.1;100.0;100.4;0;-0.5;25.5;-1.0;
01/03/2025 02:47:49;116;0;5.82;-4;-58.88;-16.11;-0.3;21.20;76088;2840.315;-1802.952;0;141;500;506.5;100.0;100.4;0;-0.5;25.5;-1.0;
01/03/2025 02:48:09;116;0;3.13;-4;-48.36;-10.35;-0.1;21.20;76088;2840.317;-1802.954;0;141;500;508.1;100.0;100.4;0;-0.5;25.5;-1.0;
01/03/2025 02:48:28;116;0;7.19;-4;-43.35;-9.08;-0.2;21.20;76091;2840.318;-1802.954;0;141;500;506.5;100.0;100.4;0;-0.5;25.5;-1.0;
01/03/2025 02:48:48;116;0;5.33;-4;-37.93;-18.77;-0.2;21.20;76096;2840.321;-1802.955;0;141;500;508.1;100.0;100.4;0;-0.5;25.5;-1.0;
01/03/2025 02:49:08;116;0;13.77;-4;-40.03;-20.53;-0.1;21.20;76085;2840.323;-1802.955;0;141;500;509.7;100.0;100.4;0;-0.5;25.5;-1.0;
01/03/2025 02:49:28;116;0;2.06;-4;-42.28;-10.75;-0.2;21.20;76102;2840.324;-1802.956;0;141;500;508.1;100.0;100.4;0;-0.5;25.5;-1.0;
01/03/2025 02:49:48;116;0;5.01;-4;-44.10;-15.18;-0.1;21.20;76099;2840.326;-1802.957;0;141;500;506.5;100.0;100.4;0;-0.5;25.5;-1.0;
01/03/2025 02:50:08;116;0;5.45;-4;-50.94;-24.33;-0.1;21.20;76099;2840.327;-1802.957;0;141;500;508.1;100.0;100.4;0;-0.5;25.5;-1.0;
01/03/2025 02:50:28;116;0;3.44;-4;-57.66;-3.67;0.0;21.20;76091;2840.330;-1802.958;0;141;500;504.8;100.0;100.4;0;-0.5;25.5;-1.0;
01/03/2025 02:50:48;116;0;25.45;-4;-43.76;-14.05;-0.1;21.20;76104;2840.331;-1802.959;0;141;500;508.1;100.0;100.4;0;-0.5;25.5;-1.0;
01/03/2025 02:51:08;116;0;7.28;-4;-43.38;-14.04;-0.3;21.20;76113;2840.332;-1802.960;0;141;500;508.1;100.0;100.4;0;-0.5;25.5;-1.0;
01/03/2025 02:51:28;116;0;24.97;-4;-45.34;-11.14;-0.2;21.20;76107;2840.333;-1802.962;0;141;500;508.1;100.0;100.4;0;-0.5;25.5;-1.0;
01/03/2025 02:51:48;116;0;8.47;-4;-36.67;-18.61;-0.1;21.30;76106;2840.334;-1802.962;0;141;500;506.5;100.0;100.4;0;-0.5;25.5;-1.0;
01/03/2025 02:52:08;116;0;25.42;-4;-57.09;-4.42;-0.0;21.30;76117;2840.337;-1802.965;0;141;500;506.5;100.0;100.4;0;-0.5;25.5;-1.0;
01/03/2025 02:52:28;116;0;4.34;-4;-46.93;-11.49;-0.2;21.30;76106;2840.338;-1802.963;0;141;500;508.1;100.0;100.4;0;-0.5;25.5;-1.0;
01/03/2025 02:52:48;116;0;357.18;-4;-63.58;-9.89;-0.2;21.30;76110;2840.339;-1802.962;0;141;500;508.1;100.0;100.4;0;-0.5;25.5;-1.0;
01/03/2025 02:53:09;116;0;340.38;-4;-52.89;-7.46;-0.2;21.30;76119;2840.340;-1802.963;0;141;500;508.1;100.0;100.4;0;-0.5;25.5;-1.0;
01/03/2025 02:53:29;116;0;13.62;-4;-51.10;-14.52;-0.0;21.30;76113;2840.341;-1802.962;0;141;500;508.1;100.0;100.4;0;-0.5;25.5;-1.0;
01/03/2025 02:53:49;116;0;2.55;-4;-40.18;-16.79;-0.1;21.30;76120;2840.343;-1802.962;0;141;500;506.5;100.0;100.4;0;0.0;25.5;-1.0;
01/03/2025 02:54:09;116;0;7.88;-4;-40.54;-4.47;-0.1;21.30;76123;2840.342;-1802.963;0;141;500;506.5;100.0;100.4;0;-0.5;25.5;-1.0;
01/03/2025 02:54:29;116;0;7.86;-4;-41.05;-16.76;-0.2;21.30;76125;2840.344;-1802.965;0;141;500;506.5;100.0;100.4;0;-0.5;25.5;-1.0;
01/03/2025 02:54:49;116;0;32.06;-4;-41.65;2.16;-0.2;21.30;76115;2840.345;-1802.965;0;141;500;506.5;100.0;100.4;0;-0.5;25.5;-1.0;
01/03/2025 02:55:09;116;0;5.85;-4;-42.81;-5.11;-0.2;21.30;76122;2840.347;-1802.965;0;141;500;506.5;100.0;100.4;0;-0.5;25.3;-1.0;
01/03/2025 02:55:29;116;0;4.10;-4;-45.50;-17.76;-0.2;21.30;76128;2840.348;-1802.964;0;141;500;508.1;100.0;100.4;0;-0.5;25.5;-1.0;
01/03/2025 02:55:49;116;0;16.77;-4;-42.91;-10.50;-0.3;21.30;76125;2840.349;-1802.966;0;141;500;506.5;100.0;100.4;0;-0.5;25.5;-1.0;
01/03/2025 02:56:09;116;0;15.10;-4;-42.54;2.36;-0.2;21.30;76128;2840.350;-1802.965;0;141;500;508.1;100.0;100.4;0;-0.5;25.5;-1.0;
01/03/2025 02:56:29;116;0;23.18;-4;-48.13;-8.77;-0.1;21.30;76125;2840.352;-1802.965;0;141;500;508.1;100.0;100.4;0;-0.5;25.5;-1.0;
01/03/2025 02:56:40;116;0;359.87;-4;-48.91;-13.76;-0.3;21.40;76124;2840.352;-1802.966;0;141;500;508.1;100.0;100.4;0;-0.5;25.5;-1.0;
01/03/2025 02:57:00;116;0;18.29;-4;-41.50;-9.87;-0.2;21.40;76135;2840.354;-1802.968;0;141;500;508.1;100.0;100.4;0;-0.5;25.5;-1.0;
01/03/2025 02:57:20;116;0;0.42;-4;-40.17;-19.18;0.0;21.40;76135;2840.355;-1802.970;0;141;500;506.5;100.0;100.4;0;-0.5;25.5;-1.0;
01/03/2025 02:57:40;116;0;24.03;-4;-39.85;-4.89;-0.2;21.40;76140;2840.357;-1802.968;0;141;500;506.5;100.0;100.4;0;-0.5;25.5;-1.0;
01/03/2025 02:57:51;116;0;355.97;-4;-46.20;-7.08;-0.1;21.40;76140;2840.358;-1802.968;0;141;500;506.5;100.0;100.4;0;-0.5;25.5;-1.0;
01/03/2025 02:58:11;116;0;13.80;-4;-48.43;-3.88;-0.2;21.40;76137;2840.359;-1802.970;0;141;500;506.5;100.0;100.4;0;-0.5;25.5;-1.0;
01/03/2025 02:58:31;116;0;12.36;-4;-53.57;-1.46;-0.2;21.40;76134;2840.362;-1802.970;0;141;500;508.1;100.0;100.4;0;-0.5;25.5;-1.0;
01/03/2025 02:58:51;116;0;8.22;-4;-47.44;-15.02;0.1;21.40;76144;2840.364;-1802.971;0;141;500;508.1;100.0;100.4;0;-0.5;25.5;-1.0;
01/03/2025 02:59:11;116;0;1.96;-4;-36.62;-11.51;-0.2;21.40;76139;2840.365;-1802.972;0;141;500;508.1;100.0;100.4;0;-0.5;25.3;-1.0;
01/03/2025 02:59:31;116;0;20.83;-4;-40.48;-2.44;-0.1;21.40;76143;2840.365;-1802.974;0;141;500;508.1;100.0;100.4;0;-0.5;25.5;-1.0;
01/03/2025 02:59:46;116;0;20.74;-4;-50.60;-27.16;0.1;21.40;76148;2840.368;-1802.974;0;141;500;508.1;100.0;100.4;0;-0.5;25.5;-1.0;
01/03/2025 03:00:12;116;0;23.18;-4;-52.09;0.62;0.1;21.40;76143;2840.370;-1802.974;0;141;500;506.5;100.0;100.4;0;-0.5;25.5;-1.0;
01/03/2025 03:00:32;116;0;15.01;-4;-42.97;-14.54;-0.2;21.40;76148;2840.369;-1802.975;0;141;500;508.1;100.0;100.4;0;-0.5;25.5;-1.0;
01/03/2025 03:00:43;116;0;7.72;-4;-41.36;-20.68;0.1;21.40;76142;2840.370;-1802.975;0;141;500;508.1;100.0;100.4;0;-0.5;25.5;-1.0;
01/03/2025 03:01:03;116;0;18.11;-4;-58.67;-10.29;-0.1;21.40;76151;2840.372;-1802.976;0;141;500;508.1;100.0;100.4;0;-0.5;25.5;-1.0;
01/03/2025 03:01:23;116;0;35.19;-4;-50.15;-20.25;-0.1;21.50;76159;2840.373;-1802.978;0;141;500;506.5;100.0;100.4;0;-0.5;25.5;-1.0;
01/03/2025 03:01:43;116;0;34.59;-4;-61.65;-18.46;-0.1;21.50;76157;2840.373;-1802.979;0;141;500;508.1;100.0;100.4;0;-0.5;25.5;-1.0;
01/03/2025 03:02:03;116;0;17.17;-4;-51.68;-6.63;0.2;21.50;76153;2840.374;-1802.979;0;141;500;506.5;100.0;100.4;0;-0.5;25.5;-1.0;
01/03/2025 03:02:23;116;0;24.47;-4;-53.35;0.73;-0.1;21.50;76152;2840.375;-1802.981;0;141;500;506.5;100.0;100.3;0;-0.5;25.5;-1.0;
01/03/2025 03:02:43;116;0;27.60;-4;-52.52;-17.49;-0.2;21.50;76169;2840.377;-1802.981;0;141;500;508.1;100.0;100.4;0;-0.5;25.3;-1.0;
01/03/2025 03:03:03;116;0;40.11;-4;-44.60;-16.01;-0.1;21.50;76157;2840.378;-1802.982;0;141;500;508.1;100.0;100.4;0;-0.5;25.5;-1.0;
01/03/2025 03:03:23;116;0;25.63;-4;-45.31;-18.01;-0.1;21.50;76157;2840.379;-1802.982;0;141;500;508.1;100.0;100.4;0;-0.5;25.5;-1.0;
01/03/2025 03:03:43;116;0;17.64;-4;-48.34;-17.12;-0.1;21.50;76157;2840.380;-1802.983;0;141;500;508.1;100.0;100.4;0;-0.5;25.5;-1.0;
01/03/2025 03:04:03;116;0;39.05;-4;-48.84;-19.40;-0.2;21.50;76159;2840.381;-1802.983;0;141;500;508.1;100.0;100.4;0;-0.5;25.5;-1.0;
01/03/2025 03:04:24;116;0;19.06;-4;-39.61;-13.89;-0.1;21.50;76162;2840.382;-1802.984;0;141;500;508.1;100.0;100.4;0;-0.5;25.5;-1.0;
01/03/2025 03:04:44;116;0;9.35;-4;-48.50;-18.52;-0.1;21.50;76165;2840.383;-1802.985;0;141;500;508.1;100.0;100.6;0;-0.5;25.5;-1.0;
01/03/2025 03:05:04;116;0;3.30;-4;-45.72;-4.06;-0.1;21.50;76167;2840.384;-1802.986;0;141;500;506.5;100.0;100.3;0;-0.5;25.4;-1.0;
01/03/2025 03:05:24;116;0;13.23;-4;-51.04;-5.81;-0.2;21.50;76170;2840.384;-1802.985;0;141;500;508.1;100.0;100.4;0;-0.5;25.5;-1.0;
01/03/2025 03:05:35;116;0;1.55;-4;-50.80;-18.74;-0.2;21.50;76175;2840.384;-1802.986;0;141;500;506.5;100.0;100.4;0;-0.5;25.5;-1.0;
01/03/2025 03:05:55;116;0;21.49;-4;-61.43;-24.54;-0.2;21.50;76165;2840.386;-1802.986;0;141;500;506.5;100.0;100.4;0;-0.5;25.5;-1.0;
01/03/2025 03:06:15;116;0;346.11;-4;-50.28;-11.67;-0.2;21.50;76175;2840.385;-1802.988;0;141;500;508.1;100.0;100.4;0;-0.5;25.5;-1.0;
01/03/2025 03:06:35;116;0;337.93;-4;-58.79;-11.52;-0.1;21.50;76169;2840.385;-1802.990;0;141;500;508.1;100.0;100.4;0;-0.5;25.5;-1.0;
01/03/2025 03:06:55;116;0;353.82;-4;-62.49;-1.21;-0.1;21.50;76175;2840.386;-1802.990;0;141;500;508.1;100.0;100.4;0;-0.5;25.5;-1.0;
01/03/2025 03:07:15;116;0;349.90;-4;-45.50;-7.14;-0.1;21.50;76166;2840.388;-1802.990;0;141;500;508.1;100.0;100.4;0;-0.5;25.5;-1.0;
01/03/2025 03:07:26;116;0;1.15;-4;-46.67;-15.52;-0.2;21.50;76175;2840.387;-1802.991;0;141;500;508.1;100.0;100.4;0;-0.5;25.5;-1.0;
01/03/2025 03:07:46;116;0;9.07;-4;-44.94;-18.87;-0.3;21.50;76168;2840.390;-1802.989;0;141;500;508.1;100.0;100.4;0;-0.5;25.5;-1.0;
01/03/2025 03:08:06;116;0;10.10;-4;-44.73;-5.74;-0.2;21.50;76183;2840.391;-1802.990;0;141;500;508.1;100.0;100.4;0;-0.5;25.5;-1.0;
01/03/2025 03:08:26;116;0;11.93;-4;-47.70;-10.52;-0.1;21.60;76176;2840.392;-1802.990;0;141;500;504.8;100.0;100.4;0;-0.5;25.5;-1.0;
01/03/2025 03:08:46;116;0;22.10;-4;-43.31;-3.80;-0.0;21.60;76188;2840.392;-1802.990;0;141;500;506.5;100.0;100.4;0;-0.5;25.5;-1.0;
01/03/2025 03:09:06;116;0;15.85;-4;-50.17;-18.19;-0.2;21.60;76187;2840.392;-1802.990;0;141;500;508.1;100.0;100.4;0;-0.5;25.5;-1.0;
01/03/2025 03:09:26;116;0;4.04;-4;-38.98;-19.43;-0.1;21.60;76187;2840.392;-1802.991;0;141;500;506.5;100.0;100.4;0;-0.5;25.5;-1.0;
01/03/2025 03:09:46;116;0;13.10;-4;-57.26;-8.74;-0.2;21.60;76181;2840.393;-1802.992;0;141;500;508.1;100.0;100.4;0;-0.5;25.5;-1.0;
01/03/2025 03:10:06;116;0;4.57;-4;-52.63;5.61;-0.1;21.60;76193;2840.393;-1802.993;0;141;500;508.1;100.0;100.4;0;-0.5;25.5;-1.0;
01/03/2025 03:10:26;116;0;6.82;-4;-46.69;-1.85;-0.3;21.60;76194;2840.393;-1802.993;0;141;500;506.5;100.0;100.4;0;-0.5;25.5;-1.0;
01/03/2025 03:10:46;116;0;18.57;-4;-41.48;-9.55;-0.1;21.60;76186;2840.393;-1802.995;0;141;500;506.5;100.0;100.4;0;-0.5;25.5;-1.0;
01/03/2025 03:11:06;116;0;1.12;-4;-57.61;1.54;-0.1;21.60;76194;2840.393;-1802.997;0;141;500;508.1;100.0;100.4;0;-0.5;25.5;-1.0;
01/03/2025 03:11:26;116;0;12.85;-4;-48.25;-10.16;-0.1;21.60;76203;2840.393;-1802.998;0;141;500;506.5;100.0;100.4;0;-0.5;25.5;-1.0;
01/03/2025 03:11:46;116;0;26.26;-4;-54.14;-19.13;-0.2;21.60;76199;2840.395;-1802.999;0;141;500;506.5;100.0;100.6;0;-0.5;25.5;-1.0;
01/03/2025 03:12:05;116;0;9.41;-4;-49.89;-23.46;-0.2;21.60;76202;2840.395;-1802.999;0;141;500;508.1;100.0;100.4;0;-0.5;25.5;-1.0;
01/03/2025 03:12:25;116;0;0.58;-4;-37.42;-17.96;-0.2;21.60;76199;2840.395;-1803.000;0;141;500;508.1;100.0;100.3;0;-0.5;25.5;-1.0;
01/03/2025 03:12:45;116;0;4.69;-4;-40.69;-14.09;-0.2;21.60;76204;2840.395;-1803.001;0;141;500;506.5;100.0;100.4;0;-0.5;25.5;-1.0;
01/03/2025 03:13:05;116;0;19.97;-4;-55.45;-9.97;-0.2;21.60;76202;2840.397;-1803.001;0;141;500;508.1;100.0;100.4;0;-0.5;25.5;-1.0;
01/03/2025 03:13:25;116;0;7.87;-4;-56.64;-5.05;-0.2;21.60;76213;2840.397;-1803.001;0;141;500;506.5;100.0;100.4;0;-0.5;25.5;-1.0;
01/03/2025 03:13:45;116;0;3.14;-4;-44.93;-10.96;-0.1;21.60;76196;2840.397;-1803.002;0;141;500;508.1;100.0;100.4;0;-0.5;25.5;-1.0;
01/03/2025 03:14:05;116;0;359.11;-4;-43.48;-17.90;-0.2;21.60;76196;2840.398;-1803.003;0;141;500;508.1;100.0;100.4;0;-0.5;25.5;-1.0;
01/03/2025 03:14:25;116;0;355.67;-4;-43.90;-28.03;-0.3;21.60;76202;2840.398;-1803.004;0;141;500;508.1;100.0;100.4;0;-0.5;25.5;-1.0;
01/03/2025 03:14:36;116;0;355.31;-4;-52.83;-23.60;-0.1;21.60;76210;2840.399;-1803.004;0;141;500;508.1;100.0;100.4;0;-0.5;25.5;-1.0;
01/03/2025 03:14:56;116;0;347.29;-4;-47.65;-19.18;-0.0;21.60;76212;2840.399;-1803.005;0;141;500;506.5;100.0;100.4;0;-0.5;25.5;-1.0;
01/03/2025 03:15:16;116;0;344.57;-4;-45.63;-9.32;0.1;21.60;76213;2840.399;-1803.006;0;141;500;506.5;100.0;100.4;0;-0.5;25.3;-1.0;
01/03/2025 03:15:36;116;0;348.87;-4;-30.77;-6.46;-0.0;21.60;76209;2840.399;-1803.007;0;141;500;506.5;100.0;100.4;0;-0.5;25.5;-1.0;
01/03/2025 03:15:56;116;0;359.27;-4;-40.29;-9.74;-0.1;21.60;76215;2840.399;-1803.008;0;141;500;506.5;100.0;100.4;0;-0.5;25.5;-1.0;
01/03/2025 03:16:17;116;0;4.64;-4;-44.01;-10.15;-0.0;21.70;76215;2840.399;-1803.008;0;141;500;508.1;100.0;100.4;0;-0.5;25.5;-1.0;
01/03/2025 03:16:30;116;0;359.94;-4;-42.89;-6.45;-0.2;21.70;76215;2840.400;-1803.009;0;141;500;508.1;100.0;100.4;0;-0.5;25.5;-1.0;
01/03/2025 03:16:50;116;0;18.11;-4;-51.60;-20.06;-0.2;21.70;76220;2840.401;-1803.011;0;141;500;508.1;100.0;100.4;0;-0.5;25.5;-1.0;
01/03/2025 03:17:10;116;0;8.37;-4;-42.79;-0.04;0.1;21.70;76205;2840.401;-1803.012;0;141;500;508.1;100.0;100.4;0;-0.5;25.5;-1.0;
01/03/2025 03:17:30;116;0;5.79;-4;-40.41;-13.51;-0.2;21.70;76215;2840.400;-1803.012;0;141;500;506.5;100.0;100.6;0;-0.5;25.5;-1.0;
01/03/2025 03:17:50;116;0;14.92;-4;-52.19;-21.32;-0.2;21.70;76217;2840.400;-1803.014;0;141;500;506.5;100.0;100.4;0;-0.5;25.5;-1.0;
01/03/2025 03:18:10;116;0;16.62;-4;-44.51;-16.91;-0.2;21.70;76219;2840.400;-1803.015;0;141;500;508.1;100.0;100.4;0;-0.5;25.5;-1.0;
01/03/2025 03:18:30;116;0;13.43;-4;-42.37;-13.42;-0.2;21.70;76215;2840.399;-1803.015;0;141;500;508.1;100.0;100.4;0;-0.5;25.5;-1.0;
01/03/2025 03:18:50;116;0;23.63;-4;-51.16;-16.72;-0.2;21.70;76225;2840.400;-1803.017;0;141;500;508.1;100.0;100.4;0;-0.5;25.5;-1.0;
01/03/2025 03:19:04;116;0;358.71;-4;-41.29;-15.21;-0.2;21.70;76228;2840.400;-1803.017;0;141;500;508.1;100.0;100.4;0;-0.5;25.5;-1.0;
01/03/2025 03:19:24;116;0;6.72;-4;-42.03;-9.67;-0.3;21.70;76222;2840.400;-1803.018;0;141;500;508.1;100.0;100.4;0;-0.5;25.5;-1.0;
01/03/2025 03:19:50;116;0;14.87;-4;-48.63;-13.35;-0.1;21.70;76219;2840.399;-1803.020;0;141;500;508.1;100.0;100.4;0;-0.5;25.5;-1.0;
01/03/2025 03:20:10;116;0;19.44;-4;-45.36;-0.68;-0.2;21.70;76228;2840.401;-1803.022;0;141;500;508.1;100.0;100.4;0;-0.5;25.5;-1.0;
01/03/2025 03:20:30;116;0;27.34;-4;-48.86;-10.85;-0.2;21.70;76233;2840.401;-1803.022;0;141;500;508.1;100.0;100.4;0;-0.5;25.5;-1.0;
01/03/2025 03:20:50;116;0;5.16;-4;-49.15;-0.48;-0.2;21.70;76238;2840.400;-1803.023;0;141;500;506.5;100.0;100.4;0;-0.5;25.5;-1.0;
01/03/2025 03:21:10;116;0;15.48;-4;-50.59;-11.09;-0.2;21.70;76227;2840.400;-1803.026;0;141;500;506.5;100.0;100.4;0;-0.5;25.5;-1.0;
01/03/2025 03:21:43;116;0;2.41;-4;-49.44;-18.81;0.0;21.70;76238;2840.401;-1803.026;0;141;500;508.1;100.0;100.3;0;-0.5;25.5;-1.0;
01/03/2025 03:22:06;116;0;14.33;-4;-43.16;-1.20;-0.1;21.70;76228;2840.400;-1803.028;0;141;500;508.1;100.0;100.4;0;-0.5;25.5;-1.0;
01/03/2025 03:22:26;116;0;11.94;-4;-54.11;-12.20;-0.3;21.70;76238;2840.400;-1803.029;0;141;500;508.1;100.0;100.4;0;-0.5;25.5;-1.0;
01/03/2025 03:22:37;116;0;14.36;-4;-51.14;-8.70;-0.2;21.70;76233;2840.400;-1803.029;0;141;500;508.1;100.0;100.4;0;-0.5;25.5;-1.0;
01/03/2025 03:22:57;116;0;9.93;-4;-44.15;-11.23;-0.1;21.70;76231;2840.400;-1803.030;0;141;500;508.1;100.0;100.4;0;-0.5;25.5;-1.0;
01/03/2025 03:23:17;116;0;3.57;-4;-52.70;-9.46;-0.1;21.70;76231;2840.400;-1803.032;0;141;500;504.8;100.0;100.4;0;-0.5;25.5;-1.0;
01/03/2025 03:23:37;116;0;18.11;-4;-49.86;-8.57;-0.1;21.70;76234;2840.401;-1803.033;0;141;500;508.1;100.0;100.4;0;-0.5;25.5;-1.0;
01/03/2025 03:23:57;116;0;7.07;-4;-40.23;-14.28;-0.1;21.70;76237;2840.400;-1803.034;0;141;500;508.1;100.0;100.4;0;-0.5;25.5;-1.0;
01/03/2025 03:24:08;116;0;352.09;-4;-52.23;-10.68;-0.1;21.70;76252;2840.400;-1803.035;0;141;500;508.1;100.0;100.4;0;-0.5;25.5;-1.0;
01/03/2025 03:24:29;116;0;19.75;-4;-44.61;-6.30;-0.3;21.70;76232;2840.400;-1803.037;0;141;500;506.5;100.0;100.4;0;-0.5;25.5;-1.0;
01/03/2025 03:24:49;116;0;5.43;-4;-51.18;3.78;-0.2;21.70;76236;2840.400;-1803.038;0;141;500;508.1;100.0;100.4;0;-0.5;25.5;-1.0;
01/03/2025 03:25:09;116;0;355.95;-4;-42.89;-9.51;-0.2;21.70;76238;2840.398;-1803.040;0;141;500;504.8;100.0;100.4;0;-0.5;25.5;-1.0;
01/03/2025 03:25:29;116;0;9.04;-4;-42.96;-12.49;-0.3;21.70;76255;2840.398;-1803.042;0;141;500;508.1;100.0;100.4;0;-0.5;25.5;-1.0;
01/03/2025 03:25:49;116;0;4.30;-4;-41.64;-0.35;-0.1;21.70;76252;2840.396;-1803.042;0;141;500;506.5;100.0;100.4;0;-0.5;25.5;-1.0;
01/03/2025 03:26:09;116;0;24.03;-4;-44.40;-11.22;-0.3;21.70;76247;2840.397;-1803.045;0;141;500;506.5;100.0;100.4;0;-0.5;25.5;-1.0;
01/03/2025 03:26:29;116;0;15.47;-4;-49.15;-9.04;-0.2;21.70;76247;2840.397;-1803.045;0;141;500;508.1;100.0;100.4;0;-0.5;25.5;-1.0;
01/03/2025 03:26:49;116;0;7.27;-4;-44.62;-13.85;-0.2;21.70;76238;2840.397;-1803.046;0;141;500;508.1;100.0;100.4;0;-0.5;25.5;-1.0;
01/03/2025 03:27:09;116;0;12.54;-4;-35.43;-10.78;-0.1;21.70;76257;2840.396;-1803.048;0;141;500;506.5;100.0;100.4;0;-0.5;25.3;-1.0;
01/03/2025 03:27:29;116;0;16.25;-4;-48.76;-13.81;-0.2;21.70;76257;2840.397;-1803.049;0;141;500;508.1;100.0;100.4;0;-0.5;25.5;-1.0;
01/03/2025 03:27:49;116;0;18.85;-4;-44.48;-5.60;-0.2;21.70;76260;2840.397;-1803.051;0;141;500;508.1;100.0;100.4;0;-0.5;25.5;-1.0;
01/03/2025 03:28:09;116;0;15.08;-4;-41.60;-14.11;-0.2;21.70;76246;2840.396;-1803.051;0;141;500;508.1;100.0;100.4;0;-0.5;25.5;-1.0;
01/03/2025 03:28:29;116;0;8.42;-4;-39.79;-6.50;-0.2;21.70;76254;2840.396;-1803.052;0;141;500;508.1;100.0;100.4;0;-0.5;25.5;-1.0;
01/03/2025 03:28:49;116;0;18.64;-4;-51.55;-15.06;-0.1;21.70;76257;2840.396;-1803.053;0;141;500;508.1;100.0;100.4;0;-0.5;25.5;-1.0;
01/03/2025 03:29:09;116;0;5.06;-4;-41.98;-13.08;-0.2;21.70;76254;2840.395;-1803.055;0;141;500;508.1;100.0;100.4;0;-0.5;25.5;-1.0;
01/03/2025 03:29:29;116;0;357.34;-4;-49.49;-0.42;-0.2;21.70;76263;2840.396;-1803.056;0;141;500;508.1;100.0;100.4;0;-0.5;25.5;-1.0;
01/03/2025 03:29:49;116;0;6.03;-4;-48.60;-21.32;-0.1;21.70;76264;2840.396;-1803.057;0;141;500;504.8;100.0;100.4;0;-0.5;25.5;-1.0;
01/03/2025 03:30:09;116;0;21.56;-4;-44.49;-21.23;-0.1;21.70;76257;2840.395;-1803.059;0;141;500;508.1;100.0;100.4;0;-0.5;25.5;-1.0;
01/03/2025 03:30:29;116;0;34.31;-4;-44.06;-7.37;-0.2;21.70;76262;2840.396;-1803.061;0;141;500;506.5;100.0;100.4;0;-0.5;25.5;-1.0;
01/03/2025 03:30:40;116;0;34.02;-4;-44.47;-20.26;-0.0;21.70;76261;2840.396;-1803.062;0;141;500;506.5;100.0;100.4;0;-0.5;25.5;-1.0;
01/03/2025 03:31:00;116;0;31.77;-4;-45.90;-16.48;-0.1;21.70;76264;2840.396;-1803.064;0;141;500;508.1;100.0;100.4;0;-0.5;25.5;-1.0;
01/03/2025 03:31:20;116;0;15.86;-4;-48.66;-14.55;-0.2;21.70;76270;2840.396;-1803.065;0;141;500;506.5;100.0;100.4;0;-0.5;25.5;-1.0;
01/03/2025 03:31:40;116;0;8.77;-4;-56.44;-6.64;-0.2;21.70;76259;2840.397;-1803.067;0;141;500;508.1;100.0;100.4;0;-0.5;25.5;-1.0;
01/03/2025 03:32:00;116;0;357.03;-4;-43.65;-27.02;-0.2;21.70;76267;2840.398;-1803.068;0;141;500;508.1;100.0;100.4;0;-0.5;25.5;-1.0;
01/03/2025 03:32:20;116;0;18.36;-4;-49.36;-19.72;-0.0;21.70;76267;2840.398;-1803.071;0;141;500;508.1;100.0;100.4;0;-0.5;25.5;-1.0;
01/03/2025 03:32:40;116;0;24.83;-4;-47.11;-9.24;-0.2;21.70;76269;2840.399;-1803.074;0;141;500;508.1;100.0;100.4;0;-0.5;25.5;-1.0;
01/03/2025 03:33:00;116;0;21.28;-4;-45.20;-3.82;-0.3;21.70;76275;2840.399;-1803.075;0;141;500;508.1;100.0;100.4;0;-0.5;25.5;-1.0;
01/03/2025 03:33:21;116;0;6.88;-4;-34.40;-10.58;-0.1;21.70;76274;2840.398;-1803.077;0;141;500;508.1;100.0;100.4;0;-0.5;25.5;-1.0;
01/03/2025 03:33:41;116;0;21.88;-4;-49.14;-21.11;-0.3;21.70;76269;2840.398;-1803.078;0;141;500;506.5;100.0;100.4;0;-0.5;25.5;-1.0;
01/03/2025 03:33:54;116;0;30.83;-4;-46.43;-8.87;-0.2;21.70;76278;2840.398;-1803.079;0;141;500;506.5;100.0;100.4;0;-0.5;25.5;-1.0;
01/03/2025 03:34:14;116;0;6.61;-4;-52.41;-17.12;-0.3;21.70;76272;2840.399;-1803.081;0;141;500;508.1;100.0;100.4;0;-0.5;25.3;-1.0;
01/03/2025 03:34:35;116;0;8.57;-4;-51.30;-0.15;-0.2;21.70;76276;2840.398;-1803.083;0;141;500;508.1;100.0;100.4;0;-0.5;25.5;-1.0;
01/03/2025 03:34:55;116;0;15.46;-4;-49.62;-2.26;-0.0;21.70;76282;2840.398;-1803.084;0;141;500;508.1;100.0;100.4;0;-0.5;25.5;-1.0;
01/03/2025 03:35:15;116;0;22.02;-4;-36.08;-14.00;-0.1;21.70;76271;2840.398;-1803.087;0;141;500;508.1;100.0;100.4;0;-0.5;25.5;-1.0;
01/03/2025 03:35:35;116;0;14.26;-4;-49.05;-15.91;-0.0;21.70;76274;2840.397;-1803.088;0;141;500;506.5;100.0;100.4;0;-0.5;25.5;-1.0;
01/03/2025 03:35:55;116;0;353.23;-4;-49.73;-21.29;-0.2;21.80;76276;2840.397;-1803.092;0;141;500;506.5;100.0;100.4;0;-0.5;25.5;-1.0;
01/03/2025 03:36:15;116;0;8.13;-4;-49.59;-2.66;-0.1;21.80;76281;2840.396;-1803.092;0;141;500;508.1;100.0;100.4;0;-0.5;25.5;-1.0;
01/03/2025 03:36:35;116;0;14.28;-4;-44.49;-10.68;-0.1;21.80;76279;2840.396;-1803.094;0;141;500;506.5;100.0;100.4;0;-0.5;25.5;-1.0;
01/03/2025 03:36:55;116;0;16.47;-4;-46.93;-13.42;-0.2;21.80;76281;2840.396;-1803.095;0;141;500;508.1;100.0;100.4;0;-0.5;25.5;-1.0;
01/03/2025 03:37:06;116;0;6.35;-4;-39.40;-19.26;-0.2;21.80;76281;2840.395;-1803.096;0;141;500;508.1;100.0;100.4;0;-0.5;25.5;-1.0;
01/03/2025 03:37:26;116;0;11.02;-4;-42.63;-12.41;-0.2;21.80;76281;2840.395;-1803.098;0;141;500;508.1;100.0;100.4;0;-0.5;25.5;-1.0;
01/03/2025 03:37:46;116;0;20.39;-4;-43.66;-10.05;-0.1;21.80;76281;2840.395;-1803.100;0;141;500;506.5;100.0;100.4;0;-0.5;25.5;-1.0;
01/03/2025 03:37:57;116;0;23.86;-4;-56.37;6.51;-0.3;21.80;76284;2840.396;-1803.101;0;141;500;506.5;100.0;100.4;0;-0.5;25.5;-1.0;
01/03/2025 03:38:17;116;0;14.03;-4;-37.30;-10.58;-0.1;21.80;76289;2840.396;-1803.102;0;141;500;506.5;100.0;100.4;0;-0.5;25.5;-1.0;
01/03/2025 03:38:37;116;0;2.05;-4;-51.27;-3.82;-0.3;21.80;76283;2840.395;-1803.104;0;141;500;506.5;100.0;100.4;0;-0.5;25.5;-1.0;
01/03/2025 03:38:57;116;0;14.51;-4;-44.48;-13.92;-0.3;21.80;76286;2840.395;-1803.106;0;141;500;508.1;100.0;100.4;0;-0.5;25.5;-1.0;
01/03/2025 03:39:17;116;0;10.78;-4;-39.06;-12.16;-0.2;21.80;76284;2840.394;-1803.108;0;141;500;508.1;100.0;100.4;0;-0.5;25.5;-1.0;
01/03/2025 03:39:37;116;0;19.14;-4;-47.73;-20.59;-0.3;21.80;76289;2840.394;-1803.110;0;141;500;506.5;100.0;100.4;0;-0.5;25.5;-1.0;
01/03/2025 03:39:57;116;0;23.31;-4;-50.64;-22.40;-0.2;21.80;76295;2840.394;-1803.112;0;141;500;508.1;100.0;100.4;0;-0.5;25.5;-1.0;
01/03/2025 03:40:16;116;0;359.00;-4;-36.64;-18.06;-0.2;21.80;76292;2840.393;-1803.113;0;141;500;506.5;100.0;100.4;0;-0.5;25.5;-1.0;
01/03/2025 03:40:36;116;0;25.51;-4;-45.07;-17.15;-0.1;21.80;76292;2840.394;-1803.114;0;141;500;508.1;100.0;100.4;0;-0.5;25.5;-1.0;
01/03/2025 03:40:56;116;0;10.52;-4;-53.68;-17.85;-0.2;21.80;76295;2840.393;-1803.116;0;141;500;508.1;100.0;100.4;0;-0.5;25.5;-1.0;
01/03/2025 03:41:07;116;0;21.61;-4;-39.98;-6.80;-0.1;21.80;76295;2840.393;-1803.117;0;141;500;506.5;100.0;100.4;0;-0.5;25.5;-1.0;
01/03/2025 03:41:27;116;0;15.08;-4;-53.15;-20.17;-0.3;21.80;76292;2840.393;-1803.119;0;141;500;506.5;100.0;100.4;0;-0.5;25.5;-1.0;
01/03/2025 03:41:47;116;0;20.78;-4;-51.47;10.12;-0.2;21.80;76302;2840.392;-1803.120;0;141;500;508.1;100.0;100.4;0;-0.5;25.5;-1.0;
01/03/2025 03:41:58;116;0;15.53;-4;-43.02;-9.14;-0.2;21.80;76308;2840.391;-1803.121;0;141;500;508.1;100.0;100.4;0;-0.5;25.5;-1.0;
01/03/2025 03:42:18;116;0;44.98;-4;-56.79;-23.68;-0.2;21.80;76292;2840.392;-1803.124;0;141;500;508.1;100.0;100.4;0;-0.5;25.3;-1.0;
01/03/2025 03:42:38;116;0;29.74;-4;-47.70;-14.90;-0.2;21.80;76297;2840.392;-1803.126;0;141;500;506.5;100.0;100.4;0;-0.5;25.5;-1.0;
01/03/2025 03:42:58;116;0;19.52;-4;-40.32;-12.71;-0.1;21.80;76297;2840.391;-1803.127;0;141;500;508.1;100.0;100.4;0;-0.5;25.5;-1.0;
01/03/2025 03:43:18;116;0;8.88;-4;-47.47;-14.29;-0.4;21.80;76312;2840.390;-1803.128;0;141;500;508.1;100.0;100.4;0;-0.5;25.5;-1.0;
01/03/2025 03:43:38;116;0;8.32;-4;-49.17;-10.41;-0.2;21.80;76297;2840.389;-1803.131;0;141;500;504.8;100.0;100.4;0;-0.5;25.5;-1.0;
01/03/2025 03:43:52;116;0;17.70;-4;-35.15;-8.13;-0.2;21.80;76305;2840.389;-1803.133;0;141;500;508.1;100.0;100.4;0;-0.5;25.5;-1.0;
01/03/2025 03:44:12;116;0;17.55;-4;-42.89;-18.45;-0.2;21.80;76311;2840.390;-1803.136;0;141;500;508.1;100.0;100.4;0;-0.5;25.5;-1.0;
01/03/2025 03:44:32;116;0;7.25;-4;-49.24;-19.11;-0.3;21.80;76300;2840.390;-1803.137;0;141;500;508.1;100.0;100.4;0;-0.5;25.5;-1.0;
01/03/2025 03:44:43;116;0;18.79;-4;-44.14;-18.26;-0.3;21.80;76297;2840.389;-1803.138;0;141;500;506.5;100.0;100.4;0;-0.5;25.5;-1.0;
01/03/2025 03:45:03;116;0;1.24;-4;-34.92;-31.84;-0.1;21.80;76302;2840.388;-1803.139;0;141;500;508.1;100.0;100.4;0;-0.5;25.5;-1.0;
01/03/2025 03:45:23;116;0;7.85;-4;-37.19;-12.96;-0.4;21.80;76316;2840.388;-1803.142;0;141;500;506.5;100.0;100.4;0;-0.5;25.5;-1.0;
01/03/2025 03:45:43;116;0;31.26;-4;-50.43;-13.62;-0.3;21.80;76313;2840.387;-1803.144;0;141;500;508.1;100.0;100.4;0;-0.5;25.5;-1.0;
01/03/2025 03:46:03;116;0;12.26;-4;-42.38;-18.27;-0.3;21.80;76300;2840.387;-1803.146;0;141;500;508.1;100.0;100.4;0;0.0;25.5;-1.0;
01/03/2025 03:46:23;116;0;13.45;-4;-52.92;0.65;-0.2;21.80;76302;2840.387;-1803.149;0;141;500;508.1;100.0;100.4;0;-0.5;25.5;-1.0;
01/03/2025 03:46:43;116;0;4.89;-4;-59.10;-10.70;-0.2;21.80;76307;2840.386;-1803.151;0;141;500;508.1;100.0;100.4;0;-0.5;25.3;-1.0;
01/03/2025 03:47:03;116;0;5.01;-4;-36.04;-17.53;-0.1;21.80;76313;2840.386;-1803.152;0;141;500;508.1;100.0;100.6;0;-0.5;25.5;-1.0;
01/03/2025 03:47:14;116;0;1.15;-4;-45.99;-6.56;-0.2;21.80;76316;2840.386;-1803.154;0;141;500;508.1;100.0;100.4;0;-0.5;25.5;-1.0;
01/03/2025 03:47:34;116;0;12.70;-4;-50.09;-12.74;-0.3;21.80;76308;2840.385;-1803.155;0;141;500;508.1;100.0;100.4;0;-0.5;25.5;-1.0;
01/03/2025 03:47:48;116;0;5.72;-4;-35.33;-11.59;-0.1;21.80;76313;2840.384;-1803.156;0;141;500;508.1;100.0;100.6;0;-0.5;25.5;-1.0;
01/03/2025 03:48:08;116;0;12.12;-4;-44.67;-18.66;-0.2;21.80;76304;2840.384;-1803.159;0;141;500;508.1;100.0;100.6;0;-0.5;25.5;-1.0;
01/03/2025 03:48:28;116;0;346.15;-4;-44.24;-12.93;-0.3;21.80;76326;2840.384;-1803.160;0;141;500;506.5;100.0;100.4;0;-0.5;25.5;-1.0;
01/03/2025 03:48:48;116;0;356.43;-4;-48.60;-8.50;-0.1;21.80;76310;2840.382;-1803.163;0;141;500;508.1;100.0;100.4;0;-0.5;25.5;-1.0;
01/03/2025 03:49:08;116;0;0.52;-4;-53.58;-24.82;-0.3;21.80;76307;2840.381;-1803.165;0;141;500;508.1;100.0;100.4;0;-0.5;25.5;-1.0;
01/03/2025 03:49:28;116;0;2.96;-4;-48.41;-10.94;-0.2;21.80;76323;2840.380;-1803.167;0;141;500;506.5;100.0;100.4;0;-0.5;25.5;-1.0;
01/03/2025 03:49:48;116;0;2.39;-4;-48.14;-5.58;-0.3;21.80;76313;2840.380;-1803.170;0;141;500;508.1;100.0;100.4;0;-0.5;25.5;-1.0;
01/03/2025 03:50:08;116;0;345.39;-4;-60.69;11.94;-0.1;21.90;76318;2840.379;-1803.170;0;141;500;508.1;100.0;100.4;0;-0.5;25.5;-1.0;
01/03/2025 03:50:29;116;0;3.84;-4;-57.21;-1.54;-0.2;21.90;76323;2840.378;-1803.173;0;141;500;506.5;100.0;100.4;0;-0.5;25.5;-1.0;
01/03/2025 03:50:49;116;0;10.93;-4;-59.11;-15.63;-0.2;21.80;76313;2840.377;-1803.176;0;141;500;508.1;100.0;100.3;0;-0.5;25.5;-1.0;
01/03/2025 03:51:09;116;0;7.53;-4;-37.63;-17.80;-0.2;21.80;76321;2840.375;-1803.178;0;141;500;508.1;100.0;100.4;0;-0.5;25.5;-1.0;
01/03/2025 03:51:29;116;0;26.42;-4;-52.23;-7.78;-0.3;21.90;76314;2840.375;-1803.180;0;141;500;508.1;100.0;100.4;0;-0.5;25.5;-1.0;
01/03/2025 03:51:49;116;0;9.31;-4;-42.16;-18.82;-0.2;21.90;76323;2840.375;-1803.181;0;141;500;504.8;100.0;100.6;0;-0.5;25.5;-1.0;
01/03/2025 03:52:09;116;0;357.31;-4;-41.96;-19.00;-0.3;21.90;76332;2840.373;-1803.185;0;141;500;506.5;100.0;100.4;0;-0.5;25.5;-1.0;
01/03/2025 03:52:29;116;0;6.61;-4;-38.73;-11.93;-0.4;21.90;76329;2840.371;-1803.186;0;141;500;508.1;100.0;100.4;0;-0.5;25.5;-1.0;
01/03/2025 03:52:49;116;0;8.12;-4;-39.09;-9.07;-0.3;21.90;76323;2840.371;-1803.189;0;141;500;508.1;100.0;100.4;0;-0.5;25.5;-1.0;
01/03/2025 03:53:09;116;0;16.05;-4;-52.29;-9.34;-0.3;21.90;76322;2840.370;-1803.191;0;141;500;508.1;100.0;100.4;0;-0.5;25.5;-1.0;
01/03/2025 03:53:29;116;0;26.56;-4;-50.39;-13.21;-0.3;21.90;76326;2840.369;-1803.194;0;141;500;508.1;100.0;100.4;0;-0.5;25.5;-1.0;
01/03/2025 03:53:49;116;0;20.35;-4;-40.37;-8.31;-0.3;21.90;76325;2840.367;-1803.195;0;141;500;508.1;100.0;100.4;0;-0.5;25.5;-1.0;
01/03/2025 03:54:09;116;0;10.38;-4;-44.21;-4.07;-0.1;21.90;76331;2840.367;-1803.198;0;141;500;506.5;100.0;100.4;0;-0.5;25.5;-1.0;
01/03/2025 03:54:29;116;0;18.17;-4;-48.29;-29.24;-0.2;21.90;76328;2840.364;-1803.201;0;141;500;508.1;100.0;100.4;0;-0.5;25.5;-1.0;
01/03/2025 03:54:49;116;0;34.21;-4;-51.96;-14.11;-0.1;21.90;76330;2840.364;-1803.203;0;141;500;506.5;100.0;100.4;0;-0.5;25.5;-1.0;
01/03/2025 03:55:09;116;0;18.28;-4;-54.70;-13.80;-0.3;21.90;76328;2840.362;-1803.205;0;141;500;508.1;100.0;100.4;0;-0.5;25.5;-1.0;
01/03/2025 03:55:20;116;0;3.35;-4;-41.35;-22.59;-0.3;21.90;76331;2840.362;-1803.205;0;141;500;508.1;100.0;100.4;0;-0.5;25.5;-1.0;
01/03/2025 03:55:40;116;0;24.84;-4;-44.00;-4.97;-0.3;21.90;76334;2840.362;-1803.209;0;141;500;508.1;100.0;100.4;0;-0.5;25.5;-1.0;
01/03/2025 03:56:00;116;0;3.95;-4;-49.43;-20.58;-0.3;21.90;76339;2840.361;-1803.210;0;141;500;508.1;100.0;100.4;0;-0.5;25.5;-1.0;
01/03/2025 03:56:20;116;0;28.08;-4;-50.27;-8.45;-0.2;21.90;76336;2840.362;-1803.213;0;141;500;506.5;100.0;100.4;0;-0.5;25.5;-1.0;
01/03/2025 03:56:40;116;0;21.29;-4;-42.69;-2.33;-0.2;21.90;76337;2840.360;-1803.216;0;141;500;508.1;100.0;100.4;0;-0.5;25.4;-1.0;
01/03/2025 03:57:00;116;0;17.75;-4;-47.64;-6.70;-0.3;21.90;76339;2840.361;-1803.218;0;141;500;508.1;100.0;100.4;0;-0.5;25.5;-1.0;
01/03/2025 03:57:20;116;0;6.31;-4;-44.13;0.05;-0.1;21.90;76333;2840.360;-1803.222;0;141;500;508.1;100.0;100.4;0;-0.5;25.5;-1.0;
01/03/2025 03:57:40;116;0;38.68;-4;-53.13;-11.54;-0.2;21.90;76344;2840.360;-1803.223;0;141;500;506.5;100.0;100.4;0;-0.5;25.5;-1.0;
01/03/2025 03:58:00;116;0;5.26;-4;-36.08;-12.70;-0.2;21.90;76344;2840.359;-1803.225;0;141;500;508.1;100.0;100.4;0;-0.5;25.5;-1.0;
01/03/2025 03:58:20;116;0;38.27;-4;-61.09;-3.74;-0.2;21.90;76338;2840.360;-1803.228;0;141;500;504.8;100.0;100.4;0;-0.5;25.5;-1.0;
01/03/2025 03:58:40;116;0;18.68;-4;-52.93;-2.84;-0.2;21.90;76338;2840.359;-1803.230;0;141;500;508.1;100.0;100.4;0;-0.5;25.5;-1.0;
01/03/2025 03:59:00;116;0;15.17;-4;-43.55;-16.55;-0.2;21.90;76344;2840.359;-1803.232;0;141;500;506.5;100.0;100.4;0;-0.5;25.5;-1.0;
01/03/2025 03:59:20;116;0;3.37;-4;-41.34;-4.99;-0.2;21.90;76338;2840.358;-1803.234;0;141;500;508.1;100.0;100.4;0;-0.5;25.5;-1.0;
01/03/2025 03:59:40;116;0;2.59;-4;-47.44;-1.78;-0.2;21.90;76341;2840.358;-1803.236;0;141;500;506.5;100.0;100.4;0;-0.5;25.5;-1.0;
01/03/2025 04:00:00;116;0;16.53;-4;-47.98;-20.70;-0.1;21.90;76350;2840.358;-1803.238;0;141;500;508.1;100.0;100.4;0;-0.5;25.5;-1.0;
01/03/2025 04:00:20;116;0;21.43;-4;-55.32;-20.49;-0.2;21.90;76341;2840.357;-1803.240;0;141;500;506.5;100.0;100.4;0;-0.5;25.5;-1.0;
01/03/2025 04:00:40;116;0;5.93;-4;-31.47;-11.09;-0.1;21.90;76344;2840.356;-1803.241;0;141;500;508.1;100.0;100.4;0;-0.5;25.5;-1.0;
01/03/2025 04:01:01;116;0;17.32;-4;-43.34;-3.76;-0.3;21.90;76338;2840.356;-1803.245;0;141;500;504.8;100.0;100.4;0;-0.5;25.5;-1.0;
01/03/2025 04:01:21;116;0;21.73;-4;-53.07;-4.47;-0.3;21.90;76350;2840.355;-1803.248;0;141;500;508.1;100.0;100.4;0;-0.5;25.5;-1.0;
01/03/2025 04:01:41;116;0;4.51;-4;-41.45;-11.53;-0.2;21.90;76351;2840.354;-1803.250;0;141;500;508.1;100.0;100.4;0;-0.5;25.5;-1.0;
01/03/2025 04:02:01;116;0;358.98;-4;-50.25;-5.11;-0.2;21.90;76357;2840.353;-1803.253;0;141;500;508.1;100.0;100.4;0;-0.5;25.5;-1.0;
01/03/2025 04:02:21;116;0;2.89;-4;-41.39;-8.55;-0.2;21.90;76347;2840.353;-1803.256;0;141;500;508.1;100.0;100.4;0;-0.5;25.5;-1.0;
01/03/2025 04:02:41;116;0;26.51;-4;-47.33;-15.04;-0.1;21.90;76349;2840.352;-1803.258;0;141;500;506.5;100.0;100.4;0;-0.5;25.5;-1.0;
01/03/2025 04:03:01;116;0;33.58;-4;-49.23;-7.08;-0.3;21.90;76349;2840.352;-1803.262;0;141;500;506.5;100.0;100.4;0;-0.5;25.5;-1.0;
01/03/2025 04:03:21;116;0;2.17;-4;-39.97;-20.64;-0.2;21.90;76357;2840.350;-1803.265;0;141;500;508.1;100.0;100.4;0;-0.5;25.3;-1.0;
01/03/2025 04:03:41;116;0;13.20;-4;-56.74;-3.26;-0.2;21.90;76357;2840.351;-1803.268;0;141;500;508.1;100.0;100.4;0;-0.5;25.5;-1.0;
01/03/2025 04:04:01;116;0;15.02;-4;-39.90;-13.87;-0.3;21.90;76351;2840.350;-1803.271;0;141;500;508.1;100.0;100.4;0;-0.5;25.5;-1.0;
01/03/2025 04:04:21;116;0;24.88;-4;-48.93;-9.36;-0.2;21.90;76354;2840.349;-1803.274;0;141;500;506.5;100.0;100.4;0;-0.5;25.5;-1.0;
01/03/2025 04:04:41;116;0;5.76;-4;-45.84;-14.27;-0.3;21.90;76363;2840.349;-1803.277;0;141;500;506.5;100.0;100.4;0;-0.5;25.5;-1.0;
01/03/2025 04:05:01;116;0;2.24;-4;-40.77;-9.48;-0.2;21.90;76357;2840.349;-1803.279;0;141;500;504.8;100.0;100.4;0;-0.5;25.5;-1.0;
01/03/2025 04:05:21;116;0;20.85;-4;-49.82;-14.38;-0.4;21.90;76359;2840.349;-1803.282;0;141;500;508.1;100.0;100.4;0;-0.5;25.5;-1.0;
01/03/2025 04:05:41;110;0;13.75;-4;-48.15;-26.00;-0.3;21.90;76360;2840.349;-1803.282;0;141;-90;380.6;100.0;100.4;-7;-7.2;25.5;-1.0;
01/03/2025 04:05:51;110;0;22.61;-4;-38.31;-6.00;0.1;21.90;76719;2840.350;-1803.283;1;141;-90;235.5;100.0;100.3;-7;-7.7;25.4;-1.0;
01/03/2025 04:06:01;110;0;39.85;-4;-55.85;-25.69;0.4;21.90;76958;2840.350;-1803.283;1;141;-90;79.0;100.0;100.4;-7;-7.7;25.5;-1.0;
01/03/2025 04:06:11;110;0;74.96;-4;-62.77;-34.90;0.6;21.90;77293;2840.351;-1803.283;1;141;-90;-77.4;100.0;100.6;-7;-7.7;25.5;-1.0;
01/03/2025 04:06:21;110;0;98.68;-4;-66.12;-46.44;0.9;21.90;77624;2840.352;-1803.283;1;141;-90;-90.3;41.0;53.9;-7;-7.7;25.4;-1.0;
01/03/2025 04:06:31;110;0;78.68;-4;-55.24;-17.27;1.9;21.90;77614;2840.353;-1803.283;1;141;-90;-90.3;41.0;40.9;-7;-7.7;25.5;-1.0;
01/03/2025 04:06:51;100;0;77.15;-4;-17.08;-15.61;5.1;21.90;77616;2840.356;-1803.279;1;141;-90;-85.5;41.0;40.6;-7;-7.7;25.5;-1.0;
01/03/2025 04:07:11;100;0;80.68;-4;-12.96;-16.30;7.5;21.90;77610;2840.358;-1803.276;1;141;-90;-83.9;43.1;43.3;-67;-66.8;25.5;-1.0;
01/03/2025 04:07:31;100;0;87.81;-4;-21.40;-44.57;9.4;22.00;77603;2840.360;-1803.274;1;141;-90;-83.9;43.1;43.3;-62;-61.4;25.5;-1.0;
01/03/2025 04:07:51;100;0;95.36;-4;-20.11;-39.98;11.9;22.00;77605;2840.361;-1803.271;1;141;-90;-83.9;43.1;43.3;-49;-49.2;25.5;-1.0;
01/03/2025 04:08:11;100;0;109.25;-4;-18.96;-34.75;14.2;22.00;77608;2840.361;-1803.268;1;141;-90;-85.5;43.5;43.3;-32;-31.6;25.5;0.0;
01/03/2025 04:08:31;100;0;116.55;-4;-20.92;-25.57;16.2;22.00;77612;2840.362;-1803.267;1;141;-90;-83.9;43.5;43.3;-25;-24.8;25.5;0.0;
01/03/2025 04:08:51;100;0;125.39;-4;-19.53;-22.96;18.3;21.90;77616;2840.362;-1803.265;1;141;-90;-83.9;43.5;43.3;-11;-10.8;25.5;0.0;
01/03/2025 04:09:11;100;0;132.12;-4;-23.57;-16.03;20.2;21.90;77609;2840.362;-1803.264;1;141;-110;-111.3;42.4;42.1;-3;-3.2;25.5;0.0;
01/03/2025 04:09:31;100;0;136.73;-4;-18.70;-13.17;22.5;21.80;77672;2840.362;-1803.262;1;141;-110;-111.3;42.8;43.0;10;9.9;25.5;0.0;
01/03/2025 04:09:51;100;0;140.57;-4;-20.09;-6.10;24.7;21.80;77688;2840.361;-1803.261;1;141;-110;-111.3;42.8;43.2;12;12.2;25.5;0.0;
01/03/2025 04:10:11;100;0;137.63;-4;-21.61;-4.90;27.2;21.70;77679;2840.360;-1803.260;1;141;-110;-111.3;42.8;43.0;9;9.0;25.5;0.0;
01/03/2025 04:10:31;100;0;137.88;-4;-20.18;-7.23;30.1;21.70;77676;2840.359;-1803.258;1;141;-110;-109.7;42.8;43.0;12;12.2;25.5;0.0;
01/03/2025 04:10:51;100;0;141.12;-4;-20.63;-4.92;32.8;21.60;77681;2840.358;-1803.256;1;141;-110;-108.1;42.8;43.0;12;12.6;25.5;0.0;
01/03/2025 04:11:11;100;0;139.56;-4;-20.64;-4.78;35.5;21.60;77682;2840.357;-1803.255;1;141;-110;-111.3;42.8;43.2;12;12.6;25.5;0.0;
01/03/2025 04:11:31;100;0;140.98;-4;-19.93;-4.95;38.1;21.60;77688;2840.356;-1803.253;1;141;-110;-111.3;42.8;43.0;12;12.6;25.5;0.0;
01/03/2025 04:11:51;100;0;140.50;-4;-19.93;-5.01;40.6;21.50;77675;2840.355;-1803.251;1;141;-110;-111.3;42.8;43.3;12;12.6;25.5;0.0;
01/03/2025 04:12:11;100;0;134.53;-4;-20.40;-5.23;43.2;21.50;77662;2840.355;-1803.250;1;141;-110;-112.9;42.8;43.0;7;7.2;25.5;0.0;
01/03/2025 04:12:31;100;0;129.82;-4;-20.59;-8.02;45.6;21.40;77636;2840.354;-1803.248;1;141;-110;-111.3;42.8;43.0;-2;-2.3;25.5;0.0;
01/03/2025 04:12:51;100;0;129.17;-4;-19.76;-12.65;48.1;21.40;77633;2840.354;-1803.246;1;141;-110;-111.3;42.8;43.0;-2;-2.3;25.5;0.0;
01/03/2025 04:13:11;100;0;134.05;-4;-19.88;-12.79;50.3;21.30;77599;2840.354;-1803.244;1;141;-110;-111.3;42.8;43.0;4;4.1;25.5;0.0;
01/03/2025 04:13:31;100;0;136.22;-4;-19.84;-9.17;52.8;21.30;77588;2840.353;-1803.242;1;141;-110;-111.3;42.8;43.0;9;9.0;25.5;0.0;
01/03/2025 04:13:51;100;0;137.07;-4;-19.99;-6.79;55.2;21.20;77563;2840.352;-1803.241;1;141;-110;-111.3;42.8;43.0;9;9.5;25.5;0.0;
01/03/2025 04:14:11;100;0;138.48;-4;-19.92;-6.82;57.5;21.20;77556;2840.352;-1803.239;1;141;-110;-109.7;42.8;43.0;9;9.5;25.5;0.0;
01/03/2025 04:14:31;100;0;140.06;-4;-19.89;-6.80;59.8;21.10;77534;2840.351;-1803.238;1;141;-110;-111.3;42.8;43.0;11;10.8;25.5;0.0;
01/03/2025 04:14:51;100;0;145.00;-4;-19.77;-5.87;62.2;21.10;77523;2840.350;-1803.237;1;141;-110;-109.7;42.8;43.0;14;14.0;25.5;0.0;
01/03/2025 04:15:11;100;0;143.82;-4;-20.25;-4.43;64.7;21.00;77506;2840.349;-1803.236;1;141;-110;-111.3;42.8;43.0;14;14.0;25.5;0.0;
01/03/2025 04:15:31;100;0;145.82;-4;-20.03;-4.35;67.3;21.00;77483;2840.348;-1803.234;1;141;-110;-109.7;42.8;43.0;14;14.0;25.5;0.0;
01/03/2025 04:15:51;100;0;147.13;-4;-19.86;-4.52;69.6;20.90;77473;2840.347;-1803.233;1;141;-110;-111.3;42.8;43.2;14;14.4;25.5;0.0;
01/03/2025 04:16:11;100;0;149.21;-4;-20.10;-4.37;72.1;20.90;77460;2840.346;-1803.232;1;141;-110;-111.3;42.8;43.0;14;14.0;25.5;0.0;
01/03/2025 04:16:31;100;0;150.98;-4;-20.37;-4.34;74.8;20.80;77451;2840.344;-1803.231;1;141;-110;-111.3;42.8;43.2;14;14.0;25.5;0.0;
01/03/2025 04:16:51;100;0;153.96;-4;-19.97;-4.25;77.3;20.70;77443;2840.343;-1803.230;1;141;-110;-111.3;42.8;43.0;14;14.0;25.5;0.0;
01/03/2025 04:17:11;100;0;155.32;-4;-19.69;-4.44;79.9;20.70;77431;2840.342;-1803.230;1;141;-110;-111.3;42.8;43.0;14;14.4;25.5;0.0;
01/03/2025 04:17:31;100;0;155.26;-4;-19.89;-4.44;82.5;20.60;77419;2840.340;-1803.229;1;141;-110;-111.3;42.8;43.0;14;14.4;25.5;0.0;
01/03/2025 04:17:51;100;0;159.52;-4;-19.45;-4.48;85.0;20.60;77419;2840.339;-1803.228;1;141;-110;-109.7;42.8;43.0;18;18.1;25.5;0.0;
01/03/2025 04:18:11;100;0;160.32;-4;-19.98;-2.44;87.6;20.50;77390;2840.337;-1803.228;1;141;-110;-111.3;42.8;43.0;18;18.1;25.5;0.0;
01/03/2025 04:18:31;100;0;155.63;-4;-20.00;-2.49;90.2;20.50;77381;2840.336;-1803.227;1;141;-110;-111.3;42.8;43.0;15;14.9;25.5;0.0;
01/03/2025 04:18:51;100;0;155.38;-4;-19.81;-4.45;92.7;20.40;77374;2840.334;-1803.226;1;141;-110;-111.3;42.8;43.0;15;14.4;25.5;0.0;
01/03/2025 04:19:11;100;0;158.44;-4;-20.16;-4.24;95.5;20.40;77362;2840.333;-1803.226;1;141;-110;-112.9;42.8;43.0;18;18.1;25.5;0.0;
01/03/2025 04:19:31;100;0;160.80;-4;-20.06;-2.40;98.2;20.30;77344;2840.331;-1803.225;1;141;-110;-111.3;42.8;43.0;18;18.5;25.5;0.0;
01/03/2025 04:19:51;100;0;157.40;-4;-20.22;-2.40;101.1;20.20;77339;2840.329;-1803.224;1;141;-110;-111.3;42.8;43.0;18;18.1;25.5;0.0;
01/03/2025 04:20:11;100;0;153.75;-4;-20.18;-2.35;103.8;20.20;77337;2840.328;-1803.223;1;141;-110;-111.3;42.8;43.2;15;14.9;25.5;0.0;
01/03/2025 04:20:31;100;0;151.67;-4;-20.03;-4.27;106.5;20.20;77334;2840.326;-1803.222;1;141;-110;-111.3;42.8;43.0;15;14.4;25.5;0.0;
01/03/2025 04:20:51;100;0;149.49;-4;-20.00;-4.32;109.4;20.10;77317;2840.325;-1803.221;1;141;-110;-111.3;42.8;43.0;15;14.4;25.5;0.0;
01/03/2025 04:21:11;100;0;146.75;-4;-19.89;-4.33;112.2;20.00;77306;2840.323;-1803.220;1;141;-110;-109.7;42.8;43.0;15;14.4;25.5;0.0;
01/03/2025 04:21:31;100;0;142.57;-4;-19.83;-4.35;114.7;20.00;77303;2840.322;-1803.218;1;141;-110;-111.3;42.8;43.0;15;14.4;25.5;0.0;
01/03/2025 04:21:51;100;0;142.09;-4;-19.93;-4.33;117.7;19.90;77288;2840.321;-1803.216;1;141;-110;-111.3;42.8;43.2;15;14.4;25.5;0.0;
01/03/2025 04:22:11;100;0;143.03;-4;-20.10;-4.31;120.5;19.90;77295;2840.320;-1803.215;1;141;-110;-111.3;42.8;43.0;15;14.4;25.5;0.0;
01/03/2025 04:22:31;100;0;146.35;-4;-19.97;-4.24;123.4;19.80;77260;2840.318;-1803.213;1;141;-110;-111.3;42.8;43.0;15;14.4;25.5;0.0;
01/03/2025 04:22:51;100;0;145.60;-4;-19.75;-4.27;126.4;19.80;77264;2840.317;-1803.211;1;141;-110;-111.3;42.8;43.0;15;14.4;25.5;0.0;
01/03/2025 04:23:11;100;0;144.48;-4;-19.65;-4.33;129.0;19.70;77254;2840.315;-1803.210;1;141;-110;-109.7;42.8;43.0;15;14.4;25.5;0.0;
01/03/2025 04:23:31;100;0;141.67;-4;-19.87;-4.36;131.8;19.70;77238;2840.314;-1803.208;1;141;-110;-111.3;42.8;43.0;15;14.4;25.5;0.0;
01/03/2025 04:23:51;100;0;139.33;-4;-19.75;-4.31;134.5;19.60;77238;2840.313;-1803.207;1;141;-110;-111.3;42.8;43.0;12;12.2;25.5;0.0;
01/03/2025 04:24:11;100;0;138.68;-4;-19.65;-5.56;137.2;19.60;77218;2840.312;-1803.205;1;141;-110;-111.3;42.8;43.0;12;12.2;25.5;0.0;
01/03/2025 04:24:31;100;0;139.83;-4;-19.57;-5.56;140.1;19.50;77223;2840.311;-1803.203;1;141;-110;-111.3;42.8;43.2;12;12.2;25.5;0.0;
01/03/2025 04:24:51;100;0;141.87;-4;-19.37;-5.56;142.8;19.50;77212;2840.310;-1803.201;1;141;-110;-111.3;42.8;43.0;14;14.0;25.5;0.0;
01/03/2025 04:25:11;100;0;143.19;-4;-19.68;-4.24;145.5;19.40;77208;2840.309;-1803.200;1;141;-110;-111.3;42.8;43.0;14;14.4;25.5;0.0;
01/03/2025 04:25:32;100;0;145.21;-4;-19.51;-4.27;148.1;19.40;77194;2840.307;-1803.198;1;141;-110;-111.3;42.8;43.0;14;14.4;25.5;0.0;
01/03/2025 04:25:52;100;0;145.09;-4;-19.75;-4.31;150.5;19.30;77170;2840.306;-1803.197;1;141;-110;-109.7;42.8;43.0;14;14.4;25.5;0.0;
01/03/2025 04:26:12;100;0;142.63;-4;-19.80;-4.29;153.3;19.30;77167;2840.305;-1803.195;1;141;-110;-111.3;42.8;43.0;14;14.4;25.5;0.0;
01/03/2025 04:26:32;100;0;141.11;-4;-19.84;-4.28;155.9;19.30;77163;2840.304;-1803.194;1;141;-110;-111.3;42.8;43.0;14;14.4;25.5;0.0;
01/03/2025 04:26:52;100;0;141.10;-4;-19.71;-4.30;158.5;19.20;77151;2840.303;-1803.192;1;141;-110;-111.3;42.8;43.0;14;14.4;25.5;0.0;
01/03/2025 04:27:12;100;0;142.52;-4;-19.60;-4.32;161.1;19.10;77140;2840.302;-1803.191;1;141;-110;-111.3;42.8;43.0;14;14.4;25.5;0.0;
01/03/2025 04:27:32;100;0;142.92;-4;-19.75;-4.28;163.6;19.10;77139;2840.301;-1803.189;1;141;-110;-109.7;42.8;43.2;14;14.4;25.5;0.0;
01/03/2025 04:27:52;100;0;142.87;-4;-19.48;-4.22;165.9;19.10;77121;2840.300;-1803.188;1;141;-110;-111.3;42.8;43.0;14;14.4;25.5;0.0;
01/03/2025 04:28:12;100;0;141.86;-4;-19.54;-4.31;168.6;19.00;77116;2840.299;-1803.186;1;141;-110;-111.3;42.8;43.0;14;14.4;25.5;0.0;
01/03/2025 04:28:32;100;0;142.07;-4;-19.42;-4.37;170.9;19.00;77099;2840.298;-1803.185;1;141;-110;-109.7;42.8;43.0;14;14.4;25.5;0.0;
