Timestamp;NavState;SecurityLevel;Heading;Declination;Pitch;Roll;Depth;Temperature;Pa;Lat;Lon;DeadReckoning;DesiredH;BallastCmd;BallastPos;LinCmd;LinPos;AngCmd;AngPos;Voltage;Altitude;
14/02/2025 13:18:28;119;0;302.48;-4;-58.34;-14.75;0.3;17.50;75851;2837.456;-1758.752;0;138;500;509.7;100.0;100.7;0;-0.5;28.6;-1.0;
14/02/2025 13:18:38;116;0;281.63;-4;-47.85;-20.29;0.4;17.60;75861;2837.460;-1758.757;0;138;500;509.7;100.0;100.7;0;-0.5;28.6;-1.0;
14/02/2025 13:19:04;116;0;250.66;-4;-55.96;-6.41;0.3;17.70;75870;2837.460;-1758.758;0;138;500;509.7;100.0;100.7;0;-0.5;28.6;-1.0;
14/02/2025 13:19:31;116;0;251.77;-4;-52.68;-16.22;0.4;17.80;75892;2837.460;-1758.758;0;138;500;509.7;100.0;100.9;0;-0.5;28.6;-1.0;
14/02/2025 13:19:42;116;0;262.90;-4;-49.04;-11.02;0.5;17.80;75896;2837.460;-1758.758;0;138;500;508.1;100.0;100.7;0;-0.5;28.6;-1.0;
14/02/2025 13:20:02;116;0;252.47;-4;-54.13;-14.12;0.4;17.90;75918;2837.460;-1758.760;0;138;500;509.7;100.0;100.7;0;-0.5;28.6;-1.0;
14/02/2025 13:21:05;116;0;242.97;-4;-50.94;-11.34;0.5;18.10;75935;2837.461;-1758.761;0;138;500;509.7;100.0;100.7;0;-0.5;28.6;-1.0;
14/02/2025 13:21:11;116;0;237.93;-4;-52.58;-9.61;0.5;18.10;75945;2837.461;-1758.761;0;138;500;509.7;100.0;100.7;0;-0.5;28.6;-1.0;
14/02/2025 13:22:14;116;0;253.11;-4;-56.05;-12.62;0.5;18.40;75981;2837.461;-1758.759;0;138;500;509.7;100.0;100.7;0;-0.9;28.6;-1.0;
14/02/2025 13:22:42;116;0;242.36;-4;-51.25;-13.96;0.5;18.50;75995;2837.459;-1758.760;0;138;500;508.1;100.0;100.7;0;-0.5;28.6;-1.0;
14/02/2025 13:23:02;110;0;241.27;-4;-50.91;-13.86;0.0;18.60;75998;2837.459;-1758.760;0;138;-100;398.4;100.0;99.7;-8;-8.1;28.6;-1.0;
14/02/2025 13:23:12;110;0;237.36;-4;-49.39;-6.16;0.3;18.70;76342;2837.460;-1758.761;1;138;-100;248.4;100.0;99.7;-8;-8.6;28.6;-1.0;
14/02/2025 13:23:22;110;0;237.10;-4;-59.91;-15.77;0.7;18.70;76586;2837.460;-1758.762;1;138;-100;90.3;100.0;99.7;-8;-8.6;28.6;-1.0;
14/02/2025 13:23:32;110;0;259.37;-4;-68.31;-17.53;0.9;18.80;76907;2837.460;-1758.762;1;138;-100;-66.1;100.0;99.7;-8;-8.6;28.5;-1.0;
14/02/2025 13:23:42;110;0;270.09;-4;-65.39;-19.99;1.2;18.80;77256;2837.461;-1758.763;1;138;-100;-98.4;44.2;44.2;-8;-8.6;28.5;-1.0;
14/02/2025 13:23:52;110;0;291.90;-4;-56.48;-16.92;2.7;18.90;77264;2837.462;-1758.764;1;138;-100;-101.6;44.2;44.2;-8;-8.6;28.6;-1.0;
14/02/2025 13:24:12;100;0;309.82;-4;-25.17;-15.72;6.8;19.00;77260;2837.465;-1758.769;1;138;-100;-95.2;44.2;43.9;-8;-8.6;28.6;-1.0;
14/02/2025 13:24:32;100;0;320.41;-4;-20.89;-15.98;10.4;19.00;77250;2837.470;-1758.773;1;138;-100;-93.5;44.2;44.3;-70;-69.9;28.6;-1.0;
14/02/2025 13:24:52;100;0;329.52;-4;-19.68;-45.66;13.7;19.00;77242;2837.474;-1758.776;1;138;-100;-93.5;44.2;44.3;-70;-69.9;28.6;0.0;
14/02/2025 13:25:12;100;0;341.81;-4;-19.47;-45.37;16.8;19.10;77254;2837.479;-1758.779;1;138;-100;-91.9;44.2;44.3;-70;-70.4;28.6;0.0;
14/02/2025 13:25:32;100;0;354.12;-4;-19.57;-45.52;19.9;19.10;77257;2837.484;-1758.780;1;139;-100;-93.5;44.2;44.5;-70;-69.9;28.6;0.0;
14/02/2025 13:25:52;100;0;7.98;-4;-19.20;-45.63;23.0;19.20;77280;2837.489;-1758.780;1;139;-100;-90.3;44.2;44.3;-70;-70.4;28.6;0.0;
14/02/2025 13:26:12;100;0;22.12;-4;-19.48;-45.30;26.0;19.20;77273;2837.494;-1758.780;1;139;-100;-90.3;44.2;44.3;-70;-70.4;28.6;0.0;
14/02/2025 13:26:32;100;0;34.87;-4;-19.31;-45.43;29.0;19.20;77274;2837.498;-1758.778;1;140;-100;-91.9;44.2;44.3;-70;-69.9;28.6;0.0;
14/02/2025 13:26:52;100;0;47.58;-4;-19.59;-45.39;32.2;19.30;77281;2837.502;-1758.775;1;140;-100;-91.9;44.2;44.3;-70;-69.9;28.6;0.0;
14/02/2025 13:27:12;100;0;60.38;-4;-19.35;-45.42;35.2;19.30;77283;2837.505;-1758.772;1;140;-100;-91.9;44.2;44.3;-70;-69.9;28.6;0.0;
14/02/2025 13:27:32;100;0;74.01;-4;-19.34;-45.49;38.3;19.30;77279;2837.507;-1758.769;1;141;-100;-91.9;44.2;44.3;-66;-65.4;28.6;0.0;
14/02/2025 13:27:52;100;0;89.47;-4;-19.00;-43.08;41.4;19.30;77282;2837.508;-1758.765;1;141;-100;-91.9;44.2;44.5;-47;-46.5;28.6;0.0;
14/02/2025 13:28:12;100;0;102.72;-4;-19.56;-33.53;44.5;19.30;77273;2837.508;-1758.762;1;141;-100;-91.9;44.2;44.3;-31;-30.7;28.6;0.0;
14/02/2025 13:28:32;100;0;114.53;-4;-19.85;-25.64;47.5;19.30;77286;2837.507;-1758.758;1;142;-100;-91.9;44.2;44.3;-13;-13.1;28.6;0.0;
14/02/2025 13:28:52;100;0;123.62;-4;-20.67;-17.10;50.6;19.30;77288;2837.506;-1758.756;1;142;-100;-91.9;44.2;44.5;2;1.8;28.6;0.0;
14/02/2025 13:29:12;100;0;128.75;-4;-21.75;-10.52;53.9;19.30;77297;2837.505;-1758.753;1;142;-100;-91.9;44.2;44.5;9;9.0;28.6;0.0;
14/02/2025 13:29:32;100;0;131.58;-4;-22.12;-6.93;57.2;19.30;77300;2837.503;-1758.751;1;142;-100;-93.5;43.6;43.6;12;12.6;28.6;0.0;
14/02/2025 13:29:52;100;0;132.13;-4;-20.96;-5.32;60.5;19.30;77295;2837.501;-1758.748;1;142;-100;-91.9;43.6;43.3;12;12.6;28.6;0.0;
14/02/2025 13:30:12;100;0;132.66;-4;-20.63;-5.24;63.7;19.30;77297;2837.500;-1758.746;1;142;-100;-93.5;43.6;43.3;12;12.6;28.6;0.0;
14/02/2025 13:30:32;100;0;133.51;-4;-20.50;-5.38;66.8;19.40;77302;2837.498;-1758.744;1;142;-100;-91.9;43.6;43.4;12;12.6;28.6;0.0;
14/02/2025 13:30:52;100;0;134.57;-4;-20.66;-5.24;70.0;19.40;77311;2837.496;-1758.741;1;142;-100;-93.5;43.6;43.3;14;14.0;28.6;0.0;
14/02/2025 13:31:12;100;0;135.21;-4;-20.24;-4.53;73.1;19.40;77308;2837.494;-1758.739;1;142;-100;-93.5;43.6;43.4;14;14.4;28.6;0.0;
14/02/2025 13:31:32;100;0;135.40;-4;-20.56;-4.55;76.2;19.40;77316;2837.492;-1758.737;1;142;-100;-91.9;43.6;43.3;14;14.4;28.6;0.0;
14/02/2025 13:31:52;100;0;134.54;-4;-20.57;-4.52;79.4;19.40;77327;2837.491;-1758.735;1;142;-100;-91.9;43.6;43.4;14;14.4;28.6;0.0;
14/02/2025 13:32:12;100;0;136.85;-4;-20.44;-4.41;82.5;19.40;77313;2837.489;-1758.732;1;142;-100;-91.9;43.6;43.4;14;14.4;28.6;0.0;
14/02/2025 13:32:32;100;0;137.85;-4;-20.36;-4.53;85.7;19.40;77318;2837.487;-1758.730;1;142;-100;-91.9;43.6;43.3;14;14.4;28.6;0.0;
14/02/2025 13:32:52;100;0;137.86;-4;-20.46;-4.54;88.9;19.40;77327;2837.485;-1758.728;1;142;-100;-91.9;43.6;43.4;14;14.4;28.6;0.0;
14/02/2025 13:33:12;100;0;137.70;-4;-20.30;-4.49;92.1;19.40;77321;2837.483;-1758.726;1;142;-100;-91.9;43.6;43.3;14;14.4;28.6;0.0;
14/02/2025 13:33:32;100;0;138.45;-4;-20.48;-4.55;95.2;19.40;77318;2837.480;-1758.724;1;142;-100;-91.9;43.6;43.3;14;14.4;28.6;0.0;
14/02/2025 13:33:52;100;0;140.04;-4;-20.39;-4.51;98.3;19.40;77321;2837.478;-1758.722;1;142;-100;-91.9;43.6;43.3;14;14.4;28.6;0.0;
14/02/2025 13:34:12;100;0;144.37;-4;-20.92;-4.56;101.6;19.40;77323;2837.476;-1758.720;1;142;-100;-93.5;43.6;43.3;14;14.4;28.6;0.0;
14/02/2025 13:34:32;100;0;141.65;-4;-20.68;-4.46;104.9;19.40;77289;2837.474;-1758.718;1;142;-100;-93.5;43.6;43.3;14;14.4;28.6;0.0;
14/02/2025 13:34:52;100;0;140.74;-4;-19.89;-4.52;108.1;19.40;77281;2837.472;-1758.716;1;142;-100;-93.5;43.6;43.3;14;14.4;28.6;0.0;
14/02/2025 13:35:12;100;0;145.11;-4;-20.31;-4.51;111.2;19.40;77240;2837.469;-1758.714;1;142;-100;-91.9;43.6;43.3;14;14.4;28.6;0.0;
14/02/2025 13:35:32;100;0;141.82;-4;-20.49;-4.59;114.3;19.30;77210;2837.467;-1758.712;1;142;-100;-91.9;43.6;43.4;14;14.4;28.6;0.0;
14/02/2025 13:35:52;100;0;141.51;-4;-20.38;-4.56;117.4;19.30;77208;2837.465;-1758.710;1;142;-100;-93.5;43.6;43.3;14;14.4;28.6;0.0;
14/02/2025 13:36:12;100;0;147.42;-4;-20.23;-4.52;120.7;19.30;77190;2837.462;-1758.709;1;142;-100;-91.9;43.6;43.4;14;14.4;28.6;0.0;
14/02/2025 13:36:32;100;0;149.09;-4;-19.89;-4.53;124.0;19.30;77180;2837.460;-1758.707;1;142;-100;-91.9;43.6;43.3;16;16.2;28.6;0.0;
14/02/2025 13:36:52;100;0;149.46;-4;-19.84;-3.52;127.2;19.30;77175;2837.457;-1758.706;1;142;-100;-95.2;43.6;43.3;16;16.2;28.6;0.0;
14/02/2025 13:37:12;100;0;152.53;-4;-19.72;-3.41;130.5;19.20;77155;2837.454;-1758.704;1;142;-100;-91.9;43.6;43.3;19;19.4;28.6;0.0;
14/02/2025 13:37:32;100;0;152.95;-4;-19.86;-1.74;133.7;19.20;77131;2837.452;-1758.703;1;142;-100;-91.9;43.6;43.3;19;19.9;28.6;0.0;
14/02/2025 13:37:52;100;0;144.84;-4;-19.43;-2.03;136.7;19.20;77116;2837.449;-1758.702;1;142;-100;-93.5;43.6;43.3;15;14.9;28.6;0.0;
14/02/2025 13:38:12;100;0;137.48;-4;-19.04;-4.53;139.5;19.20;77108;2837.448;-1758.700;1;142;-100;-91.9;43.6;43.4;15;14.9;28.6;0.0;
14/02/2025 13:38:32;100;0;134.46;-4;-19.58;-4.31;142.5;19.10;77082;2837.446;-1758.697;1;142;-100;-91.9;43.6;43.3;15;14.9;28.6;0.0;
14/02/2025 13:38:53;100;0;133.02;-4;-19.32;-4.32;145.5;19.10;77086;2837.444;-1758.695;1;142;-100;-91.9;43.6;43.3;13;13.1;28.6;0.0;
14/02/2025 13:39:13;100;0;128.07;-4;-18.89;-5.67;148.6;19.10;77069;2837.443;-1758.692;1;142;-100;-91.9;43.9;44.3;8;8.1;28.6;0.0;
14/02/2025 13:39:33;100;0;122.76;-4;-19.26;-7.92;151.5;19.00;77050;2837.441;-1758.690;1;142;-100;-91.9;43.9;44.3;1;0.5;28.6;0.0;
14/02/2025 13:39:53;100;0;128.95;-4;-20.87;-11.67;154.5;19.00;77045;2837.440;-1758.687;1;142;-100;-93.5;43.9;44.3;9;9.5;28.6;0.0;
14/02/2025 13:40:13;100;0;123.29;-4;-19.31;-6.79;157.8;19.00;77043;2837.439;-1758.684;1;143;-100;-91.9;43.9;44.3;0;0.0;28.6;0.0;
14/02/2025 13:40:33;100;0;126.51;-4;-20.65;-12.01;160.7;18.90;77023;2837.437;-1758.681;1;143;-100;-91.9;43.9;44.3;5;5.0;28.6;0.0;
14/02/2025 13:40:53;100;0;130.41;-4;-20.17;-9.01;164.0;18.90;77007;2837.436;-1758.679;1;143;-100;-91.9;43.9;44.3;10;9.9;28.6;0.0;
14/02/2025 13:41:13;100;0;132.46;-4;-20.80;-6.58;167.1;18.90;77004;2837.434;-1758.676;1;143;-100;-93.5;43.9;44.5;10;10.4;28.6;0.0;
14/02/2025 13:41:33;100;0;137.14;-4;-20.62;-6.36;170.5;18.80;76990;2837.432;-1758.674;1;143;-100;-91.9;43.9;44.3;14;14.0;28.6;0.0;
14/02/2025 13:41:53;100;0;135.24;-4;-21.21;-4.44;173.9;18.80;76991;2837.430;-1758.672;1;143;-100;-91.9;43.9;44.3;14;14.4;28.6;0.0;
14/02/2025 13:42:13;100;0;136.01;-4;-21.70;-4.38;177.2;18.80;76976;2837.428;-1758.670;1;143;-100;-91.9;43.9;44.3;14;14.4;28.6;0.0;
14/02/2025 13:42:33;100;0;138.80;-4;-21.26;-4.35;180.6;18.70;76969;2837.426;-1758.667;1;143;-100;-93.5;43.9;44.3;14;14.4;28.6;0.0;
14/02/2025 13:42:53;100;0;138.99;-4;-21.16;-4.39;183.8;18.70;76961;2837.424;-1758.665;1;143;-100;-93.5;43.9;44.3;14;14.4;28.6;0.0;
14/02/2025 13:43:13;100;0;137.09;-4;-20.78;-4.46;187.0;18.70;76949;2837.422;-1758.663;1;143;-100;-91.9;43.9;44.5;14;14.4;28.6;0.0;
14/02/2025 13:43:33;100;0;133.97;-4;-20.76;-4.44;190.0;18.60;76923;2837.420;-1758.661;1;143;-100;-93.5;43.9;44.3;12;11.7;28.6;0.0;
14/02/2025 13:43:53;100;0;136.71;-4;-20.72;-6.06;193.0;18.60;76907;2837.419;-1758.659;1;143;-100;-91.9;43.9;44.3;14;14.0;28.6;0.0;
14/02/2025 13:44:13;100;0;138.61;-4;-20.44;-4.56;196.0;18.50;76892;2837.417;-1758.657;1;143;-100;-91.9;43.9;44.3;14;14.4;28.6;0.0;
14/02/2025 13:44:33;100;0;138.61;-4;-20.45;-4.51;198.8;18.50;76888;2837.415;-1758.655;1;143;-100;-91.9;43.9;44.3;14;14.4;28.6;0.0;
14/02/2025 13:44:53;100;0;137.31;-4;-20.28;-4.70;201.6;18.50;76872;2837.413;-1758.653;1;143;-100;-91.9;43.9;44.3;14;14.4;28.6;0.0;
14/02/2025 13:45:13;100;0;137.41;-4;-20.52;-4.58;204.5;18.40;76860;2837.412;-1758.652;1;144;-100;-91.9;43.9;44.3;14;14.4;28.6;0.0;
14/02/2025 13:45:33;100;0;136.78;-4;-19.88;-4.46;207.4;18.40;76861;2837.410;-1758.650;1;144;-100;-91.9;43.9;44.3;14;14.4;28.6;0.0;
14/02/2025 13:45:53;100;0;139.47;-4;-20.71;-4.53;210.2;18.30;76844;2837.408;-1758.648;1;144;-100;-93.5;43.9;44.3;14;14.4;28.6;0.0;
14/02/2025 13:46:13;100;0;138.56;-4;-20.85;-4.59;213.2;18.30;76838;2837.406;-1758.646;1;144;-100;-91.9;43.9;44.3;14;14.4;28.6;0.0;
14/02/2025 13:46:33;100;0;138.74;-4;-20.82;-4.51;216.2;18.30;76833;2837.404;-1758.644;1;144;-100;-91.9;43.9;44.3;14;14.4;28.6;0.0;
14/02/2025 13:46:53;100;0;140.51;-4;-20.92;-4.62;219.2;18.20;76824;2837.403;-1758.642;1;144;-100;-93.5;43.9;44.3;14;14.4;28.6;0.0;
14/02/2025 13:47:13;100;0;141.44;-4;-20.74;-4.58;222.2;18.20;76823;2837.401;-1758.641;1;144;-100;-91.9;43.9;44.3;14;14.4;28.6;0.0;
14/02/2025 13:47:33;100;0;142.33;-4;-20.36;-4.62;225.0;18.10;76803;2837.399;-1758.639;1;144;-100;-93.5;43.9;44.3;14;14.4;28.6;0.0;
14/02/2025 13:47:53;100;0;140.88;-4;-20.53;-4.61;227.9;18.10;76795;2837.397;-1758.637;1;144;-100;-93.5;43.9;44.3;14;14.4;28.6;0.0;
14/02/2025 13:48:13;100;0;143.17;-4;-20.53;-4.56;230.7;18.00;76775;2837.395;-1758.636;1;144;-100;-91.9;43.9;44.3;14;14.4;28.6;0.0;
14/02/2025 13:48:33;100;0;143.04;-4;-20.59;-4.65;233.7;18.00;76760;2837.393;-1758.634;1;144;-100;-90.3;43.9;44.3;14;14.4;28.6;0.0;
14/02/2025 13:48:53;100;0;144.66;-4;-20.96;-4.50;236.6;18.00;76739;2837.391;-1758.633;1;144;-100;-91.9;43.9;44.3;14;14.4;28.6;0.0;
14/02/2025 13:49:13;100;0;147.59;-4;-20.69;-4.57;239.6;17.90;76732;2837.389;-1758.632;1;144;-100;-91.9;43.9;44.3;14;14.4;28.6;0.0;
14/02/2025 13:49:33;100;0;149.98;-4;-20.75;-4.58;242.6;17.90;76729;2837.387;-1758.630;1;144;-100;-91.9;43.9;44.3;14;14.4;28.6;0.0;
14/02/2025 13:49:53;100;0;150.85;-4;-20.88;-4.50;245.5;17.80;76723;2837.385;-1758.629;1;143;-100;-93.5;43.9;44.3;16;15.8;28.6;0.0;
14/02/2025 13:50:13;100;0;156.47;-4;-20.76;-3.71;248.5;17.80;76708;2837.382;-1758.629;1;143;-100;-93.5;43.9;44.3;22;22.6;28.6;0.0;
14/02/2025 13:50:33;100;0;154.36;-4;-21.02;-0.36;251.5;17.80;76703;2837.380;-1758.628;1;143;-100;-93.5;43.9;44.3;19;19.0;28.6;0.0;
14/02/2025 13:50:53;100;0;152.66;-4;-20.91;-2.23;254.6;17.70;76687;2837.377;-1758.627;1;143;-100;-93.5;43.9;44.3;19;19.0;28.6;0.0;
14/02/2025 13:51:13;100;0;154.43;-4;-20.93;-2.21;257.7;17.60;76663;2837.375;-1758.626;1;143;-100;-91.9;43.9;44.3;19;19.0;28.6;0.0;
14/02/2025 13:51:33;100;0;152.78;-4;-20.53;-2.26;260.5;17.60;76657;2837.373;-1758.625;1;143;-100;-91.9;43.9;44.3;19;19.0;28.6;0.0;
14/02/2025 13:51:53;100;0;150.15;-4;-20.48;-2.27;263.6;17.60;76640;2837.370;-1758.623;1;143;-100;-93.5;43.9;44.5;16;15.8;28.6;0.0;
14/02/2025 13:52:13;100;0;148.79;-4;-20.54;-4.09;266.6;17.50;76628;2837.368;-1758.622;1;143;-100;-91.9;43.9;44.3;16;15.8;28.6;0.0;
14/02/2025 13:52:33;100;0;147.13;-4;-20.64;-4.06;269.8;17.50;76627;2837.366;-1758.621;1;143;-100;-93.5;43.9;44.3;16;15.3;28.6;0.0;
14/02/2025 13:52:53;100;0;144.32;-4;-20.34;-4.04;272.8;17.40;76611;2837.364;-1758.619;1;143;-100;-91.9;43.9;44.3;14;14.0;28.6;0.0;
14/02/2025 13:53:13;100;0;142.91;-4;-20.26;-4.94;275.9;17.40;76599;2837.361;-1758.617;1;143;-100;-91.9;43.9;44.3;14;13.5;28.6;0.0;
14/02/2025 13:53:33;100;0;141.58;-4;-20.44;-4.94;279.0;17.30;76595;2837.359;-1758.615;1;143;-100;-93.5;43.9;44.3;14;13.5;28.6;0.0;
14/02/2025 13:53:53;100;0;138.18;-4;-20.42;-5.04;282.1;17.30;76602;2837.357;-1758.613;1;143;-100;-93.5;43.9;44.5;14;13.5;28.6;0.0;
14/02/2025 13:54:13;100;0;133.12;-4;-20.52;-5.01;285.5;17.20;76587;2837.355;-1758.611;1;143;-100;-91.9;43.9;44.5;12;12.2;28.6;0.0;
14/02/2025 13:54:33;100;0;130.78;-4;-20.16;-5.82;288.6;17.20;76575;2837.354;-1758.608;1;143;-100;-93.5;43.9;44.3;10;9.9;28.6;0.0;
14/02/2025 13:54:53;100;0;134.47;-4;-20.06;-6.42;291.8;17.10;76556;2837.352;-1758.606;1;143;-100;-91.9;43.9;44.3;13;13.1;28.6;0.0;
14/02/2025 13:55:13;100;0;143.10;-4;-19.97;-5.20;295.0;17.10;76538;2837.349;-1758.604;1;143;-100;-91.9;43.9;44.3;13;13.1;28.6;0.0;
14/02/2025 13:55:33;100;0;143.12;-4;-20.11;-5.64;298.0;17.10;76529;2837.347;-1758.602;1;143;-100;-91.9;43.9;44.3;13;13.1;28.6;0.0;
14/02/2025 13:55:53;100;0;148.28;-4;-20.56;-5.30;301.0;17.00;76517;2837.345;-1758.601;1;143;-100;-91.9;43.9;44.3;15;14.9;28.6;0.0;
14/02/2025 13:56:13;100;0;151.84;-4;-20.61;-4.15;304.0;17.00;76498;2837.343;-1758.600;1;143;-100;-91.9;43.9;44.3;17;17.1;28.6;0.0;
14/02/2025 13:56:33;100;0;153.03;-4;-20.41;-3.14;307.0;16.90;76498;2837.340;-1758.599;1;143;-100;-93.5;43.9;44.3;17;17.1;28.6;0.0;
14/02/2025 13:56:53;100;0;152.16;-4;-20.31;-3.01;310.0;16.90;76489;2837.338;-1758.597;1;143;-100;-93.5;43.9;44.5;17;17.6;28.6;0.0;
14/02/2025 13:57:13;100;0;146.56;-4;-20.20;-3.18;312.9;16.80;76478;2837.336;-1758.596;1;142;-100;-91.9;43.9;44.3;15;14.9;28.6;0.0;
14/02/2025 13:57:33;100;0;143.66;-4;-20.41;-4.65;315.8;16.80;76463;2837.334;-1758.594;1;142;-100;-91.9;43.9;44.3;15;14.4;28.6;0.0;
14/02/2025 13:57:53;100;0;140.42;-4;-20.20;-4.71;318.8;16.70;76461;2837.332;-1758.593;1;142;-100;-91.9;43.9;44.3;15;14.4;28.6;0.0;
14/02/2025 13:58:13;100;0;135.49;-4;-19.93;-5.04;321.9;16.70;76435;2837.330;-1758.590;1;143;-100;-91.9;43.9;44.3;13;13.1;28.6;0.0;
14/02/2025 13:58:33;100;0;132.67;-4;-19.86;-5.21;324.8;16.60;76447;2837.328;-1758.588;1;143;-100;-91.9;43.9;44.3;13;13.1;28.6;0.0;
14/02/2025 13:58:53;100;0;129.90;-4;-20.09;-5.24;327.7;16.60;76437;2837.327;-1758.586;1;143;-100;-91.9;43.9;44.3;9;7.7;28.6;0.0;
14/02/2025 13:59:13;100;0;129.18;-4;-20.08;-7.42;330.5;16.60;76429;2837.326;-1758.584;1;143;-100;-91.9;43.9;44.3;9;8.6;28.6;0.0;
14/02/2025 13:59:33;100;0;127.08;-4;-19.79;-7.44;333.4;16.50;76416;2837.324;-1758.581;1;143;-100;-91.9;43.9;44.3;5;4.5;28.6;0.0;
14/02/2025 13:59:53;100;0;129.22;-4;-19.86;-9.37;336.3;16.50;76415;2837.323;-1758.579;1;143;-100;-91.9;43.9;44.5;8;8.1;28.6;0.0;
14/02/2025 14:00:13;100;0;135.54;-4;-20.27;-7.56;339.1;16.40;76398;2837.321;-1758.577;1;143;-100;-93.5;43.9;44.3;13;13.1;28.6;0.0;
14/02/2025 14:00:33;100;0;139.84;-4;-20.25;-5.14;341.8;16.40;76386;2837.320;-1758.575;1;143;-100;-91.9;43.9;44.3;13;13.1;28.6;0.0;
14/02/2025 14:00:53;100;0;145.22;-4;-19.99;-4.99;344.7;16.30;76375;2837.318;-1758.574;1;143;-100;-91.9;43.9;44.3;13;13.5;28.6;0.0;
14/02/2025 14:01:13;100;0;151.36;-4;-18.78;-5.22;347.6;16.30;76368;2837.315;-1758.573;1;143;-100;-91.9;44.3;44.2;17;17.1;28.6;0.0;
14/02/2025 14:01:33;100;0;149.18;-4;-20.64;-3.48;350.2;16.30;76365;2837.313;-1758.572;1;143;-100;-95.2;44.3;44.2;15;14.9;28.6;0.0;
14/02/2025 14:01:53;100;0;152.45;-4;-19.94;-4.78;353.0;16.20;76353;2837.311;-1758.571;1;143;-100;-93.5;44.3;44.2;18;18.5;28.6;0.0;
14/02/2025 14:02:13;100;0;151.21;-4;-20.35;-2.43;355.8;16.20;76344;2837.309;-1758.570;1;143;-100;-93.5;44.3;44.2;18;19.0;28.6;0.0;
14/02/2025 14:02:33;100;0;152.03;-4;-19.97;-2.36;358.6;16.10;76354;2837.307;-1758.569;1;143;-100;-93.5;44.3;44.2;18;19.0;28.6;0.0;
14/02/2025 14:02:53;100;0;152.65;-4;-20.21;-2.38;361.3;16.10;76334;2837.305;-1758.568;1;143;-100;-91.9;44.3;44.2;18;19.0;28.6;0.0;
14/02/2025 14:03:13;100;0;149.91;-4;-20.12;-2.37;364.0;16.10;76333;2837.303;-1758.567;1;143;-100;-93.5;44.3;44.2;16;15.3;28.6;0.0;
14/02/2025 14:03:33;100;0;149.80;-4;-20.00;-4.29;366.6;16.00;76310;2837.301;-1758.566;1;142;-100;-91.9;44.3;44.2;16;15.3;28.6;0.0;
14/02/2025 14:03:53;100;0;150.87;-4;-20.00;-4.33;369.4;16.00;76305;2837.298;-1758.565;1;142;-100;-91.9;44.3;44.2;16;15.3;28.6;0.0;
14/02/2025 14:04:13;100;0;150.48;-4;-19.85;-4.20;372.0;15.90;76293;2837.296;-1758.564;1;142;-100;-93.5;44.3;44.2;16;15.3;28.6;0.0;
14/02/2025 14:04:33;100;0;148.65;-4;-19.76;-4.20;374.8;15.90;76293;2837.294;-1758.562;1;142;-100;-93.5;44.3;44.2;16;15.3;28.6;0.0;
14/02/2025 14:04:53;100;0;144.77;-4;-19.56;-4.26;377.4;15.80;76276;2837.293;-1758.561;1;142;-100;-93.5;44.3;44.2;16;15.3;28.6;0.0;
14/02/2025 14:05:13;100;0;144.51;-4;-19.65;-4.22;379.9;15.80;76272;2837.291;-1758.560;1;142;-100;-91.9;44.3;44.2;16;15.3;28.6;0.0;
14/02/2025 14:05:33;100;0;142.02;-4;-19.91;-4.23;382.5;15.80;76257;2837.289;-1758.558;1;142;-100;-91.9;44.3;44.2;14;13.5;28.6;0.0;
14/02/2025 14:05:53;100;0;141.83;-4;-19.80;-5.07;385.1;15.70;76241;2837.288;-1758.557;1;142;-100;-91.9;44.3;44.2;14;13.5;28.6;0.0;
14/02/2025 14:06:13;100;0;139.41;-4;-19.90;-5.09;387.7;15.70;76235;2837.286;-1758.555;1;142;-100;-91.9;44.3;44.2;14;13.5;28.6;0.0;
14/02/2025 14:06:33;100;0;137.16;-4;-19.95;-5.02;390.3;15.60;76237;2837.285;-1758.554;1;142;-100;-91.9;44.3;44.2;14;13.5;28.6;0.0;
14/02/2025 14:06:53;100;0;133.16;-4;-19.88;-5.05;392.9;15.60;76224;2837.283;-1758.552;1;142;-100;-91.9;44.3;44.2;14;13.5;28.6;0.0;
14/02/2025 14:07:13;100;0;128.81;-4;-20.15;-5.18;395.6;15.60;76221;2837.282;-1758.550;1;142;-100;-93.5;44.3;44.2;9;9.0;28.6;0.0;
14/02/2025 14:07:33;100;0;129.13;-4;-19.94;-7.80;398.2;15.50;76201;2837.281;-1758.548;1;143;-100;-93.5;44.3;44.2;9;8.6;28.6;0.0;
14/02/2025 14:07:53;100;0;130.45;-4;-19.18;-7.99;401.0;15.50;76196;2837.279;-1758.545;1;143;-100;-91.9;44.3;44.2;9;8.6;28.6;0.0;
14/02/2025 14:08:13;100;0;133.69;-4;-19.35;-7.82;403.7;15.40;76207;2837.278;-1758.543;1;143;-100;-93.5;44.3;44.2;12;12.6;28.6;0.0;
14/02/2025 14:08:33;100;0;135.06;-4;-19.25;-5.44;406.3;15.40;76195;2837.276;-1758.542;1;143;-100;-91.9;44.3;44.2;12;12.6;28.6;0.0;
14/02/2025 14:08:53;100;0;131.14;-4;-19.52;-5.42;408.8;15.40;76193;2837.275;-1758.540;1;143;-100;-91.9;44.3;44.2;10;9.5;28.6;0.0;
14/02/2025 14:09:13;100;0;132.68;-4;-19.14;-7.24;411.4;15.30;76186;2837.274;-1758.538;1;143;-100;-91.9;44.3;44.2;12;12.2;28.6;0.0;
14/02/2025 14:09:33;100;0;130.15;-4;-17.53;-5.68;413.6;15.30;76175;2837.273;-1758.536;1;143;-100;-91.9;45.0;45.4;9;8.6;28.6;0.0;
14/02/2025 14:09:53;100;0;127.59;-4;-22.27;-7.65;415.6;15.30;76157;2837.272;-1758.535;1;143;-100;-91.9;44.3;44.3;7;7.7;28.6;0.0;
14/02/2025 14:10:13;100;0;130.46;-4;-20.00;-8.23;418.4;15.20;76164;2837.271;-1758.533;1;144;-100;-91.9;44.3;44.2;7;7.7;28.6;0.0;
14/02/2025 14:10:33;100;0;136.17;-4;-20.09;-8.03;421.3;15.20;76152;2837.269;-1758.531;1;144;-100;-91.9;44.3;44.0;13;13.1;28.6;0.0;
14/02/2025 14:10:53;100;0;140.41;-4;-20.04;-5.02;424.0;15.20;76151;2837.268;-1758.529;1;144;-100;-91.9;44.3;44.2;13;13.5;28.6;0.0;
14/02/2025 14:11:13;100;0;141.75;-4;-19.85;-5.16;426.9;15.10;76139;2837.266;-1758.527;1;144;-100;-91.9;44.3;44.2;13;13.5;28.6;0.0;
14/02/2025 14:11:33;100;0;142.77;-4;-20.03;-5.18;429.7;15.10;76127;2837.264;-1758.526;1;144;-100;-93.5;44.3;44.2;13;13.5;28.6;0.0;
14/02/2025 14:11:53;100;0;141.35;-4;-19.77;-5.05;432.6;15.10;76123;2837.262;-1758.524;1;144;-100;-91.9;44.3;44.2;13;13.5;28.6;0.0;
14/02/2025 14:12:13;100;0;136.98;-4;-20.30;-5.24;435.4;15.00;76117;2837.260;-1758.522;1;144;-100;-90.3;44.3;44.2;13;13.5;28.6;0.0;
14/02/2025 14:12:33;100;0;136.24;-4;-19.95;-5.16;438.3;15.00;76107;2837.259;-1758.520;1;144;-100;-91.9;44.3;44.2;13;13.5;28.6;0.0;
14/02/2025 14:12:53;100;0;134.48;-4;-19.58;-5.16;441.3;15.00;76099;2837.257;-1758.518;1;144;-100;-91.9;44.3;44.0;13;13.5;28.6;0.0;
14/02/2025 14:13:13;100;0;134.73;-4;-19.84;-5.22;444.2;14.90;76096;2837.255;-1758.516;1;144;-100;-93.5;44.3;44.0;13;13.5;28.6;0.0;
14/02/2025 14:13:33;100;0;137.30;-4;-19.84;-4.62;447.1;14.90;76086;2837.253;-1758.514;1;144;-100;-91.9;44.3;44.0;13;13.1;28.6;0.0;
14/02/2025 14:13:54;100;0;135.99;-4;-19.48;-4.73;450.0;14.90;76082;2837.252;-1758.512;1;144;-100;-91.9;44.3;44.2;13;13.5;28.6;0.0;
14/02/2025 14:14:14;100;0;135.85;-4;-20.41;-5.21;453.0;14.80;76082;2837.250;-1758.510;1;145;-100;-91.9;44.3;44.2;13;13.1;28.6;0.0;
14/02/2025 14:14:34;100;0;141.89;-4;-19.38;-5.16;456.2;14.80;76077;2837.247;-1758.508;1;145;-100;-91.9;44.3;44.2;13;13.5;28.6;0.0;
14/02/2025 14:14:54;100;0;139.85;-4;-19.69;-5.49;459.3;14.80;76062;2837.245;-1758.506;1;145;-100;-91.9;44.3;44.2;13;13.5;28.6;0.0;
14/02/2025 14:15:14;100;0;145.46;-4;-19.96;-5.17;462.7;14.70;76052;2837.243;-1758.504;1;145;-100;-91.9;44.3;44.2;13;13.5;28.6;0.0;
14/02/2025 14:15:34;100;0;144.41;-4;-20.33;-5.13;465.8;14.70;76041;2837.240;-1758.502;1;145;-100;-93.5;44.3;44.2;13;13.5;28.6;0.0;
14/02/2025 14:15:54;100;0;144.12;-4;-19.63;-5.23;468.9;14.60;76031;2837.238;-1758.500;1;145;-100;-93.5;44.3;44.2;13;13.5;28.6;0.0;
14/02/2025 14:16:14;100;0;144.33;-4;-19.51;-5.17;472.1;14.60;76024;2837.236;-1758.498;1;145;-100;-93.5;44.3;44.2;13;13.5;28.6;0.0;
14/02/2025 14:16:34;100;0;143.31;-4;-19.27;-5.24;475.2;14.60;76011;2837.233;-1758.497;1;144;-100;-91.9;44.3;44.2;13;13.5;28.6;0.0;
14/02/2025 14:16:54;100;0;140.54;-4;-19.27;-5.08;478.4;14.50;75993;2837.231;-1758.494;1;145;-100;-91.9;44.3;44.0;13;13.5;28.6;0.0;
14/02/2025 14:17:14;100;0;139.25;-4;-19.27;-5.14;481.4;14.50;75992;2837.229;-1758.492;1;145;-100;-91.9;44.3;44.2;13;13.5;28.6;0.0;
14/02/2025 14:17:34;100;0;139.85;-4;-18.97;-5.22;484.4;14.50;75986;2837.227;-1758.490;1;145;-100;-93.5;44.6;44.6;13;13.1;28.6;0.0;
14/02/2025 14:17:54;100;0;141.54;-4;-20.25;-5.11;487.4;14.40;75985;2837.225;-1758.489;1;145;-100;-93.5;44.6;44.9;13;13.1;28.6;0.0;
14/02/2025 14:18:14;100;0;140.12;-4;-20.04;-5.09;490.3;14.40;75970;2837.223;-1758.487;1;145;-100;-91.9;44.6;44.9;13;13.5;28.6;0.0;
14/02/2025 14:18:34;100;0;138.83;-4;-19.84;-5.10;493.4;14.40;75974;2837.221;-1758.485;1;145;-100;-91.9;44.6;44.9;13;13.5;28.6;0.0;
14/02/2025 14:18:54;100;0;138.95;-4;-20.58;-5.04;496.2;14.30;75964;2837.219;-1758.483;1;145;-100;-91.9;44.6;44.9;13;13.5;28.6;0.0;
14/02/2025 14:19:14;100;0;137.82;-4;-18.26;-5.25;499.1;14.30;75962;2837.217;-1758.481;1;145;-100;-93.5;45.1;45.4;13;13.5;28.6;0.0;
14/02/2025 14:19:34;100;0;132.47;-4;-21.41;-5.18;502.0;14.30;75954;2837.216;-1758.479;1;145;-100;-91.9;45.1;45.5;10;9.5;28.6;0.0;
14/02/2025 14:19:54;100;0;131.94;-4;-21.28;-7.20;505.1;14.20;75952;2837.214;-1758.476;1;146;-100;-91.9;45.1;45.7;8;8.1;28.6;0.0;
14/02/2025 14:20:14;100;0;131.65;-4;-20.03;-8.21;508.3;14.20;75943;2837.213;-1758.474;1;146;-100;-93.5;45.1;45.7;8;7.7;28.6;0.0;
14/02/2025 14:20:34;100;0;136.06;-4;-21.68;-7.89;511.4;14.20;75933;2837.211;-1758.472;1;146;-100;-91.9;45.1;45.5;12;12.2;28.6;0.0;
14/02/2025 14:20:54;100;0;141.57;-4;-21.22;-5.63;514.5;14.20;75934;2837.209;-1758.470;1;146;-100;-91.9;45.1;45.7;12;12.6;28.6;0.0;
14/02/2025 14:21:14;100;0;147.52;-4;-21.82;-5.46;517.5;14.10;75928;2837.207;-1758.469;1;146;-100;-91.9;45.1;45.5;14;14.0;28.6;0.0;
14/02/2025 14:21:34;100;0;147.41;-4;-22.40;-4.50;520.3;14.10;75918;2837.205;-1758.468;1;146;-100;-93.5;44.4;44.3;14;14.4;28.6;0.0;
14/02/2025 14:21:54;100;0;145.99;-4;-20.25;-4.54;523.2;14.00;75906;2837.203;-1758.466;1;146;-100;-91.9;44.4;44.2;14;14.4;28.6;0.0;
14/02/2025 14:22:14;100;0;143.54;-4;-19.81;-4.60;525.8;14.00;75901;2837.201;-1758.465;1;146;-100;-91.9;44.4;44.2;14;14.4;28.6;0.0;
14/02/2025 14:22:34;100;0;141.29;-4;-19.59;-4.58;528.5;14.00;75892;2837.199;-1758.463;1;146;-100;-91.9;44.4;44.0;14;14.4;28.6;0.0;
14/02/2025 14:22:54;100;0;138.67;-4;-19.35;-4.54;531.1;13.90;75887;2837.198;-1758.462;1;146;-100;-93.5;44.4;44.2;14;14.4;28.6;0.0;
14/02/2025 14:23:14;100;0;136.13;-4;-19.18;-4.58;533.7;13.90;75885;2837.196;-1758.460;1;146;-100;-93.5;44.4;44.2;12;12.2;28.6;0.0;
14/02/2025 14:23:34;100;0;138.69;-4;-18.95;-6.01;536.2;13.90;75880;2837.195;-1758.458;1;146;-100;-93.5;44.7;44.8;12;11.7;28.6;0.0;
14/02/2025 14:23:54;100;0;141.14;-4;-19.97;-6.11;538.8;13.90;75871;2837.193;-1758.457;1;146;-100;-91.9;44.7;45.1;12;11.7;28.6;0.0;
14/02/2025 14:24:14;100;0;144.08;-4;-20.48;-6.04;541.4;13.80;75870;2837.191;-1758.456;1;146;-100;-91.9;44.7;45.1;12;11.7;28.6;0.0;
14/02/2025 14:24:34;100;0;144.80;-4;-20.55;-6.13;543.9;13.80;75874;2837.190;-1758.454;1;146;-100;-91.9;44.7;45.1;12;11.7;28.6;0.0;
14/02/2025 14:24:54;100;0;145.20;-4;-20.12;-6.00;546.5;13.80;75862;2837.188;-1758.453;1;146;-100;-93.5;44.7;45.1;12;11.7;28.6;0.0;
14/02/2025 14:25:14;100;0;145.91;-4;-20.26;-6.03;549.0;13.70;75872;2837.186;-1758.452;1;146;-100;-91.9;44.7;45.1;12;11.7;28.6;0.0;
14/02/2025 14:25:34;100;0;146.35;-4;-20.55;-6.00;551.6;13.70;75856;2837.185;-1758.451;1;146;-100;-91.9;44.7;45.1;14;14.0;28.6;0.0;
14/02/2025 14:25:54;100;0;146.38;-4;-21.23;-4.73;554.2;13.70;75849;2837.183;-1758.450;1;146;-100;-91.9;44.7;45.1;14;14.4;28.6;0.0;
14/02/2025 14:26:14;100;0;144.75;-4;-20.43;-4.58;556.9;13.60;75832;2837.181;-1758.449;1;146;-100;-91.9;44.7;45.1;14;14.4;28.6;0.0;
14/02/2025 14:26:34;100;0;143.49;-4;-20.76;-4.61;559.5;13.60;75835;2837.179;-1758.447;1;146;-100;-93.5;44.7;45.2;14;14.4;28.6;0.0;
14/02/2025 14:26:54;100;0;145.11;-4;-20.85;-4.63;562.1;13.60;75834;2837.178;-1758.446;1;146;-100;-91.9;44.7;45.1;14;14.4;28.6;0.0;
14/02/2025 14:27:14;100;0;143.41;-4;-20.67;-4.75;564.7;13.60;75834;2837.176;-1758.445;1;146;-100;-91.9;44.7;45.1;14;14.4;28.6;0.0;
14/02/2025 14:27:34;100;0;145.09;-4;-20.78;-4.83;567.2;13.60;75828;2837.175;-1758.444;1;146;-100;-91.9;44.7;45.1;14;14.4;28.6;0.0;
14/02/2025 14:27:54;100;0;145.83;-4;-20.64;-4.74;569.6;13.50;75817;2837.173;-1758.443;1;146;-100;-95.2;44.7;45.1;14;14.4;28.6;0.0;
14/02/2025 14:28:14;100;0;145.73;-4;-20.58;-4.61;572.1;13.50;75817;2837.171;-1758.442;1;146;-100;-91.9;44.7;45.1;14;14.4;28.6;0.0;
14/02/2025 14:28:34;100;0;146.38;-4;-20.74;-4.70;574.5;13.50;75815;2837.170;-1758.441;1;146;-100;-91.9;44.7;45.2;14;14.4;28.6;0.0;
14/02/2025 14:28:54;100;0;146.58;-4;-20.64;-4.75;576.8;13.50;75818;2837.168;-1758.440;1;146;-100;-93.5;44.7;45.1;14;14.4;28.6;0.0;
14/02/2025 14:29:14;100;0;145.79;-4;-20.52;-4.65;579.1;13.40;75809;2837.167;-1758.439;1;146;-100;-91.9;44.7;45.1;14;14.4;28.6;0.0;
14/02/2025 14:29:34;100;0;145.47;-4;-20.68;-4.61;581.2;13.40;75813;2837.166;-1758.438;1;146;-100;-91.9;44.7;45.1;14;14.4;28.6;0.0;
14/02/2025 14:29:54;100;0;145.30;-4;-20.49;-4.65;583.3;13.40;75803;2837.165;-1758.437;1;146;-100;-91.9;44.7;45.1;14;14.4;28.6;0.0;
14/02/2025 14:30:14;100;0;146.32;-4;-20.28;-4.82;585.1;13.40;75809;2837.164;-1758.437;1;146;-120;-119.4;44.7;45.1;14;14.4;28.6;0.0;
14/02/2025 14:30:34;100;0;147.36;-4;-19.72;-4.52;587.1;13.30;75865;2837.163;-1758.436;1;146;-140;-140.3;44.7;45.1;14;14.4;28.6;0.0;
14/02/2025 14:30:54;100;0;149.21;-4;-20.16;-4.47;589.0;13.30;75915;2837.161;-1758.436;1;145;-160;-159.7;44.7;45.1;14;14.4;28.6;0.0;
14/02/2025 14:31:14;100;0;150.64;-4;-20.95;-4.34;591.4;13.30;75959;2837.160;-1758.435;1;145;-160;-166.1;44.7;45.1;14;14.4;28.6;0.0;
14/02/2025 14:31:34;100;0;146.20;-4;-19.92;-4.33;593.8;13.30;75952;2837.158;-1758.434;1;145;-160;-167.7;44.7;45.1;14;14.4;28.6;0.0;
14/02/2025 14:31:54;100;0;146.42;-4;-19.74;-4.07;596.3;13.30;75941;2837.156;-1758.433;1;145;-160;-169.4;44.7;45.1;14;14.4;28.6;0.0;
14/02/2025 14:32:14;100;0;140.93;-4;-18.79;-5.15;598.7;13.20;75933;2837.155;-1758.431;1;145;-160;-169.4;45.1;45.1;14;14.4;28.6;0.0;
14/02/2025 14:32:34;100;0;142.13;-4;-22.68;-3.97;601.8;13.20;75929;2837.153;-1758.430;1;145;-160;-171.0;44.3;44.2;14;14.4;28.6;0.0;
14/02/2025 14:32:54;100;0;136.75;-4;-19.39;-4.50;604.9;13.20;75932;2837.151;-1758.428;1;145;-160;-171.0;44.3;44.0;14;14.4;28.6;0.0;
14/02/2025 14:33:14;100;0;136.91;-4;-17.45;-4.08;608.1;13.10;75922;2837.149;-1758.425;1;146;-160;-171.0;45.1;45.2;12;12.2;28.6;0.0;
14/02/2025 14:33:34;100;0;134.26;-4;-18.52;-5.70;611.2;13.10;75912;2837.147;-1758.423;1;146;-160;-171.0;45.5;45.5;12;12.2;28.6;0.0;
14/02/2025 14:33:54;100;0;134.60;-4;-19.37;-5.53;613.6;13.10;75909;2837.146;-1758.421;1;147;-160;-171.0;45.5;45.4;12;12.2;28.6;0.0;
14/02/2025 14:34:14;100;0;134.23;-4;-21.65;-5.43;616.2;13.10;75904;2837.144;-1758.419;1;147;-160;-171.0;45.5;45.4;12;12.2;28.6;0.0;
14/02/2025 14:34:34;100;0;134.23;-4;-21.40;-5.39;619.1;13.00;75899;2837.143;-1758.417;1;147;-160;-171.0;45.5;45.4;10;9.5;28.6;0.0;
14/02/2025 14:34:54;100;0;132.92;-4;-21.48;-7.09;622.5;13.00;75889;2837.141;-1758.415;1;148;-160;-172.6;45.5;45.5;7;7.2;28.6;0.0;
14/02/2025 14:35:14;100;0;137.78;-4;-20.00;-8.82;625.9;13.00;75894;2837.139;-1758.412;1;148;-160;-171.0;45.5;45.4;12;12.6;28.6;0.0;
14/02/2025 14:35:34;100;0;143.90;-4;-20.95;-3.04;629.1;13.00;75895;2837.136;-1758.411;1;149;-160;-172.6;45.5;45.4;12;13.1;28.6;0.0;
14/02/2025 14:35:54;100;0;142.72;-4;-22.06;-5.22;632.4;13.00;75877;2837.134;-1758.409;1;149;-160;-174.2;44.9;44.9;12;13.1;28.6;0.0;
14/02/2025 14:36:14;100;0;144.72;-4;-20.52;-5.00;636.3;12.90;75880;2837.131;-1758.406;1;149;-160;-174.2;44.9;44.8;12;13.1;28.6;0.0;
14/02/2025 14:36:34;100;0;151.04;-4;-15.78;-4.51;640.0;12.90;75877;2837.128;-1758.404;1;148;-160;-171.0;46.2;46.1;14;14.4;28.6;0.0;
14/02/2025 14:36:54;100;0;154.78;-4;-21.25;-4.50;642.4;12.90;75876;2837.126;-1758.404;1;148;-160;-171.0;46.2;46.2;16;16.2;28.6;0.0;
14/02/2025 14:37:14;100;0;154.47;-4;-24.47;-3.48;645.2;12.90;75876;2837.124;-1758.403;1;147;-160;-171.0;44.8;44.6;16;16.7;28.6;0.0;
14/02/2025 14:37:34;100;0;154.17;-4;-21.91;-3.21;648.6;12.80;75872;2837.121;-1758.402;1;147;-160;-171.0;44.8;44.5;16;16.7;28.6;0.0;
14/02/2025 14:37:54;100;0;149.08;-4;-21.88;-3.41;652.7;12.80;75871;2837.118;-1758.400;1;146;-160;-172.6;44.8;44.5;14;14.0;28.6;0.0;
14/02/2025 14:38:14;100;0;147.00;-4;-19.09;-4.79;656.4;12.80;75865;2837.115;-1758.398;1;146;-160;-171.0;44.8;44.5;14;14.0;28.6;0.0;
14/02/2025 14:38:34;100;0;146.26;-4;-20.43;-4.19;659.9;12.80;75870;2837.112;-1758.396;1;146;-160;-171.0;44.8;44.5;14;14.0;28.6;0.0;
14/02/2025 14:38:54;100;0;149.26;-4;-18.82;-5.43;663.5;12.80;75867;2837.109;-1758.394;1;146;-160;-172.6;45.2;45.2;14;14.0;28.6;0.0;
14/02/2025 14:39:14;100;0;142.59;-4;-19.98;-5.76;666.5;12.70;75863;2837.107;-1758.393;1;146;-160;-172.6;45.2;45.5;14;14.0;28.6;0.0;
14/02/2025 14:39:34;100;0;137.53;-4;-22.99;-5.25;670.0;12.70;75851;2837.105;-1758.390;1;146;-160;-171.0;44.3;44.2;14;14.0;28.6;0.0;
14/02/2025 14:39:54;100;0;136.68;-4;-18.64;-4.49;673.8;12.70;75852;2837.102;-1758.387;1;148;-160;-171.0;44.7;44.6;11;10.8;28.6;0.0;
14/02/2025 14:40:14;100;0;139.84;-4;-18.67;-6.07;677.0;12.70;75853;2837.100;-1758.385;1;148;-160;-171.0;45.1;45.4;13;13.1;28.6;0.0;
14/02/2025 14:40:34;100;0;139.54;-4;-19.22;-4.69;680.4;12.60;75857;2837.097;-1758.383;1;149;-160;-172.6;45.1;45.4;13;13.5;28.6;42.4;
14/02/2025 14:40:54;100;0;141.36;-4;-21.08;-4.86;683.2;12.60;75846;2837.096;-1758.381;1;150;-160;-172.6;45.1;45.4;13;13.5;28.6;39.5;
14/02/2025 14:41:14;100;0;143.71;-4;-21.55;-4.95;686.8;12.60;75828;2837.093;-1758.379;1;151;-160;-171.0;45.1;45.5;13;13.5;28.6;35.8;
14/02/2025 14:41:34;100;0;149.49;-4;-20.83;-4.83;690.2;12.60;75820;2837.090;-1758.378;1;150;-160;-171.0;45.1;45.4;13;13.1;28.6;32.2;
14/02/2025 14:41:40;118;0;149.19;-4;-19.93;-4.59;691.2;12.60;75829;2837.090;-1758.377;1;150;380;-167.7;24.7;24.7;9;9.0;28.6;31.2;
14/02/2025 14:41:50;118;0;123.21;-4;-7.61;-7.83;692.2;12.60;75807;2837.089;-1758.376;1;153;380;-41.9;24.7;24.4;9;9.0;27.8;-1.0;
14/02/2025 14:42:00;118;0;111.55;-4;15.27;-7.88;692.3;12.60;75541;2837.089;-1758.376;1;152;380;83.9;24.7;24.7;9;9.0;27.7;-1.0;
14/02/2025 14:42:10;118;0;109.83;-4;22.99;-8.15;691.5;12.60;75277;2837.090;-1758.376;1;154;380;208.1;24.7;24.9;9;9.0;27.7;-1.0;
14/02/2025 14:42:20;118;0;108.07;-4;22.84;-8.30;690.5;12.60;75017;2837.090;-1758.375;1;157;380;330.6;24.7;24.9;9;9.0;27.7;-1.0;
14/02/2025 14:42:30;118;0;108.56;-4;19.94;-8.09;689.1;12.60;74775;2837.090;-1758.373;1;160;380;383.9;24.7;24.9;9;9.0;27.7;-1.0;
14/02/2025 14:42:40;118;0;143.59;-4;17.98;-7.74;687.8;12.60;74682;2837.089;-1758.373;1;161;380;383.9;24.7;25.0;9;9.0;28.6;-1.0;
14/02/2025 14:43:00;117;0;135.26;-4;17.27;-7.21;685.1;12.60;74672;2837.087;-1758.371;1;167;380;383.9;24.7;24.9;9;9.0;28.6;-1.0;
14/02/2025 14:43:20;117;0;128.92;-4;15.16;-7.60;682.2;12.60;74674;2837.085;-1758.368;1;177;380;383.9;23.2;23.0;70;69.9;28.6;-1.0;
14/02/2025 14:43:40;117;0;139.51;-4;20.11;24.62;679.8;12.60;74666;2837.084;-1758.366;1;184;380;383.9;23.2;23.6;60;59.6;28.6;-1.0;
14/02/2025 14:44:00;117;0;145.94;-4;24.04;18.64;676.7;12.60;74675;2837.082;-1758.365;1;192;380;382.3;24.4;24.7;63;63.6;28.6;-1.0;
14/02/2025 14:44:20;117;0;159.66;-4;20.52;21.49;673.3;12.50;74662;2837.079;-1758.364;1;206;380;382.3;24.4;24.6;66;65.9;28.6;-1.0;
14/02/2025 14:44:40;117;0;166.59;-4;21.71;23.16;670.1;12.50;74674;2837.076;-1758.364;1;228;380;383.9;24.4;24.6;70;70.4;28.6;-1.0;
14/02/2025 14:45:00;117;0;181.70;-4;18.57;25.08;667.0;12.50;74654;2837.073;-1758.365;1;300;380;383.9;24.0;23.9;70;70.4;28.6;-1.0;
14/02/2025 14:45:20;117;0;196.46;-4;21.61;25.83;664.0;12.50;74659;2837.071;-1758.367;1;4;380;383.9;24.0;24.3;-70;-69.9;28.6;-1.0;
14/02/2025 14:45:40;117;0;182.09;-4;12.13;-48.09;660.7;12.40;74646;2837.067;-1758.368;1;10;380;383.9;21.6;21.6;-70;-70.4;28.6;-1.0;
14/02/2025 14:46:00;117;0;163.12;-4;7.64;-45.68;658.5;12.40;74643;2837.064;-1758.368;1;5;380;383.9;17.9;18.0;-70;-70.4;28.6;-1.0;
14/02/2025 14:46:20;117;0;150.08;-4;20.21;-47.02;656.9;12.40;74650;2837.063;-1758.368;1;4;400;403.2;17.9;17.2;-70;-70.4;28.6;-1.0;
14/02/2025 14:46:40;117;0;141.81;-4;21.96;-47.04;653.8;12.40;74607;2837.061;-1758.366;1;357;400;401.6;17.9;17.2;-70;-70.4;28.6;-1.0;
14/02/2025 14:47:00;117;0;133.43;-4;24.39;-47.81;650.3;12.40;74598;2837.060;-1758.364;1;349;400;400.0;19.3;19.3;-70;-70.4;28.6;-1.0;
14/02/2025 14:47:20;117;0;123.16;-4;18.53;-46.94;646.2;12.40;74592;2837.058;-1758.360;1;338;400;400.0;18.8;18.7;-70;-70.4;28.6;-1.0;
14/02/2025 14:47:40;117;0;107.26;-4;15.96;-45.42;642.7;12.40;74586;2837.057;-1758.355;1;328;400;403.2;17.6;17.5;-70;-70.4;28.6;-1.0;
14/02/2025 14:48:00;117;0;92.46;-4;24.88;-48.25;639.6;12.40;74590;2837.058;-1758.352;1;321;400;401.6;19.1;19.0;-70;-70.4;28.6;-1.0;
14/02/2025 14:48:21;117;0;78.69;-4;19.16;-46.90;635.5;12.40;74584;2837.060;-1758.347;1;309;400;401.6;19.1;19.3;-70;-70.4;28.6;-1.0;
14/02/2025 14:48:41;117;0;68.80;-4;17.56;-47.13;632.4;12.40;74588;2837.063;-1758.343;1;299;400;401.6;18.3;18.3;-70;-70.4;28.6;-1.0;
14/02/2025 14:49:01;117;0;54.66;-4;19.86;-47.54;628.9;12.30;74577;2837.066;-1758.340;1;289;400;403.2;18.3;18.1;-70;-70.4;28.6;-1.0;
14/02/2025 14:49:21;117;0;44.47;-4;20.94;-47.56;625.1;12.30;74578;2837.070;-1758.337;1;278;400;403.2;18.3;18.0;-70;-70.4;28.6;-1.0;
14/02/2025 14:49:41;117;0;31.34;-4;18.17;-46.74;621.0;12.30;74579;2837.076;-1758.335;1;266;400;403.2;17.8;17.8;-70;-70.4;28.6;-1.0;
14/02/2025 14:50:01;117;0;22.28;-4;19.70;-45.35;617.4;12.30;74574;2837.081;-1758.334;1;256;400;401.6;17.8;17.4;-70;-70.4;28.6;-1.0;
14/02/2025 14:50:21;117;0;13.98;-4;21.30;-46.75;613.8;12.30;74577;2837.087;-1758.333;1;247;400;403.2;17.8;17.4;-70;-69.9;28.6;-1.0;
14/02/2025 14:50:41;117;0;4.65;-4;20.04;-47.71;610.3;12.30;74572;2837.092;-1758.334;1;238;400;403.2;17.8;17.4;-70;-70.4;28.6;-1.0;
14/02/2025 14:51:01;117;0;358.59;-4;22.53;-47.81;606.5;12.30;74578;2837.097;-1758.335;1;230;400;401.6;18.5;18.6;-70;-70.4;28.6;-1.0;
14/02/2025 14:51:21;117;0;344.74;-4;18.76;-47.51;602.4;12.30;74570;2837.104;-1758.338;1;221;400;401.6;18.2;18.0;-70;-70.4;28.6;-1.0;
14/02/2025 14:51:41;117;0;330.52;-4;18.00;-47.77;598.6;12.30;74569;2837.109;-1758.341;1;213;400;403.2;17.6;17.4;-70;-70.4;28.6;-1.0;
14/02/2025 14:52:01;117;0;320.53;-4;21.14;-47.39;594.9;12.20;74566;2837.114;-1758.346;1;205;400;403.2;17.6;16.9;-70;-70.4;28.6;-1.0;
14/02/2025 14:52:21;117;0;309.59;-4;21.03;-47.45;590.9;12.30;74579;2837.118;-1758.351;1;198;400;401.6;17.6;16.9;-70;-70.4;28.6;-1.0;
14/02/2025 14:52:41;117;0;297.76;-4;20.88;-47.56;586.9;12.20;74586;2837.121;-1758.357;1;191;400;401.6;17.6;16.9;-70;-70.4;28.6;-1.0;
14/02/2025 14:53:01;117;0;286.49;-4;20.68;-47.46;583.0;12.20;74583;2837.123;-1758.363;1;184;400;403.2;17.6;16.9;-70;-70.4;28.6;-1.0;
14/02/2025 14:53:21;117;0;274.92;-4;21.18;-47.40;579.0;12.20;74600;2837.125;-1758.369;1;178;400;403.2;17.6;17.1;-70;-70.4;28.6;-1.0;
14/02/2025 14:53:41;117;0;263.33;-4;21.61;-47.45;575.0;12.20;74579;2837.125;-1758.376;1;171;400;403.2;17.6;16.9;-70;-70.4;28.6;-1.0;
14/02/2025 14:54:01;117;0;252.15;-4;21.44;-47.39;571.0;12.20;74585;2837.125;-1758.382;1;165;400;401.6;17.6;16.9;-70;-70.4;28.6;-1.0;
14/02/2025 14:54:21;117;0;240.97;-4;21.40;-47.27;567.0;12.20;74577;2837.123;-1758.388;1;160;400;401.6;17.6;16.9;-70;-70.4;28.6;-1.0;
14/02/2025 14:54:41;117;0;230.08;-4;21.49;-47.69;563.1;12.20;74574;2837.121;-1758.393;1;154;400;401.6;17.6;17.1;-65;-65.0;28.6;-1.0;
14/02/2025 14:55:01;117;0;218.68;-4;21.34;-44.13;559.0;12.20;74580;2837.118;-1758.398;1;149;400;401.6;17.6;16.9;-55;-55.1;28.6;-1.0;
14/02/2025 14:55:21;117;0;206.30;-4;22.57;-39.12;555.1;12.20;74586;2837.115;-1758.401;1;144;400;401.6;18.3;18.6;-45;-45.1;28.6;-1.0;
14/02/2025 14:55:41;117;0;192.92;-4;21.94;-34.02;551.5;12.20;74573;2837.112;-1758.403;1;140;400;403.2;18.3;18.4;-33;-32.5;28.6;-1.0;
14/02/2025 14:56:01;117;0;180.50;-4;23.41;-27.78;547.7;12.20;74582;2837.108;-1758.404;1;137;400;403.2;19.4;19.4;-20;-19.4;28.6;-1.0;
14/02/2025 14:56:21;117;0;169.22;-4;23.57;-20.91;543.9;12.20;74576;2837.105;-1758.404;1;134;400;403.2;20.4;20.8;-8;-8.1;28.6;-1.0;
14/02/2025 14:56:41;117;0;159.56;-4;22.83;-15.58;540.4;12.20;74574;2837.102;-1758.403;1;132;400;403.2;21.3;21.6;4;4.1;28.6;-1.0;
14/02/2025 14:57:01;117;0;151.20;-4;22.57;-9.70;536.8;12.20;74574;2837.100;-1758.402;1;130;400;403.2;22.1;22.4;17;17.1;28.6;-1.0;
14/02/2025 14:57:21;117;0;146.20;-4;22.87;-2.45;533.4;12.20;74579;2837.097;-1758.400;1;129;400;401.6;22.9;23.1;23;23.0;28.6;-1.0;
14/02/2025 14:57:41;117;0;143.94;-4;21.86;0.33;530.1;12.10;74580;2837.095;-1758.398;1;128;400;403.2;22.9;23.3;26;26.2;28.6;-1.0;
14/02/2025 14:58:01;117;0;140.58;-4;21.63;1.76;526.9;12.10;74586;2837.093;-1758.397;1;127;400;398.4;22.9;23.3;28;28.0;28.6;-1.0;
14/02/2025 14:58:21;117;0;138.35;-4;22.00;2.96;523.7;12.10;74581;2837.091;-1758.395;1;126;400;403.2;22.9;23.3;28;28.4;28.6;-1.0;
14/02/2025 14:58:41;117;0;136.83;-4;22.02;2.85;520.4;12.10;74589;2837.089;-1758.393;1;125;400;403.2;23.5;23.6;28;28.4;28.6;-1.0;
14/02/2025 14:59:01;117;0;135.06;-4;21.24;2.90;517.1;12.10;74592;2837.088;-1758.390;1;124;400;401.6;23.5;23.7;30;29.8;28.6;-1.0;
14/02/2025 14:59:21;117;0;134.12;-4;21.02;3.55;513.9;12.10;74593;2837.086;-1758.388;1;123;400;403.2;23.5;23.7;30;29.8;28.6;-1.0;
14/02/2025 14:59:41;117;0;132.97;-4;20.93;3.68;510.7;12.10;74601;2837.084;-1758.385;1;122;400;401.6;23.5;23.7;30;29.8;28.6;-1.0;
14/02/2025 15:00:01;117;0;133.28;-4;20.38;3.58;507.5;12.10;74598;2837.082;-1758.383;1;120;400;401.6;23.5;23.7;30;30.2;28.6;-1.0;
14/02/2025 15:00:21;117;0;133.46;-4;21.02;3.66;504.5;12.10;74592;2837.081;-1758.381;1;119;400;403.2;23.5;23.7;30;29.8;28.6;-1.0;
14/02/2025 15:00:41;117;0;132.74;-4;21.01;3.61;501.4;12.10;74599;2837.079;-1758.379;1;116;400;403.2;23.5;23.9;27;27.1;28.6;-1.0;
14/02/2025 15:01:01;117;0;132.22;-4;20.52;1.99;498.4;12.10;74596;2837.077;-1758.376;1;113;400;403.2;23.5;23.7;27;27.1;28.6;-1.0;
14/02/2025 15:01:21;117;0;131.24;-4;20.70;2.02;495.3;12.10;74598;2837.076;-1758.374;1;107;400;401.6;23.5;23.7;22;22.1;28.6;-1.0;
14/02/2025 15:01:41;117;0;128.16;-4;20.19;-0.65;492.3;12.10;74606;2837.074;-1758.371;1;97;400;401.6;23.5;23.7;17;17.1;28.6;-1.0;
14/02/2025 15:02:01;117;0;123.11;-4;19.51;-3.28;489.5;12.20;74625;2837.073;-1758.369;1;71;400;403.2;23.5;23.7;-8;-8.1;28.6;-1.0;
14/02/2025 15:02:21;117;0;110.72;-4;17.19;-16.40;486.8;12.10;74622;2837.073;-1758.366;1;312;400;403.2;22.7;22.8;-70;-69.9;28.6;-1.0;
14/02/2025 15:02:41;117;0;95.51;-4;9.89;-47.59;484.3;12.10;74620;2837.074;-1758.362;1;275;400;401.6;19.6;19.9;70;69.9;28.6;-1.0;
14/02/2025 15:03:01;117;0;100.69;-4;26.44;24.48;481.9;12.10;74631;2837.074;-1758.360;1;269;400;403.2;21.6;21.6;70;69.9;28.6;-1.0;
14/02/2025 15:03:21;117;0;111.50;-4;26.82;25.38;478.0;12.10;74631;2837.074;-1758.357;1;272;400;401.6;23.6;23.6;70;70.4;28.6;-1.0;
14/02/2025 15:03:41;117;0;126.53;-4;22.95;25.53;474.3;12.10;74634;2837.072;-1758.354;1;280;400;403.2;24.5;24.6;70;70.4;28.6;-1.0;
14/02/2025 15:04:01;117;0;139.41;-4;19.97;25.06;471.1;12.20;74642;2837.070;-1758.352;1;287;400;403.2;24.5;24.7;70;70.4;28.6;-1.0;
14/02/2025 15:04:21;117;0;150.62;-4;18.54;24.77;468.1;12.20;74655;2837.067;-1758.351;1;295;400;400.0;24.1;23.9;70;69.9;28.6;-1.0;
14/02/2025 15:04:41;117;0;163.69;-4;20.72;24.96;465.3;12.20;74653;2837.065;-1758.351;1;302;400;403.2;24.1;23.4;70;70.4;28.6;-1.0;
14/02/2025 15:05:01;117;0;176.72;-4;21.38;24.71;462.2;12.20;74652;2837.062;-1758.351;1;311;400;403.2;24.1;23.4;70;70.4;28.6;-1.0;
14/02/2025 15:05:21;117;0;190.26;-4;21.48;24.70;459.0;12.20;74651;2837.059;-1758.353;1;320;400;400.0;24.1;23.4;70;69.9;28.6;-1.0;
14/02/2025 15:05:41;117;0;202.57;-4;21.31;24.58;455.8;12.20;74668;2837.057;-1758.356;1;330;400;403.2;24.1;23.4;70;69.9;28.6;-1.0;
14/02/2025 15:06:01;117;0;215.11;-4;20.93;24.84;452.7;12.20;74665;2837.054;-1758.359;1;341;400;401.6;24.1;23.4;70;69.9;28.6;-1.0;
14/02/2025 15:06:21;117;0;228.15;-4;21.30;25.08;449.6;12.20;74668;2837.053;-1758.363;1;351;400;403.2;24.1;23.4;70;69.9;28.6;-1.0;
14/02/2025 15:06:41;117;0;240.81;-4;21.56;24.60;446.4;12.20;74668;2837.052;-1758.368;1;2;400;401.6;24.1;23.6;70;69.9;28.6;-1.0;
14/02/2025 15:07:01;117;0;254.67;-4;22.16;25.40;442.7;12.30;74675;2837.052;-1758.374;1;15;400;401.6;24.7;24.7;70;69.9;28.6;-1.0;
14/02/2025 15:07:21;117;0;266.50;-4;17.77;24.65;439.3;12.20;74674;2837.052;-1758.380;1;28;400;401.6;24.0;24.0;70;69.9;28.6;-1.0;
14/02/2025 15:07:41;117;0;281.42;-4;19.63;25.48;436.5;12.30;74675;2837.054;-1758.385;1;38;400;403.2;24.0;23.4;70;69.9;28.6;-1.0;
14/02/2025 15:08:01;117;0;294.48;-4;20.67;24.95;433.5;12.30;74675;2837.057;-1758.390;1;49;400;401.6;24.0;23.3;70;70.4;28.6;-1.0;
14/02/2025 15:08:21;117;0;306.29;-4;21.16;25.14;430.2;12.30;74674;2837.060;-1758.394;1;60;400;401.6;24.0;23.3;70;69.9;28.6;-1.0;
14/02/2025 15:08:41;117;0;316.52;-4;21.00;25.17;426.9;12.30;74684;2837.064;-1758.398;1;70;400;403.2;24.0;23.3;70;70.4;28.6;-1.0;
14/02/2025 15:09:01;117;0;331.97;-4;21.80;24.25;423.7;12.30;74686;2837.068;-1758.401;1;79;400;403.2;24.0;23.3;70;69.9;28.6;-1.0;
14/02/2025 15:09:21;117;0;344.11;-4;21.88;24.96;420.3;12.30;74689;2837.073;-1758.404;1;88;400;403.2;24.0;23.3;70;69.9;28.6;-1.0;
14/02/2025 15:09:41;117;0;356.79;-4;21.47;25.15;417.0;12.30;74699;2837.078;-1758.405;1;97;400;403.2;24.0;23.3;70;69.9;28.6;-1.0;
14/02/2025 15:10:01;117;0;8.26;-4;21.40;24.85;413.7;12.30;74702;2837.083;-1758.405;1;105;400;401.6;24.0;23.4;70;69.9;28.6;-1.0;
14/02/2025 15:10:21;117;0;18.81;-4;21.22;24.79;410.3;12.30;74698;2837.088;-1758.404;1;113;400;403.2;24.0;23.3;70;69.9;28.6;-1.0;
14/02/2025 15:10:41;117;0;30.36;-4;20.90;24.83;407.0;12.30;74706;2837.092;-1758.403;1;120;400;403.2;24.0;23.3;70;69.9;28.6;-1.0;
14/02/2025 15:11:01;117;0;43.74;-4;21.60;24.86;403.7;12.40;74713;2837.096;-1758.401;1;127;400;403.2;24.0;23.3;70;69.9;28.6;-1.0;
14/02/2025 15:11:21;117;0;55.63;-4;21.18;25.09;400.4;12.40;74708;2837.100;-1758.398;1;133;400;403.2;24.0;23.3;70;70.4;28.6;-1.0;
14/02/2025 15:11:41;117;0;68.27;-4;21.22;24.83;397.1;12.40;74698;2837.102;-1758.395;1;139;400;401.6;24.0;23.4;70;69.9;28.6;-1.0;
14/02/2025 15:12:01;117;0;81.65;-4;20.91;25.00;393.8;12.40;74704;2837.104;-1758.391;1;145;400;401.6;24.0;23.4;70;69.9;28.6;-1.0;
14/02/2025 15:12:21;117;0;94.84;-4;20.84;24.92;390.5;12.40;74716;2837.104;-1758.387;1;150;400;401.6;24.0;23.3;70;69.9;28.6;-1.0;
14/02/2025 15:12:41;117;0;107.73;-4;21.03;24.94;387.3;12.40;74724;2837.104;-1758.384;1;154;400;401.6;24.0;23.3;70;69.9;28.6;-1.0;
14/02/2025 15:13:01;117;0;120.71;-4;20.89;24.87;384.2;12.40;74726;2837.103;-1758.381;1;157;400;403.2;24.0;24.0;66;65.9;28.6;-1.0;
14/02/2025 15:13:21;117;0;131.25;-4;20.60;22.05;381.2;12.40;74742;2837.101;-1758.379;1;160;400;403.2;24.0;24.2;50;50.1;28.6;-1.0;
14/02/2025 15:13:41;117;0;137.73;-4;20.60;13.64;378.3;12.40;74745;2837.100;-1758.377;1;162;400;403.2;24.0;24.2;41;41.1;28.6;-1.0;
14/02/2025 15:14:01;117;0;141.32;-4;20.38;8.80;375.4;12.50;74758;2837.098;-1758.375;1;163;400;401.6;24.0;24.2;37;37.0;28.6;-1.0;
14/02/2025 15:14:21;117;0;142.75;-4;20.14;7.09;372.7;12.50;74767;2837.096;-1758.374;1;165;400;401.6;24.0;24.2;37;37.0;28.6;-1.0;
14/02/2025 15:14:41;117;0;144.40;-4;19.53;7.00;369.9;12.50;74766;2837.094;-1758.372;1;167;400;403.2;24.0;24.2;37;37.0;28.6;-1.0;
14/02/2025 15:15:01;117;0;145.57;-4;20.21;6.87;367.2;12.50;74783;2837.092;-1758.371;1;169;400;401.6;24.0;24.2;37;37.0;28.6;-1.0;
14/02/2025 15:15:21;117;0;146.84;-4;20.19;6.87;364.6;12.60;74773;2837.090;-1758.370;1;172;400;403.2;24.0;24.2;37;37.0;28.6;-1.0;
14/02/2025 15:15:41;117;0;146.30;-4;19.65;6.66;361.9;12.60;74782;2837.088;-1758.368;1;175;400;401.6;24.0;24.2;42;42.0;28.6;-1.0;
14/02/2025 15:16:01;117;0;146.73;-4;20.24;9.80;359.2;12.60;74784;2837.087;-1758.367;1;179;400;403.2;24.0;24.0;46;46.0;28.6;-1.0;
14/02/2025 15:16:21;117;0;149.66;-4;20.37;12.04;356.5;12.60;74784;2837.084;-1758.366;1;184;400;403.2;24.0;24.2;48;47.8;28.6;-1.0;
14/02/2025 15:16:41;117;0;154.04;-4;20.38;12.84;353.5;12.60;74796;2837.082;-1758.365;1;191;400;403.2;24.0;24.2;51;51.0;28.6;-1.0;
14/02/2025 15:17:01;117;0;157.90;-4;20.10;14.44;350.8;12.60;74796;2837.080;-1758.365;1;200;400;401.6;24.0;24.0;54;54.2;28.6;-1.0;
14/02/2025 15:17:21;117;0;164.56;-4;20.27;16.23;348.1;12.70;74794;2837.077;-1758.364;1;214;400;403.2;24.0;24.2;63;63.2;28.6;-1.0;
14/02/2025 15:17:41;117;0;174.10;-4;20.63;21.28;345.3;12.70;74805;2837.075;-1758.365;1;243;400;403.2;24.0;24.2;70;69.9;28.6;-1.0;
14/02/2025 15:18:01;117;0;189.20;-4;20.25;24.99;342.5;12.70;74807;2837.072;-1758.367;1;346;400;403.2;24.0;24.2;70;69.9;28.6;-1.0;
14/02/2025 15:18:21;117;0;203.91;-4;20.00;24.90;339.6;12.70;74811;2837.070;-1758.369;1;25;400;401.6;24.0;24.2;-70;-69.9;28.6;-1.0;
14/02/2025 15:18:41;117;0;190.39;-4;9.90;-47.35;336.9;12.70;74808;2837.067;-1758.371;1;26;400;403.2;21.0;20.8;-70;-70.4;28.6;-1.0;
14/02/2025 15:19:01;117;0;180.01;-4;12.06;-47.58;335.0;12.70;74815;2837.065;-1758.372;1;25;420;417.7;18.6;18.6;-70;-70.4;28.6;-1.0;
14/02/2025 15:19:21;117;0;169.86;-4;17.33;-47.44;332.7;12.80;74780;2837.063;-1758.372;1;21;420;421.0;17.8;17.8;-70;-70.4;28.6;-1.0;
14/02/2025 15:19:41;117;0;159.74;-4;19.41;-47.61;329.7;12.80;74782;2837.060;-1758.372;1;16;420;422.6;17.8;17.2;-70;-70.4;28.6;-1.0;
14/02/2025 15:20:01;117;0;150.60;-4;19.55;-47.46;326.7;12.80;74786;2837.058;-1758.370;1;10;420;422.6;17.8;17.2;-70;-70.4;28.6;-1.0;
14/02/2025 15:20:21;117;0;140.01;-4;19.11;-47.21;323.5;12.80;74802;2837.055;-1758.368;1;3;420;422.6;17.8;17.2;-70;-70.4;28.6;-1.0;
14/02/2025 15:20:41;117;0;130.15;-4;19.26;-47.17;320.4;12.80;74798;2837.054;-1758.365;1;356;420;421.0;17.8;17.2;-70;-70.4;28.6;-1.0;
14/02/2025 15:21:01;117;0;119.53;-4;19.09;-47.14;317.3;12.90;74802;2837.052;-1758.362;1;349;420;422.6;17.8;17.2;-70;-70.4;28.6;-1.0;
14/02/2025 15:21:21;117;0;108.83;-4;18.97;-47.25;314.1;12.90;74810;2837.052;-1758.359;1;341;420;421.0;17.5;17.5;-70;-70.4;28.6;-1.0;
14/02/2025 15:21:41;117;0;97.32;-4;19.04;-47.20;311.1;12.90;74815;2837.053;-1758.355;1;334;420;421.0;17.5;17.7;-70;-70.4;28.6;-1.0;
14/02/2025 15:22:02;117;0;85.96;-4;18.65;-47.09;308.0;12.90;74825;2837.054;-1758.351;1;326;420;422.6;17.1;16.9;-70;-70.4;28.6;-1.0;
14/02/2025 15:22:22;117;0;73.30;-4;19.90;-47.77;305.1;12.90;74821;2837.056;-1758.348;1;318;420;421.0;17.1;16.8;-70;-70.4;28.6;-1.0;
14/02/2025 15:22:42;117;0;59.79;-4;20.86;-48.21;301.9;13.00;74834;2837.059;-1758.345;1;308;420;422.6;17.1;16.8;-70;-70.4;28.6;-1.0;
14/02/2025 15:23:02;117;0;47.48;-4;20.87;-47.67;298.7;13.00;74835;2837.062;-1758.343;1;299;420;421.0;17.1;16.8;-70;-70.4;28.6;-1.0;
14/02/2025 15:23:22;117;0;34.74;-4;20.90;-47.32;295.3;13.00;74838;2837.067;-1758.341;1;288;420;422.6;17.1;16.8;-70;-70.4;28.6;-1.0;
14/02/2025 15:23:42;117;0;23.81;-4;20.86;-47.38;292.0;13.00;74839;2837.072;-1758.340;1;276;420;421.0;17.1;16.8;-70;-70.4;28.6;-1.0;
14/02/2025 15:24:02;117;0;12.29;-4;20.50;-47.38;288.4;13.00;74849;2837.077;-1758.340;1;263;420;422.6;17.1;16.8;-70;-70.4;28.6;-1.0;
14/02/2025 15:24:22;117;0;0.63;-4;20.12;-47.75;284.9;13.10;74861;2837.082;-1758.341;1;250;420;422.6;17.1;16.6;-70;-70.4;28.6;-1.0;
14/02/2025 15:24:42;117;0;347.90;-4;19.75;-47.70;281.4;13.10;74869;2837.088;-1758.343;1;238;420;421.0;17.1;16.6;-70;-70.4;28.6;-1.0;
14/02/2025 15:25:02;117;0;335.61;-4;19.82;-47.64;278.0;13.10;74873;2837.093;-1758.346;1;225;420;421.0;17.1;16.8;-70;-70.4;28.6;-1.0;
14/02/2025 15:25:22;117;0;323.10;-4;19.76;-47.57;274.6;13.10;74900;2837.097;-1758.349;1;214;420;421.0;17.1;16.8;-70;-70.4;28.6;-1.0;
14/02/2025 15:25:42;117;0;311.19;-4;19.99;-47.49;271.2;13.20;74905;2837.101;-1758.354;1;203;420;422.6;17.1;16.8;-70;-70.4;28.6;-1.0;
14/02/2025 15:26:02;117;0;298.79;-4;19.87;-47.55;267.9;13.20;74903;2837.104;-1758.359;1;193;420;422.6;17.1;16.8;-70;-70.4;28.6;-1.0;
14/02/2025 15:26:22;117;0;286.69;-4;20.26;-47.51;264.7;13.20;74897;2837.106;-1758.365;1;184;420;422.6;17.1;16.8;-70;-70.4;28.6;-1.0;
14/02/2025 15:26:42;117;0;275.66;-4;20.15;-47.35;261.5;13.20;74906;2837.107;-1758.370;1;175;420;422.6;17.1;16.8;-70;-70.4;28.6;-1.0;
14/02/2025 15:27:02;117;0;264.07;-4;20.25;-47.62;258.2;13.20;74906;2837.108;-1758.376;1;167;420;422.6;17.1;16.8;-70;-70.4;28.6;-1.0;
14/02/2025 15:27:22;117;0;254.41;-4;19.91;-47.40;255.0;13.30;74909;2837.108;-1758.381;1;160;420;421.0;17.1;16.6;-70;-70.4;28.6;-1.0;
14/02/2025 15:27:42;117;0;242.97;-4;20.23;-47.74;252.0;13.30;74909;2837.107;-1758.386;1;153;420;421.0;17.1;16.6;-70;-70.4;28.6;-1.0;
14/02/2025 15:28:02;117;0;227.92;-4;19.74;-47.79;248.8;13.30;74929;2837.105;-1758.391;1;146;420;421.0;17.1;16.6;-70;-70.4;28.6;-1.0;
14/02/2025 15:28:22;117;0;217.17;-4;20.26;-47.85;245.5;13.30;74947;2837.103;-1758.394;1;140;420;422.6;17.1;16.8;-62;-61.8;28.6;-1.0;
14/02/2025 15:28:42;117;0;205.59;-4;20.83;-42.90;242.3;13.40;74957;2837.100;-1758.397;1;135;420;422.6;17.1;16.9;-52;-51.4;28.6;-1.0;
14/02/2025 15:29:02;117;0;192.75;-4;21.51;-37.45;238.9;13.40;74968;2837.097;-1758.399;1;129;420;422.6;17.1;16.8;-42;-41.5;28.6;-1.0;
14/02/2025 15:29:22;117;0;179.92;-4;23.10;-32.13;235.6;13.40;74969;2837.094;-1758.400;1;125;420;422.6;18.1;18.3;-29;-28.4;28.6;-1.0;
14/02/2025 15:29:42;117;0;167.85;-4;23.28;-25.47;232.2;13.50;74969;2837.091;-1758.400;1;121;420;422.6;19.0;19.3;-18;-18.1;28.6;-1.0;
14/02/2025 15:30:02;117;0;155.38;-4;22.88;-19.92;228.8;13.50;74984;2837.089;-1758.399;1;118;420;422.6;19.9;20.2;-4;-4.1;28.6;-1.0;
14/02/2025 15:30:22;117;0;144.78;-4;22.45;-13.53;225.5;13.50;75007;2837.087;-1758.397;1;115;420;422.6;20.6;20.8;11;10.8;28.6;-1.0;
14/02/2025 15:30:42;117;0;137.65;-4;23.16;-6.28;222.2;13.50;75006;2837.085;-1758.396;1;113;420;422.6;21.6;21.8;21;21.2;28.6;-1.0;
14/02/2025 15:31:02;117;0;134.89;-4;22.90;-0.73;218.9;13.60;75004;2837.083;-1758.393;1;111;420;422.6;22.5;22.4;21;21.7;28.6;-1.0;
14/02/2025 15:31:22;117;0;129.67;-4;21.55;-0.59;215.6;13.60;75019;2837.082;-1758.391;1;110;420;421.0;22.5;22.5;27;27.1;28.6;-1.0;
14/02/2025 15:31:42;117;0;128.66;-4;21.55;2.37;212.4;13.60;75042;2837.080;-1758.388;1;108;420;419.4;22.5;22.7;27;27.5;28.6;-1.0;
14/02/2025 15:32:02;117;0;125.09;-4;21.64;2.40;209.2;13.70;75052;2837.079;-1758.386;1;107;420;422.6;22.5;22.5;29;29.3;28.6;-1.0;
14/02/2025 15:32:22;117;0;122.07;-4;21.64;3.48;206.0;13.70;75064;2837.078;-1758.383;1;105;420;422.6;22.5;22.7;29;29.3;28.6;-1.0;
14/02/2025 15:32:42;117;0;120.39;-4;21.68;3.49;202.9;13.70;75071;2837.077;-1758.380;1;104;420;422.6;22.5;22.7;29;29.8;28.6;-1.0;
14/02/2025 15:33:02;117;0;119.88;-4;21.73;3.38;199.8;13.80;75083;2837.076;-1758.378;1;103;420;421.0;22.5;22.7;29;29.8;28.6;-1.0;
14/02/2025 15:33:22;117;0;119.17;-4;21.74;3.45;196.7;13.80;75087;2837.075;-1758.375;1;100;420;422.6;22.5;22.7;29;29.3;28.6;-1.0;
14/02/2025 15:33:42;117;0;117.98;-4;21.85;3.44;193.6;13.80;75100;2837.074;-1758.372;1;96;420;422.6;22.5;22.7;29;29.3;28.6;-1.0;
14/02/2025 15:34:02;117;0;115.45;-4;21.75;3.48;190.4;13.90;75112;2837.074;-1758.369;1;83;420;424.2;22.5;22.5;19;19.0;28.6;-1.0;
14/02/2025 15:34:22;117;0;108.53;-4;21.11;-2.26;187.3;13.90;75121;2837.074;-1758.366;1;294;420;424.2;22.5;22.7;70;69.9;28.6;-1.0;
14/02/2025 15:34:42;117;0;118.00;-4;21.04;25.30;184.1;13.90;75132;2837.073;-1758.363;1;290;420;422.6;22.5;22.7;70;69.9;28.6;-1.0;
14/02/2025 15:35:02;117;0;130.68;-4;21.52;25.32;180.8;14.00;75146;2837.071;-1758.360;1;297;420;422.6;22.5;22.7;70;69.9;28.6;-1.0;
14/02/2025 15:35:22;117;0;141.84;-4;21.60;25.41;177.4;14.00;75150;2837.069;-1758.358;1;304;420;422.6;22.5;22.7;70;69.9;28.6;-1.0;
14/02/2025 15:35:42;117;0;153.76;-4;21.54;25.13;174.1;14.10;75185;2837.066;-1758.357;1;312;420;421.0;22.5;22.7;70;69.9;28.6;-1.0;
14/02/2025 15:36:02;117;0;163.73;-4;21.71;25.07;170.9;14.10;75200;2837.064;-1758.357;1;320;420;422.6;22.5;22.7;70;69.9;28.6;-1.0;
14/02/2025 15:36:22;117;0;176.16;-4;22.18;24.99;167.7;14.10;75212;2837.061;-1758.358;1;328;420;422.6;23.1;23.1;70;69.9;28.6;-1.0;
14/02/2025 15:36:42;117;0;187.96;-4;20.85;25.04;164.6;14.20;75235;2837.058;-1758.359;1;337;420;422.6;23.1;23.4;70;69.9;28.6;-1.0;
14/02/2025 15:37:02;117;0;201.14;-4;20.46;24.86;161.6;14.20;75225;2837.055;-1758.362;1;346;420;421.0;23.1;23.4;70;69.9;28.6;-1.0;
14/02/2025 15:37:22;117;0;214.14;-4;20.46;25.06;158.6;14.30;75256;2837.053;-1758.365;1;355;420;421.0;23.1;23.4;70;69.9;28.6;-1.0;
14/02/2025 15:37:42;117;0;225.73;-4;20.11;24.97;155.7;14.30;75259;2837.051;-1758.369;1;4;420;421.0;23.1;23.3;70;69.9;28.6;-1.0;
14/02/2025 15:38:02;117;0;241.77;-4;20.63;25.03;152.9;14.30;75282;2837.051;-1758.373;1;13;420;419.4;23.1;23.4;70;69.9;28.6;-1.0;
14/02/2025 15:38:22;117;0;257.86;-4;20.62;24.90;150.1;14.40;75299;2837.051;-1758.378;1;23;420;422.6;23.1;23.4;70;69.9;28.6;-1.0;
14/02/2025 15:38:42;117;0;274.54;-4;20.95;24.86;147.3;14.40;75316;2837.052;-1758.383;1;33;420;419.4;23.1;23.4;70;69.9;28.6;-1.0;
14/02/2025 15:39:02;117;0;290.47;-4;20.83;24.82;144.5;14.50;75333;2837.054;-1758.388;1;43;420;422.6;23.1;23.3;70;69.9;28.6;-1.0;
14/02/2025 15:39:22;117;0;309.23;-4;20.70;24.93;141.7;14.50;75362;2837.058;-1758.392;1;53;420;421.0;23.1;23.3;70;69.9;28.6;-1.0;
14/02/2025 15:39:42;117;0;326.70;-4;20.49;24.90;138.9;14.60;75391;2837.061;-1758.395;1;63;420;422.6;23.1;23.3;70;69.9;28.6;-1.0;
14/02/2025 15:40:02;117;0;342.30;-4;20.39;25.02;136.1;14.60;75420;2837.066;-1758.397;1;73;420;422.6;23.1;23.3;70;69.9;28.6;-1.0;
14/02/2025 15:40:22;117;0;356.43;-4;20.11;25.07;133.4;14.70;75446;2837.070;-1758.398;1;82;420;422.6;23.1;23.3;70;69.9;28.6;-1.0;
14/02/2025 15:40:42;117;0;10.75;-4;20.04;25.03;130.6;14.80;75462;2837.075;-1758.398;1;92;420;422.6;23.1;23.3;70;69.9;28.6;-1.0;
14/02/2025 15:41:02;117;0;23.46;-4;19.87;24.89;127.8;14.80;75484;2837.079;-1758.397;1;101;420;422.6;23.1;23.4;70;69.9;28.6;-1.0;
14/02/2025 15:41:22;117;0;38.39;-4;20.16;24.94;125.0;14.90;75501;2837.083;-1758.396;1;109;420;422.6;23.1;23.3;70;69.9;28.6;-1.0;
14/02/2025 15:41:42;117;0;50.61;-4;20.09;24.44;122.2;14.90;75514;2837.086;-1758.394;1;117;420;422.6;23.1;23.4;70;69.9;28.6;-1.0;
14/02/2025 15:42:02;117;0;65.40;-4;19.83;25.26;119.5;15.00;75570;2837.088;-1758.391;1;125;420;421.0;23.1;23.4;70;69.9;28.6;-1.0;
14/02/2025 15:42:22;117;0;80.91;-4;19.69;25.15;116.7;15.00;75607;2837.090;-1758.388;1;131;420;422.6;23.1;23.4;70;69.9;28.6;-1.0;
14/02/2025 15:42:42;117;0;95.55;-4;19.65;24.94;113.9;15.10;75639;2837.091;-1758.385;1;137;420;422.6;23.1;23.4;70;69.9;28.6;-1.0;
14/02/2025 15:43:02;117;0;109.66;-4;19.76;24.86;111.1;15.20;75671;2837.090;-1758.382;1;142;420;422.6;23.1;23.4;66;65.9;28.6;-1.0;
14/02/2025 15:43:22;117;0;121.45;-4;20.28;22.09;108.2;15.30;75682;2837.089;-1758.379;1;145;420;422.6;23.1;23.4;50;50.1;28.6;-1.0;
14/02/2025 15:43:42;117;0;127.35;-4;20.44;13.55;105.4;15.40;75711;2837.088;-1758.377;1;149;420;422.6;23.1;23.3;45;45.1;28.6;-1.0;
14/02/2025 15:44:02;117;0;132.47;-4;20.09;10.94;102.6;15.40;75715;2837.087;-1758.375;1;152;420;422.6;23.1;23.4;40;40.2;28.6;-1.0;
14/02/2025 15:44:22;117;0;135.27;-4;19.89;8.28;99.8;15.50;75737;2837.085;-1758.373;1;156;420;422.6;23.1;23.4;40;39.3;28.6;-1.0;
14/02/2025 15:44:42;117;0;137.98;-4;19.79;8.32;96.9;15.60;75747;2837.083;-1758.371;1;160;420;422.6;23.1;23.4;40;39.3;28.6;-1.0;
14/02/2025 15:45:02;117;0;141.32;-4;19.76;8.35;94.0;15.60;75756;2837.081;-1758.369;1;166;420;422.6;23.1;23.4;40;39.3;28.6;-1.0;
14/02/2025 15:45:22;117;0;143.63;-4;19.63;8.22;91.2;15.70;75767;2837.079;-1758.368;1;175;420;422.6;23.1;23.3;48;48.3;28.6;-1.0;
14/02/2025 15:45:42;117;0;148.03;-4;19.99;13.09;88.3;15.80;75787;2837.077;-1758.366;1;192;420;422.6;23.1;23.4;61;60.9;28.6;-1.0;
14/02/2025 15:46:02;117;0;157.13;-4;20.12;20.06;85.2;15.90;75798;2837.074;-1758.365;1;251;420;422.6;23.1;23.4;70;69.9;28.6;-1.0;
14/02/2025 15:46:22;117;0;169.69;-4;19.95;25.10;82.1;15.90;75804;2837.072;-1758.365;1;331;420;422.6;23.1;23.4;70;70.4;28.6;-1.0;
14/02/2025 15:46:42;117;0;183.18;-4;19.81;25.12;79.0;16.00;75820;2837.068;-1758.367;1;357;420;421.0;23.1;23.3;-70;-69.9;28.6;-1.0;
14/02/2025 15:47:02;117;0;168.90;-4;9.49;-47.42;75.9;16.10;75823;2837.064;-1758.366;1;357;420;422.6;19.9;19.9;-70;-70.4;28.6;-1.0;
14/02/2025 15:47:22;117;0;157.69;-4;10.86;-47.79;73.6;16.10;75832;2837.062;-1758.366;1;355;420;424.2;17.2;17.2;-70;-70.4;28.6;-1.0;
14/02/2025 15:47:42;117;0;147.01;-4;17.33;-47.07;70.8;16.20;75845;2837.060;-1758.364;1;351;420;421.0;16.4;16.2;-70;-70.4;28.6;-1.0;
14/02/2025 15:48:02;117;0;136.51;-4;20.61;-47.36;67.4;16.30;75854;2837.057;-1758.362;1;345;420;424.2;16.4;15.8;-70;-70.4;28.6;-1.0;
14/02/2025 15:48:22;117;0;126.54;-4;21.15;-47.52;63.7;16.40;75863;2837.056;-1758.359;1;338;420;422.6;16.4;15.9;-70;-70.4;28.6;-1.0;
14/02/2025 15:48:42;117;0;116.06;-4;20.82;-47.75;60.0;16.50;75873;2837.055;-1758.355;1;331;420;422.6;16.4;15.8;-70;-70.4;28.6;-1.0;
14/02/2025 15:49:02;117;0;104.57;-4;20.79;-47.48;56.3;16.50;75878;2837.054;-1758.351;1;324;420;422.6;16.4;15.8;-70;-70.4;28.6;-1.0;
14/02/2025 15:49:22;117;0;93.35;-4;20.58;-47.61;52.5;16.60;75890;2837.055;-1758.346;1;316;420;422.6;16.4;15.8;-70;-70.4;28.6;-1.0;
14/02/2025 15:49:42;117;0;81.62;-4;20.64;-47.65;48.8;16.70;75890;2837.057;-1758.342;1;308;420;422.6;16.4;15.8;-70;-70.4;28.6;-1.0;
