Timestamp;NavState;SecurityLevel;Heading;Declination;Pitch;Roll;Depth;Temperature;Pa;Lat;Lon;DeadReckoning;DesiredH;BallastCmd;BallastPos;LinCmd;LinPos;AngCmd;AngPos;Voltage;Altitude;
24/02/2025 00:15:27;119;0;304.38;-4;-56.50;-15.95;-0.1;17.30;75684;2837.809;-1801.516;0;316;500;508.1;100.0;100.7;0;-0.5;26.8;-1.0;
24/02/2025 00:15:37;116;0;304.77;-4;-60.16;-22.97;-0.1;17.30;75696;2837.813;-1801.520;0;316;500;508.1;100.0;100.7;0;0.0;26.8;-1.0;
24/02/2025 00:16:02;116;0;306.59;-4;-57.53;-15.48;-0.0;17.40;75706;2837.816;-1801.521;0;316;500;509.7;100.0;100.7;0;0.0;26.8;-1.0;
24/02/2025 00:16:30;116;0;299.46;-4;-52.01;-12.63;0.0;17.50;75714;2837.817;-1801.522;0;316;500;509.7;100.0;100.7;0;0.0;26.8;-1.0;
24/02/2025 00:16:50;116;0;292.56;-4;-59.05;-24.07;-0.1;17.50;75714;2837.820;-1801.523;0;137;500;508.1;100.0;100.6;0;-0.5;26.8;-1.0;
24/02/2025 00:17:03;116;0;304.07;-4;-58.13;-25.72;-0.1;17.50;75726;2837.822;-1801.524;0;137;500;509.7;100.0;100.7;0;0.0;26.8;-1.0;
24/02/2025 00:18:06;116;0;332.87;-4;-52.51;-11.90;0.0;17.70;75752;2837.830;-1801.527;0;137;500;509.7;100.0;100.7;0;0.0;26.8;-1.0;
24/02/2025 00:20:22;116;0;313.30;-4;-51.85;-24.61;-0.1;18.30;75791;2837.850;-1801.536;0;137;500;509.7;100.0;100.7;0;0.0;26.8;-1.0;
24/02/2025 00:20:44;116;0;308.08;-4;-56.42;-11.76;-0.0;18.40;75801;2837.850;-1801.536;0;137;500;509.7;100.0;100.7;0;-0.5;26.8;-1.0;
24/02/2025 00:21:01;116;0;313.12;-4;-56.25;-5.63;-0.0;18.50;75809;2837.852;-1801.537;0;137;500;509.7;100.0;100.7;0;0.0;26.8;-1.0;
24/02/2025 00:22:03;116;0;286.81;-4;-52.19;-10.73;0.1;18.70;75829;2837.862;-1801.541;0;137;500;509.7;100.0;100.7;0;0.0;26.8;-1.0;
24/02/2025 00:23:30;116;0;289.81;-4;-51.59;-8.11;-0.1;19.00;75869;2837.875;-1801.546;0;137;500;509.7;100.0;100.7;0;-0.5;26.8;-1.0;
24/02/2025 00:23:50;110;0;295.82;-4;-53.92;-22.05;-0.0;19.10;75868;2837.875;-1801.546;0;137;-70;390.3;100.0;99.9;-7;-7.2;26.8;-1.0;
24/02/2025 00:24:00;110;0;296.30;-4;-56.51;-12.68;0.2;19.10;76217;2837.875;-1801.546;1;137;-70;238.7;100.0;99.7;-7;-7.7;26.8;-1.0;
24/02/2025 00:24:10;110;0;300.01;-4;-59.92;-3.67;0.6;19.20;76476;2837.876;-1801.547;1;137;-70;79.0;100.0;99.7;-7;-7.2;26.8;-1.0;
24/02/2025 00:24:20;110;0;311.76;-4;-65.75;-31.87;0.9;19.20;76791;2837.876;-1801.547;1;137;-70;-67.7;100.0;99.9;-7;-7.2;26.8;-1.0;
24/02/2025 00:24:30;110;0;321.02;-4;-65.11;-21.04;1.2;19.30;77107;2837.877;-1801.547;1;137;-70;-67.7;42.9;42.7;-7;-7.2;26.8;-1.0;
24/02/2025 00:24:50;100;0;325.41;-4;-27.97;-15.50;4.3;19.30;77070;2837.880;-1801.549;1;137;-70;-66.1;42.9;42.4;-7;-7.2;26.8;-1.0;
24/02/2025 00:25:10;100;0;332.02;-4;-19.81;-15.48;7.2;19.40;77064;2837.884;-1801.552;1;137;-70;-62.9;42.9;43.0;-70;-69.9;26.8;-1.0;
24/02/2025 00:25:30;100;0;337.63;-4;-20.67;-45.20;9.7;19.40;77072;2837.887;-1801.553;1;137;-70;-62.9;42.9;43.2;-70;-69.9;26.8;-1.0;
24/02/2025 00:25:50;100;0;348.05;-4;-20.34;-45.56;12.1;19.50;77067;2837.891;-1801.554;1;137;-70;-61.3;42.9;43.0;-70;-69.9;26.8;-1.0;
24/02/2025 00:26:10;100;0;359.12;-4;-19.48;-45.46;14.7;19.50;77073;2837.895;-1801.554;1;137;-70;-61.3;42.9;43.2;-70;-69.9;26.8;0.0;
24/02/2025 00:26:30;100;0;9.65;-4;-20.26;-45.61;17.3;19.60;77074;2837.899;-1801.554;1;137;-70;-61.3;42.9;43.0;-70;-69.9;26.8;0.0;
24/02/2025 00:26:50;100;0;20.12;-4;-19.68;-45.52;19.9;19.60;77078;2837.903;-1801.553;1;137;-70;-61.3;42.9;43.2;-70;-69.9;26.8;0.0;
24/02/2025 00:27:10;100;0;31.33;-4;-19.34;-45.66;22.4;19.60;77085;2837.907;-1801.551;1;137;-70;-61.3;42.9;43.2;-70;-69.9;26.8;0.0;
24/02/2025 00:27:30;100;0;43.04;-4;-19.22;-45.72;24.9;19.60;77085;2837.910;-1801.549;1;137;-70;-61.3;42.9;43.2;-70;-69.9;26.8;0.0;
24/02/2025 00:27:50;100;0;54.64;-4;-19.46;-45.69;27.4;19.70;77086;2837.912;-1801.546;1;137;-70;-61.3;42.9;43.0;-70;-69.9;26.8;0.0;
24/02/2025 00:28:10;100;0;66.05;-4;-19.05;-45.70;29.9;19.70;77092;2837.914;-1801.543;1;137;-70;-59.7;42.9;43.2;-70;-69.9;26.8;0.0;
24/02/2025 00:28:30;100;0;78.02;-4;-19.67;-45.37;32.5;19.70;77103;2837.916;-1801.539;1;137;-70;-61.3;42.9;43.2;-64;-64.1;26.8;0.0;
24/02/2025 00:28:50;100;0;89.72;-4;-19.07;-42.37;34.9;19.70;77106;2837.917;-1801.536;1;137;-70;-61.3;42.9;43.2;-50;-49.6;26.8;0.0;
24/02/2025 00:29:10;100;0;102.84;-4;-18.94;-35.30;37.1;19.70;77112;2837.917;-1801.533;1;137;-70;-59.7;43.2;43.6;-35;-34.7;26.8;0.0;
24/02/2025 00:29:30;100;0;113.91;-4;-19.78;-27.71;39.6;19.70;77117;2837.916;-1801.530;1;137;-70;-61.3;43.2;43.6;-18;-18.1;26.8;0.0;
24/02/2025 00:29:50;100;0;122.37;-4;-20.15;-19.41;41.9;19.60;77126;2837.915;-1801.527;1;137;-70;-61.3;43.2;43.7;-5;-5.0;26.8;0.0;
24/02/2025 00:30:10;100;0;127.87;-4;-20.78;-13.52;44.4;19.60;77116;2837.914;-1801.524;1;137;-70;-62.9;43.2;43.7;5;5.0;26.8;0.0;
24/02/2025 00:30:30;100;0;130.15;-4;-21.38;-8.95;46.8;19.60;77122;2837.913;-1801.522;1;137;-70;-59.7;43.2;43.6;7;7.2;26.8;0.0;
24/02/2025 00:30:50;100;0;130.84;-4;-21.26;-7.67;49.3;19.60;77131;2837.912;-1801.520;1;137;-70;-61.3;43.2;43.7;7;7.7;26.8;0.0;
24/02/2025 00:31:10;100;0;131.11;-4;-21.79;-7.64;51.7;19.60;77119;2837.910;-1801.517;1;137;-70;-61.3;43.2;43.7;7;7.7;26.8;0.0;
24/02/2025 00:31:30;100;0;129.64;-4;-21.11;-7.68;54.0;19.60;77119;2837.909;-1801.515;1;137;-70;-61.3;43.2;43.7;7;7.7;26.8;0.0;
24/02/2025 00:31:50;100;0;129.42;-4;-20.83;-7.76;56.3;19.60;77109;2837.908;-1801.513;1;137;-70;-61.3;43.2;43.7;7;7.7;26.8;0.0;
24/02/2025 00:32:10;100;0;129.62;-4;-20.94;-7.75;58.3;19.50;77096;2837.907;-1801.511;1;137;-70;-61.3;43.2;43.7;5;5.0;26.8;0.0;
24/02/2025 00:32:30;100;0;128.87;-4;-21.02;-9.43;60.4;19.50;77097;2837.906;-1801.509;1;137;-70;-61.3;43.2;43.6;3;2.7;26.8;0.0;
24/02/2025 00:32:50;100;0;131.06;-4;-20.87;-10.49;62.4;19.50;77083;2837.906;-1801.507;1;137;-70;-62.9;43.2;43.7;7;7.2;26.8;0.0;
24/02/2025 00:33:10;100;0;132.88;-4;-21.07;-7.77;64.5;19.50;77083;2837.904;-1801.505;1;137;-70;-62.9;43.2;43.7;9;9.5;26.8;0.0;
24/02/2025 00:33:30;100;0;131.13;-4;-21.14;-6.81;66.6;19.50;77081;2837.903;-1801.503;1;137;-70;-62.9;43.2;43.7;7;7.2;26.8;0.0;
24/02/2025 00:33:50;100;0;131.29;-4;-20.93;-8.27;68.7;19.50;77078;2837.903;-1801.501;1;137;-70;-61.3;43.2;43.7;7;6.8;26.8;0.0;
24/02/2025 00:34:10;100;0;130.39;-4;-21.58;-8.29;70.8;19.40;77077;2837.902;-1801.499;1;137;-70;-61.3;43.2;43.7;5;4.5;26.8;0.0;
24/02/2025 00:34:30;100;0;130.17;-4;-21.49;-9.50;73.0;19.40;77063;2837.901;-1801.497;1;137;-70;-61.3;43.2;43.7;5;4.1;26.8;0.0;
24/02/2025 00:34:50;100;0;137.93;-4;-20.76;-9.49;75.4;19.40;77053;2837.899;-1801.495;1;137;-70;-61.3;43.2;43.7;13;13.1;26.8;0.0;
24/02/2025 00:35:10;100;0;139.39;-4;-21.07;-4.96;77.5;19.40;77034;2837.898;-1801.493;1;137;-70;-61.3;43.2;43.7;13;13.5;26.8;0.0;
24/02/2025 00:35:30;100;0;140.32;-4;-21.55;-4.86;79.7;19.40;77012;2837.897;-1801.491;1;137;-70;-61.3;43.2;43.7;13;13.1;26.8;0.0;
24/02/2025 00:35:50;100;0;139.76;-4;-21.48;-4.94;82.1;19.30;77009;2837.895;-1801.489;1;137;-70;-61.3;43.2;43.7;13;13.5;26.8;0.0;
24/02/2025 00:36:10;100;0;139.52;-4;-21.37;-4.98;84.4;19.30;77003;2837.894;-1801.488;1;137;-70;-61.3;43.2;43.7;13;13.5;26.8;0.0;
24/02/2025 00:36:30;100;0;140.13;-4;-21.65;-4.92;86.9;19.30;76990;2837.892;-1801.486;1;137;-70;-61.3;43.2;43.7;13;13.5;26.8;0.0;
24/02/2025 00:36:50;100;0;139.76;-4;-21.48;-4.89;89.3;19.30;76997;2837.890;-1801.484;1;137;-70;-61.3;43.2;43.7;13;13.5;26.8;0.0;
24/02/2025 00:37:10;100;0;136.51;-4;-21.41;-4.86;91.7;19.20;76992;2837.889;-1801.482;1;137;-70;-61.3;43.2;43.6;13;13.5;26.8;0.0;
24/02/2025 00:37:30;100;0;140.80;-4;-21.46;-4.94;94.0;19.20;76982;2837.888;-1801.480;1;137;-70;-61.3;43.2;43.7;13;13.1;26.8;0.0;
24/02/2025 00:37:50;100;0;144.78;-4;-21.62;-4.94;96.5;19.20;76971;2837.886;-1801.478;1;137;-70;-61.3;43.2;43.7;13;13.5;26.8;0.0;
24/02/2025 00:38:10;100;0;147.38;-4;-21.41;-4.87;98.9;19.20;76967;2837.884;-1801.476;1;137;-70;-61.3;43.2;43.7;13;13.5;26.8;0.0;
24/02/2025 00:38:30;100;0;151.15;-4;-21.50;-4.82;101.4;19.10;76959;2837.882;-1801.475;1;137;-70;-62.9;43.2;43.7;15;14.9;26.8;0.0;
24/02/2025 00:38:50;100;0;151.98;-4;-21.16;-3.84;103.8;19.10;76961;2837.880;-1801.474;1;137;-70;-61.3;43.2;43.7;15;15.3;26.8;0.0;
24/02/2025 00:39:10;100;0;150.11;-4;-21.09;-3.95;106.0;19.10;76951;2837.879;-1801.472;1;137;-70;-61.3;43.2;43.7;15;15.3;26.8;0.0;
24/02/2025 00:39:30;100;0;150.99;-4;-21.27;-3.87;108.2;19.00;76936;2837.877;-1801.471;1;137;-70;-59.7;43.2;43.7;15;15.3;26.8;0.0;
24/02/2025 00:39:50;100;0;149.18;-4;-21.10;-3.97;110.6;19.00;76939;2837.875;-1801.470;1;137;-70;-61.3;43.2;43.7;15;15.3;26.8;0.0;
24/02/2025 00:40:10;100;0;144.93;-4;-21.04;-4.01;112.8;19.00;76935;2837.874;-1801.468;1;137;-70;-62.9;43.2;43.7;15;15.3;26.8;0.0;
24/02/2025 00:40:30;100;0;145.50;-4;-21.24;-3.88;115.0;19.00;76923;2837.872;-1801.466;1;137;-70;-59.7;43.2;43.7;15;15.3;26.8;0.0;
24/02/2025 00:40:50;100;0;144.78;-4;-20.87;-4.04;117.4;18.90;76926;2837.870;-1801.465;1;137;-70;-61.3;43.2;43.7;15;15.3;26.8;0.0;
24/02/2025 00:41:10;100;0;144.83;-4;-20.92;-4.05;119.6;18.90;76913;2837.869;-1801.463;1;137;-70;-64.5;43.2;43.7;15;15.3;26.8;0.0;
24/02/2025 00:41:30;100;0;142.97;-4;-20.93;-4.02;121.9;18.90;76909;2837.867;-1801.461;1;137;-70;-61.3;43.2;43.6;15;15.3;26.8;0.0;
24/02/2025 00:41:50;100;0;143.28;-4;-21.54;-3.98;124.2;18.90;76901;2837.866;-1801.460;1;137;-70;-61.3;43.2;43.7;15;15.3;26.8;0.0;
24/02/2025 00:42:10;100;0;142.55;-4;-21.60;-3.87;126.7;18.80;76880;2837.864;-1801.458;1;137;-70;-61.3;43.2;43.7;15;15.3;26.8;0.0;
24/02/2025 00:42:30;100;0;141.41;-4;-21.00;-3.92;129.1;18.80;76893;2837.863;-1801.456;1;137;-70;-59.7;43.2;43.7;15;15.3;26.8;0.0;
24/02/2025 00:42:50;100;0;139.33;-4;-21.16;-3.94;131.4;18.80;76872;2837.861;-1801.454;1;137;-70;-61.3;43.2;43.7;13;12.6;26.8;0.0;
24/02/2025 00:43:10;100;0;138.46;-4;-20.80;-5.47;133.9;18.80;76863;2837.860;-1801.452;1;137;-70;-61.3;43.2;43.7;13;12.2;26.8;0.0;
24/02/2025 00:43:30;100;0;137.45;-4;-20.85;-5.48;136.3;18.70;76850;2837.858;-1801.450;1;137;-70;-59.7;43.2;43.9;13;12.2;26.8;0.0;
24/02/2025 00:43:50;100;0;140.32;-4;-20.76;-5.52;138.7;18.70;76834;2837.857;-1801.448;1;137;-70;-61.3;43.2;43.7;13;12.6;26.8;0.0;
24/02/2025 00:44:10;100;0;147.17;-4;-20.75;-5.42;141.1;18.70;76819;2837.855;-1801.446;1;137;-70;-61.3;43.2;43.7;13;12.6;26.8;0.0;
24/02/2025 00:44:30;100;0;149.34;-4;-21.23;-5.48;143.5;18.60;76807;2837.853;-1801.445;1;137;-70;-61.3;43.2;43.6;13;12.6;26.8;0.0;
24/02/2025 00:44:50;100;0;149.41;-4;-21.05;-5.39;146.1;18.60;76811;2837.851;-1801.443;1;137;-70;-61.3;43.2;43.7;15;15.3;26.8;0.0;
24/02/2025 00:45:10;100;0;149.67;-4;-21.25;-3.79;148.7;18.50;76787;2837.849;-1801.442;1;137;-70;-61.3;43.2;43.7;15;15.8;26.8;0.0;
24/02/2025 00:45:30;100;0;152.75;-4;-20.64;-3.78;151.2;18.50;76775;2837.847;-1801.440;1;137;-70;-61.3;43.2;43.6;15;15.8;26.8;0.0;
24/02/2025 00:45:50;100;0;150.66;-4;-20.47;-3.85;153.6;18.50;76768;2837.845;-1801.439;1;137;-70;-61.3;43.2;43.7;15;15.3;26.8;0.0;
24/02/2025 00:46:10;100;0;148.45;-4;-20.71;-3.88;155.8;18.40;76752;2837.843;-1801.437;1;137;-70;-61.3;43.2;43.6;15;15.3;26.8;0.0;
24/02/2025 00:46:30;100;0;149.04;-4;-21.09;-3.82;158.2;18.40;76736;2837.841;-1801.436;1;137;-70;-61.3;43.2;43.7;15;15.8;26.8;0.0;
24/02/2025 00:46:50;100;0;149.02;-4;-20.48;-3.83;160.9;18.40;76735;2837.839;-1801.434;1;137;-70;-62.9;43.2;43.7;15;15.8;26.8;0.0;
24/02/2025 00:47:10;100;0;149.90;-4;-20.75;-3.79;163.4;18.30;76729;2837.837;-1801.432;1;137;-70;-61.3;43.2;43.7;15;15.3;26.8;0.0;
24/02/2025 00:47:30;100;0;149.55;-4;-21.03;-3.80;165.8;18.30;76717;2837.835;-1801.431;1;137;-70;-61.3;43.2;43.7;15;15.8;26.8;0.0;
24/02/2025 00:47:50;100;0;147.98;-4;-20.56;-3.83;168.5;18.20;76711;2837.833;-1801.429;1;137;-70;-59.7;43.2;43.6;15;15.8;26.8;0.0;
24/02/2025 00:48:10;100;0;147.31;-4;-21.12;-3.79;171.1;18.20;76701;2837.831;-1801.427;1;137;-70;-59.7;43.2;43.7;15;15.8;26.8;0.0;
24/02/2025 00:48:30;100;0;147.37;-4;-20.90;-3.82;173.7;18.20;76694;2837.829;-1801.426;1;137;-70;-61.3;43.2;43.7;15;15.8;26.8;0.0;
24/02/2025 00:48:50;100;0;144.87;-4;-20.56;-3.85;176.3;18.10;76695;2837.827;-1801.424;1;137;-70;-61.3;43.2;43.7;15;15.8;26.8;0.0;
24/02/2025 00:49:10;100;0;143.61;-4;-20.70;-3.78;178.9;18.10;76700;2837.826;-1801.422;1;137;-70;-61.3;43.2;43.7;15;15.8;26.8;0.0;
24/02/2025 00:49:30;100;0;141.58;-4;-20.55;-3.77;181.3;18.10;76684;2837.824;-1801.420;1;137;-70;-61.3;43.2;43.7;15;15.8;26.8;0.0;
24/02/2025 00:49:50;100;0;141.59;-4;-20.60;-3.87;183.9;18.00;76676;2837.822;-1801.418;1;137;-70;-61.3;43.2;43.7;15;15.8;26.8;0.0;
24/02/2025 00:50:10;100;0;143.14;-4;-20.95;-3.80;186.5;18.00;76677;2837.820;-1801.416;1;137;-70;-61.3;43.2;43.7;15;15.8;26.8;0.0;
24/02/2025 00:50:30;100;0;142.86;-4;-21.23;-3.84;189.2;18.00;76665;2837.818;-1801.414;1;137;-70;-61.3;43.2;43.7;15;15.8;26.8;0.0;
24/02/2025 00:50:50;100;0;142.15;-4;-21.42;-3.75;192.0;17.90;76655;2837.816;-1801.412;1;137;-70;-62.9;43.2;43.6;15;15.8;26.8;0.0;
24/02/2025 00:51:10;100;0;142.34;-4;-21.34;-3.70;194.8;17.90;76643;2837.814;-1801.409;1;137;-70;-61.3;43.2;43.7;15;15.8;26.8;0.0;
24/02/2025 00:51:30;100;0;141.98;-4;-20.84;-3.75;197.6;17.90;76641;2837.812;-1801.407;1;137;-70;-61.3;43.2;43.7;15;15.8;26.8;0.0;
24/02/2025 00:51:50;100;0;143.77;-4;-20.50;-3.85;200.3;17.80;76622;2837.810;-1801.405;1;137;-70;-64.5;43.2;43.7;15;15.8;26.8;0.0;
24/02/2025 00:52:10;100;0;142.82;-4;-20.98;-3.82;203.0;17.80;76623;2837.808;-1801.403;1;137;-70;-61.3;43.2;43.6;15;15.8;26.8;0.0;
24/02/2025 00:52:30;100;0;141.44;-4;-20.96;-3.82;205.8;17.70;76613;2837.806;-1801.401;1;137;-70;-59.7;43.2;43.7;15;15.3;26.8;0.0;
24/02/2025 00:52:50;100;0;139.79;-4;-21.13;-3.80;208.5;17.70;76607;2837.805;-1801.399;1;137;-70;-61.3;43.2;43.7;15;15.8;26.8;0.0;
24/02/2025 00:53:10;100;0;141.93;-4;-21.05;-3.75;211.4;17.70;76595;2837.802;-1801.396;1;137;-70;-61.3;43.2;43.6;15;15.8;26.8;0.0;
24/02/2025 00:53:30;100;0;141.65;-4;-21.04;-3.78;214.2;17.60;76583;2837.800;-1801.394;1;137;-70;-62.9;43.2;43.6;15;15.8;26.8;0.0;
24/02/2025 00:53:50;100;0;140.81;-4;-20.65;-3.88;217.0;17.60;76573;2837.799;-1801.392;1;137;-70;-61.3;43.2;43.7;15;15.8;26.8;0.0;
24/02/2025 00:54:10;100;0;140.46;-4;-20.25;-3.79;219.6;17.60;76566;2837.797;-1801.390;1;137;-70;-61.3;43.2;43.7;15;15.8;26.8;0.0;
24/02/2025 00:54:31;100;0;141.74;-4;-20.41;-3.72;222.3;17.50;76562;2837.795;-1801.387;1;137;-70;-61.3;43.2;43.7;15;15.8;26.8;0.0;
24/02/2025 00:54:51;100;0;144.19;-4;-20.55;-3.88;224.9;17.50;76559;2837.793;-1801.385;1;137;-70;-61.3;43.2;43.7;15;15.8;26.8;0.0;
24/02/2025 00:55:11;100;0;144.55;-4;-20.67;-3.89;227.5;17.40;76555;2837.791;-1801.384;1;137;-70;-61.3;43.2;43.7;15;15.3;26.8;0.0;
24/02/2025 00:55:31;100;0;144.40;-4;-20.33;-3.72;230.1;17.40;76534;2837.789;-1801.382;1;137;-70;-61.3;43.2;43.7;15;15.8;26.8;0.0;
24/02/2025 00:55:51;100;0;143.71;-4;-20.25;-3.87;232.6;17.40;76530;2837.787;-1801.380;1;137;-70;-61.3;43.2;43.7;15;15.8;26.8;0.0;
24/02/2025 00:56:11;100;0;143.46;-4;-20.65;-3.83;235.0;17.30;76526;2837.785;-1801.378;1;137;-70;-59.7;43.2;43.7;15;15.8;26.8;0.0;
24/02/2025 00:56:31;100;0;143.82;-4;-20.89;-3.80;237.6;17.30;76522;2837.783;-1801.376;1;137;-70;-62.9;43.2;43.7;15;15.8;26.8;0.0;
24/02/2025 00:56:51;100;0;143.46;-4;-20.97;-3.76;240.1;17.20;76510;2837.782;-1801.374;1;137;-70;-61.3;43.2;43.7;15;15.8;26.8;0.0;
24/02/2025 00:57:11;100;0;142.97;-4;-20.52;-3.82;242.8;17.20;76496;2837.780;-1801.372;1;137;-70;-61.3;43.2;43.9;15;15.8;26.8;0.0;
24/02/2025 00:57:31;100;0;142.90;-4;-20.56;-3.84;245.3;17.20;76496;2837.778;-1801.370;1;137;-70;-61.3;43.2;43.7;15;15.3;26.8;0.0;
24/02/2025 00:57:51;100;0;143.06;-4;-20.91;-3.83;247.7;17.10;76489;2837.776;-1801.368;1;137;-70;-61.3;43.2;43.7;15;15.3;26.8;0.0;
24/02/2025 00:58:11;100;0;142.06;-4;-20.23;-3.82;250.3;17.10;76482;2837.774;-1801.366;1;137;-70;-61.3;43.2;43.7;15;15.8;26.8;0.0;
24/02/2025 00:58:31;100;0;141.28;-4;-20.37;-3.84;252.6;17.10;76473;2837.773;-1801.364;1;137;-70;-61.3;43.2;43.7;15;15.8;26.8;0.0;
24/02/2025 00:58:51;100;0;137.35;-4;-20.44;-3.82;254.9;17.00;76455;2837.771;-1801.362;1;137;-70;-61.3;43.2;43.7;13;12.6;26.8;0.0;
24/02/2025 00:59:11;100;0;135.20;-4;-20.48;-5.52;257.2;17.00;76444;2837.770;-1801.360;1;137;-70;-61.3;43.2;43.7;13;12.2;26.8;0.0;
24/02/2025 00:59:31;100;0;135.42;-4;-20.69;-5.51;259.6;17.00;76449;2837.769;-1801.358;1;137;-70;-59.7;43.2;43.7;13;12.2;26.8;0.0;
24/02/2025 00:59:51;100;0;136.93;-4;-20.39;-5.50;262.0;16.90;76434;2837.767;-1801.356;1;137;-70;-59.7;43.2;43.7;13;12.2;26.8;0.0;
24/02/2025 01:00:11;100;0;138.80;-4;-20.01;-5.56;264.4;16.90;76425;2837.765;-1801.354;1;137;-70;-62.9;43.2;43.7;13;12.2;26.8;0.0;
24/02/2025 01:00:31;100;0;138.54;-4;-20.35;-5.51;266.7;16.90;76410;2837.764;-1801.352;1;137;-70;-62.9;43.2;43.7;13;12.2;26.8;0.0;
24/02/2025 01:00:51;100;0;137.78;-4;-20.32;-5.53;269.2;16.80;76407;2837.762;-1801.349;1;137;-70;-61.3;43.2;43.7;13;12.6;26.8;0.0;
24/02/2025 01:01:11;100;0;136.78;-4;-20.38;-5.49;271.5;16.80;76394;2837.761;-1801.347;1;137;-70;-62.9;43.2;43.7;13;12.2;26.8;0.0;
24/02/2025 01:01:31;100;0;136.97;-4;-20.59;-5.51;273.8;16.70;76390;2837.760;-1801.345;1;137;-70;-59.7;43.2;43.7;13;12.2;26.8;0.0;
24/02/2025 01:01:51;100;0;137.39;-4;-20.56;-5.47;276.2;16.70;76379;2837.758;-1801.343;1;137;-70;-59.7;43.2;43.7;13;12.2;26.8;0.0;
24/02/2025 01:02:11;100;0;136.62;-4;-20.72;-5.48;278.6;16.70;76385;2837.757;-1801.341;1;137;-70;-61.3;43.2;43.7;13;12.2;26.8;0.0;
24/02/2025 01:02:31;100;0;135.91;-4;-20.67;-5.50;281.0;16.60;76374;2837.755;-1801.339;1;137;-70;-61.3;43.2;43.7;13;12.2;26.8;0.0;
24/02/2025 01:02:51;100;0;134.11;-4;-20.56;-5.53;283.4;16.60;76378;2837.754;-1801.337;1;137;-70;-61.3;43.2;43.6;10;9.9;26.8;0.0;
24/02/2025 01:03:11;100;0;137.30;-4;-20.55;-6.84;285.8;16.60;76356;2837.752;-1801.335;1;137;-70;-61.3;43.2;43.7;12;12.2;26.8;0.0;
24/02/2025 01:03:31;100;0;141.53;-4;-20.65;-5.22;288.2;16.50;76351;2837.751;-1801.333;1;137;-70;-61.3;43.2;43.7;12;12.6;26.8;0.0;
24/02/2025 01:03:51;100;0;147.06;-4;-20.52;-5.13;290.6;16.50;76339;2837.749;-1801.331;1;137;-70;-61.3;43.2;43.7;14;14.0;26.8;0.0;
24/02/2025 01:04:11;100;0;145.46;-4;-20.42;-4.57;292.9;16.50;76348;2837.747;-1801.330;1;137;-70;-61.3;43.2;43.7;14;14.4;26.8;0.0;
24/02/2025 01:04:31;100;0;146.02;-4;-20.59;-4.54;295.3;16.40;76338;2837.746;-1801.328;1;137;-70;-61.3;43.2;43.7;14;14.0;26.8;0.0;
24/02/2025 01:04:51;100;0;145.32;-4;-20.46;-4.54;297.7;16.40;76324;2837.744;-1801.326;1;137;-70;-62.9;43.2;43.7;14;14.0;26.8;0.0;
24/02/2025 01:05:11;100;0;145.48;-4;-20.48;-4.54;300.1;16.40;76317;2837.742;-1801.324;1;137;-70;-61.3;43.2;43.7;14;14.0;26.8;0.0;
24/02/2025 01:05:31;100;0;146.56;-4;-20.46;-4.57;302.5;16.30;76301;2837.740;-1801.323;1;137;-70;-64.5;43.2;43.6;14;14.4;26.8;0.0;
24/02/2025 01:05:51;100;0;146.79;-4;-20.34;-4.57;304.9;16.30;76296;2837.738;-1801.321;1;137;-70;-61.3;43.2;43.6;14;14.4;26.8;0.0;
24/02/2025 01:06:11;100;0;146.13;-4;-20.43;-4.59;307.3;16.20;76298;2837.736;-1801.319;1;137;-70;-61.3;43.2;43.7;14;14.0;26.8;0.0;
24/02/2025 01:06:31;100;0;145.41;-4;-20.37;-4.61;309.9;16.20;76293;2837.734;-1801.317;1;137;-70;-61.3;43.2;43.7;14;14.0;26.8;0.0;
24/02/2025 01:06:51;100;0;145.66;-4;-20.42;-4.55;312.2;16.20;76289;2837.733;-1801.316;1;137;-70;-61.3;43.2;43.7;14;14.4;26.8;0.0;
24/02/2025 01:07:11;100;0;148.90;-4;-20.07;-4.52;314.7;16.10;76287;2837.731;-1801.314;1;137;-70;-64.5;43.2;43.7;14;14.4;26.8;0.0;
24/02/2025 01:07:31;100;0;151.23;-4;-20.10;-4.61;317.1;16.10;76278;2837.729;-1801.312;1;137;-70;-61.3;43.2;43.7;14;14.0;26.8;0.0;
24/02/2025 01:07:51;100;0;151.51;-4;-20.36;-4.59;319.6;16.10;76266;2837.727;-1801.311;1;137;-70;-61.3;43.2;43.6;16;16.2;26.8;0.0;
24/02/2025 01:08:11;100;0;152.63;-4;-20.29;-3.29;322.0;16.00;76251;2837.725;-1801.310;1;137;-70;-59.7;43.2;43.7;16;16.7;26.8;0.0;
24/02/2025 01:08:31;100;0;154.74;-4;-20.26;-3.34;324.4;16.00;76249;2837.723;-1801.308;1;137;-70;-62.9;43.2;43.7;18;18.1;26.8;0.0;
24/02/2025 01:08:51;100;0;154.32;-4;-20.67;-2.39;326.8;16.00;76240;2837.721;-1801.307;1;137;-70;-61.3;43.2;43.7;18;18.5;26.8;0.0;
24/02/2025 01:09:11;100;0;152.85;-4;-20.76;-2.28;329.3;16.00;76242;2837.719;-1801.306;1;137;-70;-62.9;43.2;43.7;18;18.5;26.8;0.0;
24/02/2025 01:09:31;100;0;150.03;-4;-20.52;-2.38;331.8;15.90;76231;2837.717;-1801.304;1;137;-70;-61.3;43.2;43.7;15;14.9;26.8;0.0;
24/02/2025 01:09:51;100;0;147.96;-4;-20.67;-4.34;334.4;15.90;76237;2837.715;-1801.302;1;137;-70;-61.3;43.2;43.7;15;14.4;26.8;0.0;
24/02/2025 01:10:11;100;0;147.05;-4;-20.66;-4.38;336.8;15.80;76229;2837.713;-1801.301;1;137;-70;-61.3;43.2;43.7;15;14.9;26.8;0.0;
24/02/2025 01:10:31;100;0;144.66;-4;-20.50;-4.32;339.4;15.80;76216;2837.711;-1801.299;1;137;-70;-61.3;43.2;43.7;15;14.9;26.8;0.0;
24/02/2025 01:10:51;100;0;143.54;-4;-20.43;-4.34;341.9;15.80;76218;2837.709;-1801.297;1;137;-70;-61.3;43.2;43.7;15;14.4;26.8;0.0;
24/02/2025 01:11:11;100;0;141.28;-4;-20.23;-4.32;344.4;15.80;76208;2837.707;-1801.295;1;137;-70;-64.5;43.2;43.7;15;14.9;26.8;0.0;
24/02/2025 01:11:31;100;0;139.99;-4;-20.37;-4.39;346.9;15.70;76207;2837.706;-1801.293;1;137;-70;-61.3;43.2;43.6;15;14.4;26.8;0.0;
24/02/2025 01:11:51;100;0;138.60;-4;-20.49;-4.38;349.5;15.70;76194;2837.704;-1801.290;1;137;-70;-61.3;43.2;43.7;15;14.4;26.8;0.0;
24/02/2025 01:12:11;100;0;137.62;-4;-20.34;-4.37;352.1;15.60;76190;2837.702;-1801.288;1;137;-70;-61.3;43.2;43.7;13;12.6;26.8;0.0;
24/02/2025 01:12:31;100;0;137.92;-4;-20.07;-5.40;354.6;15.60;76196;2837.700;-1801.286;1;137;-70;-61.3;43.2;43.7;13;12.6;26.8;0.0;
24/02/2025 01:12:51;100;0;138.33;-4;-20.31;-5.30;357.2;15.60;76188;2837.699;-1801.284;1;137;-70;-61.3;43.2;43.7;13;12.6;26.8;0.0;
24/02/2025 01:13:11;100;0;138.52;-4;-20.24;-5.44;359.7;15.60;76189;2837.697;-1801.281;1;137;-70;-61.3;43.2;43.7;13;12.6;26.8;0.0;
24/02/2025 01:13:31;100;0;138.20;-4;-20.02;-5.50;362.3;15.50;76174;2837.695;-1801.279;1;137;-70;-61.3;43.2;43.7;13;12.6;26.8;0.0;
24/02/2025 01:13:51;100;0;141.01;-4;-19.99;-5.44;364.7;15.50;76178;2837.693;-1801.277;1;137;-70;-61.3;43.2;43.7;13;12.6;26.8;0.0;
24/02/2025 01:14:11;100;0;144.01;-4;-20.27;-5.40;367.2;15.50;76171;2837.692;-1801.275;1;137;-70;-61.3;43.2;43.6;13;12.6;26.8;0.0;
24/02/2025 01:14:31;100;0;146.25;-4;-20.38;-5.35;369.7;15.50;76163;2837.690;-1801.273;1;137;-70;-61.3;43.2;43.7;13;12.6;26.8;0.0;
24/02/2025 01:14:51;100;0;148.56;-4;-20.04;-5.37;372.2;15.40;76156;2837.688;-1801.272;1;137;-70;-61.3;43.2;43.7;13;12.6;26.8;0.0;
24/02/2025 01:15:11;100;0;151.31;-4;-20.06;-5.38;374.7;15.40;76166;2837.686;-1801.270;1;137;-70;-61.3;43.2;43.7;16;15.8;26.8;0.0;
24/02/2025 01:15:31;100;0;154.10;-4;-20.12;-3.59;377.3;15.40;76159;2837.683;-1801.269;1;137;-70;-61.3;43.2;43.6;18;18.1;26.8;0.0;
24/02/2025 01:15:51;100;0;156.85;-4;-20.28;-2.41;379.7;15.30;76143;2837.681;-1801.268;1;137;-70;-61.3;43.2;43.6;20;19.9;26.8;0.0;
24/02/2025 01:16:11;100;0;154.65;-4;-20.66;-1.50;382.3;15.30;76135;2837.679;-1801.266;1;137;-70;-61.3;43.2;43.7;20;20.3;26.8;0.0;
24/02/2025 01:16:31;100;0;151.92;-4;-20.34;-1.47;384.9;15.30;76133;2837.677;-1801.265;1;137;-70;-59.7;43.2;43.7;16;15.8;26.8;0.0;
24/02/2025 01:16:51;100;0;153.36;-4;-20.29;-3.95;387.4;15.30;76121;2837.675;-1801.263;1;137;-70;-61.3;43.2;43.7;16;15.3;26.8;0.0;
24/02/2025 01:17:11;100;0;150.51;-4;-20.34;-3.95;390.0;15.20;76121;2837.672;-1801.262;1;137;-70;-59.7;43.2;43.7;16;15.3;26.8;0.0;
24/02/2025 01:17:31;100;0;148.49;-4;-20.37;-4.01;392.6;15.20;76112;2837.670;-1801.260;1;137;-70;-61.3;43.2;43.7;16;15.3;26.8;0.0;
24/02/2025 01:17:51;100;0;146.59;-4;-20.46;-4.02;395.2;15.20;76116;2837.668;-1801.258;1;137;-70;-61.3;43.2;43.7;14;14.0;26.8;0.0;
24/02/2025 01:18:11;100;0;145.09;-4;-20.11;-4.53;397.9;15.20;76103;2837.666;-1801.256;1;137;-70;-61.3;43.2;43.6;14;14.4;26.8;0.0;
24/02/2025 01:18:31;100;0;145.07;-4;-20.09;-4.52;400.5;15.10;76093;2837.664;-1801.254;1;137;-70;-61.3;43.2;43.6;14;14.4;26.8;0.0;
24/02/2025 01:18:51;100;0;143.68;-4;-19.74;-4.53;403.0;15.10;76081;2837.662;-1801.252;1;137;-70;-61.3;43.2;43.7;14;14.4;26.8;0.0;
24/02/2025 01:19:11;100;0;141.80;-4;-19.78;-4.64;405.5;15.10;76086;2837.660;-1801.250;1;137;-70;-61.3;43.2;43.7;14;14.4;26.8;0.0;
24/02/2025 01:19:31;100;0;141.95;-4;-19.96;-4.55;408.0;15.10;76078;2837.659;-1801.248;1;137;-70;-61.3;43.2;43.7;14;14.4;26.8;0.0;
24/02/2025 01:19:51;100;0;144.15;-4;-20.00;-4.57;410.5;15.00;76068;2837.657;-1801.246;1;137;-70;-61.3;43.2;43.7;14;14.4;26.8;0.0;
24/02/2025 01:20:11;100;0;146.14;-4;-19.64;-4.60;413.0;15.00;76073;2837.655;-1801.244;1;137;-70;-61.3;43.2;43.7;14;14.4;26.8;0.0;
24/02/2025 01:20:31;100;0;149.64;-4;-19.98;-4.61;415.4;15.00;76070;2837.653;-1801.243;1;137;-70;-61.3;43.2;43.7;14;14.4;26.8;0.0;
24/02/2025 01:20:51;100;0;150.70;-4;-19.93;-4.57;417.9;14.90;76058;2837.651;-1801.241;1;137;-70;-61.3;43.2;43.7;16;15.8;26.8;0.0;
24/02/2025 01:21:11;100;0;153.42;-4;-20.23;-3.43;420.4;14.90;76053;2837.649;-1801.240;1;137;-70;-61.3;43.2;43.7;18;18.5;26.8;0.0;
24/02/2025 01:21:31;100;0;154.60;-4;-19.65;-2.36;422.9;14.90;76047;2837.646;-1801.238;1;137;-70;-61.3;43.2;43.7;18;18.5;26.8;0.0;
24/02/2025 01:21:51;100;0;152.69;-4;-20.02;-2.36;425.3;14.90;76042;2837.644;-1801.237;1;137;-70;-61.3;43.2;43.7;16;15.8;26.8;0.0;
24/02/2025 01:22:11;100;0;148.87;-4;-19.74;-4.01;427.7;14.80;76043;2837.642;-1801.235;1;137;-70;-61.3;43.2;43.7;16;15.3;26.8;0.0;
24/02/2025 01:22:31;100;0;148.51;-4;-19.89;-4.06;430.1;14.80;76034;2837.641;-1801.234;1;137;-70;-61.3;43.2;43.7;16;15.3;26.8;0.0;
24/02/2025 01:22:51;100;0;147.92;-4;-19.72;-4.01;432.6;14.80;76032;2837.639;-1801.232;1;137;-70;-61.3;43.2;43.7;16;15.3;26.8;0.0;
24/02/2025 01:23:11;100;0;147.51;-4;-19.88;-4.04;435.0;14.80;76017;2837.637;-1801.230;1;137;-70;-61.3;43.2;43.7;16;15.3;26.8;0.0;
24/02/2025 01:23:31;100;0;147.62;-4;-19.86;-4.00;437.2;14.70;76015;2837.635;-1801.229;1;137;-70;-61.3;43.2;43.7;16;15.3;26.8;0.0;
24/02/2025 01:23:51;100;0;147.88;-4;-19.96;-4.01;439.7;14.70;76005;2837.633;-1801.227;1;137;-70;-61.3;43.2;43.7;16;15.3;26.8;0.0;
24/02/2025 01:24:11;100;0;148.28;-4;-19.76;-4.01;442.0;14.70;76003;2837.631;-1801.226;1;137;-70;-62.9;43.2;43.7;16;15.3;26.8;0.0;
24/02/2025 01:24:31;100;0;148.76;-4;-19.97;-4.00;444.3;14.60;76002;2837.629;-1801.224;1;137;-70;-61.3;43.2;43.7;16;15.3;26.8;0.0;
24/02/2025 01:24:51;100;0;148.19;-4;-19.83;-3.97;446.8;14.60;75995;2837.627;-1801.222;1;137;-70;-61.3;43.2;43.7;16;15.3;26.8;0.0;
24/02/2025 01:25:11;100;0;145.34;-4;-19.70;-4.00;449.1;14.60;75997;2837.626;-1801.221;1;137;-70;-61.3;43.2;43.7;14;14.0;26.8;0.0;
24/02/2025 01:25:31;100;0;144.38;-4;-19.44;-4.74;451.4;14.60;75985;2837.624;-1801.219;1;137;-70;-61.3;43.2;43.7;14;14.0;26.8;0.0;
24/02/2025 01:25:51;100;0;142.38;-4;-19.72;-4.73;453.7;14.60;75980;2837.622;-1801.217;1;137;-70;-64.5;43.2;43.7;14;14.0;26.8;0.0;
24/02/2025 01:26:11;100;0;140.79;-4;-19.77;-4.71;455.9;14.50;75968;2837.621;-1801.215;1;137;-70;-61.3;43.2;43.7;14;14.0;26.8;0.0;
24/02/2025 01:26:31;100;0;140.08;-4;-19.77;-4.70;458.2;14.50;75969;2837.619;-1801.213;1;137;-70;-61.3;43.2;43.7;14;14.0;26.8;0.0;
24/02/2025 01:26:51;100;0;138.68;-4;-19.65;-4.74;460.6;14.50;75965;2837.618;-1801.211;1;137;-70;-61.3;43.2;43.7;14;14.4;26.8;0.0;
24/02/2025 01:27:11;100;0;137.53;-4;-19.62;-4.67;462.9;14.50;75955;2837.616;-1801.209;1;137;-70;-61.3;43.2;43.7;14;14.0;26.8;0.0;
24/02/2025 01:27:31;100;0;135.39;-4;-19.86;-4.66;465.1;14.40;75954;2837.615;-1801.207;1;137;-70;-61.3;43.2;43.7;12;12.2;26.8;0.0;
24/02/2025 01:27:51;100;0;134.56;-4;-19.41;-5.69;467.4;14.40;75952;2837.614;-1801.205;1;137;-70;-61.3;43.2;43.7;12;12.2;26.8;0.0;
24/02/2025 01:28:11;100;0;133.02;-4;-19.48;-5.83;469.7;14.40;75953;2837.612;-1801.202;1;137;-70;-59.7;43.2;43.7;10;9.9;26.8;0.0;
24/02/2025 01:28:31;100;0;132.29;-4;-19.49;-6.98;472.0;14.40;75937;2837.611;-1801.200;1;137;-70;-61.3;43.2;43.7;10;9.5;26.8;0.0;
24/02/2025 01:28:51;100;0;132.96;-4;-19.47;-6.86;474.4;14.30;75927;2837.609;-1801.198;1;137;-70;-61.3;43.2;43.7;10;9.5;26.8;0.0;
24/02/2025 01:29:11;100;0;130.94;-4;-19.80;-7.07;476.7;14.30;75937;2837.608;-1801.195;1;137;-70;-61.3;43.2;43.9;8;8.1;26.8;0.0;
24/02/2025 01:29:32;100;0;130.18;-4;-19.69;-7.72;479.1;14.30;75930;2837.607;-1801.193;1;137;-70;-61.3;43.2;43.7;8;8.1;26.8;0.0;
24/02/2025 01:29:52;100;0;130.82;-4;-19.37;-7.75;481.5;14.30;75915;2837.606;-1801.190;1;137;-70;-61.3;43.2;43.7;8;8.1;26.8;0.0;
24/02/2025 01:30:12;100;0;133.93;-4;-19.52;-7.72;483.8;14.20;75924;2837.604;-1801.188;1;137;-70;-59.7;43.2;43.7;11;10.8;26.8;0.0;
24/02/2025 01:30:32;100;0;134.91;-4;-19.62;-6.00;486.2;14.20;75912;2837.603;-1801.186;1;137;-70;-61.3;43.2;43.7;11;11.3;26.8;0.0;
24/02/2025 01:30:52;100;0;138.37;-4;-19.56;-5.93;488.7;14.20;75899;2837.601;-1801.184;1;137;-70;-61.3;43.2;43.7;14;14.0;26.8;0.0;
24/02/2025 01:31:12;100;0;140.28;-4;-19.73;-4.57;491.1;14.20;75905;2837.600;-1801.182;1;137;-70;-61.3;43.2;43.6;14;14.4;26.8;0.0;
24/02/2025 01:31:32;100;0;141.88;-4;-19.77;-4.54;493.5;14.20;75909;2837.598;-1801.180;1;137;-70;-61.3;43.2;43.7;14;14.4;26.8;0.0;
24/02/2025 01:31:52;100;0;144.03;-4;-19.57;-4.49;495.9;14.10;75907;2837.596;-1801.178;1;137;-70;-61.3;43.2;43.6;14;14.4;26.8;0.0;
24/02/2025 01:32:12;100;0;144.24;-4;-19.86;-4.56;498.4;14.10;75897;2837.594;-1801.176;1;137;-70;-59.7;43.2;43.7;14;14.0;26.8;0.0;
24/02/2025 01:32:32;100;0;144.96;-4;-19.77;-4.52;500.8;14.10;75890;2837.592;-1801.174;1;137;-70;-61.3;43.2;43.7;14;14.4;26.8;0.0;
24/02/2025 01:32:52;100;0;146.14;-4;-19.86;-4.57;503.3;14.10;75894;2837.590;-1801.172;1;137;-70;-62.9;43.2;43.7;14;14.4;26.8;0.0;
24/02/2025 01:33:12;100;0;146.35;-4;-19.95;-4.57;505.7;14.00;75882;2837.589;-1801.171;1;137;-70;-61.3;43.2;43.7;14;14.0;26.8;0.0;
24/02/2025 01:33:32;100;0;148.27;-4;-19.84;-4.50;508.2;14.00;75880;2837.587;-1801.169;1;137;-70;-61.3;43.2;43.7;14;14.0;26.8;0.0;
24/02/2025 01:33:52;100;0;149.79;-4;-19.82;-4.46;510.6;14.00;75865;2837.585;-1801.167;1;137;-70;-61.3;43.2;43.7;14;14.0;26.8;0.0;
24/02/2025 01:34:12;100;0;150.66;-4;-19.93;-4.45;513.0;14.00;75875;2837.583;-1801.166;1;137;-70;-61.3;43.2;43.7;16;15.8;26.8;0.0;
24/02/2025 01:34:32;100;0;150.84;-4;-19.97;-3.23;515.4;13.90;75867;2837.581;-1801.164;1;137;-70;-61.3;43.2;43.7;16;16.7;26.8;0.0;
24/02/2025 01:34:52;100;0;149.80;-4;-19.99;-3.36;517.8;13.90;75857;2837.579;-1801.163;1;137;-70;-61.3;43.2;43.7;16;16.7;26.8;0.0;
24/02/2025 01:35:12;100;0;149.52;-4;-20.05;-3.33;520.2;13.90;75857;2837.577;-1801.161;1;137;-70;-61.3;43.2;43.6;16;16.7;26.8;0.0;
24/02/2025 01:35:32;100;0;149.87;-4;-19.88;-3.37;522.6;13.90;75855;2837.575;-1801.160;1;137;-70;-61.3;43.2;43.7;16;16.7;26.8;0.0;
24/02/2025 01:35:52;100;0;147.46;-4;-19.77;-3.41;524.8;13.90;75862;2837.573;-1801.158;1;137;-70;-61.3;43.2;43.7;14;14.0;26.8;0.0;
24/02/2025 01:36:12;100;0;147.98;-4;-19.28;-4.89;527.1;13.80;75850;2837.571;-1801.157;1;137;-70;-59.7;43.2;43.6;14;13.5;26.8;0.0;
24/02/2025 01:36:32;100;0;150.55;-4;-19.37;-4.98;529.3;13.80;75845;2837.570;-1801.155;1;137;-70;-61.3;43.2;43.7;14;13.5;26.8;0.0;
24/02/2025 01:36:52;100;0;154.12;-4;-19.35;-4.99;531.5;13.80;75842;2837.568;-1801.154;1;137;-70;-61.3;43.2;43.7;17;17.1;26.8;0.0;
24/02/2025 01:37:12;100;0;155.00;-4;-19.76;-2.76;533.7;13.80;75820;2837.566;-1801.153;1;137;-70;-59.7;43.2;43.6;17;18.1;26.8;0.0;
24/02/2025 01:37:32;100;0;156.13;-4;-19.70;-2.79;536.0;13.70;75824;2837.564;-1801.152;1;137;-70;-61.3;43.2;43.7;20;19.9;26.8;0.0;
24/02/2025 01:37:52;100;0;155.43;-4;-19.59;-1.57;538.2;13.70;75822;2837.562;-1801.151;1;137;-70;-61.3;43.2;43.6;20;20.3;26.8;0.0;
24/02/2025 01:38:12;100;0;152.62;-4;-19.64;-1.62;540.4;13.70;75817;2837.560;-1801.149;1;137;-70;-61.3;43.2;43.6;17;17.1;26.8;0.0;
24/02/2025 01:38:32;100;0;151.85;-4;-19.65;-3.33;542.8;13.70;75826;2837.558;-1801.148;1;137;-70;-61.3;43.2;43.7;17;17.1;26.8;0.0;
24/02/2025 01:38:52;100;0;150.59;-4;-19.40;-3.29;545.0;13.70;75819;2837.556;-1801.146;1;137;-70;-61.3;43.2;43.7;15;14.9;26.8;0.0;
24/02/2025 01:39:12;100;0;149.71;-4;-19.65;-4.36;547.2;13.60;75814;2837.555;-1801.145;1;137;-70;-59.7;43.2;43.6;15;14.9;26.8;0.0;
24/02/2025 01:39:32;100;0;149.95;-4;-19.43;-4.29;549.5;13.60;75810;2837.553;-1801.144;1;137;-70;-61.3;43.2;43.7;15;14.9;26.8;0.0;
24/02/2025 01:39:52;100;0;151.71;-4;-19.32;-4.26;551.8;13.60;75813;2837.551;-1801.142;1;137;-70;-61.3;43.2;43.7;15;14.9;26.8;0.0;
24/02/2025 01:40:12;100;0;154.32;-4;-19.28;-4.32;554.0;13.60;75809;2837.549;-1801.141;1;137;-70;-61.3;43.2;43.7;18;18.1;26.8;0.0;
24/02/2025 01:40:32;100;0;155.08;-4;-19.52;-2.37;556.2;13.60;75796;2837.547;-1801.140;1;137;-70;-59.7;43.2;43.6;18;19.0;26.8;0.0;
24/02/2025 01:40:52;100;0;155.31;-4;-19.71;-2.37;558.4;13.60;75788;2837.545;-1801.139;1;137;-70;-59.7;43.2;43.7;18;18.5;26.8;0.0;
24/02/2025 01:41:12;100;0;155.31;-4;-19.62;-2.38;560.7;13.50;75798;2837.543;-1801.138;1;137;-70;-61.3;43.2;43.7;18;19.0;26.8;0.0;
24/02/2025 01:41:32;100;0;155.46;-4;-19.59;-2.36;562.8;13.50;75786;2837.541;-1801.136;1;137;-70;-61.3;43.2;43.7;18;18.5;26.8;0.0;
24/02/2025 01:41:52;100;0;155.50;-4;-19.55;-2.32;565.0;13.50;75789;2837.540;-1801.135;1;137;-70;-61.3;43.2;43.7;18;18.5;26.8;0.0;
24/02/2025 01:42:12;100;0;155.76;-4;-19.63;-2.36;567.3;13.50;75781;2837.538;-1801.134;1;137;-70;-61.3;43.2;43.7;20;19.9;26.8;0.0;
24/02/2025 01:42:32;100;0;155.44;-4;-19.79;-1.45;569.5;13.50;75782;2837.536;-1801.133;1;137;-70;-59.7;43.2;43.7;20;20.8;26.8;0.0;
24/02/2025 01:42:52;100;0;155.30;-4;-19.99;-1.42;571.8;13.40;75777;2837.534;-1801.132;1;137;-70;-59.7;43.2;43.7;20;20.3;26.8;0.0;
24/02/2025 01:43:12;100;0;155.76;-4;-19.79;-1.36;574.2;13.40;75781;2837.532;-1801.131;1;137;-70;-61.3;43.2;43.7;20;20.3;26.8;0.0;
24/02/2025 01:43:32;100;0;152.06;-4;-19.51;-1.43;576.5;13.40;75773;2837.530;-1801.129;1;137;-70;-59.7;43.2;43.7;17;17.1;26.8;0.0;
24/02/2025 01:43:52;100;0;148.63;-4;-19.21;-3.41;578.6;13.40;75769;2837.528;-1801.128;1;137;-70;-61.3;43.2;43.7;15;14.9;26.8;0.0;
24/02/2025 01:44:12;100;0;146.45;-4;-19.22;-4.42;580.8;13.40;75757;2837.526;-1801.126;1;137;-70;-61.3;43.2;43.7;15;14.9;26.8;0.0;
24/02/2025 01:44:32;100;0;145.09;-4;-19.42;-4.45;583.0;13.30;75755;2837.525;-1801.125;1;137;-70;-61.3;43.2;43.7;15;14.4;26.8;0.0;
24/02/2025 01:44:52;100;0;142.94;-4;-18.94;-4.47;585.1;13.30;75755;2837.523;-1801.123;1;137;-70;-61.3;43.6;43.6;15;14.9;26.8;0.0;
24/02/2025 01:45:12;100;0;140.67;-4;-18.83;-4.50;587.4;13.30;75748;2837.522;-1801.121;1;137;-70;-61.3;43.9;43.9;15;14.9;26.8;0.0;
24/02/2025 01:45:32;100;0;139.37;-4;-19.71;-4.43;589.5;13.30;75743;2837.520;-1801.119;1;137;-70;-61.3;43.9;44.2;15;14.4;26.8;0.0;
24/02/2025 01:45:52;100;0;137.81;-4;-20.00;-4.45;591.6;13.30;75742;2837.519;-1801.117;1;137;-70;-61.3;43.9;44.2;15;14.9;26.8;0.0;
24/02/2025 01:46:12;100;0;136.86;-4;-19.94;-4.45;593.7;13.30;75737;2837.518;-1801.115;1;137;-70;-59.7;43.9;44.3;15;14.9;26.8;0.0;
24/02/2025 01:46:32;100;0;136.96;-4;-20.06;-4.44;595.9;13.20;75729;2837.516;-1801.113;1;137;-70;-59.7;43.9;44.2;15;14.4;26.8;0.0;
24/02/2025 01:46:52;100;0;135.41;-4;-20.03;-4.43;598.1;13.20;75720;2837.515;-1801.111;1;137;-70;-61.3;43.9;44.3;13;13.1;26.8;0.0;
24/02/2025 01:47:12;100;0;132.88;-4;-20.20;-5.42;600.3;13.20;75719;2837.514;-1801.109;1;137;-70;-61.3;43.9;44.2;11;10.8;26.8;0.0;
24/02/2025 01:47:32;100;0;132.71;-4;-20.06;-6.46;602.5;13.20;75722;2837.513;-1801.107;1;137;-70;-61.3;43.9;44.2;11;10.8;26.8;0.0;
24/02/2025 01:47:52;100;0;131.88;-4;-20.03;-6.45;604.7;13.20;75726;2837.512;-1801.105;1;137;-70;-61.3;43.9;44.2;11;10.4;26.8;0.0;
24/02/2025 01:48:12;100;0;130.54;-4;-19.97;-6.38;606.8;13.10;75707;2837.511;-1801.103;1;137;-70;-61.3;43.9;44.3;8;8.1;26.8;0.0;
24/02/2025 01:48:32;100;0;132.26;-4;-19.97;-7.65;609.1;13.10;75705;2837.509;-1801.100;1;137;-70;-61.3;43.9;44.2;10;9.9;26.8;0.0;
24/02/2025 01:48:52;100;0;133.43;-4;-20.08;-6.40;611.6;13.10;75701;2837.508;-1801.098;1;137;-70;-61.3;43.9;44.2;12;12.2;26.8;0.0;
24/02/2025 01:49:12;100;0;132.44;-4;-20.22;-5.60;613.9;13.10;75702;2837.507;-1801.096;1;137;-70;-61.3;43.9;44.2;10;9.9;26.8;0.0;
24/02/2025 01:49:32;100;0;132.91;-4;-20.05;-6.84;616.2;13.10;75700;2837.505;-1801.094;1;137;-70;-59.7;43.9;44.2;10;9.9;26.8;0.0;
24/02/2025 01:49:52;100;0;132.29;-4;-20.06;-6.85;618.5;13.10;75695;2837.504;-1801.091;1;137;-70;-61.3;43.9;44.2;10;9.9;26.8;0.0;
24/02/2025 01:50:12;100;0;132.18;-4;-19.76;-6.90;620.8;13.00;75694;2837.503;-1801.089;1;137;-70;-62.9;43.9;44.3;10;9.5;26.8;0.0;
24/02/2025 01:50:32;100;0;132.72;-4;-19.85;-6.90;623.1;13.00;75689;2837.501;-1801.087;1;137;-70;-61.3;43.9;44.3;10;9.5;26.8;0.0;
24/02/2025 01:50:52;100;0;131.87;-4;-19.91;-6.84;625.4;13.00;75685;2837.500;-1801.085;1;137;-70;-61.3;43.9;44.2;10;9.9;26.8;0.0;
24/02/2025 01:51:12;100;0;134.12;-4;-19.80;-6.85;627.7;13.00;75674;2837.499;-1801.082;1;137;-70;-61.3;43.9;44.3;10;9.5;26.8;0.0;
24/02/2025 01:51:32;100;0;136.44;-4;-19.98;-6.85;630.0;13.00;75675;2837.497;-1801.080;1;137;-70;-61.3;43.9;44.3;13;13.1;26.8;0.0;
24/02/2025 01:51:52;100;0;136.36;-4;-19.55;-4.93;632.3;12.90;75665;2837.496;-1801.078;1;137;-70;-61.3;43.9;44.2;13;13.5;26.8;0.0;
24/02/2025 01:52:12;100;0;139.50;-4;-19.99;-4.91;634.5;12.90;75663;2837.495;-1801.076;1;137;-70;-61.3;43.9;44.3;13;13.5;26.8;0.0;
24/02/2025 01:52:32;100;0;140.70;-4;-19.79;-4.96;636.8;12.90;75658;2837.493;-1801.074;1;137;-70;-61.3;43.9;44.2;13;13.5;26.8;0.0;
24/02/2025 01:52:52;100;0;142.38;-4;-19.58;-4.93;639.0;12.90;75646;2837.491;-1801.073;1;137;-70;-59.7;43.9;44.3;13;13.5;26.8;0.0;
24/02/2025 01:53:12;100;0;144.76;-4;-19.91;-4.92;641.2;12.90;75649;2837.490;-1801.071;1;137;-70;-61.3;43.9;44.3;13;13.5;26.8;0.0;
24/02/2025 01:53:32;100;0;146.24;-4;-19.81;-4.93;643.5;12.80;75646;2837.488;-1801.069;1;137;-70;-61.3;43.9;44.3;13;13.5;26.8;0.0;
24/02/2025 01:53:52;100;0;147.91;-4;-19.86;-4.87;645.8;12.80;75635;2837.486;-1801.068;1;137;-70;-59.7;43.9;44.3;15;14.9;26.8;0.0;
24/02/2025 01:54:12;100;0;149.55;-4;-19.90;-3.98;648.2;12.80;75631;2837.484;-1801.066;1;137;-70;-61.3;43.9;44.3;15;15.3;26.8;0.0;
24/02/2025 01:54:32;100;0;151.04;-4;-19.92;-4.02;650.4;12.80;75631;2837.483;-1801.065;1;137;-70;-61.3;43.9;44.3;15;15.3;26.8;0.0;
24/02/2025 01:54:52;100;0;150.57;-4;-19.83;-3.99;652.8;12.80;75627;2837.481;-1801.063;1;137;-70;-59.7;43.9;44.2;15;15.3;26.8;0.0;
24/02/2025 01:55:12;100;0;150.61;-4;-19.85;-4.07;655.1;12.80;75630;2837.479;-1801.062;1;137;-70;-59.7;43.9;44.3;15;15.3;26.8;0.0;
24/02/2025 01:55:32;100;0;151.90;-4;-19.83;-4.03;657.5;12.70;75623;2837.477;-1801.061;1;137;-70;-59.7;43.9;44.2;15;15.3;26.8;0.0;
24/02/2025 01:55:52;100;0;151.63;-4;-19.81;-4.02;659.9;12.70;75623;2837.475;-1801.059;1;137;-70;-61.3;43.9;44.3;17;17.6;26.8;0.0;
24/02/2025 01:56:12;100;0;150.24;-4;-20.01;-2.81;662.2;12.70;75609;2837.473;-1801.058;1;137;-70;-61.3;43.9;44.2;15;14.9;26.8;0.0;
24/02/2025 01:56:32;100;0;151.19;-4;-19.88;-4.40;664.6;12.70;75613;2837.471;-1801.056;1;137;-70;-61.3;43.9;44.2;15;14.9;26.8;0.0;
24/02/2025 01:56:52;100;0;149.79;-4;-19.98;-4.42;666.9;12.70;75602;2837.469;-1801.055;1;137;-70;-62.9;43.9;44.3;15;14.4;26.8;0.0;
24/02/2025 01:57:12;100;0;148.06;-4;-19.93;-4.38;669.4;12.70;75602;2837.467;-1801.053;1;137;-70;-61.3;43.9;44.2;15;14.9;26.8;0.0;
24/02/2025 01:57:32;100;0;147.21;-4;-20.07;-4.40;671.8;12.60;75598;2837.465;-1801.051;1;137;-70;-59.7;43.9;44.3;15;14.9;26.8;0.0;
24/02/2025 01:57:52;100;0;146.00;-4;-19.97;-4.37;674.4;12.60;75596;2837.463;-1801.049;1;137;-70;-61.3;43.9;44.2;15;14.4;26.8;0.0;
24/02/2025 01:58:12;100;0;143.81;-4;-20.09;-4.42;676.8;12.60;75588;2837.462;-1801.048;1;137;-70;-61.3;43.9;44.3;15;14.9;26.8;0.0;
24/02/2025 01:58:32;100;0;141.61;-4;-20.08;-4.33;679.3;12.60;75575;2837.460;-1801.045;1;137;-70;-61.3;43.9;44.3;15;14.9;26.8;0.0;
24/02/2025 01:58:52;100;0;139.63;-4;-20.05;-4.41;681.8;12.60;75568;2837.458;-1801.043;1;137;-70;-59.7;43.9;44.2;15;14.9;26.8;0.0;
24/02/2025 01:59:12;100;0;140.29;-4;-19.91;-4.33;684.3;12.50;75566;2837.456;-1801.041;1;137;-70;-61.3;43.9;44.3;15;14.9;26.8;0.0;
24/02/2025 01:59:32;100;0;142.24;-4;-19.78;-4.38;686.7;12.50;75566;2837.455;-1801.039;1;137;-70;-61.3;43.9;44.2;15;14.9;26.8;0.0;
24/02/2025 01:59:52;100;0;143.15;-4;-20.01;-4.41;689.1;12.50;75539;2837.453;-1801.037;1;137;-70;-61.3;43.9;44.2;15;14.9;26.8;0.0;
24/02/2025 02:00:12;100;0;141.48;-4;-19.89;-4.41;691.6;12.50;75542;2837.451;-1801.035;1;137;-70;-61.3;43.9;44.3;15;14.9;26.8;0.0;
24/02/2025 02:00:32;100;0;139.99;-4;-19.80;-4.36;694.1;12.40;75543;2837.449;-1801.033;1;137;-70;-61.3;43.9;44.2;15;14.9;26.8;0.0;
24/02/2025 02:00:52;100;0;138.55;-4;-19.82;-4.37;696.5;12.40;75533;2837.448;-1801.031;1;137;-70;-61.3;43.9;44.3;15;14.9;26.8;0.0;
24/02/2025 02:01:12;100;0;137.96;-4;-19.75;-4.43;699.0;12.40;75531;2837.446;-1801.029;1;137;-70;-61.3;43.9;44.3;15;14.9;26.8;0.0;
24/02/2025 02:01:32;100;0;138.22;-4;-19.91;-4.29;701.5;12.40;75530;2837.444;-1801.027;1;137;-70;-61.3;43.9;44.2;15;14.9;26.8;0.0;
24/02/2025 02:01:52;100;0;138.80;-4;-19.74;-4.39;703.9;12.30;75517;2837.443;-1801.025;1;137;-70;-61.3;43.9;44.2;15;14.4;26.8;0.0;
24/02/2025 02:02:12;100;0;139.88;-4;-19.71;-4.38;706.3;12.30;75523;2837.441;-1801.023;1;137;-70;-61.3;43.9;44.2;15;14.9;26.8;0.0;
24/02/2025 02:02:32;100;0;140.47;-4;-19.89;-4.38;708.7;12.30;75505;2837.439;-1801.021;1;137;-70;-61.3;43.9;44.2;15;14.9;26.8;0.0;
24/02/2025 02:02:52;100;0;139.29;-4;-19.62;-4.42;711.2;12.30;75509;2837.438;-1801.018;1;137;-70;-61.3;43.9;44.2;15;14.4;26.8;0.0;
24/02/2025 02:03:13;100;0;138.53;-4;-19.78;-4.41;713.6;12.30;75515;2837.436;-1801.016;1;137;-70;-61.3;43.9;44.3;15;14.9;26.8;0.0;
24/02/2025 02:03:33;100;0;137.89;-4;-19.98;-4.44;715.9;12.30;75510;2837.435;-1801.014;1;137;-70;-62.9;43.9;44.3;15;14.4;26.8;0.0;
24/02/2025 02:03:53;100;0;139.31;-4;-19.71;-4.33;718.4;12.30;75506;2837.433;-1801.012;1;137;-70;-61.3;43.9;44.2;15;14.9;26.8;0.0;
24/02/2025 02:04:13;100;0;139.80;-4;-19.92;-4.36;720.8;12.20;75489;2837.431;-1801.010;1;137;-70;-59.7;43.9;44.3;15;14.4;26.8;0.0;
24/02/2025 02:04:33;100;0;138.99;-4;-19.99;-4.31;723.3;12.20;75495;2837.430;-1801.008;1;137;-70;-61.3;43.9;44.3;15;14.4;26.8;0.0;
24/02/2025 02:04:53;100;0;137.97;-4;-19.67;-4.38;725.7;12.20;75483;2837.428;-1801.006;1;137;-70;-61.3;43.9;44.2;15;14.4;26.8;0.0;
24/02/2025 02:05:13;100;0;137.64;-4;-19.47;-4.45;728.1;12.20;75476;2837.427;-1801.004;1;137;-70;-61.3;43.9;44.2;15;14.9;26.8;0.0;
24/02/2025 02:05:33;100;0;135.46;-4;-19.38;-4.42;730.4;12.20;75476;2837.425;-1801.001;1;137;-70;-61.3;43.9;44.3;12;12.2;26.8;0.0;
24/02/2025 02:05:53;100;0;135.56;-4;-19.28;-5.80;732.6;12.10;75466;2837.424;-1800.999;1;137;-70;-61.3;43.9;44.3;12;11.7;26.8;0.0;
24/02/2025 02:06:13;100;0;136.86;-4;-19.30;-5.85;735.0;12.10;75446;2837.422;-1800.997;1;137;-70;-64.5;43.9;44.2;12;11.7;26.8;0.0;
24/02/2025 02:06:33;100;0;138.05;-4;-19.34;-5.84;737.2;12.10;75452;2837.421;-1800.995;1;137;-70;-61.3;43.9;44.2;12;11.7;26.8;0.0;
24/02/2025 02:06:53;100;0;138.87;-4;-19.35;-5.86;739.5;12.10;75442;2837.419;-1800.993;1;137;-70;-61.3;43.9;44.2;14;14.0;26.8;0.0;
24/02/2025 02:07:13;100;0;139.71;-4;-19.32;-4.77;741.7;12.00;75444;2837.418;-1800.991;1;137;-70;-61.3;43.9;44.3;14;14.0;26.8;0.0;
24/02/2025 02:07:33;100;0;142.02;-4;-19.37;-4.62;743.9;12.00;75443;2837.416;-1800.989;1;137;-70;-61.3;43.9;44.2;14;14.0;26.8;0.0;
24/02/2025 02:07:53;100;0;145.24;-4;-19.42;-4.65;746.2;12.00;75435;2837.414;-1800.987;1;137;-70;-59.7;43.9;44.3;14;14.0;26.8;0.0;
24/02/2025 02:08:13;100;0;146.80;-4;-19.22;-4.67;748.5;12.00;75423;2837.412;-1800.986;1;137;-70;-61.3;43.9;44.2;14;14.4;26.8;0.0;
24/02/2025 02:08:33;100;0;149.99;-4;-19.53;-4.70;750.8;12.00;75424;2837.411;-1800.984;1;137;-70;-62.9;43.9;44.3;14;14.4;26.8;0.0;
24/02/2025 02:08:53;100;0;150.83;-4;-19.44;-4.68;753.1;11.90;75410;2837.409;-1800.983;1;137;-70;-61.3;43.9;44.2;14;14.0;26.8;0.0;
24/02/2025 02:09:13;100;0;152.47;-4;-19.49;-4.59;755.5;11.90;75397;2837.406;-1800.981;1;137;-70;-61.3;43.9;44.3;17;17.1;26.8;0.0;
24/02/2025 02:09:33;100;0;151.92;-4;-19.65;-2.81;757.8;11.90;75400;2837.405;-1800.980;1;137;-70;-59.7;43.9;44.3;17;18.1;26.8;0.0;
24/02/2025 02:09:53;100;0;152.47;-4;-19.69;-2.82;760.1;11.90;75388;2837.403;-1800.979;1;137;-70;-59.7;43.9;44.2;17;18.1;26.8;0.0;
24/02/2025 02:10:13;100;0;151.65;-4;-19.65;-2.79;762.5;11.80;75381;2837.401;-1800.977;1;137;-70;-61.3;43.9;44.3;17;18.1;26.8;0.0;
24/02/2025 02:10:33;100;0;150.86;-4;-19.71;-2.79;764.8;11.80;75378;2837.399;-1800.976;1;137;-70;-61.3;43.9;44.3;15;14.9;26.8;0.0;
24/02/2025 02:10:53;100;0;151.29;-4;-19.51;-4.38;767.1;11.80;75383;2837.397;-1800.974;1;137;-70;-61.3;43.9;44.3;15;14.9;26.8;0.0;
24/02/2025 02:11:13;100;0;152.14;-4;-19.32;-4.38;769.4;11.80;75375;2837.395;-1800.973;1;137;-70;-61.3;43.9;44.3;15;14.9;26.8;0.0;
24/02/2025 02:11:33;100;0;152.78;-4;-19.36;-4.43;771.6;11.80;75368;2837.393;-1800.972;1;137;-70;-61.3;43.9;44.2;17;17.1;26.8;0.0;
24/02/2025 02:11:53;100;0;152.74;-4;-19.34;-2.99;774.0;11.70;75367;2837.391;-1800.970;1;137;-70;-61.3;43.9;44.2;17;17.6;26.8;0.0;
24/02/2025 02:12:13;100;0;152.97;-4;-19.60;-2.97;776.1;11.70;75370;2837.389;-1800.969;1;137;-70;-61.3;43.9;44.3;17;17.6;26.8;0.0;
24/02/2025 02:12:33;100;0;151.59;-4;-19.49;-2.95;778.4;11.70;75360;2837.387;-1800.968;1;137;-70;-61.3;43.9;44.3;17;17.6;26.8;0.0;
24/02/2025 02:12:53;100;0;151.54;-4;-19.95;-2.91;780.5;11.70;75354;2837.386;-1800.966;1;137;-70;-61.3;43.9;44.3;17;17.6;26.8;0.0;
24/02/2025 02:13:13;100;0;151.00;-4;-19.69;-2.94;782.7;11.70;75352;2837.384;-1800.965;1;137;-70;-61.3;43.9;44.3;17;17.6;26.8;0.0;
24/02/2025 02:13:33;100;0;149.90;-4;-19.70;-3.01;785.0;11.70;75352;2837.382;-1800.963;1;137;-70;-61.3;43.9;44.3;15;14.9;26.8;0.0;
24/02/2025 02:13:53;100;0;150.98;-4;-19.26;-4.49;787.3;11.60;75340;2837.380;-1800.962;1;137;-70;-61.3;43.9;44.2;15;14.4;26.8;0.0;
24/02/2025 02:14:13;100;0;149.40;-4;-19.54;-4.55;789.5;11.60;75341;2837.378;-1800.961;1;137;-70;-61.3;43.9;44.2;15;14.4;26.8;0.0;
24/02/2025 02:14:33;100;0;148.93;-4;-19.34;-4.52;791.6;11.60;75341;2837.377;-1800.959;1;137;-70;-61.3;43.9;44.2;15;14.4;26.8;0.0;
24/02/2025 02:14:53;100;0;149.85;-4;-19.17;-4.52;793.7;11.60;75332;2837.375;-1800.958;1;137;-70;-61.3;43.9;44.3;15;14.4;26.8;0.0;
24/02/2025 02:15:13;100;0;148.40;-4;-19.77;-4.57;795.9;11.60;75343;2837.373;-1800.956;1;137;-70;-61.3;43.9;44.2;15;14.4;26.8;0.0;
24/02/2025 02:15:33;100;0;148.21;-4;-19.28;-4.57;798.0;11.50;75327;2837.372;-1800.955;1;137;-70;-62.9;43.9;44.3;15;14.4;26.8;0.0;
24/02/2025 02:15:53;100;0;147.46;-4;-19.27;-4.57;800.1;11.50;75320;2837.370;-1800.953;1;137;-70;-61.3;43.9;44.3;15;14.4;26.8;0.0;
24/02/2025 02:16:13;100;0;146.96;-4;-19.26;-4.59;802.1;11.50;75310;2837.369;-1800.952;1;137;-90;-90.3;43.9;44.2;15;14.4;26.8;0.0;
24/02/2025 02:16:33;100;0;146.67;-4;-18.54;-4.54;804.3;11.50;75378;2837.367;-1800.950;1;137;-90;-91.9;44.4;44.3;15;14.4;26.8;0.0;
24/02/2025 02:16:53;100;0;147.04;-4;-18.63;-4.44;806.4;11.40;75384;2837.365;-1800.949;1;137;-90;-91.9;44.8;44.8;15;14.4;26.8;0.0;
24/02/2025 02:17:13;100;0;147.24;-4;-19.88;-4.43;808.7;11.40;75379;2837.363;-1800.947;1;137;-90;-91.9;44.8;44.9;15;14.4;26.8;0.0;
24/02/2025 02:17:33;100;0;148.23;-4;-20.41;-4.44;811.1;11.40;75382;2837.362;-1800.946;1;137;-90;-93.5;44.8;44.9;15;14.4;26.8;0.0;
24/02/2025 02:17:53;100;0;148.81;-4;-20.44;-4.36;813.5;11.40;75381;2837.360;-1800.944;1;137;-90;-93.5;44.8;44.9;15;14.4;26.8;0.0;
24/02/2025 02:18:13;100;0;148.66;-4;-20.32;-4.32;815.8;11.40;75368;2837.358;-1800.942;1;137;-90;-93.5;44.8;44.9;15;14.4;26.8;0.0;
24/02/2025 02:18:33;100;0;150.32;-4;-20.35;-4.26;818.1;11.30;75369;2837.356;-1800.941;1;137;-90;-93.5;44.8;45.1;15;14.4;26.8;0.0;
24/02/2025 02:18:53;100;0;149.46;-4;-20.28;-4.41;820.4;11.30;75367;2837.354;-1800.940;1;137;-90;-95.2;44.8;44.9;15;14.4;26.8;0.0;
24/02/2025 02:19:13;100;0;147.92;-4;-19.95;-4.32;822.8;11.30;75359;2837.352;-1800.938;1;137;-90;-95.2;44.8;44.9;15;14.4;26.8;0.0;
24/02/2025 02:19:33;100;0;149.52;-4;-20.27;-4.39;825.0;11.30;75352;2837.351;-1800.937;1;137;-90;-93.5;44.8;45.1;15;14.4;26.8;0.0;
24/02/2025 02:19:53;100;0;153.22;-4;-20.25;-4.34;827.3;11.30;75347;2837.349;-1800.935;1;137;-90;-95.2;44.8;45.1;18;18.5;26.8;0.0;
24/02/2025 02:20:13;100;0;154.67;-4;-20.56;-2.14;829.3;11.20;75345;2837.347;-1800.934;1;137;-90;-95.2;44.8;45.1;18;19.0;26.8;0.0;
24/02/2025 02:20:33;100;0;153.98;-4;-20.57;-2.04;831.6;11.20;75344;2837.345;-1800.933;1;137;-90;-95.2;44.8;45.1;18;19.0;26.8;0.0;
24/02/2025 02:20:53;100;0;152.45;-4;-20.26;-2.18;833.8;11.20;75328;2837.344;-1800.932;1;137;-90;-93.5;44.8;45.1;18;19.0;26.8;0.0;
24/02/2025 02:21:13;100;0;151.83;-4;-20.63;-2.12;836.1;11.20;75326;2837.342;-1800.930;1;137;-90;-95.2;44.8;44.9;18;19.0;26.8;0.0;
24/02/2025 02:21:33;100;0;148.09;-4;-20.46;-2.12;838.5;11.20;75322;2837.340;-1800.929;1;137;-90;-95.2;44.8;45.1;15;14.9;26.8;0.0;
24/02/2025 02:21:53;100;0;146.97;-4;-20.37;-4.21;840.8;11.10;75318;2837.338;-1800.927;1;137;-90;-95.2;44.8;44.9;15;14.9;26.8;0.0;
24/02/2025 02:22:13;100;0;145.95;-4;-20.32;-4.24;843.0;11.10;75314;2837.336;-1800.926;1;137;-90;-95.2;44.8;44.9;15;14.9;26.8;0.0;
24/02/2025 02:22:33;100;0;143.71;-4;-20.24;-4.21;845.3;11.10;75306;2837.335;-1800.924;1;137;-90;-93.5;44.8;45.1;15;14.9;26.8;0.0;
24/02/2025 02:22:53;100;0;142.78;-4;-20.33;-4.17;847.7;11.10;75304;2837.333;-1800.922;1;137;-90;-95.2;44.8;45.1;15;14.9;26.8;0.0;
24/02/2025 02:23:13;100;0;141.14;-4;-20.17;-4.21;850.0;11.10;75302;2837.332;-1800.920;1;137;-90;-95.2;44.8;45.1;15;14.9;26.8;0.0;
24/02/2025 02:23:33;100;0;139.97;-4;-20.13;-4.24;852.2;11.00;75297;2837.330;-1800.918;1;137;-90;-95.2;44.8;45.1;15;14.9;26.8;0.0;
24/02/2025 02:23:53;100;0;142.72;-4;-20.24;-4.20;854.5;11.00;75290;2837.328;-1800.916;1;137;-90;-95.2;44.8;45.1;15;14.9;26.8;0.0;
24/02/2025 02:24:13;100;0;143.84;-4;-20.03;-4.12;856.8;11.00;75283;2837.327;-1800.915;1;137;-90;-93.5;44.8;45.1;15;14.9;26.8;0.0;
24/02/2025 02:24:33;100;0;147.02;-4;-19.57;-4.17;858.9;11.00;75276;2837.325;-1800.913;1;137;-90;-93.5;44.8;45.1;15;14.9;26.8;0.0;
24/02/2025 02:24:53;100;0;145.28;-4;-20.38;-4.21;861.1;10.90;75269;2837.324;-1800.912;1;137;-90;-95.2;44.8;45.1;15;14.9;26.8;0.0;
24/02/2025 02:25:13;100;0;145.35;-4;-20.24;-4.19;863.2;10.90;75255;2837.322;-1800.910;1;137;-90;-95.2;44.8;45.1;15;14.9;26.8;0.0;
24/02/2025 02:25:33;100;0;146.05;-4;-20.19;-4.29;865.5;10.90;75256;2837.320;-1800.908;1;137;-90;-96.8;44.8;44.9;15;14.9;26.8;0.0;
24/02/2025 02:25:53;100;0;146.65;-4;-20.12;-4.17;867.8;10.90;75261;2837.319;-1800.907;1;137;-90;-95.2;44.8;45.1;15;14.9;26.8;0.0;
24/02/2025 02:26:13;100;0;146.98;-4;-20.19;-4.19;869.9;10.90;75252;2837.317;-1800.905;1;137;-90;-95.2;44.8;44.9;15;14.9;26.8;0.0;
24/02/2025 02:26:33;100;0;147.62;-4;-20.24;-4.16;872.0;10.90;75244;2837.316;-1800.904;1;137;-90;-95.2;44.8;45.1;15;14.9;26.8;0.0;
24/02/2025 02:26:53;100;0;146.43;-4;-20.22;-4.19;874.2;10.80;75235;2837.314;-1800.902;1;137;-90;-95.2;44.8;44.9;15;14.9;26.8;0.0;
24/02/2025 02:27:13;100;0;144.38;-4;-20.20;-4.21;876.4;10.80;75231;2837.312;-1800.901;1;137;-90;-95.2;44.8;45.1;15;14.9;26.8;0.0;
24/02/2025 02:27:33;100;0;144.17;-4;-19.96;-4.18;878.6;10.80;75226;2837.311;-1800.899;1;137;-90;-93.5;44.8;45.1;15;14.9;26.8;0.0;
24/02/2025 02:27:53;100;0;144.11;-4;-20.26;-4.26;880.8;10.80;75214;2837.309;-1800.897;1;137;-90;-95.2;44.8;45.1;15;14.9;26.8;0.0;
24/02/2025 02:28:13;100;0;144.77;-4;-19.98;-4.12;883.0;10.70;75220;2837.308;-1800.896;1;137;-90;-95.2;44.8;45.1;15;14.9;26.8;0.0;
24/02/2025 02:28:33;100;0;145.95;-4;-20.25;-4.13;885.3;10.70;75218;2837.306;-1800.894;1;137;-90;-95.2;44.8;45.1;15;14.9;26.8;0.0;
24/02/2025 02:28:53;100;0;148.44;-4;-19.94;-4.18;887.4;10.70;75204;2837.304;-1800.893;1;137;-90;-95.2;44.8;44.9;15;14.9;26.8;0.0;
24/02/2025 02:29:13;100;0;149.93;-4;-20.39;-4.14;889.7;10.70;75209;2837.303;-1800.891;1;137;-90;-95.2;44.8;45.1;15;14.9;26.8;0.0;
24/02/2025 02:29:33;100;0;149.93;-4;-20.29;-4.15;891.9;10.70;75203;2837.301;-1800.890;1;137;-90;-96.8;44.8;45.1;15;14.9;26.8;0.0;
24/02/2025 02:29:53;100;0;149.14;-4;-20.32;-4.20;894.2;10.60;75193;2837.299;-1800.888;1;137;-90;-95.2;44.8;45.1;15;14.9;26.8;0.0;
24/02/2025 02:30:13;100;0;149.82;-4;-20.31;-4.16;896.6;10.60;75188;2837.297;-1800.887;1;137;-90;-95.2;44.8;45.1;15;14.9;26.8;0.0;
24/02/2025 02:30:33;100;0;149.51;-4;-20.18;-4.14;899.0;10.60;75194;2837.295;-1800.885;1;137;-90;-95.2;44.8;45.1;15;14.9;26.8;0.0;
24/02/2025 02:30:53;100;0;150.68;-4;-20.14;-4.14;901.4;10.60;75190;2837.293;-1800.884;1;137;-90;-95.2;44.8;45.1;15;14.9;26.8;0.0;
24/02/2025 02:31:13;100;0;151.05;-4;-20.25;-4.18;903.7;10.60;75193;2837.291;-1800.882;1;137;-90;-95.2;44.8;45.1;17;17.1;26.8;0.0;
24/02/2025 02:31:33;100;0;150.95;-4;-20.21;-2.78;906.0;10.50;75188;2837.289;-1800.881;1;137;-90;-95.2;44.8;45.1;17;17.6;26.8;0.0;
24/02/2025 02:31:53;100;0;150.41;-4;-20.26;-2.87;908.4;10.50;75185;2837.287;-1800.879;1;137;-90;-96.8;44.8;45.1;17;17.6;26.8;0.0;
24/02/2025 02:32:13;100;0;149.51;-4;-20.37;-2.81;910.7;10.50;75174;2837.286;-1800.878;1;137;-90;-93.5;44.8;44.9;17;17.6;26.8;0.0;
24/02/2025 02:32:33;100;0;148.43;-4;-20.43;-2.83;913.1;10.50;75173;2837.284;-1800.876;1;137;-90;-96.8;44.8;45.1;17;17.6;26.8;0.0;
24/02/2025 02:32:53;100;0;148.95;-4;-20.65;-2.74;915.5;10.50;75181;2837.282;-1800.875;1;137;-90;-98.4;44.8;45.1;17;17.6;26.8;0.0;
24/02/2025 02:33:13;100;0;148.48;-4;-20.35;-2.82;917.8;10.40;75169;2837.280;-1800.873;1;137;-90;-95.2;44.8;45.1;17;17.6;26.8;0.0;
24/02/2025 02:33:33;100;0;147.91;-4;-20.37;-2.79;920.2;10.40;75169;2837.278;-1800.872;1;137;-90;-95.2;44.8;44.9;17;17.6;26.8;0.0;
24/02/2025 02:33:53;100;0;147.87;-4;-20.31;-2.80;922.5;10.40;75170;2837.276;-1800.870;1;137;-90;-95.2;44.8;45.1;17;17.6;26.8;0.0;
24/02/2025 02:34:13;100;0;147.15;-4;-20.35;-2.85;924.9;10.40;75172;2837.275;-1800.868;1;137;-90;-95.2;44.8;45.1;17;17.6;26.8;0.0;
24/02/2025 02:34:33;100;0;146.56;-4;-20.50;-2.76;927.3;10.40;75164;2837.273;-1800.867;1;137;-90;-95.2;44.8;45.1;17;17.6;26.8;0.0;
24/02/2025 02:34:53;100;0;147.08;-4;-20.27;-2.61;929.6;10.40;75173;2837.271;-1800.865;1;137;-90;-95.2;44.8;45.1;17;17.6;26.8;0.0;
24/02/2025 02:35:13;100;0;147.18;-4;-20.24;-2.74;932.0;10.40;75162;2837.269;-1800.863;1;137;-90;-95.2;44.8;44.9;17;17.6;26.8;0.0;
24/02/2025 02:35:33;100;0;148.26;-4;-20.49;-2.87;934.2;10.30;75156;2837.267;-1800.862;1;137;-90;-95.2;44.8;45.1;17;17.6;26.8;0.0;
24/02/2025 02:35:53;100;0;149.62;-4;-20.33;-2.67;936.6;10.30;75159;2837.265;-1800.860;1;137;-90;-98.4;44.8;45.1;17;17.6;26.8;0.0;
24/02/2025 02:36:13;100;0;147.80;-4;-20.34;-2.78;938.8;10.30;75155;2837.264;-1800.859;1;137;-90;-95.2;44.8;45.1;17;17.6;26.8;0.0;
24/02/2025 02:36:33;100;0;146.89;-4;-20.40;-2.82;941.0;10.30;75156;2837.262;-1800.857;1;137;-90;-93.5;44.8;45.1;17;17.6;26.8;0.0;
24/02/2025 02:36:53;100;0;145.88;-4;-20.17;-2.88;943.4;10.30;75154;2837.260;-1800.856;1;137;-90;-96.8;44.8;45.1;17;17.6;26.8;0.0;
24/02/2025 02:37:13;100;0;143.05;-4;-20.32;-2.90;945.5;10.30;75149;2837.259;-1800.854;1;137;-90;-95.2;44.8;45.1;17;17.6;26.8;0.0;
24/02/2025 02:37:33;100;0;140.27;-4;-20.12;-2.84;947.9;10.20;75151;2837.257;-1800.852;1;137;-90;-95.2;44.8;45.1;17;17.6;26.8;0.0;
24/02/2025 02:37:53;100;0;138.45;-4;-20.40;-2.77;950.1;10.20;75142;2837.256;-1800.850;1;137;-90;-95.2;44.8;45.1;15;14.4;26.8;0.0;
24/02/2025 02:38:13;100;0;138.56;-4;-20.21;-4.44;952.4;10.20;75151;2837.254;-1800.848;1;137;-90;-95.2;44.8;45.1;15;14.4;26.8;0.0;
24/02/2025 02:38:34;100;0;136.76;-4;-19.90;-4.39;954.6;10.20;75147;2837.253;-1800.846;1;137;-90;-95.2;44.8;45.1;15;14.4;26.8;0.0;
24/02/2025 02:38:54;100;0;135.85;-4;-20.08;-4.39;956.8;10.20;75141;2837.252;-1800.844;1;137;-90;-95.2;44.8;45.1;15;14.4;26.8;0.0;
24/02/2025 02:39:14;100;0;135.06;-4;-19.61;-4.31;959.1;10.20;75139;2837.250;-1800.842;1;137;-90;-95.2;44.8;45.1;13;13.1;26.8;0.0;
24/02/2025 02:39:34;100;0;133.21;-4;-19.84;-5.27;961.2;10.20;75134;2837.249;-1800.840;1;137;-90;-95.2;44.8;45.1;13;12.6;26.8;0.0;
24/02/2025 02:39:54;100;0;135.04;-4;-20.76;-5.20;963.5;10.10;75125;2837.248;-1800.838;1;137;-90;-96.8;44.8;45.1;13;12.6;26.8;0.0;
24/02/2025 02:40:14;100;0;135.90;-4;-19.50;-5.12;966.0;10.10;75134;2837.246;-1800.835;1;137;-90;-95.2;44.8;45.1;13;12.6;26.8;0.0;
24/02/2025 02:40:34;100;0;136.39;-4;-20.08;-5.05;968.5;10.10;75132;2837.245;-1800.833;1;137;-90;-96.8;44.8;45.1;15;14.9;26.8;0.0;
24/02/2025 02:40:54;100;0;135.31;-4;-19.68;-3.82;970.9;10.10;75130;2837.243;-1800.831;1;137;-90;-95.2;44.8;45.1;15;15.3;26.8;0.0;
24/02/2025 02:41:14;100;0;135.23;-4;-20.17;-3.90;973.4;10.10;75125;2837.242;-1800.829;1;137;-90;-95.2;44.8;45.1;15;15.3;26.8;0.0;
24/02/2025 02:41:34;100;0;136.88;-4;-19.74;-3.97;975.8;10.10;75125;2837.240;-1800.826;1;137;-90;-95.2;44.8;45.1;15;15.3;26.8;0.0;
24/02/2025 02:41:54;100;0;135.02;-4;-20.54;-3.85;978.2;10.10;75123;2837.239;-1800.824;1;137;-90;-96.8;44.8;45.1;13;13.1;26.8;0.0;
24/02/2025 02:42:14;100;0;131.90;-4;-19.53;-5.29;980.5;10.10;75129;2837.238;-1800.822;1;137;-90;-95.2;44.8;45.1;10;9.9;26.8;0.0;
24/02/2025 02:42:34;100;0;133.28;-4;-20.18;-6.63;982.7;10.00;75116;2837.236;-1800.820;1;137;-90;-95.2;44.8;45.1;12;12.2;26.8;0.0;
24/02/2025 02:42:54;100;0;131.36;-4;-20.20;-5.40;985.1;10.00;75117;2837.235;-1800.817;1;137;-90;-95.2;44.8;45.1;10;9.5;26.8;0.0;
24/02/2025 02:43:14;100;0;132.65;-4;-20.00;-6.70;987.4;10.00;75106;2837.234;-1800.815;1;137;-90;-95.2;44.8;45.1;10;9.5;26.8;0.0;
24/02/2025 02:43:34;100;0;134.27;-4;-19.36;-6.69;989.8;10.00;75112;2837.232;-1800.813;1;137;-90;-95.2;44.8;45.1;13;13.1;26.8;0.0;
24/02/2025 02:43:54;100;0;135.24;-4;-19.85;-4.79;992.1;10.00;75108;2837.231;-1800.811;1;137;-90;-95.2;44.8;45.1;13;14.0;26.8;0.0;
24/02/2025 02:44:14;100;0;135.68;-4;-20.14;-4.80;994.4;10.00;75103;2837.230;-1800.809;1;137;-90;-95.2;44.8;45.1;13;13.5;26.8;0.0;
24/02/2025 02:44:34;100;0;135.93;-4;-20.27;-4.95;996.9;10.00;75115;2837.228;-1800.806;1;137;-90;-93.5;44.8;45.1;13;13.5;26.8;0.0;
24/02/2025 02:44:52;118;0;136.79;-4;-19.83;-4.71;999.1;9.90;75113;2837.226;-1800.804;1;137;310;-91.9;25.3;25.3;6;5.4;26.8;0.0;
24/02/2025 02:45:02;118;0;114.67;-4;-6.64;-9.79;1000.1;9.90;75088;2837.226;-1800.803;1;137;310;33.9;25.3;25.0;6;5.4;25.4;-1.0;
24/02/2025 02:45:12;118;0;99.70;-4;16.15;-9.47;1000.3;9.90;74827;2837.226;-1800.802;1;137;310;159.7;25.3;24.7;6;5.4;25.4;-1.0;
24/02/2025 02:45:22;118;0;95.83;-4;23.39;-10.10;999.5;9.90;74568;2837.227;-1800.801;1;137;310;283.9;25.3;25.3;6;5.4;25.2;-1.0;
24/02/2025 02:45:32;118;0;96.07;-4;21.70;-9.88;998.6;10.00;74331;2837.227;-1800.800;1;137;310;311.3;25.3;25.5;6;5.4;25.1;-1.0;
24/02/2025 02:45:42;118;0;138.27;-4;19.18;-9.34;997.3;10.00;74293;2837.226;-1800.799;1;137;310;311.3;25.3;25.3;6;5.4;26.7;-1.0;
24/02/2025 02:46:02;117;0;130.71;-4;18.05;-8.91;995.1;10.00;74294;2837.225;-1800.797;1;137;310;309.7;25.3;25.5;6;5.4;26.7;-1.0;
24/02/2025 02:46:22;117;0;124.59;-4;18.21;-8.98;992.6;10.00;74287;2837.224;-1800.794;1;137;310;309.7;24.8;24.9;42;42.0;26.8;-1.0;
24/02/2025 02:46:42;117;0;127.82;-4;21.60;10.12;990.0;10.00;74292;2837.222;-1800.791;1;137;310;311.3;24.8;24.9;37;36.6;26.8;-1.0;
24/02/2025 02:47:02;117;0;131.20;-4;22.04;7.19;987.1;10.10;74284;2837.221;-1800.788;1;137;310;311.3;25.4;25.6;33;32.5;26.8;-1.0;
24/02/2025 02:47:22;117;0;133.94;-4;20.43;4.96;984.0;10.10;74287;2837.219;-1800.785;1;137;310;308.1;25.4;25.6;30;29.8;26.8;-1.0;
24/02/2025 02:47:42;117;0;135.13;-4;19.94;3.57;981.4;10.00;74275;2837.217;-1800.783;1;137;310;311.3;25.4;25.6;30;29.8;26.8;-1.0;
24/02/2025 02:48:02;117;0;134.02;-4;20.55;3.41;978.6;10.10;74282;2837.215;-1800.780;1;137;310;311.3;25.4;25.5;30;29.8;26.7;-1.0;
24/02/2025 02:48:22;117;0;133.77;-4;20.05;3.45;975.9;10.10;74287;2837.214;-1800.778;1;137;310;309.7;25.4;25.6;30;29.8;26.8;-1.0;
24/02/2025 02:48:42;117;0;136.47;-4;19.88;3.49;973.3;10.00;74273;2837.212;-1800.775;1;137;310;311.3;25.4;25.6;30;29.8;26.8;-1.0;
24/02/2025 02:49:02;117;0;136.08;-4;20.20;3.54;970.7;10.00;74278;2837.210;-1800.773;1;137;310;311.3;25.4;25.5;30;29.3;26.8;-1.0;
24/02/2025 02:49:22;117;0;139.11;-4;19.88;3.40;968.1;10.00;74273;2837.209;-1800.771;1;137;310;311.3;25.4;25.6;28;28.0;26.8;-1.0;
24/02/2025 02:49:42;117;0;138.97;-4;19.78;2.24;965.5;10.00;74274;2837.207;-1800.768;1;137;310;309.7;25.4;25.6;28;27.5;26.8;-1.0;
24/02/2025 02:50:02;117;0;139.03;-4;20.31;2.18;962.9;10.00;74255;2837.205;-1800.766;1;137;310;309.7;25.4;25.5;28;27.5;26.8;-1.0;
24/02/2025 02:50:22;117;0;138.12;-4;19.75;2.27;960.3;10.00;74253;2837.203;-1800.764;1;137;310;311.3;25.4;25.5;28;27.5;26.8;-1.0;
24/02/2025 02:50:42;117;0;140.15;-4;20.72;2.34;957.9;10.00;74248;2837.202;-1800.762;1;137;310;311.3;25.4;25.5;28;27.5;26.8;-1.0;
24/02/2025 02:51:02;117;0;140.11;-4;19.83;2.42;955.2;10.00;74257;2837.200;-1800.759;1;137;310;311.3;25.4;25.5;28;27.5;26.8;-1.0;
24/02/2025 02:51:22;117;0;140.31;-4;20.11;2.40;952.6;9.90;74254;2837.198;-1800.757;1;137;310;308.1;25.4;25.6;28;27.5;26.8;-1.0;
