Timestamp;NavState;SecurityLevel;Heading;Declination;Pitch;Roll;Depth;Temperature;Pa;Lat;Lon;DeadReckoning;DesiredH;BallastCmd;BallastPos;LinCmd;LinPos;AngCmd;AngPos;Voltage;Altitude;
16/02/2025 18:11:11;119;0;330.78;-4;-56.29;-11.48;-0.3;19.60;76532;2838.222;-1801.567;0;163;500;509.7;100.0;100.7;0;-0.9;28.4;-1.0;
16/02/2025 18:11:21;116;0;319.03;-4;-55.07;-22.22;-0.4;19.60;76538;2838.223;-1801.569;0;163;500;509.7;100.0;100.7;0;-0.9;28.3;-1.0;
16/02/2025 18:11:46;116;0;297.09;-4;-49.13;-10.48;-0.4;19.60;76551;2838.224;-1801.569;0;163;500;509.7;100.0;100.7;0;-0.5;28.4;-1.0;
16/02/2025 18:12:00;116;0;304.93;-4;-54.14;-14.69;-0.3;19.70;76555;2838.224;-1801.570;0;163;500;509.7;100.0;100.7;0;-0.9;28.3;-1.0;
16/02/2025 18:12:19;116;0;327.64;-4;-52.44;-26.00;-0.3;19.70;76568;2838.225;-1801.570;0;163;500;509.7;100.0;100.7;0;-0.5;28.4;-1.0;
16/02/2025 18:12:39;116;0;333.12;-4;-56.76;-11.22;-0.3;19.70;76570;2838.227;-1801.572;0;163;500;509.7;100.0;100.7;0;-0.9;28.4;-1.0;
16/02/2025 18:13:17;116;0;345.49;-4;-54.68;-20.15;-0.1;19.80;76586;2838.227;-1801.570;0;163;500;508.1;100.0;100.6;0;-0.9;28.2;-1.0;
16/02/2025 18:14:04;116;0;349.39;-4;-53.40;-17.01;-0.2;19.90;76595;2838.225;-1801.572;0;163;500;509.7;100.0;100.7;0;-0.5;28.4;-1.0;
16/02/2025 18:14:17;116;0;333.18;-4;-54.38;-9.11;-0.1;20.00;76604;2838.225;-1801.572;0;163;500;509.7;100.0;100.6;0;-0.9;28.4;-1.0;
16/02/2025 18:14:37;110;0;331.79;-4;-47.73;-14.14;0.2;20.00;76612;2838.225;-1801.572;0;163;-50;395.2;100.0;99.9;-14;-14.4;28.4;-1.0;
16/02/2025 18:14:47;110;0;335.89;-4;-56.65;-26.85;0.2;20.10;76954;2838.226;-1801.572;1;163;-50;246.8;100.0;99.7;-14;-14.4;28.3;-1.0;
16/02/2025 18:14:57;110;0;339.58;-4;-57.67;-28.08;0.6;20.10;77211;2838.226;-1801.572;1;163;-50;87.1;100.0;99.7;-14;-14.4;28.3;-1.0;
16/02/2025 18:15:07;110;0;328.50;-4;-53.18;-30.83;1.0;20.10;77546;2838.227;-1801.573;1;163;-50;-48.4;100.0;99.9;-14;-14.4;28.3;-1.0;
16/02/2025 18:15:17;110;0;349.25;-4;-63.17;-30.71;1.4;20.10;77817;2838.227;-1801.573;1;163;-50;-48.4;47.8;47.9;-14;-14.4;28.4;-1.0;
16/02/2025 18:15:37;100;0;3.87;-4;-35.27;-17.45;5.0;20.20;77789;2838.231;-1801.573;1;163;-50;-45.2;47.8;47.7;-14;-14.9;28.4;-1.0;
16/02/2025 18:15:57;100;0;13.47;-4;-29.78;-19.27;8.7;20.30;77794;2838.235;-1801.573;1;163;-50;-45.2;47.8;47.4;-70;-69.9;28.4;-1.0;
16/02/2025 18:16:17;100;0;20.14;-4;-29.98;-44.20;12.4;20.30;77784;2838.238;-1801.572;1;164;-50;-43.5;47.8;47.4;-70;-69.9;28.4;-1.0;
16/02/2025 18:16:37;100;0;28.63;-4;-28.68;-45.31;16.3;20.30;77778;2838.242;-1801.570;1;164;-50;-43.5;48.2;48.2;-70;-69.9;28.4;0.0;
16/02/2025 18:16:57;100;0;37.41;-4;-30.70;-45.00;20.2;20.40;77773;2838.245;-1801.568;1;164;-50;-43.5;48.2;48.5;-70;-69.9;28.4;0.0;
16/02/2025 18:17:17;100;0;47.08;-4;-30.69;-45.21;24.3;20.40;77777;2838.248;-1801.565;1;164;-50;-45.2;48.2;48.5;-70;-69.9;28.4;0.0;
16/02/2025 18:17:37;100;0;58.15;-4;-30.73;-44.99;28.4;20.40;77770;2838.251;-1801.562;1;164;-50;-43.5;48.2;48.5;-70;-69.9;28.4;0.0;
16/02/2025 18:17:57;100;0;70.08;-4;-30.60;-45.23;32.5;20.40;77766;2838.253;-1801.559;1;165;-50;-43.5;48.2;48.5;-70;-69.9;28.4;0.0;
16/02/2025 18:18:17;100;0;82.65;-4;-30.80;-44.84;36.4;20.40;77765;2838.254;-1801.555;1;165;-50;-43.5;48.2;48.5;-70;-69.9;28.4;0.0;
16/02/2025 18:18:37;100;0;94.78;-4;-30.53;-45.09;40.6;20.40;77767;2838.254;-1801.552;1;165;-50;-43.5;48.2;48.5;-70;-69.9;28.4;0.0;
16/02/2025 18:18:57;100;0;106.69;-4;-30.34;-44.92;44.7;20.40;77775;2838.254;-1801.548;1;165;-50;-43.5;48.2;48.5;-58;-57.8;28.4;0.0;
16/02/2025 18:19:17;100;0;117.65;-4;-29.26;-38.68;48.8;20.40;77775;2838.253;-1801.545;1;166;-50;-43.5;48.2;48.6;-46;-46.0;28.4;0.0;
16/02/2025 18:19:37;100;0;124.13;-4;-29.77;-32.71;52.7;20.40;77773;2838.252;-1801.542;1;166;-50;-45.2;48.2;48.5;-38;-37.9;28.4;0.0;
16/02/2025 18:19:57;100;0;131.47;-4;-29.82;-28.99;56.8;20.40;77775;2838.250;-1801.539;1;166;-50;-43.5;48.2;48.5;-28;-28.0;28.3;0.0;
16/02/2025 18:20:17;100;0;137.93;-4;-29.76;-24.16;60.8;20.40;77767;2838.248;-1801.537;1;166;-50;-43.5;48.2;48.6;-18;-18.1;28.4;0.0;
16/02/2025 18:20:37;100;0;141.81;-4;-30.25;-19.31;64.9;20.40;77773;2838.246;-1801.534;1;166;-50;-43.5;48.2;48.5;-11;-10.4;28.3;0.0;
16/02/2025 18:20:57;100;0;145.67;-4;-30.35;-16.00;68.9;20.40;77770;2838.244;-1801.532;1;166;-50;-41.9;48.2;48.6;-4;-3.6;28.4;0.0;
16/02/2025 18:21:17;100;0;147.97;-4;-29.90;-12.90;73.0;20.40;77770;2838.241;-1801.531;1;166;-50;-41.9;48.2;48.6;-1;-0.9;28.4;0.0;
16/02/2025 18:21:37;100;0;150.58;-4;-30.47;-11.59;77.0;20.40;77773;2838.239;-1801.529;1;166;-50;-43.5;48.2;48.6;3;3.6;28.4;0.0;
16/02/2025 18:21:57;100;0;149.44;-4;-30.36;-9.44;81.2;20.40;77770;2838.236;-1801.527;1;167;-50;-43.5;48.2;48.7;0;0.0;28.3;0.0;
16/02/2025 18:22:17;100;0;149.38;-4;-30.09;-11.63;85.1;20.40;77760;2838.234;-1801.525;1;167;-50;-43.5;48.2;48.6;0;0.0;28.4;0.0;
16/02/2025 18:22:37;100;0;150.90;-4;-30.35;-11.78;88.9;20.40;77760;2838.232;-1801.524;1;167;-50;-46.8;48.2;48.6;2;1.8;28.4;0.0;
16/02/2025 18:22:57;100;0;156.39;-4;-29.77;-10.50;92.9;20.40;77760;2838.229;-1801.523;1;167;-50;-45.2;48.2;48.7;7;7.2;28.4;0.0;
16/02/2025 18:23:17;100;0;157.02;-4;-31.14;-7.88;96.7;20.40;77752;2838.227;-1801.521;1;167;-50;-43.5;48.2;48.6;7;7.7;28.3;0.0;
16/02/2025 18:23:37;100;0;160.88;-4;-30.73;-7.90;100.7;20.40;77731;2838.224;-1801.520;1;167;-50;-43.5;48.2;48.6;9;9.5;28.4;0.0;
16/02/2025 18:23:57;100;0;159.78;-4;-31.70;-6.61;104.8;20.40;77708;2838.222;-1801.519;1;167;-50;-43.5;48.2;48.6;9;9.9;28.4;0.0;
16/02/2025 18:24:17;100;0;154.41;-4;-31.18;-6.75;109.0;20.40;77697;2838.219;-1801.518;1;167;-50;-43.5;48.2;48.7;6;5.4;28.4;0.0;
16/02/2025 18:24:37;100;0;157.39;-4;-31.67;-9.20;113.2;20.30;77673;2838.217;-1801.517;1;167;-50;-43.5;48.2;48.6;8;8.1;28.3;0.0;
16/02/2025 18:24:57;100;0;161.61;-4;-31.40;-7.56;117.4;20.30;77651;2838.214;-1801.516;1;167;-50;-41.9;48.2;48.7;8;8.1;28.4;0.0;
16/02/2025 18:25:17;100;0;170.51;-4;-30.38;-7.43;121.5;20.30;77638;2838.211;-1801.516;1;167;-50;-43.5;48.2;48.6;10;9.9;28.4;0.0;
16/02/2025 18:25:37;100;0;176.32;-4;-30.19;-6.40;125.3;20.30;77611;2838.208;-1801.516;1;167;-50;-43.5;48.2;48.7;14;14.0;28.4;0.0;
16/02/2025 18:25:57;100;0;169.97;-4;-30.03;-4.60;128.8;20.20;77590;2838.206;-1801.515;1;167;-50;-43.5;48.2;48.6;10;9.9;28.4;0.0;
16/02/2025 18:26:17;100;0;165.78;-4;-30.00;-7.01;132.3;20.20;77577;2838.204;-1801.515;1;167;-50;-43.5;48.2;48.6;10;9.5;28.4;0.0;
16/02/2025 18:26:37;100;0;162.38;-4;-29.78;-6.98;135.8;20.20;77573;2838.201;-1801.514;1;167;-50;-43.5;48.2;48.7;10;9.5;28.4;0.0;
16/02/2025 18:26:57;100;0;157.58;-4;-30.46;-7.17;139.5;20.10;77549;2838.199;-1801.513;1;167;-50;-43.5;48.2;48.6;8;8.1;28.4;0.0;
16/02/2025 18:27:17;100;0;167.66;-4;-30.04;-7.80;143.2;20.10;77533;2838.197;-1801.513;1;167;-50;-43.5;48.2;48.6;8;8.1;28.4;0.0;
16/02/2025 18:27:37;100;0;173.79;-4;-30.66;-7.71;146.8;20.10;77510;2838.194;-1801.512;1;167;-50;-43.5;48.2;48.6;12;12.2;28.3;0.0;
16/02/2025 18:27:57;100;0;175.84;-4;-30.75;-5.25;150.5;20.00;77495;2838.192;-1801.513;1;167;-50;-43.5;48.2;48.6;12;13.1;28.4;0.0;
16/02/2025 18:28:17;100;0;175.29;-4;-30.69;-5.20;154.2;20.00;77474;2838.189;-1801.513;1;167;-50;-43.5;48.2;48.6;12;13.1;28.4;0.0;
16/02/2025 18:28:37;100;0;173.25;-4;-31.36;-5.21;158.0;19.90;77468;2838.187;-1801.512;1;167;-50;-43.5;48.2;48.7;12;13.1;28.4;0.0;
16/02/2025 18:28:57;100;0;168.15;-4;-29.54;-5.31;161.8;19.90;77442;2838.184;-1801.512;1;167;-50;-43.5;48.2;48.6;10;9.9;28.3;0.0;
16/02/2025 18:29:17;100;0;167.97;-4;-29.21;-6.90;165.1;19.90;77436;2838.182;-1801.512;1;167;-50;-43.5;48.2;48.6;10;9.9;28.4;0.0;
16/02/2025 18:29:37;100;0;163.72;-4;-29.40;-6.97;168.5;19.80;77422;2838.179;-1801.511;1;167;-50;-43.5;48.2;48.6;10;9.5;28.4;0.0;
16/02/2025 18:29:57;100;0;165.93;-4;-29.20;-6.91;171.7;19.80;77401;2838.177;-1801.510;1;167;-50;-43.5;48.2;48.6;10;9.5;28.4;0.0;
16/02/2025 18:30:17;100;0;172.29;-4;-30.09;-6.92;175.0;19.70;77372;2838.175;-1801.510;1;167;-50;-43.5;48.2;48.6;10;9.5;28.4;0.0;
16/02/2025 18:30:37;100;0;173.56;-4;-29.83;-6.93;178.4;19.70;77367;2838.173;-1801.510;1;166;-50;-43.5;48.2;48.6;12;12.2;28.4;0.0;
16/02/2025 18:30:57;100;0;174.33;-4;-30.71;-5.53;181.9;19.60;77349;2838.170;-1801.510;1;166;-50;-41.9;48.2;48.6;12;12.6;28.4;0.0;
16/02/2025 18:31:17;100;0;172.71;-4;-29.69;-5.28;185.6;19.60;77331;2838.168;-1801.510;1;166;-50;-43.5;48.2;48.6;12;12.6;28.4;0.0;
16/02/2025 18:31:37;100;0;170.38;-4;-29.85;-5.51;189.0;19.50;77297;2838.166;-1801.510;1;166;-50;-43.5;48.2;48.6;10;9.5;28.4;0.0;
16/02/2025 18:31:57;100;0;168.36;-4;-29.82;-6.85;192.4;19.50;77298;2838.163;-1801.509;1;166;-50;-41.9;48.2;48.6;10;9.5;28.4;0.0;
16/02/2025 18:32:17;100;0;166.15;-4;-30.22;-7.00;195.8;19.40;77275;2838.161;-1801.509;1;166;-50;-43.5;48.2;48.6;10;9.5;28.4;0.0;
16/02/2025 18:32:35;118;0;162.91;-4;-29.99;-6.97;198.9;19.40;77277;2838.159;-1801.508;1;166;210;-38.7;21.6;21.5;14;14.4;28.4;0.0;
16/02/2025 18:32:45;118;0;142.24;-4;-15.94;-5.33;200.2;19.40;77240;2838.158;-1801.507;1;166;210;90.3;21.6;21.2;14;14.4;28.0;-1.0;
16/02/2025 18:32:55;118;0;137.91;-4;12.04;-4.95;200.6;19.40;76957;2838.158;-1801.507;1;166;210;212.9;21.6;20.9;14;14.4;28.0;-1.0;
16/02/2025 18:33:05;118;0;164.28;-4;25.44;-4.68;199.8;19.30;76711;2838.157;-1801.507;1;166;210;212.9;21.6;20.3;14;14.4;28.4;-1.0;
16/02/2025 18:33:25;117;0;161.48;-4;30.38;-5.05;197.1;19.30;76706;2838.156;-1801.506;1;166;210;212.9;21.6;20.2;14;14.4;28.4;-1.0;
16/02/2025 18:33:45;117;0;159.47;-4;30.98;-5.11;194.0;19.20;76697;2838.154;-1801.506;1;166;210;214.5;21.6;21.6;38;37.9;28.4;-1.0;
16/02/2025 18:34:05;117;0;160.42;-4;31.11;7.92;191.0;19.20;76699;2838.152;-1801.505;1;166;210;211.3;21.6;21.6;38;38.4;28.4;-1.0;
16/02/2025 18:34:25;117;0;162.62;-4;31.23;7.94;188.0;19.10;76693;2838.150;-1801.504;1;166;210;212.9;21.6;21.6;38;38.4;28.4;-1.0;
16/02/2025 18:34:45;117;0;163.80;-4;31.07;7.89;184.9;19.10;76692;2838.149;-1801.504;1;166;210;214.5;21.6;21.6;38;38.4;28.4;-1.0;
16/02/2025 18:35:05;117;0;164.06;-4;30.72;7.96;181.6;19.00;76679;2838.147;-1801.503;1;166;210;214.5;21.6;21.6;38;38.4;28.4;-1.0;
16/02/2025 18:35:25;117;0;163.18;-4;31.04;8.09;178.7;19.00;76681;2838.145;-1801.503;1;166;210;214.5;21.6;21.6;38;38.4;28.4;-1.0;
16/02/2025 18:35:45;117;0;163.01;-4;30.86;7.95;175.9;19.00;76671;2838.143;-1801.502;1;166;210;214.5;21.6;21.6;38;38.4;28.4;-1.0;
16/02/2025 18:36:05;117;0;162.35;-4;31.08;7.95;173.0;18.90;76678;2838.142;-1801.502;1;166;210;214.5;21.6;21.6;38;38.4;28.4;-1.0;
16/02/2025 18:36:25;117;0;157.74;-4;31.30;7.96;170.1;18.90;76680;2838.140;-1801.501;1;166;210;214.5;21.6;21.6;38;38.4;28.3;-1.0;
16/02/2025 18:36:45;117;0;154.17;-4;31.41;7.92;167.2;18.90;76698;2838.138;-1801.500;1;167;210;214.5;21.6;21.6;41;41.5;28.4;-1.0;
16/02/2025 18:37:05;117;0;156.08;-4;31.55;9.84;164.1;18.80;76697;2838.137;-1801.499;1;167;210;214.5;21.6;21.6;41;41.5;28.4;-1.0;
16/02/2025 18:37:25;117;0;155.98;-4;31.63;9.69;161.0;18.80;76707;2838.135;-1801.499;1;167;210;212.9;21.6;21.6;41;41.5;28.4;-1.0;
16/02/2025 18:37:45;117;0;157.18;-4;31.62;9.78;158.0;18.80;76709;2838.133;-1801.498;1;167;210;214.5;21.6;21.6;39;38.8;28.3;-1.0;
16/02/2025 18:38:05;117;0;158.81;-4;30.33;7.72;155.0;18.80;76713;2838.132;-1801.497;1;167;210;214.5;21.6;21.6;39;38.4;28.4;-1.0;
16/02/2025 18:38:25;117;0;161.11;-4;30.31;7.66;152.3;18.70;76728;2838.130;-1801.496;1;167;210;212.9;21.6;21.6;39;38.4;28.4;-1.0;
16/02/2025 18:38:45;117;0;161.58;-4;31.04;7.76;149.7;18.70;76724;2838.129;-1801.496;1;167;210;212.9;21.6;21.6;39;38.4;28.4;-1.0;
16/02/2025 18:39:05;117;0;161.26;-4;30.46;7.63;146.9;18.70;76733;2838.127;-1801.495;1;167;210;214.5;21.6;21.6;39;38.4;28.4;-1.0;
16/02/2025 18:39:25;117;0;158.06;-4;30.63;7.75;144.3;18.70;76739;2838.126;-1801.495;1;167;210;211.3;21.6;21.6;39;38.4;28.4;-1.0;
16/02/2025 18:39:45;117;0;156.12;-4;30.35;7.73;141.6;18.70;76737;2838.124;-1801.494;1;167;210;212.9;21.6;21.6;39;38.4;28.4;-1.0;
16/02/2025 18:40:05;117;0;152.43;-4;30.83;7.83;139.1;18.70;76744;2838.123;-1801.493;1;167;210;214.5;21.6;21.6;43;42.9;28.4;-1.0;
16/02/2025 18:40:25;117;0;149.84;-4;31.12;10.60;136.4;18.60;76756;2838.122;-1801.492;1;167;210;212.9;21.6;21.6;46;46.0;28.4;-1.0;
16/02/2025 18:40:45;117;0;154.14;-4;31.36;12.19;133.7;18.60;76760;2838.120;-1801.491;1;167;210;214.5;21.6;21.6;41;41.1;28.4;-1.0;
16/02/2025 18:41:05;117;0;154.77;-4;30.89;8.93;130.9;18.60;76777;2838.119;-1801.491;1;167;210;212.9;21.6;21.6;41;40.6;28.4;-1.0;
16/02/2025 18:41:26;117;0;157.37;-4;30.80;8.96;128.1;18.60;76775;2838.117;-1801.490;1;167;210;211.3;21.6;21.6;39;38.4;28.4;-1.0;
16/02/2025 18:41:46;117;0;159.81;-4;30.72;7.50;125.3;18.60;76787;2838.116;-1801.489;1;167;210;214.5;21.6;21.6;39;37.9;28.4;-1.0;
16/02/2025 18:42:06;117;0;162.43;-4;30.76;7.48;122.5;18.60;76787;2838.114;-1801.489;1;167;210;214.5;21.6;21.6;39;37.9;28.4;-1.0;
16/02/2025 18:42:26;117;0;160.32;-4;30.77;7.53;119.7;18.60;76793;2838.112;-1801.488;1;167;210;214.5;21.6;21.6;39;37.9;28.4;-1.0;
16/02/2025 18:42:46;117;0;154.54;-4;30.57;7.55;117.0;18.60;76802;2838.111;-1801.487;1;167;210;214.5;21.6;21.6;41;41.1;28.4;-1.0;
16/02/2025 18:43:06;117;0;150.17;-4;30.78;9.46;114.4;18.60;76813;2838.110;-1801.486;1;167;210;214.5;21.6;21.6;46;46.0;28.4;-1.0;
16/02/2025 18:43:26;117;0;146.24;-4;30.49;12.43;111.8;18.60;76830;2838.109;-1801.485;1;167;210;214.5;21.6;21.6;52;51.9;28.4;-1.0;
16/02/2025 18:43:46;117;0;147.04;-4;31.08;15.58;109.4;18.60;76839;2838.108;-1801.484;1;167;210;214.5;21.6;21.6;49;48.7;28.4;-1.0;
16/02/2025 18:44:06;117;0;150.23;-4;30.98;13.12;106.9;18.60;76861;2838.106;-1801.483;1;167;210;214.5;21.6;21.5;46;45.6;28.4;-1.0;
16/02/2025 18:44:26;117;0;151.67;-4;30.54;11.34;104.4;18.60;76866;2838.105;-1801.483;1;167;210;214.5;21.6;21.6;43;42.9;28.4;-1.0;
16/02/2025 18:44:46;117;0;152.85;-4;30.20;9.67;102.0;18.60;76882;2838.104;-1801.482;1;167;210;214.5;21.6;21.6;43;42.0;28.4;-1.0;
16/02/2025 18:45:06;117;0;156.38;-4;30.53;9.71;99.6;18.60;76885;2838.103;-1801.481;1;167;210;214.5;21.6;21.5;40;40.2;28.4;-1.0;
16/02/2025 18:45:26;117;0;160.26;-4;30.09;8.36;97.2;18.60;76896;2838.101;-1801.481;1;167;210;214.5;21.6;21.8;40;39.7;28.4;-1.0;
16/02/2025 18:45:46;117;0;160.75;-4;30.31;8.32;94.7;18.70;76915;2838.100;-1801.480;1;167;210;214.5;21.6;21.6;40;39.7;28.4;-1.0;
16/02/2025 18:46:06;117;0;159.72;-4;30.35;8.41;92.3;18.70;76942;2838.099;-1801.480;1;167;210;214.5;21.6;21.6;40;39.7;28.3;-1.0;
16/02/2025 18:46:26;117;0;162.18;-4;30.17;8.31;89.7;18.70;76959;2838.097;-1801.479;1;167;210;214.5;21.6;21.6;40;39.7;28.4;-1.0;
16/02/2025 18:46:46;117;0;161.54;-4;30.66;8.47;87.1;18.70;76973;2838.096;-1801.479;1;167;210;214.5;21.6;21.6;40;39.7;28.4;-1.0;
16/02/2025 18:47:06;117;0;162.65;-4;30.31;8.33;84.4;18.70;76986;2838.094;-1801.478;1;167;210;214.5;21.6;21.6;40;39.3;28.4;-1.0;
16/02/2025 18:47:26;117;0;162.96;-4;30.50;8.41;81.8;18.80;76993;2838.093;-1801.478;1;167;210;214.5;21.6;21.6;40;39.7;28.4;-1.0;
16/02/2025 18:47:46;117;0;166.89;-4;30.03;8.35;79.1;18.80;77020;2838.091;-1801.478;1;167;210;214.5;21.6;21.6;40;39.7;28.3;-1.0;
16/02/2025 18:48:06;117;0;165.42;-4;30.15;8.36;76.3;18.80;77023;2838.089;-1801.477;1;167;210;214.5;21.6;21.8;40;39.7;28.3;-1.0;
16/02/2025 18:48:26;117;0;167.99;-4;30.55;8.41;73.6;18.80;77025;2838.088;-1801.477;1;167;210;214.5;21.6;21.6;40;39.7;28.4;-1.0;
16/02/2025 18:48:46;117;0;168.92;-4;30.33;8.39;70.8;18.80;77035;2838.086;-1801.477;1;167;210;214.5;21.6;21.6;38;37.5;28.4;-1.0;
16/02/2025 18:49:06;117;0;170.42;-4;29.94;7.03;68.0;18.90;77037;2838.084;-1801.477;1;167;210;214.5;21.6;21.8;38;37.0;28.4;-1.0;
16/02/2025 18:49:26;117;0;170.55;-4;29.63;7.02;65.3;18.90;77042;2838.082;-1801.476;1;167;210;216.1;21.6;21.6;38;37.0;28.4;-1.0;
16/02/2025 18:49:46;117;0;170.18;-4;30.04;7.02;62.7;18.90;77050;2838.081;-1801.476;1;167;210;214.5;21.6;21.6;38;37.0;28.4;-1.0;
16/02/2025 18:50:06;117;0;169.66;-4;29.52;6.99;59.9;18.90;77062;2838.079;-1801.476;1;167;210;214.5;21.6;21.6;38;37.0;28.3;-1.0;
16/02/2025 18:50:26;117;0;169.44;-4;30.03;7.05;57.3;19.00;77050;2838.078;-1801.476;1;167;210;214.5;21.6;21.6;38;37.0;28.4;-1.0;
16/02/2025 18:50:46;117;0;168.84;-4;29.21;7.07;54.6;19.00;77065;2838.076;-1801.476;1;167;210;214.5;21.6;21.6;38;37.0;28.4;-1.0;
16/02/2025 18:51:06;117;0;170.32;-4;30.06;7.06;51.9;19.00;77063;2838.074;-1801.476;1;167;210;214.5;21.6;21.6;38;37.0;28.4;-1.0;
16/02/2025 18:51:26;117;0;172.44;-4;30.07;7.03;49.2;19.00;77070;2838.072;-1801.476;1;167;210;216.1;21.6;21.6;38;37.0;28.3;-1.0;
16/02/2025 18:51:46;117;0;175.29;-4;29.74;6.96;46.5;19.00;77075;2838.071;-1801.476;1;167;210;214.5;21.6;21.6;34;33.8;28.4;-1.0;
16/02/2025 18:52:06;117;0;174.99;-4;29.86;5.08;43.9;19.10;77082;2838.069;-1801.476;1;167;210;212.9;21.6;21.6;34;33.8;28.4;-1.0;
16/02/2025 18:52:26;117;0;174.19;-4;30.10;5.20;41.1;19.10;77092;2838.067;-1801.476;1;167;210;214.5;21.6;21.6;34;33.4;28.4;-1.0;
16/02/2025 18:52:46;117;0;172.72;-4;29.66;5.11;38.3;19.10;77094;2838.066;-1801.476;1;167;210;214.5;21.6;21.6;36;36.1;28.4;-1.0;
16/02/2025 18:53:06;117;0;172.87;-4;29.37;6.94;35.7;19.10;77099;2838.064;-1801.476;1;167;210;214.5;21.6;21.6;36;36.6;28.4;-1.0;
16/02/2025 18:53:26;117;0;172.02;-4;30.66;6.86;32.9;19.10;77101;2838.062;-1801.476;1;167;210;214.5;21.6;21.6;36;36.6;28.4;-1.0;
16/02/2025 18:53:46;117;0;170.26;-4;29.35;6.77;30.2;19.20;77106;2838.060;-1801.476;1;167;210;214.5;21.6;21.6;36;36.6;28.4;-1.0;
16/02/2025 18:54:06;117;0;169.90;-4;29.97;6.81;27.4;19.20;77113;2838.059;-1801.475;1;167;210;214.5;21.6;21.6;38;37.9;28.3;-1.0;
16/02/2025 18:54:26;117;0;171.69;-4;29.14;7.82;24.8;19.20;77117;2838.057;-1801.475;1;167;210;214.5;21.6;21.6;38;38.4;28.4;-1.0;
16/02/2025 18:54:46;117;0;172.96;-4;29.07;7.99;22.0;19.20;77111;2838.055;-1801.475;1;167;210;214.5;21.6;21.6;36;35.2;28.3;-1.0;
16/02/2025 18:55:06;117;0;172.12;-4;29.76;6.81;19.4;19.30;77118;2838.053;-1801.475;1;167;210;212.9;21.6;21.6;36;36.1;28.4;-1.0;
16/02/2025 18:55:26;117;0;171.60;-4;29.37;6.49;16.7;19.30;77117;2838.052;-1801.475;1;167;210;214.5;21.6;21.6;36;36.1;28.4;-1.0;
16/02/2025 18:55:46;117;0;168.64;-4;29.58;6.41;14.1;19.30;77124;2838.050;-1801.475;1;167;210;214.5;21.6;21.6;38;38.4;28.4;-1.0;
16/02/2025 18:56:06;117;0;163.45;-4;29.97;8.17;11.5;19.30;77123;2838.049;-1801.475;1;167;210;214.5;21.6;21.6;38;38.8;28.4;-1.0;
16/02/2025 18:56:26;117;0;162.92;-4;27.99;8.20;9.0;19.30;77128;2838.047;-1801.474;1;167;210;214.5;21.0;20.8;38;38.4;28.4;-1.0;
16/02/2025 18:56:46;117;0;170.55;-4;32.72;7.49;6.4;19.40;77135;2838.046;-1801.474;1;167;210;211.3;21.8;21.8;38;38.4;28.4;-1.0;
16/02/2025 18:57:06;117;0;172.46;-4;26.60;8.19;3.8;19.40;77134;2838.044;-1801.474;1;167;210;214.5;20.8;20.6;36;36.6;28.3;-1.0;
16/02/2025 18:57:11;115;0;172.91;-4;30.45;7.15;3.1;19.40;77142;2838.043;-1801.474;1;167;500;219.4;100.0;63.0;0;-0.9;28.4;-1.0;
16/02/2025 18:57:21;115;0;155.78;-4;11.02;-13.25;2.1;19.40;77128;2838.042;-1801.474;1;167;500;340.3;100.0;100.0;0;-0.9;28.1;-1.0;
16/02/2025 18:57:31;115;0;145.89;-4;-60.48;-12.89;2.5;19.40;76857;2838.042;-1801.474;1;167;500;454.8;100.0;100.6;0;-0.9;28.2;-1.0;
16/02/2025 18:57:41;115;0;123.08;-4;-65.68;-16.43;2.2;19.40;76607;2838.043;-1801.474;1;167;500;506.5;100.0;100.9;0;-0.9;28.1;-1.0;
16/02/2025 18:57:51;115;0;75.04;-4;-36.81;-11.40;-0.7;19.50;76509;2838.043;-1801.471;1;167;500;506.5;100.0;100.7;0;-0.9;28.4;-1.0;
16/02/2025 18:58:11;119;0;12.04;-4;-54.64;-6.17;-0.4;19.50;76518;2838.043;-1801.471;1;167;500;508.1;100.0;100.7;0;-0.9;28.4;-1.0;
16/02/2025 18:58:21;119;0;339.71;-4;-56.09;-10.52;-0.2;19.50;76521;2838.021;-1801.414;0;167;500;508.1;100.0;100.7;0;-0.9;28.4;-1.0;
