Timestamp;NavState;SecurityLevel;Heading;Declination;Pitch;Roll;Depth;Temperature;Pa;Lat;Lon;DeadReckoning;DesiredH;BallastCmd;BallastPos;LinCmd;LinPos;AngCmd;AngPos;Voltage;Altitude;
05/03/2025 04:41:17;119;0;98.15;-4;-53.20;-15.47;0.2;17.30;75869;2837.230;-1759.842;0;113;500;506.5;100.0;100.6;0;-0.5;24.8;-1.0;
05/03/2025 04:41:27;116;0;95.45;-4;-55.02;-18.82;0.0;17.30;75879;2837.231;-1759.846;0;113;500;506.5;100.0;100.6;0;0.0;24.8;-1.0;
05/03/2025 04:41:52;116;0;95.65;-4;-46.51;-14.55;0.1;17.40;75878;2837.230;-1759.849;0;113;500;504.8;100.0;100.6;0;-0.5;24.8;-1.0;
05/03/2025 04:42:19;116;0;83.42;-4;-48.51;-12.63;0.1;17.50;75888;2837.230;-1759.850;0;113;500;506.5;100.0;100.6;0;0.0;24.8;-1.0;
05/03/2025 04:42:39;116;0;89.26;-4;-52.37;-10.92;-0.1;17.50;75887;2837.231;-1759.851;0;96;500;506.5;100.0;100.6;0;-0.5;24.8;-1.0;
05/03/2025 04:42:50;116;0;87.86;-4;-59.58;1.80;0.1;17.60;75894;2837.230;-1759.854;0;96;500;504.8;100.0;100.4;0;0.0;24.8;-1.0;
05/03/2025 04:43:52;116;0;78.22;-4;-49.49;-20.21;0.0;17.70;75913;2837.231;-1759.859;0;96;500;506.5;100.0;100.6;0;-0.5;24.8;-1.0;
05/03/2025 04:44:59;116;0;82.31;-4;-56.20;1.35;-0.1;18.00;75935;2837.231;-1759.868;0;96;500;504.8;100.0;100.6;0;0.0;24.8;-1.0;
05/03/2025 04:45:12;116;0;82.34;-4;-51.05;-7.76;-0.1;18.10;75933;2837.231;-1759.870;0;96;500;506.5;100.0;100.6;0;0.0;24.8;-1.0;
05/03/2025 04:45:32;110;0;83.27;-4;-53.45;-8.32;0.2;18.20;75948;2837.231;-1759.870;0;96;-110;385.5;100.0;100.0;-7;-7.7;24.8;-1.0;
05/03/2025 04:45:42;110;0;82.42;-4;-53.17;-18.58;0.3;18.20;76311;2837.231;-1759.870;1;96;-110;241.9;100.0;99.9;-7;-7.7;24.7;-1.0;
05/03/2025 04:45:52;110;0;91.82;-4;-56.28;-13.13;0.6;18.20;76538;2837.231;-1759.870;1;96;-110;88.7;100.0;99.7;-7;-7.7;24.7;-1.0;
05/03/2025 04:46:02;110;0;80.49;-4;-68.20;-2.47;1.0;18.30;76861;2837.231;-1759.870;1;96;-110;-64.5;100.0;99.7;-7;-7.7;24.7;-1.0;
05/03/2025 04:46:12;110;0;74.01;-4;-66.93;-33.45;1.1;18.30;77181;2837.231;-1759.870;1;96;-110;-109.7;42.5;54.5;-7;-7.7;24.7;-1.0;
05/03/2025 04:46:22;110;0;71.82;-4;-56.42;-12.28;2.1;18.30;77239;2837.232;-1759.870;1;96;-110;-108.1;42.5;42.6;-7;-7.7;24.7;-1.0;
05/03/2025 04:46:42;100;0;78.32;-4;-22.67;-15.45;5.5;18.40;77245;2837.233;-1759.866;1;96;-110;-104.8;42.5;42.1;-7;-7.7;24.8;-1.0;
05/03/2025 04:47:02;100;0;91.03;-4;-18.42;-15.29;8.3;18.50;77259;2837.233;-1759.862;1;96;-110;-103.2;43.0;43.3;12;12.2;24.8;-1.0;
05/03/2025 04:47:22;100;0;93.53;-4;-20.33;-5.69;11.1;18.50;77252;2837.233;-1759.858;1;96;-110;-101.6;43.0;43.3;14;14.0;24.8;-1.0;
05/03/2025 04:47:42;100;0;95.08;-4;-21.00;-4.56;13.2;18.50;77263;2837.233;-1759.856;1;96;-110;-101.6;43.0;43.2;14;14.0;24.8;0.0;
05/03/2025 04:48:02;100;0;97.63;-4;-22.55;-4.28;15.6;18.60;77267;2837.233;-1759.853;1;96;-110;-103.2;42.2;42.3;14;14.4;24.8;0.0;
05/03/2025 04:48:22;100;0;95.57;-4;-21.08;-4.43;18.2;18.60;77261;2837.233;-1759.850;1;96;-110;-103.2;42.2;42.1;14;14.4;24.8;0.0;
05/03/2025 04:48:42;100;0;94.32;-4;-21.02;-4.45;21.0;18.60;77283;2837.234;-1759.846;1;96;-110;-103.2;42.2;42.1;14;14.4;24.8;0.0;
05/03/2025 04:49:02;100;0;94.16;-4;-19.66;-4.45;23.8;18.60;77275;2837.234;-1759.843;1;96;-110;-101.6;42.2;42.3;14;14.4;24.8;0.0;
05/03/2025 04:49:22;100;0;93.13;-4;-19.57;-4.44;26.2;18.70;77288;2837.234;-1759.839;1;96;-110;-103.2;42.2;42.3;14;14.4;24.8;0.0;
05/03/2025 04:49:42;100;0;92.53;-4;-20.23;-4.46;28.5;18.70;77289;2837.234;-1759.836;1;96;-110;-104.8;42.2;42.3;12;12.2;24.8;0.0;
05/03/2025 04:50:02;100;0;93.42;-4;-19.84;-5.73;31.2;18.70;77297;2837.234;-1759.833;1;96;-110;-103.2;42.2;42.1;12;11.7;24.8;0.0;
05/03/2025 04:50:22;100;0;95.62;-4;-19.74;-5.77;33.7;18.70;77299;2837.234;-1759.830;1;96;-110;-101.6;42.2;42.1;14;14.0;24.8;0.0;
05/03/2025 04:50:42;100;0;95.87;-4;-19.83;-4.52;36.2;18.70;77302;2837.234;-1759.827;1;96;-110;-103.2;42.2;42.1;14;14.0;24.8;0.0;
05/03/2025 04:51:02;100;0;97.85;-4;-19.83;-4.55;38.8;18.80;77308;2837.234;-1759.823;1;96;-110;-101.6;42.2;42.1;14;14.0;24.8;0.0;
05/03/2025 04:51:22;100;0;99.54;-4;-19.81;-4.51;41.3;18.80;77306;2837.234;-1759.820;1;96;-110;-103.2;42.2;42.3;14;14.0;24.8;0.0;
05/03/2025 04:51:42;100;0;100.19;-4;-19.80;-4.54;44.0;18.80;77327;2837.234;-1759.817;1;96;-110;-103.2;42.2;42.1;14;14.4;24.8;0.0;
05/03/2025 04:52:02;100;0;98.30;-4;-19.77;-4.51;46.5;18.80;77321;2837.233;-1759.813;1;96;-110;-101.6;42.2;42.1;14;14.0;24.8;0.0;
05/03/2025 04:52:22;100;0;98.01;-4;-20.09;-4.48;49.1;18.80;77318;2837.233;-1759.810;1;96;-110;-103.2;42.2;42.3;14;14.0;24.8;0.0;
05/03/2025 04:52:42;100;0;97.32;-4;-19.96;-4.51;51.8;18.80;77325;2837.233;-1759.807;1;96;-110;-101.6;42.2;42.3;14;14.0;24.8;0.0;
05/03/2025 04:53:02;100;0;96.00;-4;-20.09;-4.53;54.5;18.80;77331;2837.233;-1759.803;1;96;-110;-103.2;42.2;42.1;14;14.0;24.8;0.0;
05/03/2025 04:53:22;100;0;95.51;-4;-19.96;-4.54;57.3;18.90;77329;2837.233;-1759.800;1;96;-110;-103.2;42.2;42.1;14;14.0;24.8;0.0;
05/03/2025 04:53:42;100;0;96.68;-4;-19.88;-4.53;60.0;18.90;77332;2837.233;-1759.796;1;96;-110;-101.6;42.2;42.1;14;14.0;24.8;0.0;
05/03/2025 04:54:02;100;0;93.02;-4;-19.68;-4.49;62.6;18.90;77340;2837.233;-1759.793;1;96;-110;-101.6;42.2;42.3;14;14.0;24.8;0.0;
05/03/2025 04:54:22;100;0;88.92;-4;-18.84;-4.49;65.3;18.90;77334;2837.234;-1759.789;1;96;-110;-101.6;42.6;42.9;9;9.0;24.8;0.0;
05/03/2025 04:54:42;100;0;86.85;-4;-20.11;-7.37;67.8;18.90;77331;2837.234;-1759.786;1;96;-110;-103.2;42.6;42.7;5;5.0;24.8;0.0;
05/03/2025 04:55:02;100;0;88.50;-4;-19.13;-9.42;70.3;18.90;77328;2837.235;-1759.782;1;96;-110;-101.6;42.6;42.9;9;9.0;24.8;0.0;
05/03/2025 04:55:22;100;0;93.12;-4;-19.76;-6.93;72.7;18.90;77319;2837.235;-1759.779;1;96;-110;-101.6;42.6;42.9;12;12.2;24.8;0.0;
05/03/2025 04:55:42;100;0;96.65;-4;-19.70;-5.45;75.3;18.90;77311;2837.235;-1759.776;1;96;-110;-101.6;42.6;42.9;14;14.0;24.8;0.0;
05/03/2025 04:56:02;100;0;98.62;-4;-19.81;-4.43;77.6;18.90;77302;2837.235;-1759.773;1;96;-110;-103.2;42.6;42.9;14;14.4;24.8;0.0;
05/03/2025 04:56:22;100;0;100.48;-4;-19.93;-4.31;79.9;18.90;77301;2837.235;-1759.770;1;96;-110;-103.2;42.6;42.9;14;14.4;24.8;0.0;
05/03/2025 04:56:42;100;0;102.44;-4;-20.23;-4.31;82.3;18.90;77299;2837.234;-1759.767;1;96;-110;-101.6;42.6;42.9;14;14.4;24.8;0.0;
05/03/2025 04:57:02;100;0;104.92;-4;-20.32;-4.30;84.8;18.90;77302;2837.234;-1759.764;1;96;-110;-101.6;42.6;42.9;14;14.4;24.8;0.0;
05/03/2025 04:57:22;100;0;107.96;-4;-20.26;-4.33;87.4;18.90;77290;2837.233;-1759.761;1;96;-110;-101.6;42.6;42.9;14;14.4;24.8;0.0;
05/03/2025 04:57:42;100;0;109.46;-4;-20.35;-4.33;90.1;18.90;77279;2837.232;-1759.758;1;96;-110;-103.2;42.6;42.9;16;15.8;24.8;0.0;
05/03/2025 04:58:02;100;0;106.55;-4;-20.19;-3.42;92.6;18.90;77274;2837.232;-1759.754;1;96;-110;-104.8;42.6;42.7;16;16.2;24.8;0.0;
05/03/2025 04:58:22;100;0;105.31;-4;-20.17;-3.38;95.3;18.90;77274;2837.231;-1759.751;1;96;-110;-104.8;42.6;42.9;16;16.2;24.8;0.0;
05/03/2025 04:58:42;100;0;105.79;-4;-20.37;-3.38;97.8;18.90;77261;2837.231;-1759.748;1;96;-110;-101.6;42.6;42.9;16;16.2;24.8;0.0;
05/03/2025 04:59:02;100;0;105.02;-4;-20.27;-3.34;100.6;18.90;77260;2837.230;-1759.744;1;96;-110;-101.6;42.6;42.9;16;16.2;24.8;0.0;
05/03/2025 04:59:22;100;0;104.98;-4;-20.17;-3.42;103.3;18.80;77249;2837.229;-1759.741;1;96;-110;-101.6;42.6;42.9;16;16.2;24.8;0.0;
05/03/2025 04:59:42;100;0;104.70;-4;-20.00;-3.36;105.9;18.80;77252;2837.229;-1759.738;1;96;-110;-101.6;42.6;42.9;16;16.2;24.8;0.0;
05/03/2025 05:00:02;100;0;102.11;-4;-20.02;-3.44;108.7;18.80;77253;2837.229;-1759.734;1;96;-110;-101.6;42.6;42.7;14;14.0;24.7;0.0;
05/03/2025 05:00:22;100;0;101.27;-4;-19.83;-4.83;111.3;18.80;77250;2837.228;-1759.731;1;96;-110;-101.6;42.6;42.7;14;13.5;24.8;0.0;
05/03/2025 05:00:42;100;0;100.72;-4;-19.77;-4.80;113.9;18.80;77239;2837.228;-1759.728;1;96;-110;-101.6;42.6;42.9;14;13.5;24.8;0.0;
05/03/2025 05:01:02;100;0;103.69;-4;-20.27;-4.73;116.5;18.80;77239;2837.228;-1759.724;1;96;-110;-103.2;42.6;42.9;14;13.5;24.8;0.0;
05/03/2025 05:01:22;100;0;106.85;-4;-19.56;-4.47;119.3;18.80;77225;2837.227;-1759.721;1;96;-110;-101.6;42.6;42.9;14;13.5;24.8;0.0;
05/03/2025 05:01:42;100;0;107.88;-4;-20.48;-4.84;121.8;18.80;77225;2837.226;-1759.718;1;96;-110;-101.6;42.6;42.9;16;15.8;24.8;0.0;
05/03/2025 05:02:02;100;0;112.27;-4;-19.38;-3.50;124.7;18.80;77190;2837.225;-1759.714;1;96;-110;-101.6;42.6;42.9;19;19.0;24.8;0.0;
05/03/2025 05:02:22;100;0;106.31;-4;-19.97;-2.07;127.3;18.70;77175;2837.224;-1759.711;1;96;-110;-101.6;42.6;42.9;15;14.9;24.8;0.0;
05/03/2025 05:02:42;100;0;105.19;-4;-19.39;-4.39;129.7;18.70;77163;2837.224;-1759.708;1;96;-110;-103.2;42.6;42.9;15;14.4;24.8;0.0;
05/03/2025 05:03:02;100;0;105.54;-4;-19.57;-4.52;132.2;18.70;77159;2837.224;-1759.705;1;96;-110;-103.2;42.6;42.9;15;14.4;24.8;0.0;
05/03/2025 05:03:22;100;0;105.96;-4;-19.20;-4.44;134.6;18.70;77154;2837.223;-1759.702;1;96;-110;-101.6;42.6;42.9;15;14.4;24.8;0.0;
05/03/2025 05:03:42;100;0;103.40;-4;-19.45;-4.50;136.9;18.70;77132;2837.223;-1759.699;1;96;-110;-101.6;42.6;42.9;15;14.4;24.8;0.0;
05/03/2025 05:04:02;100;0;107.16;-4;-19.26;-4.50;139.2;18.60;77109;2837.222;-1759.696;1;96;-110;-101.6;42.6;42.9;15;14.4;24.8;0.0;
05/03/2025 05:04:22;100;0;110.47;-4;-19.31;-4.48;141.9;18.60;77093;2837.221;-1759.692;1;96;-110;-101.6;42.6;42.9;17;17.1;24.8;0.0;
05/03/2025 05:04:43;100;0;110.87;-4;-19.77;-2.79;144.5;18.60;77091;2837.220;-1759.689;1;96;-110;-101.6;42.6;42.9;17;17.6;24.8;0.0;
05/03/2025 05:05:03;100;0;112.12;-4;-19.85;-2.74;147.1;18.50;77087;2837.219;-1759.686;1;96;-110;-101.6;42.6;42.9;19;19.0;24.8;0.0;
05/03/2025 05:05:23;100;0;113.35;-4;-19.73;-1.86;149.8;18.50;77080;2837.218;-1759.683;1;96;-110;-101.6;42.6;42.9;19;19.4;24.8;0.0;
05/03/2025 05:05:43;100;0;114.60;-4;-20.21;-1.88;152.4;18.50;77067;2837.217;-1759.680;1;96;-110;-101.6;42.6;42.9;22;22.1;24.8;0.0;
05/03/2025 05:06:03;100;0;109.77;-4;-20.67;-0.17;155.4;18.50;77052;2837.216;-1759.676;1;96;-110;-101.6;42.6;42.9;17;17.1;24.8;0.0;
05/03/2025 05:06:23;100;0;105.87;-4;-19.92;-3.18;158.3;18.40;77048;2837.216;-1759.673;1;96;-110;-101.6;42.6;42.9;15;14.9;24.7;0.0;
05/03/2025 05:06:43;100;0;101.34;-4;-19.82;-4.41;161.0;18.40;77043;2837.215;-1759.669;1;96;-110;-101.6;42.6;42.9;15;14.4;24.7;0.0;
05/03/2025 05:07:03;100;0;98.85;-4;-19.74;-4.42;163.6;18.40;77035;2837.215;-1759.666;1;96;-110;-101.6;42.6;42.9;15;14.4;24.8;0.0;
05/03/2025 05:07:23;100;0;98.54;-4;-18.74;-4.45;166.3;18.30;77017;2837.215;-1759.662;1;96;-110;-101.6;43.0;43.2;15;14.4;24.8;0.0;
05/03/2025 05:07:43;100;0;98.18;-4;-19.75;-4.51;168.5;18.30;77008;2837.215;-1759.660;1;96;-110;-101.6;43.0;43.4;15;14.4;24.7;0.0;
05/03/2025 05:08:03;100;0;98.47;-4;-20.12;-4.41;170.8;18.30;76990;2837.215;-1759.657;1;96;-110;-103.2;43.0;43.4;15;14.4;24.8;0.0;
05/03/2025 05:08:23;100;0;98.59;-4;-20.16;-4.57;173.3;18.30;76970;2837.215;-1759.654;1;96;-110;-103.2;43.0;43.4;15;14.4;24.8;0.0;
05/03/2025 05:08:43;100;0;98.81;-4;-20.10;-4.49;175.6;18.20;76972;2837.215;-1759.651;1;96;-110;-104.8;43.0;43.3;15;14.4;24.8;0.0;
05/03/2025 05:09:03;100;0;98.22;-4;-20.23;-4.51;177.8;18.20;76964;2837.215;-1759.648;1;96;-110;-101.6;43.0;43.3;15;14.4;24.8;0.0;
05/03/2025 05:09:23;100;0;98.63;-4;-20.28;-4.51;180.2;18.10;76947;2837.214;-1759.645;1;96;-110;-101.6;43.0;43.4;15;14.4;24.8;0.0;
05/03/2025 05:09:43;100;0;100.21;-4;-20.07;-4.49;182.7;18.10;76945;2837.214;-1759.642;1;96;-110;-101.6;43.0;43.3;15;14.4;24.8;0.0;
05/03/2025 05:10:03;100;0;102.09;-4;-20.29;-4.46;184.9;18.10;76935;2837.214;-1759.639;1;96;-110;-101.6;43.0;43.4;15;14.4;24.8;0.0;
05/03/2025 05:10:23;100;0;103.52;-4;-20.41;-4.44;187.4;18.00;76929;2837.214;-1759.636;1;96;-110;-101.6;43.0;43.3;15;14.4;24.8;0.0;
05/03/2025 05:10:43;100;0;106.00;-4;-19.99;-4.43;189.6;18.00;76924;2837.213;-1759.633;1;96;-110;-101.6;43.0;43.4;15;14.4;24.8;0.0;
05/03/2025 05:11:03;100;0;101.36;-4;-20.56;-4.46;191.9;18.00;76908;2837.213;-1759.630;1;96;-110;-101.6;43.0;43.3;15;14.4;24.8;0.0;
05/03/2025 05:11:23;100;0;97.61;-4;-20.91;-4.51;194.5;17.90;76894;2837.213;-1759.627;1;96;-110;-103.2;43.0;43.3;15;14.4;24.8;0.0;
05/03/2025 05:11:43;100;0;95.37;-4;-20.96;-4.38;197.0;17.90;76886;2837.213;-1759.624;1;96;-110;-103.2;43.0;43.4;15;14.4;24.8;0.0;
05/03/2025 05:12:03;100;0;97.61;-4;-20.89;-4.35;199.7;17.90;76872;2837.213;-1759.621;1;96;-110;-103.2;43.0;43.3;15;14.4;24.8;0.0;
05/03/2025 05:12:23;100;0;100.43;-4;-20.84;-4.36;202.5;17.80;76852;2837.213;-1759.617;1;96;-110;-101.6;43.0;43.4;15;14.4;24.8;0.0;
05/03/2025 05:12:43;100;0;102.50;-4;-20.84;-4.38;205.3;17.80;76845;2837.212;-1759.614;1;96;-110;-101.6;43.0;43.3;15;14.4;24.8;0.0;
05/03/2025 05:13:03;100;0;103.34;-4;-21.12;-4.36;208.0;17.80;76833;2837.212;-1759.611;1;96;-110;-101.6;43.0;43.3;15;14.4;24.8;0.0;
05/03/2025 05:13:23;100;0;101.31;-4;-20.94;-4.15;210.8;17.70;76815;2837.211;-1759.607;1;96;-110;-101.6;43.0;43.4;15;14.4;24.8;0.0;
05/03/2025 05:13:43;100;0;99.19;-4;-21.01;-4.35;213.8;17.70;76811;2837.211;-1759.603;1;96;-110;-101.6;43.0;43.4;15;14.4;24.8;0.0;
05/03/2025 05:14:03;100;0;98.30;-4;-21.21;-4.42;216.8;17.60;76799;2837.211;-1759.600;1;96;-110;-103.2;43.0;43.4;15;14.4;24.8;0.0;
05/03/2025 05:14:23;100;0;96.22;-4;-20.73;-4.37;219.4;17.60;76797;2837.211;-1759.596;1;96;-110;-101.6;43.0;43.3;15;14.4;24.8;0.0;
05/03/2025 05:14:43;100;0;96.29;-4;-20.34;-4.40;222.2;17.60;76777;2837.211;-1759.593;1;96;-110;-104.8;43.0;43.3;15;14.4;24.8;0.0;
05/03/2025 05:15:03;100;0;94.64;-4;-20.25;-4.44;224.9;17.50;76765;2837.211;-1759.589;1;96;-110;-103.2;43.0;43.3;15;14.4;24.8;0.0;
05/03/2025 05:15:23;100;0;93.97;-4;-20.51;-4.34;227.6;17.50;76754;2837.211;-1759.586;1;96;-110;-103.2;43.0;43.3;13;13.1;24.8;0.0;
05/03/2025 05:15:43;100;0;93.20;-4;-19.27;-5.35;230.0;17.40;76742;2837.211;-1759.583;1;96;-110;-101.6;43.0;43.3;13;12.6;24.8;0.0;
05/03/2025 05:16:03;100;0;94.72;-4;-19.97;-5.13;232.7;17.40;76730;2837.211;-1759.579;1;96;-110;-103.2;43.0;43.4;13;13.1;24.8;0.0;
05/03/2025 05:16:23;100;0;95.97;-4;-20.10;-5.26;235.3;17.40;76721;2837.211;-1759.576;1;96;-110;-101.6;43.0;43.4;13;12.6;24.8;0.0;
05/03/2025 05:16:43;100;0;97.18;-4;-19.90;-5.30;237.7;17.30;76706;2837.211;-1759.573;1;96;-110;-101.6;43.0;43.4;13;13.1;24.8;0.0;
05/03/2025 05:17:03;100;0;98.20;-4;-19.95;-5.27;240.1;17.30;76697;2837.211;-1759.570;1;96;-110;-101.6;43.0;43.4;13;12.6;24.8;0.0;
05/03/2025 05:17:23;100;0;101.21;-4;-19.89;-5.26;242.9;17.20;76695;2837.211;-1759.566;1;96;-110;-101.6;43.0;43.4;15;14.9;24.8;0.0;
05/03/2025 05:17:43;100;0;102.14;-4;-20.04;-4.07;245.4;17.20;76685;2837.210;-1759.563;1;96;-110;-103.2;43.0;43.4;15;14.9;24.8;0.0;
05/03/2025 05:18:03;100;0;103.55;-4;-20.04;-4.06;248.0;17.20;76682;2837.210;-1759.560;1;96;-110;-103.2;43.0;43.4;15;14.9;24.8;0.0;
05/03/2025 05:18:23;100;0;103.50;-4;-19.77;-4.03;250.5;17.10;76665;2837.210;-1759.557;1;96;-110;-101.6;43.0;43.3;15;14.9;24.8;0.0;
05/03/2025 05:18:43;100;0;103.29;-4;-19.94;-4.12;253.0;17.10;76661;2837.209;-1759.554;1;96;-110;-103.2;43.0;43.3;15;15.3;24.8;0.0;
05/03/2025 05:19:03;100;0;103.06;-4;-19.68;-4.04;255.4;17.00;76652;2837.209;-1759.550;1;96;-110;-104.8;43.0;43.4;15;14.9;24.8;0.0;
05/03/2025 05:19:23;100;0;102.72;-4;-19.77;-4.12;257.9;17.00;76645;2837.209;-1759.547;1;96;-110;-101.6;43.0;43.3;15;15.3;24.8;0.0;
05/03/2025 05:19:43;100;0;101.85;-4;-19.70;-4.12;260.2;17.00;76635;2837.208;-1759.544;1;96;-110;-101.6;43.0;43.3;15;14.9;24.8;0.0;
05/03/2025 05:20:03;100;0;102.26;-4;-19.71;-4.11;262.4;16.90;76628;2837.208;-1759.542;1;96;-110;-100.0;43.0;43.4;15;15.3;24.8;0.0;
05/03/2025 05:20:23;100;0;104.36;-4;-19.86;-4.05;264.8;16.90;76615;2837.208;-1759.539;1;96;-110;-103.2;43.0;43.4;15;14.9;24.8;0.0;
05/03/2025 05:20:43;100;0;104.14;-4;-20.27;-4.04;267.0;16.80;76605;2837.207;-1759.536;1;96;-110;-101.6;43.0;43.4;15;14.9;24.8;0.0;
05/03/2025 05:21:03;100;0;101.34;-4;-20.34;-4.03;269.3;16.80;76589;2837.207;-1759.533;1;96;-110;-104.8;43.0;43.3;15;15.3;24.8;0.0;
05/03/2025 05:21:23;100;0;102.60;-4;-20.43;-3.99;271.6;16.80;76573;2837.207;-1759.530;1;96;-110;-103.2;43.0;43.4;15;14.9;24.8;0.0;
05/03/2025 05:21:43;100;0;103.56;-4;-20.03;-4.16;274.2;16.70;76561;2837.206;-1759.527;1;96;-110;-103.2;43.0;43.4;15;15.3;24.8;0.0;
05/03/2025 05:22:03;100;0;103.44;-4;-20.18;-4.00;276.7;16.70;76543;2837.206;-1759.524;1;96;-110;-101.6;43.0;43.4;15;15.3;24.8;0.0;
05/03/2025 05:22:23;100;0;103.07;-4;-20.43;-4.01;279.0;16.60;76550;2837.206;-1759.521;1;96;-110;-103.2;43.0;43.4;15;15.3;24.8;0.0;
05/03/2025 05:22:43;100;0;101.53;-4;-20.31;-3.98;281.5;16.60;76534;2837.205;-1759.518;1;96;-110;-101.6;43.0;43.4;15;15.3;24.8;0.0;
05/03/2025 05:23:03;100;0;100.16;-4;-20.60;-4.03;283.9;16.50;76532;2837.205;-1759.515;1;96;-110;-101.6;43.0;43.4;15;15.3;24.8;0.0;
05/03/2025 05:23:23;100;0;101.10;-4;-20.50;-4.02;286.5;16.50;76523;2837.205;-1759.512;1;96;-110;-101.6;43.0;43.4;15;15.3;24.8;0.0;
05/03/2025 05:23:43;100;0;100.81;-4;-20.28;-3.91;289.1;16.50;76519;2837.205;-1759.509;1;96;-110;-101.6;43.0;43.4;15;15.3;24.8;0.0;
05/03/2025 05:24:03;100;0;100.66;-4;-20.14;-3.93;291.6;16.40;76510;2837.204;-1759.505;1;96;-110;-103.2;43.0;43.4;15;15.3;24.8;0.0;
05/03/2025 05:24:23;100;0;100.10;-4;-20.48;-4.01;294.0;16.40;76515;2837.204;-1759.502;1;96;-110;-101.6;43.0;43.4;15;15.3;24.7;0.0;
05/03/2025 05:24:43;100;0;101.18;-4;-20.46;-4.02;296.5;16.40;76493;2837.204;-1759.499;1;96;-110;-101.6;43.0;43.3;15;14.9;24.8;0.0;
05/03/2025 05:25:03;100;0;103.20;-4;-20.23;-3.97;299.2;16.30;76487;2837.203;-1759.496;1;96;-110;-103.2;43.0;43.4;15;15.3;24.8;0.0;
05/03/2025 05:25:23;100;0;104.40;-4;-20.18;-4.02;301.8;16.30;76474;2837.203;-1759.492;1;96;-110;-101.6;43.0;43.4;15;14.9;24.8;0.0;
05/03/2025 05:25:43;100;0;104.21;-4;-20.20;-4.00;304.5;16.20;76473;2837.202;-1759.489;1;96;-110;-101.6;43.0;43.4;15;15.3;24.7;0.0;
05/03/2025 05:26:03;100;0;105.15;-4;-19.99;-3.97;307.1;16.20;76457;2837.202;-1759.486;1;96;-110;-101.6;43.0;43.4;15;14.9;24.8;0.0;
05/03/2025 05:26:23;100;0;105.14;-4;-20.29;-3.99;309.4;16.10;76452;2837.201;-1759.483;1;96;-110;-101.6;43.0;43.4;15;15.3;24.8;0.0;
05/03/2025 05:26:43;100;0;106.05;-4;-20.39;-3.97;312.0;16.10;76443;2837.201;-1759.480;1;96;-110;-101.6;43.0;43.4;15;14.9;24.8;0.0;
05/03/2025 05:27:03;100;0;106.77;-4;-20.21;-3.98;314.7;16.10;76441;2837.200;-1759.477;1;96;-110;-103.2;43.0;43.4;15;15.3;24.8;0.0;
05/03/2025 05:27:23;100;0;106.43;-4;-19.98;-4.04;317.4;16.00;76438;2837.200;-1759.473;1;96;-110;-101.6;43.0;43.4;15;14.9;24.8;0.0;
05/03/2025 05:27:43;100;0;106.88;-4;-19.97;-4.02;319.9;16.00;76436;2837.199;-1759.470;1;96;-110;-101.6;43.0;43.4;15;14.9;24.8;0.0;
05/03/2025 05:28:03;100;0;105.36;-4;-19.81;-4.11;322.1;16.00;76415;2837.199;-1759.467;1;96;-110;-103.2;43.0;43.3;15;15.3;24.8;0.0;
05/03/2025 05:28:23;100;0;105.52;-4;-19.66;-3.99;324.5;16.00;76416;2837.198;-1759.464;1;96;-110;-103.2;43.0;43.3;15;15.3;24.8;0.0;
05/03/2025 05:28:43;100;0;105.49;-4;-19.79;-4.05;326.9;15.90;76408;2837.198;-1759.462;1;96;-110;-101.6;43.0;43.3;15;14.9;24.8;0.0;
05/03/2025 05:29:03;100;0;105.56;-4;-19.81;-4.05;329.3;15.90;76405;2837.197;-1759.459;1;96;-110;-101.6;43.0;43.4;15;15.3;24.8;0.0;
05/03/2025 05:29:23;100;0;102.81;-4;-19.74;-4.07;331.6;15.80;76408;2837.197;-1759.456;1;96;-110;-101.6;43.0;43.4;15;15.3;24.8;0.0;
05/03/2025 05:29:43;100;0;102.30;-4;-19.76;-4.06;333.9;15.80;76400;2837.197;-1759.453;1;96;-110;-101.6;43.0;43.4;15;15.3;24.8;0.0;
05/03/2025 05:30:03;100;0;102.29;-4;-20.05;-4.05;336.4;15.80;76387;2837.196;-1759.450;1;96;-110;-101.6;43.0;43.4;15;15.3;24.7;0.0;
05/03/2025 05:30:23;100;0;100.41;-4;-20.02;-4.06;338.6;15.70;76388;2837.196;-1759.447;1;96;-110;-100.0;43.0;43.4;15;15.3;24.8;0.0;
05/03/2025 05:30:43;100;0;96.97;-4;-19.70;-4.03;341.0;15.70;76371;2837.196;-1759.444;1;96;-110;-104.8;43.0;43.3;15;14.9;24.8;0.0;
05/03/2025 05:31:03;100;0;96.98;-4;-19.78;-4.05;343.2;15.70;76376;2837.196;-1759.441;1;96;-110;-101.6;43.0;43.4;15;14.9;24.8;0.0;
05/03/2025 05:31:23;100;0;99.28;-4;-19.76;-4.05;345.5;15.60;76357;2837.196;-1759.438;1;96;-110;-101.6;43.0;43.3;15;15.3;24.8;0.0;
05/03/2025 05:31:43;100;0;100.93;-4;-19.94;-4.03;347.6;15.60;76360;2837.196;-1759.436;1;96;-110;-101.6;43.0;43.4;15;15.3;24.8;0.0;
05/03/2025 05:32:03;100;0;103.30;-4;-19.81;-4.01;349.9;15.60;76355;2837.195;-1759.433;1;96;-110;-101.6;43.0;43.3;15;14.9;24.8;0.0;
05/03/2025 05:32:23;100;0;102.77;-4;-19.69;-4.08;352.2;15.50;76341;2837.195;-1759.430;1;96;-110;-101.6;43.0;43.4;15;14.9;24.8;0.0;
05/03/2025 05:32:43;100;0;99.90;-4;-20.00;-4.05;354.2;15.50;76344;2837.195;-1759.427;1;96;-110;-103.2;43.0;43.4;15;15.3;24.8;0.0;
05/03/2025 05:33:03;100;0;97.44;-4;-19.96;-4.08;356.4;15.50;76334;2837.195;-1759.425;1;96;-110;-101.6;43.0;43.4;15;14.9;24.8;0.0;
05/03/2025 05:33:23;100;0;94.48;-4;-20.09;-4.01;358.6;15.40;76319;2837.195;-1759.422;1;96;-110;-101.6;43.0;43.4;13;13.1;24.8;0.0;
05/03/2025 05:33:43;100;0;94.13;-4;-19.81;-5.25;360.7;15.40;76309;2837.195;-1759.419;1;96;-110;-101.6;43.0;43.4;13;12.6;24.8;0.0;
05/03/2025 05:34:03;100;0;95.78;-4;-19.94;-5.31;362.8;15.40;76305;2837.195;-1759.417;1;96;-110;-101.6;43.0;43.4;13;12.6;24.8;0.0;
05/03/2025 05:34:23;100;0;97.89;-4;-19.74;-5.25;364.9;15.30;76294;2837.195;-1759.414;1;96;-110;-104.8;43.0;43.4;13;12.6;24.8;0.0;
05/03/2025 05:34:43;100;0;100.50;-4;-19.57;-5.34;366.9;15.30;76284;2837.195;-1759.412;1;96;-110;-100.0;43.0;43.4;15;14.9;24.8;0.0;
05/03/2025 05:35:03;100;0;101.78;-4;-19.62;-3.99;369.0;15.30;76288;2837.195;-1759.409;1;96;-110;-101.6;43.0;43.4;15;15.3;24.8;0.0;
05/03/2025 05:35:23;100;0;102.94;-4;-19.66;-4.01;370.8;15.20;76284;2837.195;-1759.407;1;96;-130;-132.3;43.0;43.4;15;15.3;24.8;0.0;
05/03/2025 05:35:43;100;0;104.05;-4;-19.02;-3.87;373.0;15.20;76347;2837.194;-1759.404;1;96;-130;-133.9;43.0;43.3;15;15.3;24.8;0.0;
05/03/2025 05:36:03;100;0;104.75;-4;-19.01;-3.77;375.1;15.20;76343;2837.194;-1759.401;1;96;-130;-133.9;43.0;43.4;15;15.3;24.7;0.0;
05/03/2025 05:36:23;100;0;105.61;-4;-19.14;-3.82;377.3;15.20;76342;2837.194;-1759.399;1;96;-130;-133.9;43.0;43.4;15;15.3;24.8;0.0;
05/03/2025 05:36:43;100;0;106.55;-4;-19.08;-3.76;379.6;15.10;76336;2837.193;-1759.396;1;96;-130;-133.9;43.0;43.4;15;15.3;24.8;0.0;
05/03/2025 05:37:03;100;0;107.17;-4;-19.36;-3.66;381.9;15.10;76334;2837.192;-1759.393;1;96;-130;-133.9;43.0;43.3;15;15.3;24.8;0.0;
05/03/2025 05:37:23;100;0;108.63;-4;-19.21;-3.85;384.2;15.10;76328;2837.192;-1759.390;1;96;-130;-133.9;43.0;43.3;15;15.3;24.8;0.0;
05/03/2025 05:37:43;100;0;109.04;-4;-19.07;-3.75;386.6;15.00;76323;2837.191;-1759.387;1;96;-130;-132.3;43.0;43.4;15;15.3;24.8;0.0;
05/03/2025 05:38:03;100;0;109.39;-4;-19.17;-3.83;388.8;15.00;76313;2837.191;-1759.384;1;96;-130;-133.9;43.0;43.4;15;15.3;24.8;0.0;
05/03/2025 05:38:23;100;0;112.33;-4;-19.40;-3.87;391.4;15.00;76317;2837.190;-1759.381;1;96;-130;-133.9;43.0;43.3;19;19.0;24.8;0.0;
05/03/2025 05:38:43;100;0;110.84;-4;-19.49;-1.91;393.9;14.90;76297;2837.189;-1759.378;1;96;-130;-133.9;43.0;43.4;19;19.4;24.8;0.0;
05/03/2025 05:39:04;100;0;104.46;-4;-19.52;-1.70;396.3;14.90;76289;2837.188;-1759.375;1;96;-130;-133.9;43.0;43.3;15;14.9;24.8;0.0;
05/03/2025 05:39:24;100;0;102.35;-4;-19.87;-4.37;398.8;14.90;76285;2837.188;-1759.372;1;96;-130;-133.9;43.0;43.4;15;14.4;24.8;0.0;
05/03/2025 05:39:44;100;0;98.52;-4;-18.86;-4.36;401.4;14.90;76284;2837.188;-1759.368;1;96;-130;-133.9;43.3;43.3;15;14.4;24.8;0.0;
05/03/2025 05:40:04;100;0;95.60;-4;-19.28;-4.25;403.8;14.80;76276;2837.188;-1759.365;1;96;-130;-133.9;43.3;43.3;15;14.4;24.8;0.0;
05/03/2025 05:40:24;100;0;93.79;-4;-19.19;-4.24;406.4;14.80;76281;2837.188;-1759.362;1;96;-130;-133.9;43.3;43.4;15;14.4;24.7;0.0;
05/03/2025 05:40:44;100;0;95.76;-4;-19.25;-4.25;408.8;14.80;76271;2837.188;-1759.358;1;96;-130;-133.9;43.3;43.4;15;14.4;24.7;0.0;
05/03/2025 05:41:04;100;0;96.53;-4;-19.26;-4.22;411.0;14.80;76261;2837.188;-1759.355;1;96;-130;-133.9;43.3;43.4;15;14.4;24.8;0.0;
05/03/2025 05:41:24;100;0;96.46;-4;-19.27;-4.22;413.7;14.70;76257;2837.188;-1759.352;1;96;-130;-133.9;43.3;43.4;15;14.4;24.8;0.0;
05/03/2025 05:41:44;100;0;98.33;-4;-19.33;-4.23;416.0;14.70;76249;2837.188;-1759.349;1;96;-130;-133.9;43.3;43.4;15;14.4;24.8;0.0;
05/03/2025 05:42:04;100;0;99.22;-4;-19.33;-4.26;418.6;14.70;76244;2837.188;-1759.345;1;96;-130;-133.9;43.3;43.4;15;14.4;24.8;0.0;
05/03/2025 05:42:24;100;0;99.79;-4;-19.42;-4.22;421.1;14.60;76240;2837.187;-1759.342;1;96;-130;-133.9;43.3;43.3;15;14.4;24.8;0.0;
05/03/2025 05:42:44;100;0;100.34;-4;-19.30;-4.24;423.7;14.60;76237;2837.187;-1759.339;1;96;-130;-133.9;43.3;43.3;15;14.4;24.8;0.0;
05/03/2025 05:43:04;100;0;100.58;-4;-19.17;-4.20;426.4;14.60;76224;2837.187;-1759.335;1;96;-130;-133.9;43.3;43.4;15;14.4;24.7;0.0;
05/03/2025 05:43:24;100;0;100.44;-4;-19.14;-4.26;428.9;14.60;76224;2837.187;-1759.332;1;96;-130;-133.9;43.3;43.4;15;14.4;24.8;0.0;
05/03/2025 05:43:44;100;0;97.42;-4;-19.04;-4.22;431.4;14.50;76234;2837.186;-1759.328;1;96;-130;-133.9;43.3;43.3;15;14.4;24.8;0.0;
05/03/2025 05:44:04;100;0;95.94;-4;-19.31;-4.27;434.1;14.50;76221;2837.186;-1759.325;1;96;-130;-132.3;43.3;43.3;15;14.4;24.8;0.0;
05/03/2025 05:44:24;100;0;95.00;-4;-19.40;-4.32;436.8;14.50;76219;2837.186;-1759.321;1;96;-130;-133.9;43.3;43.3;15;14.4;24.8;0.0;
05/03/2025 05:44:44;100;0;92.83;-4;-19.06;-4.24;439.5;14.50;76226;2837.187;-1759.317;1;96;-130;-133.9;43.3;43.4;13;12.6;24.8;0.0;
05/03/2025 05:45:04;100;0;92.41;-4;-19.09;-5.11;442.1;14.40;76219;2837.187;-1759.314;1;96;-130;-133.9;43.3;43.4;13;12.6;24.8;0.0;
05/03/2025 05:45:24;100;0;92.34;-4;-19.10;-5.13;444.8;14.40;76214;2837.187;-1759.310;1;96;-130;-133.9;43.3;43.4;13;12.6;24.8;0.0;
05/03/2025 05:45:44;100;0;93.11;-4;-19.19;-5.05;447.5;14.40;76215;2837.187;-1759.307;1;96;-130;-133.9;43.3;43.4;13;12.6;24.7;0.0;
05/03/2025 05:46:04;100;0;91.42;-4;-19.34;-5.16;450.2;14.40;76211;2837.187;-1759.303;1;96;-130;-132.3;43.3;43.4;13;12.6;24.8;0.0;
05/03/2025 05:46:24;100;0;89.07;-4;-19.32;-5.11;452.9;14.40;76215;2837.188;-1759.299;1;96;-130;-135.5;43.3;43.4;9;9.0;24.8;0.0;
05/03/2025 05:46:44;100;0;87.44;-4;-18.96;-7.01;455.6;14.30;76193;2837.188;-1759.296;1;96;-130;-133.9;43.6;43.7;9;9.0;24.8;0.0;
05/03/2025 05:47:04;100;0;88.68;-4;-19.45;-7.07;458.3;14.30;76178;2837.189;-1759.292;1;96;-130;-132.3;43.6;43.9;9;9.0;24.7;0.0;
05/03/2025 05:47:24;100;0;90.68;-4;-19.82;-7.01;461.0;14.30;76185;2837.189;-1759.288;1;96;-130;-133.9;43.6;43.9;11;10.8;24.8;0.0;
05/03/2025 05:47:44;100;0;91.37;-4;-19.76;-5.93;463.8;14.30;76180;2837.189;-1759.285;1;96;-130;-132.3;43.6;43.9;11;10.8;24.8;0.0;
05/03/2025 05:48:04;100;0;91.06;-4;-20.06;-5.92;466.7;14.20;76173;2837.190;-1759.281;1;96;-130;-132.3;43.6;43.9;11;11.3;24.8;0.0;
05/03/2025 05:48:24;100;0;91.30;-4;-20.27;-5.93;469.7;14.20;76164;2837.190;-1759.277;1;96;-130;-133.9;43.6;43.9;11;10.8;24.8;0.0;
05/03/2025 05:48:44;100;0;93.47;-4;-20.26;-5.85;472.8;14.20;76167;2837.190;-1759.273;1;96;-130;-135.5;43.6;43.9;13;13.1;24.8;0.0;
05/03/2025 05:49:04;100;0;95.58;-4;-20.41;-4.73;475.9;14.20;76152;2837.190;-1759.269;1;96;-130;-133.9;43.6;44.0;13;13.1;24.8;0.0;
05/03/2025 05:49:24;100;0;94.14;-4;-20.07;-4.80;479.1;14.10;76145;2837.190;-1759.265;1;96;-130;-132.3;43.6;43.9;13;13.1;24.8;0.0;
05/03/2025 05:49:44;100;0;93.79;-4;-20.18;-4.85;482.2;14.10;76136;2837.190;-1759.260;1;96;-130;-133.9;43.6;43.9;13;13.1;24.8;0.0;
05/03/2025 05:50:04;100;0;93.64;-4;-19.93;-4.82;485.4;14.10;76125;2837.190;-1759.256;1;96;-130;-133.9;43.6;43.9;13;13.1;24.8;0.0;
05/03/2025 05:50:24;100;0;94.55;-4;-19.73;-4.91;488.2;14.10;76118;2837.190;-1759.253;1;96;-130;-133.9;43.6;43.9;13;13.1;24.7;0.0;
05/03/2025 05:50:44;100;0;96.13;-4;-19.61;-4.83;491.3;14.00;76119;2837.190;-1759.248;1;96;-130;-137.1;43.6;43.9;13;13.1;24.8;0.0;
05/03/2025 05:51:04;100;0;98.79;-4;-19.54;-4.89;494.2;14.00;76104;2837.190;-1759.245;1;96;-130;-133.9;43.6;43.9;13;13.1;24.8;0.0;
05/03/2025 05:51:24;100;0;101.20;-4;-20.12;-4.98;497.0;14.00;76092;2837.190;-1759.241;1;96;-130;-135.5;43.6;43.9;13;13.1;24.8;0.0;
05/03/2025 05:51:37;118;0;105.38;-4;-19.75;-4.95;499.0;14.00;76079;2837.189;-1759.239;1;96;450;-133.9;21.3;21.4;7;7.2;24.7;0.0;
05/03/2025 05:51:47;118;0;108.47;-4;-13.69;-8.05;500.2;13.90;76071;2837.189;-1759.237;1;96;450;-32.3;21.3;21.2;7;7.2;24.8;-1.0;
05/03/2025 05:51:57;118;0;93.27;-4;15.29;-8.52;500.8;13.90;75840;2837.189;-1759.236;1;96;450;93.5;21.3;20.9;7;7.2;23.8;-1.0;
05/03/2025 05:52:07;118;0;88.42;-4;28.20;-9.45;500.3;13.90;75576;2837.189;-1759.236;1;96;450;217.7;21.3;21.4;7;6.8;23.7;-1.0;
05/03/2025 05:52:17;118;0;87.10;-4;28.52;-9.17;499.4;13.90;75305;2837.189;-1759.235;1;96;450;341.9;21.3;21.5;7;7.2;23.7;-1.0;
05/03/2025 05:52:27;118;0;84.98;-4;26.85;-8.34;498.1;13.90;75053;2837.189;-1759.234;1;96;450;450.0;21.3;21.5;7;7.2;23.7;-1.0;
05/03/2025 05:52:37;118;0;89.79;-4;23.71;-7.93;496.7;13.90;74820;2837.190;-1759.232;1;96;450;451.6;21.3;21.5;7;7.2;24.7;-1.0;
05/03/2025 05:52:47;118;0;98.39;-4;21.22;-7.81;495.2;13.90;74815;2837.190;-1759.230;1;96;450;451.6;21.3;21.5;7;7.2;24.7;-1.0;
05/03/2025 05:53:07;117;0;89.45;-4;18.96;-7.71;492.5;13.90;74835;2837.190;-1759.227;1;96;450;451.6;21.3;21.5;7;7.2;24.7;-1.0;
05/03/2025 05:53:27;117;0;81.02;-4;18.80;-7.61;489.9;13.90;74836;2837.191;-1759.223;1;96;450;450.0;21.0;20.3;47;46.9;24.7;-1.0;
05/03/2025 05:53:47;117;0;85.53;-4;21.72;13.15;487.3;13.90;74839;2837.191;-1759.220;1;96;450;451.6;21.0;20.9;40;39.7;24.8;-1.0;
05/03/2025 05:54:07;117;0;89.63;-4;22.62;9.29;484.2;13.90;74838;2837.192;-1759.216;1;96;450;451.6;21.7;21.8;33;32.9;24.8;-1.0;
05/03/2025 05:54:27;117;0;92.06;-4;21.50;5.45;481.0;13.80;74836;2837.192;-1759.213;1;96;450;451.6;21.7;21.8;31;31.1;24.8;-1.0;
05/03/2025 05:54:47;117;0;92.28;-4;20.99;4.56;478.3;13.80;74834;2837.192;-1759.209;1;96;450;453.2;21.7;21.9;31;30.7;24.7;-1.0;
05/03/2025 05:55:07;117;0;93.47;-4;20.85;4.54;475.5;13.80;74830;2837.192;-1759.206;1;96;450;451.6;21.7;21.8;31;30.7;24.8;-1.0;
05/03/2025 05:55:27;117;0;94.81;-4;20.72;4.50;472.7;13.80;74829;2837.192;-1759.202;1;96;450;453.2;21.7;21.8;31;31.1;24.8;-1.0;
05/03/2025 05:55:47;117;0;94.89;-4;20.57;4.74;470.1;13.70;74836;2837.192;-1759.199;1;96;450;451.6;21.7;21.8;31;30.7;24.8;-1.0;
05/03/2025 05:56:07;117;0;96.04;-4;20.76;4.47;467.6;13.70;74834;2837.192;-1759.196;1;96;450;451.6;21.7;21.8;29;28.9;24.8;-1.0;
05/03/2025 05:56:27;117;0;96.91;-4;20.62;3.20;464.9;13.70;74841;2837.192;-1759.192;1;96;450;451.6;21.7;21.8;29;28.4;24.8;-1.0;
05/03/2025 05:56:47;117;0;96.93;-4;20.35;3.19;462.5;13.70;74838;2837.192;-1759.189;1;96;450;453.2;21.7;21.8;29;28.4;24.8;-1.0;
05/03/2025 05:57:07;117;0;98.18;-4;20.39;3.21;459.9;13.70;74842;2837.192;-1759.186;1;96;450;451.6;21.7;21.8;29;28.4;24.8;-1.0;
05/03/2025 05:57:27;117;0;98.74;-4;20.49;3.19;457.5;13.70;74853;2837.192;-1759.183;1;96;450;453.2;21.7;21.8;29;28.4;24.8;-1.0;
05/03/2025 05:57:47;117;0;99.29;-4;20.55;3.21;455.0;13.60;74841;2837.192;-1759.180;1;96;450;451.6;21.7;21.8;29;28.4;24.8;-1.0;
05/03/2025 05:58:07;117;0;100.93;-4;20.59;3.10;452.6;13.60;74847;2837.192;-1759.177;1;96;450;453.2;21.7;21.8;29;28.4;24.8;-1.0;
05/03/2025 05:58:27;117;0;101.19;-4;20.67;3.20;450.1;13.60;74851;2837.192;-1759.174;1;96;450;453.2;21.7;21.8;29;28.4;24.8;-1.0;
05/03/2025 05:58:47;117;0;102.69;-4;20.40;3.13;447.4;13.60;74851;2837.191;-1759.171;1;96;450;453.2;21.7;21.8;29;28.4;24.8;-1.0;
05/03/2025 05:59:07;117;0;103.91;-4;20.52;3.10;445.0;13.60;74846;2837.191;-1759.168;1;96;450;453.2;21.7;21.8;29;28.4;24.8;-1.0;
05/03/2025 05:59:27;117;0;104.60;-4;20.33;2.46;442.3;13.60;74855;2837.190;-1759.164;1;96;450;451.6;21.7;21.8;29;28.4;24.8;-1.0;
05/03/2025 05:59:47;117;0;104.28;-4;20.46;3.29;439.8;13.60;74851;2837.190;-1759.161;1;96;450;453.2;21.7;21.8;29;28.4;24.7;-1.0;
05/03/2025 06:00:07;117;0;103.60;-4;20.24;3.29;437.1;13.60;74851;2837.189;-1759.158;1;96;450;453.2;21.7;21.9;29;28.4;24.7;-1.0;
05/03/2025 06:00:27;117;0;103.06;-4;20.22;3.27;434.5;13.60;74849;2837.189;-1759.155;1;96;450;453.2;21.7;21.8;29;28.4;24.8;-1.0;
05/03/2025 06:00:47;117;0;102.19;-4;20.36;3.18;432.1;13.60;74856;2837.189;-1759.152;1;96;450;453.2;21.7;21.8;29;28.4;24.8;-1.0;
05/03/2025 06:01:07;117;0;101.93;-4;20.33;3.25;429.3;13.50;74846;2837.188;-1759.148;1;96;450;451.6;21.7;21.8;29;28.4;24.8;-1.0;
05/03/2025 06:01:27;117;0;103.42;-4;20.35;3.15;426.8;13.50;74844;2837.188;-1759.145;1;96;450;453.2;21.7;21.8;29;28.4;24.8;-1.0;
05/03/2025 06:01:47;117;0;105.19;-4;20.48;3.22;424.1;13.50;74852;2837.187;-1759.141;1;96;450;453.2;21.7;21.8;29;28.4;24.8;-1.0;
05/03/2025 06:02:07;117;0;106.86;-4;20.43;3.22;421.4;13.50;74847;2837.187;-1759.138;1;96;450;453.2;21.7;21.8;29;28.4;24.7;-1.0;
05/03/2025 06:02:27;117;0;108.82;-4;20.67;3.09;418.9;13.50;74851;2837.186;-1759.135;1;96;450;451.6;21.7;21.8;29;28.4;24.8;-1.0;
05/03/2025 06:02:47;117;0;109.61;-4;20.74;3.35;416.1;13.50;74845;2837.185;-1759.132;1;96;450;453.2;21.7;21.8;27;27.1;24.8;-1.0;
05/03/2025 06:03:07;117;0;108.37;-4;20.04;2.59;413.5;13.50;74856;2837.184;-1759.129;1;96;450;453.2;21.7;21.8;27;27.1;24.8;-1.0;
05/03/2025 06:03:27;117;0;106.74;-4;19.91;2.48;410.7;13.50;74858;2837.184;-1759.125;1;96;450;451.6;21.7;21.8;27;27.1;24.8;-1.0;
05/03/2025 06:03:47;117;0;104.94;-4;19.98;2.38;408.1;13.50;74858;2837.183;-1759.122;1;96;450;454.8;21.7;21.8;29;28.9;24.7;-1.0;
05/03/2025 06:04:07;117;0;104.35;-4;20.18;3.81;405.5;13.50;74856;2837.183;-1759.119;1;96;450;453.2;21.7;21.8;29;29.3;24.8;-1.0;
05/03/2025 06:04:27;117;0;104.31;-4;20.18;3.88;402.7;13.50;74858;2837.182;-1759.115;1;96;450;453.2;21.7;21.8;29;29.8;24.8;-1.0;
05/03/2025 06:04:47;117;0;104.37;-4;20.24;3.97;399.9;13.50;74864;2837.182;-1759.112;1;96;450;453.2;21.7;21.8;29;29.3;24.8;-1.0;
05/03/2025 06:05:07;117;0;104.26;-4;20.24;3.80;397.4;13.50;74858;2837.181;-1759.108;1;96;450;451.6;21.7;21.8;29;29.3;24.8;-1.0;
05/03/2025 06:05:27;117;0;103.71;-4;20.19;3.84;394.6;13.50;74861;2837.181;-1759.105;1;96;450;453.2;21.7;21.9;29;29.3;24.8;-1.0;
05/03/2025 06:05:47;117;0;102.69;-4;20.22;3.84;391.6;13.50;74864;2837.180;-1759.101;1;96;450;453.2;21.7;21.8;29;29.3;24.8;-1.0;
05/03/2025 06:06:07;117;0;101.36;-4;20.27;3.88;388.8;13.50;74856;2837.180;-1759.098;1;96;450;453.2;21.7;21.8;29;29.3;24.8;-1.0;
05/03/2025 06:06:27;117;0;100.15;-4;20.23;3.99;386.0;13.50;74861;2837.180;-1759.094;1;96;450;453.2;21.7;21.8;29;29.3;24.8;-1.0;
05/03/2025 06:06:47;117;0;99.68;-4;20.33;3.80;383.0;13.50;74870;2837.179;-1759.090;1;96;450;453.2;21.7;21.8;29;29.3;24.8;-1.0;
05/03/2025 06:07:07;117;0;100.01;-4;20.43;3.79;380.2;13.50;74856;2837.179;-1759.086;1;96;450;453.2;21.7;21.8;29;29.3;24.8;-1.0;
05/03/2025 06:07:27;117;0;100.16;-4;20.48;3.83;377.0;13.50;74858;2837.179;-1759.082;1;96;450;453.2;21.7;21.8;29;29.3;24.7;-1.0;
05/03/2025 06:07:47;117;0;100.14;-4;20.26;3.85;374.1;13.50;74858;2837.178;-1759.078;1;96;450;454.8;21.7;21.8;29;29.3;24.7;-1.0;
05/03/2025 06:08:07;117;0;101.56;-4;20.16;3.80;371.0;13.50;74862;2837.178;-1759.074;1;96;450;453.2;21.7;21.8;29;29.3;24.8;-1.0;
05/03/2025 06:08:27;117;0;102.85;-4;20.75;4.17;367.9;13.50;74859;2837.177;-1759.071;1;96;450;451.6;21.7;21.8;29;29.3;24.8;-1.0;
05/03/2025 06:08:47;117;0;104.91;-4;20.10;3.56;364.8;13.50;74868;2837.177;-1759.067;1;96;450;451.6;21.7;21.8;29;29.3;24.8;-1.0;
05/03/2025 06:09:07;117;0;106.97;-4;20.60;3.66;361.6;13.50;74868;2837.176;-1759.063;1;96;450;453.2;21.7;21.8;29;29.3;24.8;-1.0;
05/03/2025 06:09:27;117;0;106.37;-4;20.43;3.76;358.3;13.50;74873;2837.175;-1759.059;1;96;450;453.2;21.7;21.9;29;29.3;24.8;-1.0;
05/03/2025 06:09:47;117;0;105.76;-4;20.20;3.82;355.2;13.50;74871;2837.174;-1759.055;1;96;450;453.2;21.7;21.8;29;29.3;24.7;-1.0;
05/03/2025 06:10:07;117;0;105.35;-4;20.04;3.94;351.8;13.50;74873;2837.173;-1759.050;1;96;450;453.2;21.7;21.8;29;29.3;24.7;-1.0;
05/03/2025 06:10:27;117;0;104.38;-4;20.03;3.84;348.9;13.50;74881;2837.173;-1759.047;1;96;450;453.2;21.7;21.8;29;29.3;24.8;-1.0;
05/03/2025 06:10:47;117;0;105.75;-4;20.11;3.77;345.8;13.50;74884;2837.172;-1759.043;1;96;450;453.2;21.7;21.8;29;29.3;24.8;-1.0;
05/03/2025 06:11:07;117;0;106.58;-4;20.17;3.90;342.8;13.50;74887;2837.171;-1759.039;1;96;450;453.2;21.7;21.8;29;29.3;24.7;-1.0;
05/03/2025 06:11:27;117;0;105.81;-4;20.10;3.88;339.4;13.50;74884;2837.171;-1759.035;1;96;450;453.2;21.7;21.9;29;29.3;24.8;-1.0;
05/03/2025 06:11:48;117;0;106.17;-4;19.95;3.80;336.3;13.50;74890;2837.170;-1759.031;1;96;450;453.2;21.7;21.8;29;29.3;24.8;-1.0;
05/03/2025 06:12:08;117;0;106.66;-4;20.00;3.86;333.3;13.50;74880;2837.169;-1759.027;1;96;450;453.2;21.7;21.8;27;26.6;24.8;-1.0;
05/03/2025 06:12:28;117;0;106.26;-4;19.88;2.23;330.1;13.50;74893;2837.168;-1759.023;1;96;450;453.2;21.7;21.8;27;26.6;24.8;-1.0;
05/03/2025 06:12:48;117;0;106.00;-4;19.88;2.24;327.1;13.50;74887;2837.167;-1759.019;1;96;450;453.2;21.7;21.9;27;26.2;24.8;-1.0;
05/03/2025 06:13:08;117;0;104.28;-4;19.78;2.29;324.0;13.50;74895;2837.167;-1759.015;1;96;450;453.2;21.7;21.8;27;26.6;24.8;-1.0;
05/03/2025 06:13:28;117;0;103.28;-4;19.75;2.18;321.1;13.50;74893;2837.166;-1759.011;1;96;450;453.2;21.7;21.8;27;26.2;24.8;-1.0;
05/03/2025 06:13:48;117;0;103.94;-4;19.84;2.19;318.0;13.50;74917;2837.166;-1759.007;1;96;450;454.8;21.7;21.8;27;26.2;24.7;-1.0;
05/03/2025 06:14:08;117;0;103.68;-4;19.87;2.14;314.9;13.50;74922;2837.165;-1759.003;1;96;450;454.8;21.7;21.8;27;26.2;24.8;-1.0;
05/03/2025 06:14:28;117;0;102.99;-4;19.82;2.23;312.1;13.50;74917;2837.165;-1759.000;1;96;450;451.6;21.7;21.8;27;26.2;24.8;-1.0;
05/03/2025 06:14:48;117;0;100.81;-4;19.77;2.27;309.1;13.60;74911;2837.164;-1758.996;1;96;450;453.2;21.7;21.8;27;26.2;24.8;-1.0;
05/03/2025 06:15:08;117;0;99.17;-4;19.77;2.23;306.1;13.60;74927;2837.164;-1758.992;1;96;450;453.2;21.7;21.8;27;26.2;24.8;-1.0;
05/03/2025 06:15:28;117;0;97.82;-4;19.89;2.19;303.1;13.60;74932;2837.164;-1758.988;1;96;450;450.0;21.7;21.9;29;28.9;24.8;-1.0;
05/03/2025 06:15:48;117;0;98.83;-4;19.99;3.77;300.3;13.60;74935;2837.164;-1758.984;1;96;450;451.6;21.7;21.8;29;29.3;24.8;-1.0;
05/03/2025 06:16:08;117;0;99.68;-4;20.13;3.76;297.2;13.60;74950;2837.163;-1758.980;1;96;450;453.2;21.7;21.9;29;29.3;24.7;-1.0;
05/03/2025 06:16:28;117;0;100.20;-4;20.11;3.74;294.3;13.60;74944;2837.163;-1758.977;1;96;450;453.2;21.7;21.8;29;29.3;24.8;-1.0;
05/03/2025 06:16:48;117;0;100.42;-4;19.54;4.07;291.3;13.60;74944;2837.163;-1758.973;1;96;450;453.2;21.7;21.8;29;29.3;24.8;-1.0;
05/03/2025 06:17:08;117;0;101.04;-4;19.85;3.58;288.1;13.60;74951;2837.162;-1758.969;1;96;450;453.2;21.7;21.9;29;29.3;24.7;-1.0;
05/03/2025 06:17:28;117;0;103.83;-4;20.08;3.64;285.2;13.60;74962;2837.162;-1758.965;1;96;450;453.2;21.7;21.8;29;29.3;24.8;-1.0;
05/03/2025 06:17:48;117;0;103.49;-4;19.98;3.78;282.0;13.60;74970;2837.161;-1758.961;1;96;450;450.0;21.7;21.8;29;28.9;24.8;-1.0;
05/03/2025 06:18:08;117;0;102.92;-4;19.93;3.82;278.9;13.70;74985;2837.160;-1758.957;1;96;450;453.2;21.7;21.9;29;29.3;24.8;-1.0;
05/03/2025 06:18:28;117;0;102.77;-4;19.76;3.77;275.8;13.70;74998;2837.160;-1758.953;1;96;450;453.2;21.7;21.8;29;29.3;24.8;-1.0;
05/03/2025 06:18:48;117;0;103.32;-4;19.80;3.80;272.6;13.70;75000;2837.159;-1758.949;1;96;450;453.2;21.7;21.8;29;29.3;24.8;-1.0;
05/03/2025 06:19:08;117;0;103.27;-4;19.82;3.76;269.6;13.70;75011;2837.159;-1758.945;1;96;450;454.8;21.7;21.8;29;29.3;24.8;-1.0;
05/03/2025 06:19:28;117;0;102.57;-4;19.75;3.91;266.4;13.80;75014;2837.158;-1758.941;1;96;450;453.2;21.7;21.8;29;29.3;24.8;-1.0;
05/03/2025 06:19:48;117;0;101.12;-4;19.68;3.85;263.2;13.80;75025;2837.158;-1758.937;1;96;450;453.2;21.7;21.8;29;29.3;24.8;-1.0;
05/03/2025 06:20:08;117;0;101.13;-4;19.74;3.82;260.1;13.80;75037;2837.157;-1758.933;1;96;450;451.6;21.7;21.9;29;29.3;24.8;-1.0;
05/03/2025 06:20:28;117;0;101.49;-4;19.73;3.84;257.1;13.80;75033;2837.157;-1758.929;1;96;450;454.8;21.7;21.8;29;29.3;24.8;-1.0;
05/03/2025 06:20:48;117;0;101.70;-4;19.77;3.87;253.9;13.80;75047;2837.156;-1758.925;1;96;450;453.2;21.7;21.8;29;29.3;24.7;-1.0;
05/03/2025 06:21:08;117;0;102.19;-4;19.76;3.80;250.7;13.80;75043;2837.156;-1758.920;1;96;450;454.8;21.7;21.9;29;29.3;24.8;-1.0;
05/03/2025 06:21:28;117;0;102.00;-4;19.71;3.85;247.4;13.80;75063;2837.155;-1758.916;1;96;450;451.6;21.7;21.8;29;29.3;24.8;-1.0;
05/03/2025 06:21:48;117;0;104.12;-4;19.69;3.75;244.5;13.90;75059;2837.155;-1758.912;1;96;450;453.2;21.7;21.8;29;29.3;24.8;-1.0;
05/03/2025 06:22:08;117;0;104.34;-4;19.63;3.78;241.4;13.90;75087;2837.154;-1758.908;1;96;450;453.2;21.7;21.9;29;29.3;24.8;-1.0;
05/03/2025 06:22:28;117;0;105.91;-4;19.98;3.65;238.3;13.90;75103;2837.153;-1758.905;1;96;450;454.8;21.7;21.8;27;27.1;24.8;-1.0;
05/03/2025 06:22:48;117;0;106.76;-4;19.43;2.25;235.1;14.00;75113;2837.153;-1758.900;1;96;450;454.8;21.7;21.8;27;26.6;24.8;-1.0;
05/03/2025 06:23:08;117;0;106.43;-4;19.72;2.40;232.3;14.00;75115;2837.152;-1758.897;1;96;450;454.8;21.7;21.8;27;26.6;24.7;-1.0;
05/03/2025 06:23:28;117;0;107.58;-4;19.62;2.26;229.2;14.00;75117;2837.151;-1758.893;1;96;450;454.8;21.7;21.8;27;26.6;24.8;-1.0;
05/03/2025 06:23:48;117;0;108.37;-4;19.52;2.28;226.1;14.00;75126;2837.150;-1758.889;1;96;450;454.8;21.7;21.8;27;26.6;24.8;-1.0;
05/03/2025 06:24:08;117;0;108.45;-4;19.57;2.39;222.9;14.10;75132;2837.149;-1758.885;1;96;450;454.8;21.7;21.9;27;26.6;24.8;-1.0;
05/03/2025 06:24:28;117;0;106.52;-4;19.75;2.37;220.0;14.10;75137;2837.148;-1758.881;1;96;450;454.8;21.7;21.9;27;26.6;24.7;-1.0;
05/03/2025 06:24:48;117;0;102.72;-4;19.58;2.41;216.9;14.10;75147;2837.148;-1758.877;1;96;450;454.8;21.7;21.8;27;26.6;24.8;-1.0;
05/03/2025 06:25:08;117;0;100.42;-4;19.62;2.30;213.8;14.10;75152;2837.148;-1758.873;1;96;450;453.2;21.7;21.9;27;26.6;24.8;-1.0;
05/03/2025 06:25:28;117;0;102.03;-4;19.48;2.33;210.8;14.20;75174;2837.147;-1758.869;1;96;450;454.8;21.7;21.8;27;26.6;24.8;-1.0;
05/03/2025 06:25:48;117;0;102.99;-4;19.56;2.34;207.7;14.20;75179;2837.147;-1758.865;1;96;450;454.8;21.7;21.8;27;26.6;24.8;-1.0;
05/03/2025 06:26:08;117;0;99.99;-4;19.32;2.45;204.6;14.20;75198;2837.146;-1758.861;1;96;450;454.8;21.7;21.8;27;26.6;24.8;-1.0;
05/03/2025 06:26:28;117;0;97.31;-4;19.29;2.46;201.6;14.20;75209;2837.146;-1758.857;1;96;450;454.8;21.7;21.8;27;26.6;24.8;-1.0;
05/03/2025 06:26:48;117;0;95.04;-4;19.18;2.46;198.6;14.30;75226;2837.146;-1758.853;1;96;450;454.8;21.7;21.8;27;26.6;24.8;-1.0;
05/03/2025 06:27:08;117;0;93.33;-4;19.18;2.43;195.5;14.30;75244;2837.146;-1758.849;1;96;450;453.2;21.7;21.9;29;28.9;24.8;-1.0;
05/03/2025 06:27:28;117;0;92.66;-4;19.28;3.86;192.4;14.30;75238;2837.146;-1758.844;1;96;450;454.8;21.7;21.8;29;29.3;24.8;-1.0;
05/03/2025 06:27:48;117;0;91.94;-4;19.33;3.78;189.7;14.40;75258;2837.146;-1758.841;1;96;450;456.5;21.7;21.9;29;29.3;24.8;-1.0;
05/03/2025 06:28:08;117;0;92.77;-4;19.12;3.74;186.6;14.40;75264;2837.147;-1758.837;1;96;450;454.8;21.7;21.8;29;29.3;24.8;-1.0;
05/03/2025 06:28:28;117;0;94.51;-4;19.32;3.70;183.7;14.50;75306;2837.147;-1758.833;1;96;450;454.8;21.7;21.9;29;29.3;24.8;-1.0;
05/03/2025 06:28:48;117;0;95.56;-4;19.50;3.79;180.7;14.50;75324;2837.147;-1758.829;1;96;450;454.8;21.7;21.8;29;29.3;24.8;-1.0;
05/03/2025 06:29:08;117;0;94.76;-4;19.57;3.76;177.9;14.50;75336;2837.147;-1758.825;1;96;450;454.8;21.7;21.8;29;29.3;24.8;-1.0;
05/03/2025 06:29:28;117;0;92.73;-4;19.34;3.81;174.9;14.60;75354;2837.147;-1758.821;1;96;450;454.8;21.7;21.8;29;29.3;24.7;-1.0;
05/03/2025 06:29:48;117;0;93.51;-4;19.25;3.80;171.9;14.60;75380;2837.147;-1758.817;1;96;450;453.2;21.7;21.8;29;29.3;24.8;-1.0;
05/03/2025 06:30:08;117;0;94.97;-4;19.56;3.80;168.9;14.70;75391;2837.147;-1758.813;1;96;450;454.8;21.7;21.8;29;29.3;24.7;-1.0;
05/03/2025 06:30:28;117;0;95.65;-4;19.35;3.82;165.8;14.70;75398;2837.147;-1758.808;1;96;450;456.5;21.7;21.8;29;28.9;24.7;-1.0;
05/03/2025 06:30:48;117;0;95.29;-4;19.36;3.74;162.8;14.70;75412;2837.147;-1758.804;1;96;450;454.8;21.7;21.8;29;29.3;24.8;-1.0;
05/03/2025 06:31:08;117;0;95.32;-4;19.39;3.73;159.8;14.80;75435;2837.147;-1758.800;1;96;450;456.5;21.7;21.9;29;29.3;24.7;-1.0;
05/03/2025 06:31:28;117;0;94.55;-4;19.42;3.70;156.6;14.90;75453;2837.147;-1758.796;1;96;450;454.8;21.7;21.8;29;29.3;24.8;-1.0;
05/03/2025 06:31:48;117;0;91.70;-4;19.41;3.81;153.4;14.90;75469;2837.147;-1758.791;1;96;450;454.8;21.7;21.8;29;29.3;24.7;-1.0;
05/03/2025 06:32:08;117;0;89.49;-4;19.31;3.67;150.1;15.00;75502;2837.147;-1758.787;1;96;450;454.8;21.7;21.8;32;32.0;24.8;-1.0;
05/03/2025 06:32:28;117;0;89.97;-4;19.26;5.42;146.7;15.00;75540;2837.148;-1758.782;1;96;450;454.8;21.7;21.8;32;32.5;24.8;-1.0;
05/03/2025 06:32:48;117;0;92.08;-4;19.10;5.20;143.5;15.10;75550;2837.148;-1758.778;1;96;450;454.8;21.7;21.8;30;29.8;24.8;-1.0;
05/03/2025 06:33:08;117;0;92.73;-4;19.31;3.85;140.5;15.10;75571;2837.148;-1758.774;1;96;450;454.8;21.7;21.8;30;29.3;24.7;-1.0;
05/03/2025 06:33:28;117;0;91.90;-4;18.94;3.89;137.3;15.20;75583;2837.148;-1758.769;1;96;450;454.8;21.4;21.4;30;29.3;24.8;-1.0;
05/03/2025 06:33:48;117;0;93.07;-4;20.11;3.73;134.1;15.20;75605;2837.149;-1758.765;1;96;450;454.8;21.4;20.8;30;29.3;24.8;-1.0;
05/03/2025 06:34:08;117;0;93.04;-4;20.38;3.88;130.9;15.30;75619;2837.149;-1758.761;1;96;450;454.8;21.4;20.9;30;29.3;24.7;-1.0;
05/03/2025 06:34:28;117;0;92.78;-4;20.38;3.69;127.5;15.40;75635;2837.149;-1758.756;1;96;450;456.5;21.4;20.8;30;29.8;24.8;-1.0;
05/03/2025 06:34:48;117;0;90.19;-4;20.47;3.85;124.3;15.40;75647;2837.149;-1758.752;1;96;450;454.8;21.4;20.8;32;32.0;24.7;-1.0;
05/03/2025 06:35:08;117;0;92.21;-4;20.59;5.29;120.8;15.50;75654;2837.149;-1758.747;1;96;450;454.8;21.4;20.8;30;29.8;24.7;-1.0;
05/03/2025 06:35:28;117;0;88.36;-4;20.44;3.84;117.6;15.50;75663;2837.150;-1758.743;1;96;450;456.5;21.4;20.8;33;32.9;24.7;-1.0;
05/03/2025 06:35:48;117;0;87.91;-4;20.37;5.74;114.4;15.60;75671;2837.150;-1758.739;1;96;450;454.8;21.4;20.8;33;32.9;24.8;-1.0;
05/03/2025 06:36:08;117;0;89.07;-4;20.75;5.86;111.3;15.60;75688;2837.151;-1758.735;1;96;450;454.8;21.4;20.9;33;33.4;24.8;-1.0;
05/03/2025 06:36:28;117;0;89.36;-4;20.64;5.75;108.1;15.70;75699;2837.151;-1758.731;1;96;450;454.8;21.4;20.9;33;32.9;24.7;-1.0;
05/03/2025 06:36:48;117;0;88.72;-4;20.87;5.72;105.0;15.70;75705;2837.151;-1758.727;1;96;450;454.8;21.4;20.9;33;32.9;24.8;-1.0;
05/03/2025 06:37:08;117;0;90.26;-4;20.65;5.70;102.0;15.80;75724;2837.152;-1758.723;1;96;450;454.8;21.4;20.9;33;32.9;24.7;-1.0;
05/03/2025 06:37:28;117;0;92.86;-4;20.59;5.66;98.8;15.90;75727;2837.152;-1758.719;1;96;450;456.5;21.4;20.9;30;29.8;24.7;-1.0;
05/03/2025 06:37:48;117;0;91.53;-4;20.56;3.95;95.9;15.90;75746;2837.152;-1758.715;1;96;450;456.5;21.4;20.8;32;32.0;24.7;-1.0;
05/03/2025 06:38:08;117;0;88.78;-4;20.55;5.59;92.9;16.00;75753;2837.153;-1758.712;1;96;450;454.8;21.4;20.8;34;33.8;24.8;-1.0;
05/03/2025 06:38:28;117;0;88.80;-4;20.39;6.40;90.1;16.00;75781;2837.153;-1758.708;1;96;450;456.5;21.4;20.8;34;34.3;24.7;-1.0;
05/03/2025 06:38:48;117;0;90.54;-4;20.34;6.44;87.3;16.10;75781;2837.153;-1758.704;1;96;450;456.5;21.4;20.8;34;34.3;24.7;-1.0;
05/03/2025 06:39:08;117;0;90.91;-4;20.79;6.27;84.6;16.10;75807;2837.154;-1758.701;1;96;450;453.2;21.4;20.8;32;31.6;24.7;-1.0;
05/03/2025 06:39:28;117;0;91.14;-4;20.76;4.84;81.7;16.20;75831;2837.154;-1758.697;1;96;450;456.5;21.4;20.8;32;31.6;24.8;-1.0;
05/03/2025 06:39:48;117;0;92.85;-4;20.81;4.79;78.9;16.30;75845;2837.154;-1758.694;1;96;450;456.5;21.4;20.9;32;31.6;24.7;-1.0;
05/03/2025 06:40:08;117;0;93.79;-4;20.76;4.84;76.0;16.30;75849;2837.154;-1758.690;1;96;450;454.8;21.4;20.8;32;31.6;24.8;-1.0;
05/03/2025 06:40:28;117;0;93.05;-4;20.95;4.83;72.8;16.40;75863;2837.154;-1758.686;1;96;450;456.5;21.4;20.8;30;29.8;24.8;-1.0;
05/03/2025 06:40:48;117;0;91.17;-4;20.37;4.15;69.7;16.50;75876;2837.155;-1758.682;1;96;450;454.8;21.4;20.9;32;32.0;24.8;-1.0;
05/03/2025 06:41:08;117;0;90.16;-4;20.70;5.42;66.5;16.50;75889;2837.155;-1758.678;1;96;450;456.5;21.4;20.8;32;32.5;24.8;-1.0;
05/03/2025 06:41:28;117;0;89.19;-4;20.21;5.39;63.5;16.50;75890;2837.155;-1758.674;1;96;450;454.8;21.4;20.8;34;33.8;24.7;-1.0;
05/03/2025 06:41:48;117;0;91.59;-4;20.65;6.44;60.6;16.60;75910;2837.156;-1758.670;1;96;450;454.8;21.4;20.8;32;32.0;24.8;-1.0;
05/03/2025 06:42:08;117;0;91.87;-4;21.15;5.05;57.5;16.70;75918;2837.156;-1758.666;1;96;450;456.5;21.4;20.8;32;31.6;24.8;-1.0;
05/03/2025 06:42:28;117;0;92.34;-4;20.55;4.74;54.3;16.70;75940;2837.156;-1758.662;1;96;450;456.5;21.4;20.8;32;31.6;24.8;-1.0;
05/03/2025 06:42:48;117;0;93.11;-4;20.54;4.84;51.3;16.80;75941;2837.156;-1758.658;1;96;450;454.8;21.4;20.8;32;31.6;24.7;-1.0;
05/03/2025 06:43:08;117;0;95.09;-4;20.44;4.91;48.4;16.80;75944;2837.156;-1758.654;1;96;450;456.5;21.4;20.8;30;29.8;24.8;-1.0;
05/03/2025 06:43:28;117;0;94.01;-4;20.83;3.50;45.4;16.90;75953;2837.156;-1758.651;1;96;450;454.8;21.4;20.8;30;29.3;24.7;-1.0;
05/03/2025 06:43:48;117;0;93.94;-4;21.37;3.55;42.4;16.90;75963;2837.156;-1758.647;1;96;450;456.5;21.4;20.8;30;29.3;24.7;-1.0;
05/03/2025 06:44:08;117;0;93.51;-4;20.64;3.75;39.3;17.00;75970;2837.156;-1758.643;1;96;450;456.5;21.4;20.8;30;29.3;24.7;-1.0;
05/03/2025 06:44:28;117;0;93.78;-4;21.01;3.67;36.0;17.00;75978;2837.156;-1758.639;1;96;450;453.2;21.4;20.8;30;29.3;24.7;-1.0;
05/03/2025 06:44:48;117;0;92.61;-4;20.94;3.82;32.6;17.10;75985;2837.157;-1758.634;1;96;450;456.5;21.4;20.8;30;29.3;24.8;-1.0;
05/03/2025 06:45:08;117;0;93.46;-4;20.36;3.80;29.1;17.10;75988;2837.157;-1758.630;1;96;450;458.1;21.4;20.8;30;29.3;24.8;-1.0;
05/03/2025 06:45:28;117;0;93.94;-4;20.15;3.56;26.0;17.20;75993;2837.157;-1758.626;1;96;450;454.8;21.4;20.8;30;29.3;24.8;-1.0;
05/03/2025 06:45:48;117;0;95.80;-4;19.09;3.67;23.4;17.20;76003;2837.157;-1758.622;1;96;450;456.5;21.4;20.8;30;29.3;24.8;-1.0;
05/03/2025 06:46:08;117;0;93.24;-4;20.12;4.00;20.8;17.30;75994;2837.157;-1758.619;1;96;450;456.5;21.4;20.9;30;29.3;24.7;-1.0;
05/03/2025 06:46:28;117;0;91.13;-4;21.13;3.60;17.7;17.30;76007;2837.157;-1758.615;1;96;450;453.2;21.4;20.8;33;32.9;24.8;-1.0;
05/03/2025 06:46:48;117;0;90.96;-4;20.81;6.20;14.4;17.40;76016;2837.157;-1758.611;1;96;450;456.5;21.4;20.9;33;33.4;24.8;-1.0;
05/03/2025 06:47:09;117;0;91.23;-4;19.91;5.31;11.5;17.40;76020;2837.158;-1758.607;1;96;450;456.5;21.4;20.8;33;33.4;24.7;-1.0;
05/03/2025 06:47:29;117;0;93.53;-4;21.24;5.12;8.8;17.50;76024;2837.158;-1758.603;1;96;450;456.5;21.4;20.8;31;31.1;24.8;-1.0;
05/03/2025 06:47:49;117;0;96.17;-4;19.18;5.55;5.2;17.50;76027;2837.158;-1758.599;1;96;450;454.8;21.4;20.8;31;30.7;24.8;-1.0;
05/03/2025 06:48:04;115;0;94.70;-4;20.15;4.83;3.2;17.50;76025;2837.158;-1758.596;1;96;500;461.3;100.0;59.2;0;-0.5;24.8;-1.0;
05/03/2025 06:48:14;115;0;83.98;-4;6.60;-12.49;2.3;17.60;76004;2837.158;-1758.594;1;96;500;506.5;100.0;100.0;0;0.0;24.5;-1.0;
05/03/2025 06:48:24;115;0;75.51;-4;-60.56;-10.76;2.5;17.60;75917;2837.158;-1758.594;1;96;500;506.5;100.0;100.4;0;0.0;24.8;-1.0;
05/03/2025 06:48:44;119;0;69.17;-4;-41.61;-1.30;0.2;17.60;75922;2837.158;-1758.594;1;96;500;506.5;100.0;100.4;0;-0.5;24.7;-1.0;
05/03/2025 06:48:53;119;0;65.49;-4;-60.67;-24.04;0.2;17.60;75927;2836.772;-1758.377;0;96;500;506.5;100.0;100.4;0;0.0;24.7;-1.0;
