Timestamp;NavState;SecurityLevel;Heading;Declination;Pitch;Roll;Depth;Temperature;Pa;Lat;Lon;DeadReckoning;DesiredH;BallastCmd;BallastPos;LinCmd;LinPos;AngCmd;AngPos;Voltage;Altitude;
05/03/2025 10:40:04;119;0;127.48;-4;-57.18;-15.41;0.1;20.10;76479;2837.953;-1757.954;0;124;500;509.7;100.0;100.4;0;-0.5;24.7;-1.0;
05/03/2025 10:40:14;116;0;147.00;-4;-51.10;-19.04;-0.1;20.10;76463;2837.958;-1757.957;0;124;500;509.7;100.0;100.4;0;0.0;24.7;-1.0;
05/03/2025 10:40:43;116;0;170.10;-4;-53.22;-12.29;0.0;20.10;76480;2837.961;-1757.958;0;124;500;508.1;100.0;100.4;0;0.0;24.7;-1.0;
05/03/2025 10:40:58;116;0;178.44;-4;-56.98;-16.86;-0.0;20.10;76486;2837.961;-1757.959;0;124;500;508.1;100.0;100.4;0;0.0;24.7;-1.0;
05/03/2025 10:41:18;116;0;172.92;-4;-55.73;-8.69;0.1;20.10;76488;2837.965;-1757.960;0;130;500;509.7;100.0;100.4;0;0.0;24.7;-1.0;
05/03/2025 10:41:30;116;0;180.99;-4;-53.15;-14.77;0.0;20.20;76497;2837.966;-1757.961;0;130;500;508.1;100.0;100.4;0;0.0;24.7;-1.0;
05/03/2025 10:41:41;116;0;183.58;-4;-54.66;-16.29;-0.1;20.20;76489;2837.968;-1757.962;0;130;500;511.3;100.0;100.4;0;-0.5;24.7;-1.0;
05/03/2025 10:42:22;116;0;180.07;-4;-59.56;-17.72;-0.0;20.20;76510;2837.975;-1757.965;0;130;500;508.1;100.0;100.4;0;0.0;24.7;-1.0;
05/03/2025 10:42:42;116;0;181.35;-4;-55.13;-28.45;0.0;20.20;76503;2837.978;-1757.967;0;130;500;509.7;100.0;100.4;0;-0.5;24.7;-1.0;
05/03/2025 10:42:53;116;0;167.73;-4;-53.48;-4.85;-0.1;20.30;76513;2837.980;-1757.968;0;130;500;509.7;100.0;100.4;0;0.0;24.7;-1.0;
05/03/2025 10:43:56;116;0;191.52;-4;-55.01;-4.97;-0.0;20.40;76521;2837.990;-1757.972;0;130;500;508.1;100.0;100.4;0;0.0;24.7;-1.0;
05/03/2025 10:44:59;116;0;202.22;-4;-54.07;-16.33;0.1;20.60;76536;2837.999;-1757.977;0;130;500;509.7;100.0;100.6;0;0.0;24.7;-1.0;
05/03/2025 10:45:47;116;0;229.66;-4;-55.21;-10.53;-0.1;20.70;76529;2838.007;-1757.981;0;130;500;509.7;100.0;100.4;0;0.0;24.7;-1.0;
05/03/2025 10:46:07;116;0;218.25;-4;-55.44;-10.82;0.1;20.70;76532;2838.012;-1757.982;0;130;500;508.1;100.0;100.6;0;0.0;24.7;-1.0;
05/03/2025 10:46:24;116;0;232.21;-4;-56.19;-16.11;0.1;20.80;76542;2838.012;-1757.982;0;130;500;508.1;100.0;100.6;0;0.0;24.7;-1.0;
05/03/2025 10:46:44;116;0;229.86;-4;-58.51;-20.35;0.0;20.80;76543;2838.015;-1757.984;0;130;500;508.1;100.0;100.6;0;0.0;24.7;-1.0;
05/03/2025 10:47:04;110;0;236.93;-4;-54.47;-22.14;0.1;20.90;76533;2838.015;-1757.984;0;130;-500;393.5;100.0;100.4;-11;-10.8;24.7;-1.0;
05/03/2025 10:47:14;110;0;233.03;-4;-57.61;-13.44;0.2;20.90;76890;2838.015;-1757.985;1;130;-500;243.5;100.0;100.4;-11;-10.8;24.7;-1.0;
05/03/2025 10:47:24;110;0;241.70;-4;-59.28;-16.99;0.6;20.90;77140;2838.016;-1757.986;1;130;-500;85.5;100.0;100.4;-11;-10.8;24.7;-1.0;
05/03/2025 10:47:34;110;0;240.80;-4;-67.83;-9.67;0.8;20.90;77472;2838.016;-1757.986;1;130;-500;-71.0;100.0;100.4;-11;-10.8;24.7;-1.0;
05/03/2025 10:47:44;110;0;247.20;-4;-66.43;-17.02;1.1;20.90;77815;2838.017;-1757.987;1;130;-500;-243.5;50.0;55.2;-11;-10.8;24.7;-1.0;
05/03/2025 10:47:54;110;0;250.92;-4;-58.27;-17.88;2.6;20.90;78179;2838.017;-1757.989;1;130;-500;-464.5;50.0;49.9;-11;-10.8;24.6;-1.0;
05/03/2025 10:48:04;110;0;267.19;-4;-41.43;-14.53;5.7;20.90;78690;2838.018;-1757.992;1;130;-500;-500.0;50.0;49.6;-11;-10.8;24.7;-1.0;
05/03/2025 10:48:14;110;0;279.67;-4;-37.23;-13.52;10.3;21.00;78724;2838.019;-1757.996;1;130;-500;-503.2;50.0;49.6;-11;-10.8;24.7;-1.0;
05/03/2025 10:48:34;100;0;286.74;-4;-34.75;-13.18;20.6;21.00;78731;2838.023;-1758.006;1;130;-500;-503.2;50.0;49.6;-11;-10.8;24.7;0.0;
05/03/2025 10:48:54;100;0;291.58;-4;-33.47;-13.14;31.5;21.00;78725;2838.027;-1758.017;1;130;-500;-503.2;50.5;50.8;70;69.9;24.7;0.0;
05/03/2025 10:49:14;100;0;276.03;-4;-30.21;26.21;41.4;21.00;78728;2838.030;-1758.029;1;130;-500;-509.7;51.9;51.8;70;70.4;24.7;0.0;
05/03/2025 10:49:34;100;0;251.38;-4;-28.77;26.23;50.0;21.00;78735;2838.029;-1758.039;1;130;-500;-508.1;53.8;53.8;70;69.9;24.7;0.0;
05/03/2025 10:49:54;100;0;227.51;-4;-28.85;25.08;58.3;20.90;78741;2838.025;-1758.047;1;130;-500;-509.7;55.6;55.7;70;70.4;24.7;0.0;
05/03/2025 10:50:14;100;0;207.12;-4;-32.09;25.67;67.2;20.90;78726;2838.020;-1758.052;1;130;-500;-508.1;56.5;56.7;70;69.9;24.7;0.0;
05/03/2025 10:50:34;100;0;182.06;-4;-33.65;26.52;76.5;20.90;78723;2838.014;-1758.054;1;130;-500;-509.7;56.9;56.8;70;70.4;24.7;0.0;
05/03/2025 10:50:54;100;0;160.09;-4;-35.26;26.89;86.5;20.90;78721;2838.008;-1758.053;1;130;-500;-508.1;56.9;56.8;45;45.1;24.7;0.0;
05/03/2025 10:51:14;100;0;143.13;-4;-37.72;14.22;97.0;20.90;78719;2838.004;-1758.050;1;130;-500;-508.1;56.1;55.8;18;18.1;24.7;0.0;
05/03/2025 10:51:34;100;0;134.43;-4;-39.23;1.22;108.3;20.90;78723;2838.000;-1758.046;1;130;-500;-509.7;54.8;54.6;13;13.1;24.7;0.0;
05/03/2025 10:51:54;100;0;131.40;-4;-39.09;-1.02;120.0;20.80;78723;2837.997;-1758.041;1;130;-500;-508.1;53.6;53.6;13;12.6;24.7;0.0;
05/03/2025 10:52:14;100;0;126.00;-4;-38.22;-1.37;131.4;20.80;78715;2837.994;-1758.035;1;130;-500;-509.7;52.6;52.6;13;12.6;24.7;0.0;
05/03/2025 10:52:34;100;0;118.00;-4;-37.35;-1.17;142.1;20.80;78704;2837.991;-1758.029;1;130;-500;-508.1;51.9;51.7;6;5.9;24.7;0.0;
05/03/2025 10:52:47;118;0;119.27;-4;-36.76;-5.61;148.8;20.80;78699;2837.990;-1758.026;1;130;500;-508.1;34.0;34.0;11;11.3;24.7;0.0;
05/03/2025 10:52:57;118;0;114.10;-4;-33.03;-3.54;152.8;20.80;78674;2837.989;-1758.023;1;130;500;-387.1;34.0;33.9;11;11.7;24.3;-1.0;
05/03/2025 10:53:07;118;0;112.41;-4;-26.43;-2.20;157.1;20.80;78403;2837.988;-1758.019;1;130;500;-256.5;34.0;33.7;11;11.3;24.3;-1.0;
05/03/2025 10:53:17;118;0;111.18;-4;-17.61;-3.69;160.3;20.80;78117;2837.987;-1758.016;1;130;500;-127.4;34.0;33.7;11;11.3;24.3;-1.0;
05/03/2025 10:53:27;118;0;106.55;-4;-9.68;-5.44;162.4;20.80;77838;2837.987;-1758.013;1;130;500;-1.6;34.0;33.7;11;11.7;24.3;-1.0;
05/03/2025 10:53:37;118;0;108.73;-4;-5.48;-5.96;163.1;20.80;77573;2837.987;-1758.012;1;130;500;121.0;34.0;33.6;11;11.3;24.3;-1.0;
05/03/2025 10:53:47;118;0;106.95;-4;-4.70;-5.66;163.8;20.80;77296;2837.988;-1758.012;1;130;500;245.2;34.0;33.4;11;11.3;24.3;-1.0;
05/03/2025 10:53:57;118;0;106.87;-4;-2.25;-6.37;163.7;20.80;77023;2837.989;-1758.013;1;130;500;369.4;34.0;33.4;11;11.7;24.3;-1.0;
05/03/2025 10:54:07;118;0;106.44;-4;-6.40;-6.29;163.2;20.80;76759;2837.989;-1758.013;1;130;500;474.2;34.0;33.6;11;11.3;24.2;-1.0;
05/03/2025 10:54:17;118;0;108.57;-4;-20.31;-7.48;162.4;20.80;76503;2837.989;-1758.013;1;130;500;504.8;34.0;33.4;11;11.7;24.3;-1.0;
05/03/2025 10:54:27;118;0;102.33;-4;-11.33;-7.33;161.1;20.80;76453;2837.990;-1758.011;1;130;500;504.8;34.0;33.6;11;11.7;24.7;-1.0;
05/03/2025 10:54:47;117;0;77.75;-4;-2.67;-6.60;159.1;20.70;76454;2837.991;-1758.011;1;130;500;506.5;34.0;33.4;11;11.3;24.7;-1.0;
05/03/2025 10:55:07;117;0;63.72;-4;-1.05;-6.87;156.8;20.70;76455;2837.993;-1758.012;1;130;500;506.5;23.2;23.0;70;69.9;24.7;-1.0;
05/03/2025 10:55:27;117;0;126.02;-4;10.62;24.49;155.3;20.70;76471;2837.993;-1758.011;1;130;500;506.5;15.9;15.8;37;36.6;24.7;-1.0;
05/03/2025 10:55:47;117;0;123.30;-4;21.54;4.26;153.3;20.60;76465;2837.993;-1758.011;1;130;500;508.1;11.8;11.6;37;36.1;24.7;-1.0;
05/03/2025 10:56:07;117;0;129.89;-4;36.60;7.73;149.5;20.60;76485;2837.993;-1758.010;1;130;500;506.5;11.8;11.3;37;36.1;24.7;-1.0;
05/03/2025 10:56:27;117;0;125.15;-4;39.64;8.82;143.3;20.60;76486;2837.992;-1758.008;1;130;500;508.1;13.2;13.3;37;36.1;24.7;-1.0;
05/03/2025 10:56:47;117;0;122.22;-4;39.18;8.59;135.3;20.60;76485;2837.991;-1758.005;1;130;500;508.1;14.5;14.4;39;39.3;24.7;-1.0;
05/03/2025 10:57:07;117;0;120.89;-4;35.69;10.27;128.3;20.60;76496;2837.990;-1758.001;1;130;500;509.7;14.5;14.7;39;39.3;24.7;-1.0;
05/03/2025 10:57:27;117;0;119.89;-4;35.35;10.37;121.8;20.60;76492;2837.989;-1757.998;1;130;500;508.1;14.5;14.6;41;41.1;24.7;-1.0;
05/03/2025 10:57:47;117;0;118.14;-4;36.07;11.30;115.4;20.60;76510;2837.988;-1757.995;1;130;500;508.1;14.5;14.6;43;42.9;24.7;-1.0;
05/03/2025 10:58:07;117;0;115.78;-4;36.16;12.55;108.7;20.50;76503;2837.987;-1757.992;1;130;500;509.7;14.5;14.6;46;46.0;24.7;-1.0;
05/03/2025 10:58:27;117;0;116.06;-4;35.68;14.03;101.9;20.50;76500;2837.986;-1757.989;1;130;500;509.7;14.5;14.6;46;46.0;24.7;-1.0;
05/03/2025 10:58:47;117;0;118.18;-4;35.20;14.11;95.2;20.50;76500;2837.985;-1757.985;1;130;500;509.7;14.5;14.9;43;42.9;24.7;-1.0;
05/03/2025 10:59:07;117;0;116.85;-4;35.63;11.94;88.4;20.50;76508;2837.985;-1757.982;1;130;500;508.1;14.5;14.6;43;42.4;24.7;-1.0;
05/03/2025 10:59:27;117;0;117.58;-4;35.16;12.41;81.5;20.50;76505;2837.984;-1757.978;1;130;500;509.7;14.5;14.6;43;42.4;24.7;-1.0;
05/03/2025 10:59:47;117;0;118.60;-4;35.72;12.01;74.7;20.50;76519;2837.983;-1757.975;1;130;500;508.1;14.5;14.6;43;42.4;24.7;-1.0;
05/03/2025 11:00:07;117;0;113.74;-4;35.75;11.78;67.7;20.50;76523;2837.982;-1757.971;1;130;500;511.3;14.5;14.6;50;50.1;24.7;-1.0;
05/03/2025 11:00:27;117;0;114.70;-4;35.10;16.38;60.4;20.50;76526;2837.981;-1757.968;1;130;500;508.1;14.5;14.6;47;46.9;24.7;-1.0;
05/03/2025 11:00:47;117;0;113.97;-4;35.88;14.39;53.6;20.50;76515;2837.980;-1757.964;1;130;500;509.7;14.5;14.6;50;50.1;24.7;-1.0;
05/03/2025 11:01:07;117;0;113.20;-4;35.18;16.96;46.4;20.50;76523;2837.980;-1757.960;1;130;500;509.7;14.5;14.6;50;50.5;24.7;-1.0;
05/03/2025 11:01:27;117;0;113.55;-4;34.89;17.18;39.4;20.50;76506;2837.979;-1757.956;1;130;500;506.5;14.5;14.7;50;50.5;24.7;-1.0;
05/03/2025 11:01:47;117;0;113.79;-4;36.04;16.92;32.5;20.50;76521;2837.978;-1757.953;1;130;500;509.7;14.5;14.6;50;50.5;24.7;-1.0;
05/03/2025 11:02:07;117;0;114.81;-4;35.43;16.84;25.7;20.50;76518;2837.978;-1757.949;1;130;500;509.7;14.5;14.6;48;47.8;24.7;-1.0;
05/03/2025 11:02:27;117;0;117.04;-4;35.39;15.26;19.0;20.40;76513;2837.977;-1757.946;1;130;500;508.1;14.5;14.6;45;45.1;24.7;-1.0;
05/03/2025 11:02:47;117;0;117.94;-4;34.85;13.37;12.2;20.40;76522;2837.976;-1757.942;1;130;500;506.5;14.5;14.7;45;44.7;24.7;-1.0;
05/03/2025 11:03:07;117;0;118.86;-4;35.17;13.78;5.4;20.40;76530;2837.975;-1757.939;1;130;500;509.7;14.5;14.6;43;42.9;24.7;-1.0;
05/03/2025 11:03:14;115;0;118.37;-4;35.21;12.31;3.1;20.40;76516;2837.974;-1757.938;1;130;500;509.7;100.0;50.5;0;-0.5;24.7;-1.0;
05/03/2025 11:03:24;115;0;110.25;-4;25.59;-11.56;0.4;20.40;76510;2837.974;-1757.935;1;130;500;511.3;100.0;100.1;0;0.0;24.7;-1.0;
05/03/2025 11:03:34;115;0;105.85;-4;-16.49;-9.57;-0.2;20.40;76528;2837.974;-1757.935;1;130;500;509.7;100.0;100.4;0;-0.5;24.7;-1.0;
05/03/2025 11:03:54;119;0;105.07;-4;-46.16;-6.31;-0.4;20.50;76535;2837.974;-1757.935;1;130;500;511.3;100.0;100.9;0;0.0;24.7;-1.0;
05/03/2025 11:04:04;119;0;111.35;-4;-66.17;-0.75;-0.0;20.50;76538;2837.990;-1757.901;0;130;500;509.7;100.0;100.9;0;0.0;24.7;-1.0;
