Timestamp;NavState;SecurityLevel;Heading;Declination;Pitch;Roll;Depth;Temperature;Pa;Lat;Lon;DeadReckoning;DesiredH;BallastCmd;BallastPos;LinCmd;LinPos;AngCmd;AngPos;Voltage;Altitude;
18/02/2025 06:44:51;119;0;350.35;-4;-47.17;-16.51;0.3;19.10;76131;2834.654;-1756.707;0;356;500;508.1;100.0;100.6;0;-0.5;28.0;-1.0;
18/02/2025 06:45:01;116;0;335.63;-4;-57.76;-14.14;0.1;19.10;76130;2834.650;-1756.706;0;357;500;508.1;100.0;100.6;0;-0.5;28.0;-1.0;
18/02/2025 06:45:24;116;0;338.30;-4;-59.76;-24.11;0.2;19.10;76138;2834.648;-1756.705;0;356;500;508.1;100.0;100.6;0;-0.5;28.0;-1.0;
18/02/2025 06:45:45;116;0;330.35;-4;-57.90;0.94;-0.1;19.20;76145;2834.648;-1756.706;0;-9999;500;508.1;100.0;100.6;0;-0.5;28.0;-1.0;
18/02/2025 06:46:08;116;0;323.93;-4;-52.56;-14.23;-0.0;19.20;76146;2834.647;-1756.706;0;285;500;508.1;100.0;100.6;0;-0.5;28.0;-1.0;
18/02/2025 06:46:19;116;0;335.36;-4;-53.41;-24.34;-0.0;19.20;76151;2834.644;-1756.704;0;285;500;508.1;100.0;100.6;0;-0.5;28.0;-1.0;
18/02/2025 06:47:12;116;0;337.82;-4;-50.82;-11.20;0.1;19.30;76159;2834.639;-1756.703;0;285;500;506.5;100.0;100.6;0;-0.5;28.0;-1.0;
18/02/2025 06:47:25;116;0;336.68;-4;-55.41;-35.80;0.0;19.30;76158;2834.638;-1756.703;0;285;500;508.1;100.0;100.6;0;-0.5;28.0;-1.0;
18/02/2025 06:48:28;116;0;338.31;-4;-61.67;-7.23;-0.1;19.50;76176;2834.634;-1756.703;0;285;500;509.7;100.0;100.6;0;-0.5;28.0;-1.0;
18/02/2025 06:48:35;116;0;342.32;-4;-53.97;6.47;-0.0;19.50;76173;2834.633;-1756.703;0;285;500;508.1;100.0;100.6;0;-0.5;28.0;-1.0;
18/02/2025 06:48:41;116;0;342.34;-4;-57.47;-4.24;0.0;19.50;76182;2834.634;-1756.704;0;285;500;506.5;100.0;100.6;0;-0.5;28.0;-1.0;
18/02/2025 06:49:28;116;0;353.82;-4;-52.42;-15.17;0.2;19.70;76196;2834.630;-1756.702;0;285;500;508.1;100.0;100.6;0;-0.5;28.0;-1.0;
18/02/2025 06:49:39;116;0;325.48;-4;-50.65;-7.29;-0.1;19.70;76194;2834.629;-1756.702;0;286;500;508.1;100.0;100.6;0;-0.5;28.0;-1.0;
18/02/2025 06:49:59;110;0;338.47;-4;-55.18;-6.87;0.1;19.80;76199;2834.629;-1756.702;0;286;-50;396.8;100.0;100.6;-10;-9.9;28.0;-1.0;
18/02/2025 06:50:09;110;0;338.04;-4;-39.40;-19.40;-0.0;19.80;76535;2834.629;-1756.702;1;286;-50;253.2;100.0;100.4;-10;-10.4;28.0;-1.0;
18/02/2025 06:50:19;110;0;332.63;-4;-47.50;-21.24;0.5;19.80;76772;2834.629;-1756.702;1;286;-50;95.2;100.0;100.6;-10;-10.4;28.0;-1.0;
18/02/2025 06:50:29;110;0;334.93;-4;-65.33;-9.08;1.1;19.80;77103;2834.629;-1756.702;1;286;-50;-48.4;100.0;100.6;-10;-10.4;28.0;-1.0;
18/02/2025 06:50:39;110;0;5.89;-4;-64.46;-25.53;1.5;19.90;77389;2834.629;-1756.702;1;286;-50;-48.4;50.0;49.9;-10;-9.9;28.0;-1.0;
18/02/2025 06:50:59;100;0;353.06;-4;-42.14;-19.29;4.6;20.00;77368;2834.631;-1756.702;1;286;-50;-46.8;50.0;49.8;-10;-10.4;28.0;-1.0;
18/02/2025 06:51:19;100;0;352.84;-4;-34.71;-16.94;8.7;20.00;77370;2834.634;-1756.703;1;285;-50;-45.2;45.6;45.4;70;69.9;28.0;-1.0;
18/02/2025 06:51:39;100;0;352.45;-4;-33.10;23.73;12.5;20.00;77378;2834.637;-1756.703;1;285;-50;-45.2;41.7;41.7;70;70.4;28.0;-1.0;
18/02/2025 06:51:59;100;0;340.43;-4;-22.81;24.13;16.1;20.00;77386;2834.640;-1756.705;1;285;-50;-45.2;40.8;40.8;70;70.4;28.0;0.0;
18/02/2025 06:52:19;100;0;331.83;-4;-16.15;23.22;19.2;20.00;77391;2834.644;-1756.707;1;285;-50;-43.5;42.0;42.0;67;66.3;28.0;0.0;
18/02/2025 06:52:39;100;0;320.69;-4;-17.49;21.87;21.7;20.00;77394;2834.647;-1756.710;1;285;-50;-46.8;42.7;42.9;50;49.6;28.0;0.0;
18/02/2025 06:52:59;100;0;311.79;-4;-21.92;12.18;23.6;20.00;77386;2834.648;-1756.712;1;285;-50;-43.5;42.7;42.9;34;33.8;28.0;0.0;
18/02/2025 06:53:19;100;0;304.13;-4;-22.94;5.35;26.1;20.10;77393;2834.649;-1756.714;1;285;-50;-43.5;41.8;41.4;23;23.0;28.0;0.0;
18/02/2025 06:53:39;100;0;305.87;-4;-18.33;-1.64;28.4;20.10;77390;2834.651;-1756.717;1;285;-50;-41.9;42.3;42.6;26;26.2;28.0;0.0;
18/02/2025 06:53:59;100;0;302.23;-4;-17.88;1.95;30.3;20.10;77396;2834.652;-1756.720;1;285;-50;-41.9;43.0;43.4;19;19.0;28.0;0.0;
18/02/2025 06:54:19;100;0;294.48;-4;-22.80;-3.15;32.3;20.10;77403;2834.653;-1756.722;1;285;-50;-41.9;42.1;42.1;14;14.0;28.0;0.0;
18/02/2025 06:54:39;100;0;300.86;-4;-19.17;-5.05;35.0;20.10;77403;2834.655;-1756.725;1;285;-50;-41.9;42.1;41.8;19;19.0;28.0;0.0;
18/02/2025 06:54:59;100;0;289.81;-4;-18.01;-2.02;37.6;20.10;77408;2834.656;-1756.729;1;285;-50;-41.9;42.7;43.0;13;12.6;28.0;0.0;
18/02/2025 06:55:19;100;0;299.84;-4;-18.55;-5.38;39.7;20.10;77410;2834.657;-1756.732;1;285;-50;-45.2;43.2;43.0;18;18.1;28.0;0.0;
18/02/2025 06:55:39;100;0;297.42;-4;-19.53;-2.45;42.0;20.10;77399;2834.658;-1756.735;1;285;-50;-41.9;43.2;43.0;16;15.8;28.0;0.0;
18/02/2025 06:55:59;100;0;297.43;-4;-19.24;-4.01;44.5;20.10;77415;2834.660;-1756.738;1;285;-50;-41.9;43.2;43.2;16;15.3;28.0;0.0;
18/02/2025 06:56:19;100;0;296.60;-4;-20.23;-4.05;47.1;20.10;77405;2834.661;-1756.742;1;285;-50;-41.9;43.2;43.2;16;15.3;28.0;0.0;
18/02/2025 06:56:39;100;0;296.57;-4;-20.22;-4.17;49.6;20.10;77405;2834.662;-1756.745;1;285;-50;-41.9;43.2;43.0;16;15.3;28.0;0.0;
18/02/2025 06:56:59;100;0;297.01;-4;-19.83;-4.08;52.1;20.10;77402;2834.663;-1756.748;1;285;-50;-41.9;43.2;43.0;16;15.3;28.0;0.0;
18/02/2025 06:57:19;100;0;296.08;-4;-19.73;-4.11;54.8;20.10;77405;2834.665;-1756.752;1;285;-50;-41.9;43.2;43.0;16;15.3;28.0;0.0;
18/02/2025 06:57:39;100;0;296.76;-4;-20.27;-4.13;57.4;20.10;77410;2834.666;-1756.755;1;285;-50;-41.9;43.2;43.2;16;15.3;28.0;0.0;
18/02/2025 06:58:00;100;0;295.49;-4;-20.19;-4.15;60.0;20.10;77412;2834.667;-1756.758;1;285;-50;-40.3;43.2;43.0;16;15.3;28.0;0.0;
18/02/2025 06:58:20;100;0;295.56;-4;-19.52;-4.12;62.5;20.10;77414;2834.668;-1756.762;1;285;-50;-41.9;43.2;43.0;16;15.3;28.0;0.0;
18/02/2025 06:58:40;100;0;296.25;-4;-19.77;-4.01;65.1;20.10;77410;2834.670;-1756.765;1;285;-50;-40.3;43.2;43.0;16;15.3;28.0;0.0;
18/02/2025 06:59:00;100;0;294.22;-4;-19.53;-4.11;67.7;20.10;77419;2834.671;-1756.768;1;285;-50;-40.3;43.2;43.0;14;14.0;28.0;0.0;
18/02/2025 06:59:20;100;0;293.02;-4;-19.85;-5.13;70.2;20.10;77416;2834.672;-1756.772;1;285;-50;-41.9;43.2;43.0;14;13.5;28.0;0.0;
18/02/2025 06:59:40;100;0;291.63;-4;-19.70;-5.10;72.7;20.10;77422;2834.673;-1756.775;1;285;-50;-41.9;43.2;43.2;14;13.5;28.0;0.0;
18/02/2025 07:00:00;100;0;291.58;-4;-19.32;-5.07;75.1;20.10;77425;2834.674;-1756.779;1;285;-50;-40.3;43.2;43.0;14;13.5;28.0;0.0;
18/02/2025 07:00:20;100;0;292.01;-4;-19.24;-5.11;77.6;20.10;77422;2834.675;-1756.782;1;285;-50;-41.9;43.2;43.0;14;13.5;28.0;0.0;
18/02/2025 07:00:40;100;0;290.49;-4;-19.73;-5.06;80.1;20.10;77422;2834.676;-1756.785;1;285;-50;-41.9;43.2;43.0;14;13.5;28.0;0.0;
18/02/2025 07:01:00;100;0;289.64;-4;-19.65;-5.15;82.5;20.10;77431;2834.677;-1756.789;1;285;-50;-41.9;43.2;43.0;14;13.5;28.0;0.0;
18/02/2025 07:01:20;100;0;290.14;-4;-19.26;-5.10;85.0;20.10;77425;2834.678;-1756.792;1;285;-50;-41.9;43.2;43.2;14;13.5;28.0;0.0;
18/02/2025 07:01:40;100;0;287.66;-4;-19.39;-5.06;87.4;20.10;77433;2834.679;-1756.796;1;285;-50;-40.3;43.2;43.0;14;13.5;28.0;0.0;
18/02/2025 07:02:00;100;0;283.66;-4;-19.08;-5.09;89.8;20.10;77425;2834.679;-1756.799;1;285;-50;-41.9;43.2;43.0;14;13.5;28.0;0.0;
18/02/2025 07:02:20;100;0;280.70;-4;-19.15;-5.06;92.3;20.10;77423;2834.680;-1756.803;1;285;-50;-41.9;43.2;43.0;12;12.2;28.0;0.0;
18/02/2025 07:02:40;100;0;280.84;-4;-19.16;-5.93;94.5;20.10;77423;2834.680;-1756.806;1;285;-50;-40.3;43.2;43.2;12;11.7;28.0;0.0;
18/02/2025 07:03:00;100;0;283.28;-4;-19.22;-6.07;96.9;20.10;77418;2834.681;-1756.810;1;285;-50;-40.3;43.2;43.0;12;11.7;28.0;0.0;
18/02/2025 07:03:20;100;0;285.59;-4;-18.66;-6.01;99.1;20.10;77415;2834.681;-1756.813;1;285;-50;-41.9;43.6;43.6;12;11.7;28.0;0.0;
18/02/2025 07:03:40;100;0;285.56;-4;-20.90;-5.97;101.3;20.10;77424;2834.682;-1756.816;1;285;-50;-41.9;43.6;43.9;12;11.7;28.0;0.0;
18/02/2025 07:04:00;100;0;284.83;-4;-20.97;-5.95;103.6;20.10;77407;2834.682;-1756.819;1;285;-50;-41.9;43.6;43.9;12;11.7;28.0;0.0;
18/02/2025 07:04:20;100;0;282.87;-4;-21.19;-5.79;106.0;20.10;77416;2834.683;-1756.822;1;285;-50;-40.3;43.6;43.9;12;11.7;28.0;0.0;
18/02/2025 07:04:40;100;0;280.56;-4;-22.05;-5.99;108.3;20.10;77416;2834.683;-1756.825;1;285;-50;-40.3;43.0;43.0;12;11.7;28.0;0.0;
18/02/2025 07:05:00;100;0;275.37;-4;-19.83;-5.94;110.8;20.00;77405;2834.683;-1756.829;1;285;-50;-41.9;43.0;42.9;8;8.1;28.0;0.0;
18/02/2025 07:05:20;100;0;278.16;-4;-18.74;-7.80;113.0;20.00;77414;2834.683;-1756.832;1;285;-50;-41.9;43.3;43.6;10;9.9;28.0;0.0;
18/02/2025 07:05:40;100;0;280.07;-4;-19.38;-6.47;115.0;20.00;77389;2834.684;-1756.835;1;285;-70;-71.0;43.3;43.6;10;10.4;28.0;0.0;
18/02/2025 07:06:00;100;0;283.07;-4;-19.19;-6.31;117.0;20.00;77436;2834.684;-1756.838;1;285;-70;-72.6;43.3;43.6;13;13.1;28.0;0.0;
18/02/2025 07:06:20;100;0;280.78;-4;-19.45;-4.97;119.2;20.00;77411;2834.685;-1756.841;1;285;-70;-71.0;43.3;43.7;13;13.1;28.0;0.0;
18/02/2025 07:06:40;100;0;277.17;-4;-19.46;-4.88;121.6;20.00;77397;2834.685;-1756.845;1;285;-70;-72.6;43.3;43.6;9;9.0;28.0;0.0;
18/02/2025 07:07:00;100;0;275.36;-4;-19.97;-7.24;123.9;19.90;77372;2834.685;-1756.848;1;285;-70;-71.0;43.3;43.6;7;7.2;28.0;0.0;
18/02/2025 07:07:20;100;0;282.20;-4;-19.83;-7.67;126.7;19.90;77357;2834.685;-1756.852;1;285;-70;-71.0;43.3;43.6;12;12.2;28.0;0.0;
18/02/2025 07:07:40;100;0;286.06;-4;-19.85;-5.27;129.4;19.90;77339;2834.686;-1756.856;1;285;-70;-72.6;43.3;43.6;12;12.6;28.0;0.0;
18/02/2025 07:08:00;100;0;288.04;-4;-19.88;-5.29;132.1;19.90;77315;2834.687;-1756.860;1;285;-70;-71.0;43.3;43.6;12;12.6;28.0;0.0;
18/02/2025 07:08:20;100;0;290.68;-4;-19.55;-5.35;134.9;19.80;77299;2834.688;-1756.863;1;285;-70;-72.6;43.3;43.7;12;12.6;28.0;0.0;
18/02/2025 07:08:40;100;0;292.76;-4;-19.66;-5.36;137.7;19.80;77309;2834.689;-1756.867;1;285;-70;-72.6;43.3;43.6;14;14.4;28.0;0.0;
18/02/2025 07:09:00;100;0;293.70;-4;-19.63;-4.23;140.5;19.80;77288;2834.691;-1756.871;1;285;-70;-71.0;43.3;43.7;14;14.4;28.0;0.0;
18/02/2025 07:09:20;100;0;291.43;-4;-19.76;-4.25;143.4;19.70;77270;2834.692;-1756.875;1;285;-70;-71.0;43.3;43.6;14;14.4;28.0;0.0;
18/02/2025 07:09:40;100;0;289.46;-4;-20.07;-4.15;146.4;19.70;77256;2834.693;-1756.879;1;285;-70;-72.6;43.3;43.6;14;14.4;28.0;0.0;
18/02/2025 07:10:00;100;0;287.15;-4;-20.07;-4.09;149.5;19.70;77248;2834.694;-1756.883;1;285;-70;-72.6;43.3;43.6;14;14.4;28.0;0.0;
18/02/2025 07:10:20;100;0;284.74;-4;-19.85;-4.13;152.4;19.60;77236;2834.695;-1756.887;1;285;-70;-72.6;43.3;43.7;14;14.9;28.0;0.0;
18/02/2025 07:10:40;100;0;283.47;-4;-19.94;-4.15;155.3;19.60;77235;2834.695;-1756.891;1;285;-70;-72.6;43.3;43.6;14;14.4;28.0;0.0;
18/02/2025 07:11:00;100;0;280.72;-4;-19.65;-4.23;158.2;19.60;77225;2834.696;-1756.896;1;285;-70;-72.6;43.3;43.7;12;12.2;28.0;0.0;
18/02/2025 07:11:20;100;0;279.72;-4;-19.37;-5.75;161.0;19.50;77204;2834.696;-1756.900;1;285;-70;-71.0;43.3;43.6;12;11.7;28.0;0.0;
18/02/2025 07:11:40;100;0;281.64;-4;-19.41;-5.82;163.8;19.50;77197;2834.697;-1756.904;1;285;-70;-72.6;43.3;43.6;12;11.7;28.0;0.0;
18/02/2025 07:12:00;100;0;282.85;-4;-19.42;-5.83;166.6;19.50;77191;2834.698;-1756.908;1;285;-70;-72.6;43.3;43.6;12;11.7;28.0;0.0;
18/02/2025 07:12:20;100;0;287.13;-4;-19.46;-5.73;169.5;19.40;77176;2834.699;-1756.912;1;285;-70;-71.0;43.3;43.6;12;11.7;28.0;0.0;
18/02/2025 07:12:40;100;0;286.05;-4;-19.65;-5.78;172.4;19.40;77162;2834.699;-1756.916;1;285;-70;-71.0;43.3;43.6;12;11.7;28.0;0.0;
18/02/2025 07:13:00;100;0;282.77;-4;-20.30;-5.71;175.4;19.40;77152;2834.700;-1756.920;1;285;-70;-72.6;43.3;43.6;12;11.7;28.0;0.0;
18/02/2025 07:13:20;100;0;281.57;-4;-19.64;-5.70;178.4;19.30;77140;2834.701;-1756.925;1;285;-70;-72.6;43.3;43.6;12;11.7;28.0;0.0;
18/02/2025 07:13:40;100;0;281.43;-4;-19.44;-5.74;181.3;19.30;77125;2834.701;-1756.929;1;285;-70;-72.6;43.3;43.6;12;11.7;28.0;0.0;
18/02/2025 07:14:00;100;0;284.80;-4;-19.18;-5.79;184.2;19.20;77117;2834.702;-1756.933;1;285;-70;-72.6;43.3;43.7;12;11.7;28.0;0.0;
18/02/2025 07:14:20;100;0;287.04;-4;-19.25;-5.82;187.0;19.20;77107;2834.703;-1756.937;1;285;-70;-71.0;43.3;43.6;12;11.7;28.0;0.0;
18/02/2025 07:14:40;100;0;286.79;-4;-19.16;-5.82;189.8;19.20;77088;2834.704;-1756.941;1;285;-70;-72.6;43.3;43.6;12;11.7;28.0;0.0;
18/02/2025 07:15:00;100;0;284.15;-4;-18.99;-5.86;192.6;19.10;77076;2834.705;-1756.945;1;285;-70;-72.6;43.6;43.6;12;11.7;28.0;0.0;
18/02/2025 07:15:20;100;0;282.43;-4;-18.88;-5.81;195.3;19.10;77069;2834.705;-1756.949;1;285;-70;-72.6;44.0;44.0;12;11.7;28.0;0.0;
18/02/2025 07:15:40;100;0;281.25;-4;-19.91;-5.79;198.1;19.00;77072;2834.706;-1756.953;1;285;-70;-72.6;44.0;44.2;12;11.7;28.0;0.0;
18/02/2025 07:16:00;100;0;281.49;-4;-20.40;-5.81;201.0;19.00;77053;2834.706;-1756.957;1;285;-70;-72.6;44.0;44.3;12;11.7;28.0;0.0;
18/02/2025 07:16:20;100;0;284.00;-4;-20.42;-5.72;204.1;19.00;77044;2834.707;-1756.962;1;285;-70;-71.0;44.0;44.2;12;11.7;28.0;0.0;
18/02/2025 07:16:40;100;0;283.49;-4;-20.03;-5.70;207.1;18.90;77024;2834.708;-1756.966;1;285;-70;-72.6;44.0;44.2;12;11.3;28.0;0.0;
18/02/2025 07:17:00;100;0;284.63;-4;-20.18;-5.90;210.0;18.90;77004;2834.709;-1756.970;1;285;-70;-72.6;44.0;44.2;12;11.7;28.0;0.0;
18/02/2025 07:17:20;100;0;284.17;-4;-19.90;-5.78;213.1;18.80;77004;2834.709;-1756.975;1;285;-70;-71.0;44.0;44.2;12;11.7;28.0;0.0;
18/02/2025 07:17:40;100;0;284.95;-4;-20.33;-5.79;216.2;18.80;77002;2834.710;-1756.979;1;285;-70;-72.6;44.0;44.3;12;11.3;28.0;0.0;
18/02/2025 07:18:00;100;0;284.41;-4;-19.78;-5.79;219.2;18.80;76996;2834.711;-1756.983;1;285;-70;-72.6;44.0;44.2;12;11.7;28.0;0.0;
18/02/2025 07:18:20;100;0;283.77;-4;-20.04;-5.84;222.2;18.70;76984;2834.712;-1756.987;1;285;-70;-72.6;44.0;44.2;12;11.7;28.0;0.0;
18/02/2025 07:18:40;100;0;284.05;-4;-19.85;-5.82;225.2;18.70;76974;2834.712;-1756.992;1;285;-70;-72.6;44.0;44.2;12;11.7;28.0;0.0;
18/02/2025 07:19:00;100;0;281.17;-4;-20.13;-5.77;228.2;18.60;76968;2834.713;-1756.996;1;285;-70;-72.6;44.0;44.2;12;11.7;28.0;0.0;
18/02/2025 07:19:20;100;0;274.65;-4;-20.61;-5.79;231.3;18.60;76947;2834.713;-1757.000;1;285;-70;-72.6;44.0;44.2;7;7.2;28.0;0.0;
18/02/2025 07:19:40;100;0;273.00;-4;-20.60;-8.12;234.5;18.60;76934;2834.713;-1757.005;1;285;-70;-72.6;44.0;44.3;5;5.0;28.0;0.0;
18/02/2025 07:20:00;100;0;272.61;-4;-20.33;-9.27;237.8;18.50;76920;2834.713;-1757.009;1;285;-70;-72.6;44.0;44.2;5;4.5;28.0;0.0;
18/02/2025 07:20:20;100;0;273.42;-4;-20.46;-9.16;241.0;18.50;76896;2834.713;-1757.014;1;285;-70;-71.0;44.0;44.2;5;4.5;28.0;0.0;
18/02/2025 07:20:40;100;0;276.08;-4;-19.99;-9.38;244.2;18.40;76887;2834.713;-1757.019;1;285;-70;-72.6;44.0;44.2;9;9.0;28.0;0.0;
18/02/2025 07:21:00;100;0;276.86;-4;-20.27;-6.78;247.4;18.40;76883;2834.714;-1757.023;1;285;-70;-71.0;44.0;44.2;9;9.5;28.0;0.0;
18/02/2025 07:21:20;100;0;277.66;-4;-20.25;-6.74;250.6;18.30;76869;2834.714;-1757.028;1;285;-70;-72.6;44.0;44.3;9;9.5;28.0;0.0;
18/02/2025 07:21:40;100;0;276.71;-4;-20.74;-6.79;253.7;18.30;76855;2834.714;-1757.032;1;285;-70;-72.6;44.0;44.3;9;9.0;28.0;0.0;
18/02/2025 07:22:00;100;0;278.12;-4;-20.09;-6.86;257.0;18.20;76843;2834.715;-1757.037;1;285;-70;-72.6;44.0;44.2;9;9.5;28.0;0.0;
18/02/2025 07:22:20;100;0;280.04;-4;-20.22;-6.73;259.9;18.20;76830;2834.715;-1757.041;1;285;-70;-72.6;44.0;44.2;11;10.8;28.0;0.0;
18/02/2025 07:22:40;100;0;279.58;-4;-19.77;-5.77;262.9;18.10;76814;2834.716;-1757.046;1;286;-70;-71.0;44.0;44.2;11;11.3;28.0;0.0;
18/02/2025 07:23:00;100;0;279.61;-4;-19.83;-5.90;265.8;18.10;76813;2834.716;-1757.050;1;286;-70;-72.6;44.0;44.3;11;11.3;28.0;0.0;
18/02/2025 07:23:20;100;0;279.09;-4;-19.52;-5.80;268.7;18.00;76807;2834.717;-1757.054;1;286;-70;-71.0;44.0;44.3;9;9.0;28.0;0.0;
18/02/2025 07:23:40;100;0;280.74;-4;-19.83;-6.87;271.7;18.00;76791;2834.717;-1757.058;1;286;-70;-72.6;44.0;44.3;9;9.0;28.0;0.0;
18/02/2025 07:24:00;100;0;281.92;-4;-19.83;-7.00;274.6;18.00;76791;2834.718;-1757.062;1;286;-70;-72.6;44.0;44.3;11;10.8;28.0;0.0;
18/02/2025 07:24:20;100;0;284.78;-4;-19.99;-5.84;277.6;17.90;76784;2834.719;-1757.066;1;286;-70;-72.6;44.0;44.2;11;11.3;28.0;0.0;
18/02/2025 07:24:40;100;0;285.47;-4;-20.31;-5.85;280.6;17.90;76764;2834.719;-1757.071;1;286;-70;-72.6;44.0;44.3;11;11.3;28.0;0.0;
18/02/2025 07:25:00;100;0;280.93;-4;-20.36;-5.89;283.6;17.80;76760;2834.720;-1757.075;1;286;-70;-74.2;44.0;44.3;11;11.3;28.0;0.0;
18/02/2025 07:25:20;100;0;281.38;-4;-19.82;-5.81;286.7;17.80;76753;2834.721;-1757.079;1;286;-70;-71.0;44.0;44.2;11;11.3;28.0;0.0;
18/02/2025 07:25:40;100;0;283.41;-4;-19.92;-5.84;289.6;17.70;76741;2834.721;-1757.083;1;286;-70;-72.6;44.0;44.2;11;11.3;28.0;0.0;
18/02/2025 07:26:00;100;0;284.30;-4;-19.82;-5.88;292.6;17.70;76740;2834.722;-1757.088;1;286;-70;-71.0;44.0;44.2;11;11.3;28.0;0.0;
18/02/2025 07:26:20;100;0;284.54;-4;-19.91;-5.94;295.6;17.60;76723;2834.723;-1757.092;1;286;-70;-71.0;44.0;44.3;11;11.3;28.0;0.0;
18/02/2025 07:26:40;100;0;284.93;-4;-19.67;-5.93;298.5;17.60;76719;2834.724;-1757.096;1;286;-70;-71.0;44.0;44.3;11;11.3;28.0;0.0;
18/02/2025 07:27:00;100;0;283.68;-4;-19.58;-5.69;301.3;17.60;76720;2834.724;-1757.100;1;286;-70;-72.6;44.0;44.3;11;11.3;28.0;0.0;
18/02/2025 07:27:20;100;0;279.62;-4;-19.70;-5.83;304.2;17.50;76700;2834.725;-1757.104;1;286;-70;-72.6;44.0;44.3;9;8.6;28.0;0.0;
18/02/2025 07:27:40;100;0;281.79;-4;-20.01;-7.18;307.2;17.50;76691;2834.725;-1757.108;1;286;-70;-71.0;44.0;44.3;11;10.8;28.0;0.0;
18/02/2025 07:28:00;100;0;284.78;-4;-20.18;-5.77;310.3;17.50;76688;2834.726;-1757.113;1;286;-70;-72.6;44.0;44.3;11;11.7;28.0;0.0;
18/02/2025 07:28:20;100;0;285.41;-4;-19.89;-5.83;313.5;17.40;76670;2834.727;-1757.117;1;286;-70;-71.0;44.0;44.2;11;11.3;28.0;0.0;
18/02/2025 07:28:40;100;0;284.07;-4;-20.30;-5.87;316.6;17.40;76665;2834.728;-1757.121;1;286;-70;-71.0;44.0;44.2;11;11.3;28.0;0.0;
18/02/2025 07:29:00;100;0;285.62;-4;-20.45;-5.57;319.8;17.30;76654;2834.729;-1757.126;1;286;-70;-72.6;44.0;44.3;11;11.3;28.0;0.0;
18/02/2025 07:29:20;100;0;288.65;-4;-19.97;-5.70;323.0;17.30;76636;2834.730;-1757.130;1;286;-70;-72.6;44.0;44.2;11;11.3;28.0;0.0;
18/02/2025 07:29:40;100;0;293.80;-4;-20.45;-5.77;326.3;17.20;76635;2834.731;-1757.135;1;286;-70;-72.6;44.0;44.2;11;11.7;28.0;0.0;
18/02/2025 07:30:00;100;0;295.52;-4;-20.32;-5.74;329.5;17.20;76624;2834.733;-1757.139;1;286;-70;-72.6;44.0;44.2;13;13.1;28.0;0.0;
18/02/2025 07:30:20;100;0;293.15;-4;-20.12;-4.78;332.8;17.20;76610;2834.734;-1757.143;1;286;-70;-72.6;44.0;44.3;13;13.5;28.0;0.0;
18/02/2025 07:30:40;100;0;295.37;-4;-19.76;-4.74;336.0;17.10;76592;2834.736;-1757.148;1;286;-70;-72.6;44.0;44.3;13;13.5;28.0;0.0;
18/02/2025 07:31:00;100;0;296.61;-4;-19.66;-4.88;339.0;17.10;76582;2834.738;-1757.152;1;286;-70;-72.6;44.0;44.3;13;13.5;28.0;0.0;
18/02/2025 07:31:20;100;0;296.35;-4;-19.54;-4.85;342.0;17.00;76576;2834.739;-1757.155;1;286;-70;-72.6;44.0;44.2;13;13.5;28.0;0.0;
18/02/2025 07:31:40;100;0;295.23;-4;-19.69;-4.92;344.9;17.00;76561;2834.741;-1757.159;1;286;-70;-72.6;44.0;44.3;13;13.5;28.0;0.0;
18/02/2025 07:32:00;100;0;290.29;-4;-19.73;-4.81;348.0;16.90;76551;2834.742;-1757.163;1;286;-70;-72.6;44.0;44.3;13;13.5;28.0;0.0;
18/02/2025 07:32:20;100;0;285.73;-4;-19.51;-4.85;350.8;16.90;76543;2834.743;-1757.167;1;286;-70;-72.6;44.0;44.3;13;13.5;28.0;0.0;
18/02/2025 07:32:41;100;0;280.34;-4;-19.54;-4.81;353.7;16.80;76514;2834.743;-1757.171;1;286;-70;-72.6;44.0;44.2;10;9.5;28.0;0.0;
18/02/2025 07:33:01;100;0;279.57;-4;-19.57;-6.93;356.5;16.80;76516;2834.743;-1757.175;1;286;-70;-72.6;44.0;44.2;10;9.5;28.0;0.0;
18/02/2025 07:33:21;100;0;280.62;-4;-20.35;-6.78;359.4;16.80;76502;2834.744;-1757.180;1;286;-70;-72.6;44.0;44.2;10;9.5;28.0;0.0;
18/02/2025 07:33:41;100;0;282.03;-4;-20.00;-6.73;362.5;16.70;76488;2834.745;-1757.184;1;286;-70;-71.0;44.0;44.3;10;9.5;28.0;0.0;
18/02/2025 07:34:01;100;0;284.93;-4;-19.95;-6.80;365.6;16.70;76482;2834.745;-1757.188;1;286;-70;-75.8;44.0;44.3;12;12.2;28.0;0.0;
18/02/2025 07:34:21;100;0;287.18;-4;-19.94;-5.12;368.8;16.60;76474;2834.746;-1757.193;1;286;-70;-72.6;44.0;44.2;12;12.6;28.0;0.0;
18/02/2025 07:34:41;100;0;289.43;-4;-19.85;-5.18;371.8;16.60;76478;2834.748;-1757.197;1;286;-70;-72.6;44.0;44.3;12;12.6;28.0;0.0;
18/02/2025 07:35:01;100;0;291.15;-4;-19.70;-5.19;374.9;16.50;76457;2834.749;-1757.201;1;286;-70;-75.8;44.0;44.3;12;12.6;28.0;0.0;
18/02/2025 07:35:21;100;0;293.43;-4;-19.78;-5.15;377.9;16.50;76464;2834.750;-1757.205;1;286;-70;-72.6;44.0;44.3;12;12.6;28.0;0.0;
18/02/2025 07:35:41;100;0;294.96;-4;-19.74;-5.21;380.8;16.50;76444;2834.752;-1757.209;1;286;-70;-71.0;44.0;44.3;12;12.6;28.0;0.0;
18/02/2025 07:36:01;100;0;292.71;-4;-20.12;-5.23;383.9;16.40;76449;2834.753;-1757.213;1;286;-70;-72.6;44.0;44.3;12;12.6;28.0;0.0;
18/02/2025 07:36:21;100;0;291.18;-4;-20.00;-5.14;386.9;16.40;76432;2834.754;-1757.217;1;286;-70;-72.6;44.0;44.3;12;12.6;28.0;0.0;
18/02/2025 07:36:41;100;0;289.30;-4;-19.87;-5.14;390.0;16.40;76430;2834.755;-1757.221;1;286;-70;-72.6;44.0;44.3;12;12.6;28.0;0.0;
18/02/2025 07:37:01;100;0;287.10;-4;-19.96;-5.21;393.0;16.30;76413;2834.756;-1757.226;1;286;-70;-72.6;44.0;44.2;12;12.6;28.0;0.0;
18/02/2025 07:37:21;100;0;285.01;-4;-19.92;-5.14;396.0;16.30;76419;2834.757;-1757.230;1;286;-70;-71.0;44.0;44.3;12;12.6;28.0;0.0;
18/02/2025 07:37:41;100;0;282.80;-4;-19.93;-5.18;399.1;16.20;76413;2834.758;-1757.234;1;286;-70;-72.6;44.0;44.3;12;12.6;28.0;0.0;
18/02/2025 07:38:01;100;0;279.84;-4;-20.08;-5.17;402.2;16.20;76398;2834.758;-1757.239;1;286;-70;-72.6;44.0;44.2;10;9.9;28.0;0.0;
18/02/2025 07:38:21;100;0;278.69;-4;-19.75;-6.62;405.2;16.20;76400;2834.759;-1757.243;1;286;-70;-71.0;44.0;44.2;10;9.9;28.0;0.0;
18/02/2025 07:38:41;100;0;279.58;-4;-19.77;-6.60;408.3;16.10;76391;2834.759;-1757.247;1;286;-70;-72.6;44.0;44.3;10;9.9;28.0;0.0;
18/02/2025 07:39:01;100;0;278.76;-4;-19.21;-6.58;411.3;16.10;76387;2834.760;-1757.252;1;286;-70;-72.6;44.0;44.2;10;9.9;28.0;0.0;
18/02/2025 07:39:21;100;0;281.35;-4;-19.56;-6.62;414.2;16.10;76375;2834.760;-1757.256;1;286;-70;-72.6;44.0;44.2;10;9.9;28.0;0.0;
18/02/2025 07:39:41;100;0;285.67;-4;-19.31;-6.56;417.4;16.00;76367;2834.761;-1757.261;1;286;-70;-71.0;44.0;44.2;12;12.2;28.0;0.0;
18/02/2025 07:40:01;100;0;288.66;-4;-19.03;-5.28;420.4;16.00;76359;2834.762;-1757.265;1;286;-70;-72.6;44.0;44.2;12;12.6;28.0;0.0;
18/02/2025 07:40:21;100;0;289.17;-4;-19.29;-5.31;423.3;15.90;76355;2834.763;-1757.269;1;286;-70;-72.6;44.0;44.3;12;12.6;28.0;0.0;
18/02/2025 07:40:41;100;0;290.49;-4;-18.81;-5.22;426.2;15.90;76343;2834.764;-1757.273;1;286;-70;-72.6;44.3;44.3;12;12.6;28.0;0.0;
18/02/2025 07:41:01;100;0;291.89;-4;-19.23;-5.26;429.1;15.90;76334;2834.766;-1757.277;1;286;-70;-72.6;44.3;44.3;12;12.6;28.0;0.0;
18/02/2025 07:41:21;100;0;292.52;-4;-19.28;-5.35;432.0;15.80;76328;2834.767;-1757.281;1;286;-70;-72.6;44.3;44.2;12;12.6;28.0;0.0;
18/02/2025 07:41:41;100;0;296.07;-4;-19.44;-5.26;434.9;15.80;76321;2834.769;-1757.285;1;286;-70;-72.6;44.3;44.3;12;12.6;28.0;0.0;
18/02/2025 07:42:01;100;0;299.17;-4;-19.27;-5.34;437.8;15.80;76308;2834.770;-1757.289;1;286;-70;-71.0;44.3;44.3;16;15.8;28.0;0.0;
18/02/2025 07:42:21;100;0;300.18;-4;-19.31;-3.62;440.7;15.70;76315;2834.772;-1757.293;1;286;-70;-72.6;44.3;44.3;16;16.2;28.0;0.0;
18/02/2025 07:42:41;100;0;300.26;-4;-19.33;-3.48;443.6;15.70;76314;2834.774;-1757.297;1;286;-70;-72.6;44.3;44.3;16;16.2;28.0;0.0;
18/02/2025 07:43:01;100;0;303.30;-4;-19.35;-3.58;446.7;15.60;76299;2834.776;-1757.300;1;286;-70;-72.6;44.3;44.3;21;21.2;28.0;0.0;
18/02/2025 07:43:21;100;0;300.15;-4;-19.87;-0.79;449.6;15.60;76292;2834.777;-1757.304;1;286;-70;-72.6;44.3;44.3;16;15.3;28.0;0.0;
18/02/2025 07:43:41;100;0;298.23;-4;-19.85;-3.86;452.6;15.60;76297;2834.779;-1757.308;1;286;-70;-72.6;44.3;44.2;16;15.8;28.0;0.0;
18/02/2025 07:44:01;100;0;295.95;-4;-19.80;-3.84;455.7;15.60;76282;2834.781;-1757.312;1;286;-70;-75.8;44.3;44.2;14;13.5;28.0;0.0;
18/02/2025 07:44:21;100;0;293.71;-4;-19.64;-4.91;458.8;15.50;76286;2834.782;-1757.316;1;285;-70;-71.0;44.3;44.2;14;13.1;28.0;0.0;
18/02/2025 07:44:41;100;0;290.84;-4;-19.84;-4.90;461.9;15.50;76271;2834.783;-1757.320;1;285;-70;-71.0;44.3;44.2;12;11.7;28.0;0.0;
18/02/2025 07:45:01;100;0;291.72;-4;-19.58;-5.50;465.2;15.50;76273;2834.785;-1757.325;1;285;-70;-74.2;44.3;44.2;12;12.2;28.0;0.0;
18/02/2025 07:45:21;100;0;292.23;-4;-19.89;-5.47;468.3;15.40;76254;2834.786;-1757.329;1;285;-70;-72.6;44.3;44.2;12;12.2;28.0;0.0;
18/02/2025 07:45:41;100;0;293.19;-4;-19.90;-5.49;471.4;15.40;76261;2834.787;-1757.333;1;285;-70;-71.0;44.3;44.3;12;12.2;28.0;0.0;
18/02/2025 07:46:01;100;0;292.99;-4;-19.72;-5.49;474.7;15.40;76252;2834.789;-1757.337;1;285;-70;-71.0;44.3;44.2;12;12.2;28.0;0.0;
18/02/2025 07:46:21;100;0;292.46;-4;-19.58;-5.42;477.9;15.30;76240;2834.790;-1757.342;1;285;-70;-72.6;44.3;44.3;12;12.2;28.0;0.0;
18/02/2025 07:46:41;100;0;291.99;-4;-19.11;-5.51;481.0;15.30;76238;2834.792;-1757.346;1;285;-70;-71.0;44.3;44.3;12;12.2;28.0;0.0;
18/02/2025 07:47:01;100;0;293.30;-4;-18.90;-5.40;483.9;15.30;76231;2834.793;-1757.350;1;285;-70;-72.6;44.7;44.6;12;12.2;28.0;0.0;
18/02/2025 07:47:21;100;0;295.41;-4;-20.42;-5.52;486.8;15.20;76226;2834.794;-1757.354;1;285;-70;-72.6;44.7;44.9;14;14.0;28.0;0.0;
18/02/2025 07:47:41;100;0;298.05;-4;-20.24;-4.57;489.9;15.20;76208;2834.796;-1757.358;1;285;-70;-71.0;44.7;44.9;16;15.8;28.0;0.0;
18/02/2025 07:48:01;100;0;298.04;-4;-20.47;-3.34;493.0;15.20;76220;2834.798;-1757.362;1;285;-70;-71.0;44.7;44.9;16;16.2;28.0;0.0;
18/02/2025 07:48:21;100;0;296.23;-4;-20.71;-3.38;496.1;15.10;76205;2834.799;-1757.366;1;285;-70;-72.6;44.7;44.9;14;14.0;28.0;0.0;
18/02/2025 07:48:41;100;0;294.23;-4;-20.66;-4.95;499.0;15.10;76195;2834.801;-1757.370;1;285;-70;-72.6;44.7;44.8;14;13.5;28.0;0.0;
18/02/2025 07:49:01;100;0;292.99;-4;-20.57;-4.88;502.1;15.10;76191;2834.802;-1757.374;1;285;-70;-72.6;44.7;44.9;14;13.5;28.0;0.0;
18/02/2025 07:49:21;100;0;291.67;-4;-20.65;-4.86;505.3;15.10;76187;2834.803;-1757.378;1;285;-70;-72.6;44.7;44.9;14;13.5;28.0;0.0;
18/02/2025 07:49:41;100;0;292.92;-4;-20.48;-4.85;508.5;15.00;76167;2834.805;-1757.382;1;285;-70;-74.2;44.7;44.9;14;13.5;28.0;0.0;
18/02/2025 07:50:01;100;0;292.25;-4;-20.47;-4.92;511.5;15.00;76170;2834.806;-1757.386;1;285;-70;-72.6;44.7;44.9;14;13.5;28.0;0.0;
18/02/2025 07:50:21;100;0;291.51;-4;-20.87;-4.86;514.6;15.00;76155;2834.807;-1757.390;1;285;-70;-72.6;44.7;44.8;14;13.5;28.0;0.0;
18/02/2025 07:50:41;100;0;292.49;-4;-21.00;-4.82;517.9;15.00;76167;2834.809;-1757.394;1;285;-70;-72.6;44.7;44.9;14;13.5;28.0;0.0;
18/02/2025 07:51:01;100;0;291.74;-4;-20.89;-4.85;521.1;14.90;76157;2834.810;-1757.398;1;285;-70;-72.6;44.7;44.9;14;13.5;28.0;0.0;
18/02/2025 07:51:21;100;0;291.84;-4;-20.70;-4.81;524.3;14.90;76148;2834.811;-1757.403;1;285;-70;-72.6;44.7;44.9;14;13.5;28.0;0.0;
18/02/2025 07:51:41;100;0;291.57;-4;-20.80;-4.86;527.5;14.80;76137;2834.812;-1757.407;1;285;-70;-71.0;44.7;44.9;14;13.5;28.0;0.0;
18/02/2025 07:52:01;100;0;291.00;-4;-20.77;-4.83;530.7;14.80;76135;2834.814;-1757.411;1;285;-70;-71.0;44.7;44.9;14;13.5;28.0;0.0;
18/02/2025 07:52:21;100;0;289.26;-4;-20.80;-4.82;533.8;14.80;76131;2834.815;-1757.415;1;285;-70;-72.6;44.7;44.9;14;13.5;28.0;0.0;
18/02/2025 07:52:41;100;0;286.81;-4;-20.89;-4.91;536.9;14.80;76122;2834.816;-1757.419;1;285;-70;-72.6;44.7;44.9;14;13.5;28.0;0.0;
18/02/2025 07:53:01;100;0;282.92;-4;-20.96;-4.87;540.0;14.70;76122;2834.816;-1757.423;1;285;-70;-71.0;44.7;44.9;12;12.2;28.0;0.0;
18/02/2025 07:53:21;100;0;283.51;-4;-20.62;-5.34;543.1;14.70;76121;2834.817;-1757.428;1;285;-70;-72.6;44.7;44.9;12;12.6;28.0;0.0;
18/02/2025 07:53:41;100;0;286.43;-4;-20.50;-5.34;546.1;14.70;76114;2834.818;-1757.432;1;285;-70;-72.6;44.7;44.9;12;12.6;28.0;0.0;
18/02/2025 07:54:01;100;0;289.22;-4;-20.27;-5.35;549.0;14.60;76107;2834.819;-1757.436;1;285;-70;-72.6;44.7;44.8;12;12.6;28.0;0.0;
18/02/2025 07:54:21;100;0;291.36;-4;-19.91;-5.39;551.8;14.60;76091;2834.820;-1757.440;1;285;-70;-72.6;44.7;44.9;12;12.2;28.0;0.0;
18/02/2025 07:54:41;100;0;291.18;-4;-20.10;-5.41;554.6;14.60;76077;2834.821;-1757.443;1;285;-70;-71.0;44.7;44.9;12;12.6;28.0;0.0;
18/02/2025 07:55:01;100;0;290.94;-4;-20.20;-5.39;557.4;14.60;76074;2834.822;-1757.447;1;285;-70;-72.6;44.7;44.9;12;12.6;28.0;0.0;
18/02/2025 07:55:21;100;0;289.55;-4;-20.25;-5.36;560.2;14.50;76079;2834.823;-1757.451;1;285;-70;-72.6;44.7;44.9;12;12.6;28.0;0.0;
18/02/2025 07:55:41;100;0;289.17;-4;-20.19;-5.40;563.0;14.50;76081;2834.824;-1757.455;1;285;-70;-72.6;44.7;44.9;12;12.6;28.0;0.0;
18/02/2025 07:56:01;100;0;288.79;-4;-20.16;-5.40;565.7;14.50;76068;2834.825;-1757.458;1;285;-70;-72.6;44.7;44.9;12;12.2;28.0;0.0;
18/02/2025 07:56:21;100;0;289.08;-4;-20.21;-5.41;568.4;14.50;76061;2834.826;-1757.462;1;285;-70;-72.6;44.7;44.9;12;12.6;28.0;0.0;
18/02/2025 07:56:41;100;0;289.46;-4;-20.17;-5.41;571.1;14.40;76059;2834.827;-1757.466;1;285;-70;-72.6;44.7;44.9;12;12.6;28.0;0.0;
18/02/2025 07:57:01;100;0;289.75;-4;-20.10;-5.34;573.7;14.40;76050;2834.828;-1757.469;1;285;-70;-72.6;44.7;44.8;12;12.6;28.0;0.0;
18/02/2025 07:57:21;100;0;289.92;-4;-20.21;-5.39;576.3;14.40;76050;2834.829;-1757.473;1;285;-70;-71.0;44.7;44.9;12;12.6;28.0;0.0;
18/02/2025 07:57:41;100;0;291.02;-4;-20.13;-5.38;579.0;14.40;76043;2834.830;-1757.477;1;285;-70;-72.6;44.7;44.8;12;12.6;28.0;0.0;
18/02/2025 07:58:01;100;0;292.58;-4;-20.03;-5.32;581.5;14.30;76051;2834.831;-1757.480;1;285;-70;-72.6;44.7;44.9;12;12.6;28.0;0.0;
18/02/2025 07:58:21;100;0;293.88;-4;-20.01;-5.41;584.2;14.30;76028;2834.832;-1757.484;1;285;-70;-72.6;44.7;44.9;14;14.0;28.0;0.0;
18/02/2025 07:58:41;100;0;294.07;-4;-20.30;-4.33;586.7;14.30;76020;2834.834;-1757.487;1;285;-70;-71.0;44.7;44.9;14;14.4;28.0;0.0;
18/02/2025 07:59:01;100;0;295.01;-4;-20.25;-4.32;589.4;14.20;76027;2834.835;-1757.490;1;285;-70;-72.6;44.7;44.9;14;14.4;28.0;0.0;
18/02/2025 07:59:21;100;0;295.81;-4;-20.31;-4.31;592.0;14.20;76023;2834.836;-1757.494;1;285;-70;-71.0;44.7;44.9;14;14.4;28.0;0.0;
18/02/2025 07:59:41;100;0;296.90;-4;-20.33;-4.39;594.6;14.20;76013;2834.837;-1757.497;1;285;-70;-72.6;44.7;44.9;14;14.4;28.0;0.0;
18/02/2025 08:00:01;100;0;298.23;-4;-20.42;-4.28;597.2;14.20;76011;2834.839;-1757.501;1;285;-70;-72.6;44.7;44.9;16;15.8;28.0;0.0;
18/02/2025 08:00:21;100;0;297.93;-4;-20.58;-3.58;599.8;14.10;76010;2834.840;-1757.504;1;285;-70;-72.6;44.7;44.9;16;16.2;28.0;0.0;
18/02/2025 08:00:41;100;0;295.96;-4;-20.61;-3.54;602.5;14.10;76002;2834.841;-1757.507;1;285;-70;-72.6;44.7;44.9;16;16.2;28.0;0.0;
18/02/2025 08:01:01;100;0;292.27;-4;-20.70;-3.62;605.2;14.10;75988;2834.843;-1757.511;1;285;-70;-72.6;44.7;44.9;13;12.6;28.0;0.0;
18/02/2025 08:01:21;100;0;291.39;-4;-20.73;-5.19;608.0;14.10;75986;2834.844;-1757.514;1;285;-70;-72.6;44.7;44.9;13;12.6;28.0;0.0;
18/02/2025 08:01:41;100;0;289.52;-4;-20.71;-5.28;610.8;14.00;75981;2834.845;-1757.518;1;285;-70;-71.0;44.7;44.9;13;12.6;28.0;0.0;
18/02/2025 08:02:01;100;0;287.68;-4;-20.44;-5.30;613.6;14.00;75967;2834.846;-1757.522;1;285;-70;-75.8;44.7;44.9;13;12.6;28.0;0.0;
18/02/2025 08:02:21;100;0;280.22;-4;-20.53;-5.39;616.3;14.00;75969;2834.846;-1757.526;1;285;-70;-72.6;44.7;44.9;11;8.6;28.0;0.0;
18/02/2025 08:02:41;100;0;276.24;-4;-19.99;-5.81;619.1;14.00;75961;2834.846;-1757.530;1;285;-70;-72.6;44.7;44.8;8;7.7;28.0;0.0;
18/02/2025 08:03:01;100;0;276.46;-4;-20.15;-7.63;621.9;13.90;75959;2834.846;-1757.534;1;285;-70;-72.6;44.7;44.9;8;8.1;28.0;0.0;
18/02/2025 08:03:21;100;0;279.73;-4;-20.26;-7.76;624.7;13.90;75958;2834.847;-1757.538;1;285;-70;-72.6;44.7;44.9;11;10.8;28.0;0.0;
18/02/2025 08:03:41;100;0;279.00;-4;-20.44;-5.94;627.6;13.90;75946;2834.847;-1757.542;1;285;-70;-74.2;44.7;44.9;11;11.7;28.0;0.0;
18/02/2025 08:04:01;100;0;280.41;-4;-20.65;-6.01;630.4;13.90;75932;2834.848;-1757.546;1;285;-70;-72.6;44.7;44.9;11;11.3;28.0;0.0;
18/02/2025 08:04:21;100;0;281.40;-4;-20.45;-5.71;633.4;13.90;75933;2834.848;-1757.550;1;285;-70;-72.6;44.7;44.9;11;11.3;28.0;0.0;
18/02/2025 08:04:41;100;0;282.30;-4;-20.08;-5.75;636.4;13.80;75932;2834.849;-1757.554;1;285;-70;-72.6;44.7;44.9;11;11.3;28.0;0.0;
18/02/2025 08:05:01;100;0;283.49;-4;-20.28;-5.79;639.4;13.80;75930;2834.850;-1757.558;1;285;-70;-71.0;44.7;44.9;13;13.1;28.0;0.0;
18/02/2025 08:05:21;100;0;284.96;-4;-20.48;-4.90;642.5;13.80;75924;2834.850;-1757.563;1;285;-70;-72.6;44.7;44.9;13;13.5;28.0;0.0;
18/02/2025 08:05:41;100;0;286.50;-4;-20.36;-4.87;645.7;13.70;75925;2834.851;-1757.567;1;285;-70;-72.6;44.7;44.8;13;13.5;28.0;0.0;
18/02/2025 08:06:01;100;0;286.06;-4;-20.46;-4.84;648.7;13.70;75913;2834.852;-1757.571;1;285;-70;-72.6;44.7;44.9;13;13.5;28.0;0.0;
18/02/2025 08:06:21;100;0;284.99;-4;-20.01;-4.82;651.8;13.70;75921;2834.853;-1757.576;1;285;-70;-72.6;44.7;44.9;13;13.5;28.0;0.0;
18/02/2025 08:06:41;100;0;281.00;-4;-19.91;-4.87;654.8;13.70;75911;2834.854;-1757.580;1;285;-70;-72.6;44.7;44.9;13;13.5;28.0;0.0;
18/02/2025 08:07:02;100;0;276.22;-4;-20.07;-4.81;657.7;13.70;75909;2834.854;-1757.584;1;285;-70;-71.0;44.7;44.9;8;6.8;28.0;0.0;
18/02/2025 08:07:22;100;0;275.54;-4;-19.70;-6.96;660.6;13.60;75896;2834.854;-1757.588;1;285;-70;-72.6;44.7;44.9;8;9.5;28.0;0.0;
18/02/2025 08:07:42;100;0;276.86;-4;-19.93;-6.80;663.4;13.60;75884;2834.854;-1757.593;1;285;-70;-72.6;44.7;44.9;8;9.5;28.0;0.0;
18/02/2025 08:08:02;100;0;276.76;-4;-19.26;-6.96;666.4;13.60;75888;2834.855;-1757.597;1;285;-70;-74.2;44.7;44.9;8;9.5;28.0;0.0;
18/02/2025 08:08:22;100;0;279.23;-4;-19.62;-6.79;669.2;13.60;75882;2834.855;-1757.601;1;285;-70;-71.0;44.7;44.9;10;9.9;28.0;0.0;
18/02/2025 08:08:42;100;0;279.35;-4;-19.62;-6.40;672.1;13.50;75877;2834.855;-1757.605;1;285;-70;-72.6;44.7;44.9;10;10.8;28.0;0.0;
18/02/2025 08:09:02;100;0;278.60;-4;-20.01;-6.37;674.9;13.50;75880;2834.856;-1757.609;1;285;-70;-72.6;44.7;44.9;10;10.8;28.0;0.0;
18/02/2025 08:09:22;100;0;281.68;-4;-20.38;-5.99;677.8;13.50;75863;2834.856;-1757.613;1;285;-70;-72.6;44.7;44.9;12;12.2;28.0;0.0;
18/02/2025 08:09:42;100;0;280.58;-4;-19.26;-5.32;680.7;13.50;75865;2834.857;-1757.618;1;285;-70;-72.6;44.7;44.8;12;12.6;28.0;0.0;
18/02/2025 08:10:02;100;0;282.22;-4;-19.95;-5.32;683.5;13.40;75851;2834.858;-1757.622;1;285;-70;-72.6;44.7;44.9;12;12.6;28.0;0.0;
18/02/2025 08:10:22;100;0;285.44;-4;-19.58;-5.31;686.4;13.40;75850;2834.858;-1757.626;1;285;-70;-72.6;44.7;44.9;12;12.6;28.0;0.0;
18/02/2025 08:10:42;100;0;287.38;-4;-19.87;-5.29;689.2;13.40;75842;2834.859;-1757.630;1;285;-70;-72.6;44.7;44.9;12;12.6;28.0;0.0;
18/02/2025 08:11:02;100;0;291.17;-4;-19.88;-5.31;692.2;13.40;75835;2834.860;-1757.634;1;285;-70;-72.6;44.7;44.9;12;12.6;28.0;0.0;
18/02/2025 08:11:22;100;0;292.22;-4;-19.91;-5.27;695.1;13.30;75820;2834.862;-1757.637;1;285;-70;-72.6;44.7;44.9;12;12.6;28.0;0.0;
18/02/2025 08:11:42;100;0;289.19;-4;-19.86;-5.25;698.0;13.30;75809;2834.863;-1757.641;1;285;-70;-72.6;44.7;44.9;12;12.6;28.0;0.0;
18/02/2025 08:12:02;100;0;292.23;-4;-20.14;-5.25;700.8;13.30;75800;2834.864;-1757.645;1;285;-70;-72.6;44.7;44.9;12;12.6;28.0;0.0;
18/02/2025 08:12:22;100;0;292.77;-4;-19.92;-5.40;703.8;13.30;75798;2834.865;-1757.649;1;285;-70;-72.6;44.7;44.9;12;12.6;28.0;0.0;
18/02/2025 08:12:42;100;0;292.82;-4;-19.54;-5.33;706.7;13.20;75789;2834.866;-1757.653;1;285;-70;-72.6;44.7;44.9;12;12.6;28.0;0.0;
18/02/2025 08:13:02;100;0;292.39;-4;-20.18;-5.28;709.5;13.20;75783;2834.868;-1757.657;1;285;-70;-72.6;44.7;44.9;12;12.6;28.0;0.0;
18/02/2025 08:13:22;100;0;293.16;-4;-20.06;-5.29;712.3;13.20;75780;2834.869;-1757.661;1;285;-70;-72.6;44.7;44.9;12;12.6;28.0;0.0;
18/02/2025 08:13:42;100;0;294.76;-4;-19.79;-5.26;715.2;13.10;75759;2834.870;-1757.664;1;285;-70;-72.6;44.7;44.8;14;14.0;28.0;0.0;
18/02/2025 08:14:02;100;0;295.55;-4;-20.15;-4.27;718.0;13.10;75755;2834.872;-1757.668;1;285;-70;-72.6;44.7;44.9;14;14.4;28.0;0.0;
18/02/2025 08:14:22;100;0;295.59;-4;-20.44;-4.39;720.9;13.10;75748;2834.873;-1757.672;1;285;-70;-72.6;44.7;44.9;14;14.4;28.0;0.0;
18/02/2025 08:14:42;100;0;296.83;-4;-20.07;-4.32;723.9;13.10;75754;2834.875;-1757.676;1;285;-70;-72.6;44.7;44.9;14;14.4;28.0;0.0;
18/02/2025 08:15:02;100;0;297.58;-4;-19.81;-4.31;726.8;13.10;75742;2834.876;-1757.680;1;285;-70;-72.6;44.7;44.8;16;15.8;28.0;0.0;
18/02/2025 08:15:22;100;0;296.49;-4;-19.88;-3.45;729.8;13.00;75743;2834.878;-1757.683;1;285;-70;-71.0;44.7;44.9;16;16.7;28.0;0.0;
18/02/2025 08:15:42;100;0;295.12;-4;-19.79;-3.40;732.6;13.00;75742;2834.879;-1757.687;1;285;-70;-72.6;44.7;44.9;14;14.0;28.0;0.0;
18/02/2025 08:16:02;100;0;296.34;-4;-19.73;-4.86;735.5;13.00;75720;2834.880;-1757.691;1;285;-70;-72.6;44.7;44.9;14;13.5;28.0;0.0;
18/02/2025 08:16:22;100;0;296.13;-4;-19.60;-4.75;738.3;12.90;75708;2834.882;-1757.695;1;285;-70;-72.6;44.7;44.9;14;13.5;28.0;0.0;
18/02/2025 08:16:42;100;0;296.96;-4;-19.43;-4.75;741.1;12.90;75708;2834.883;-1757.698;1;285;-70;-72.6;44.7;44.9;14;13.5;28.0;0.0;
18/02/2025 08:17:02;100;0;298.43;-4;-19.56;-4.88;743.9;12.90;75704;2834.885;-1757.702;1;285;-70;-75.8;44.7;44.9;16;15.8;28.0;0.0;
18/02/2025 08:17:22;100;0;298.85;-4;-19.78;-3.52;746.7;12.90;75702;2834.887;-1757.705;1;285;-70;-71.0;44.7;44.9;16;16.2;28.0;0.0;
18/02/2025 08:17:42;100;0;299.86;-4;-19.63;-3.52;749.4;12.90;75700;2834.888;-1757.709;1;285;-70;-72.6;44.7;44.9;18;18.1;28.0;0.0;
18/02/2025 08:18:02;100;0;297.10;-4;-19.46;-2.37;752.1;12.80;75688;2834.890;-1757.713;1;285;-70;-72.6;44.7;44.9;15;14.9;28.0;0.0;
18/02/2025 08:18:22;100;0;295.51;-4;-19.88;-4.35;754.9;12.80;75666;2834.891;-1757.716;1;285;-70;-72.6;44.7;44.9;15;14.9;28.0;0.0;
18/02/2025 08:18:42;100;0;293.93;-4;-19.89;-4.29;757.7;12.80;75651;2834.892;-1757.720;1;285;-70;-72.6;44.7;44.9;15;14.9;28.0;0.0;
18/02/2025 08:19:02;100;0;293.00;-4;-19.87;-4.26;760.5;12.70;75663;2834.893;-1757.724;1;285;-70;-72.6;44.7;44.9;15;14.9;28.0;0.0;
18/02/2025 08:19:22;100;0;291.08;-4;-19.69;-4.30;763.4;12.70;75644;2834.895;-1757.728;1;285;-70;-72.6;44.7;44.9;13;12.6;28.0;0.0;
18/02/2025 08:19:42;100;0;288.53;-4;-19.47;-5.25;766.3;12.70;75640;2834.896;-1757.732;1;285;-70;-72.6;44.7;44.9;13;12.6;28.0;0.0;
18/02/2025 08:20:02;100;0;287.34;-4;-19.52;-5.45;769.2;12.70;75630;2834.897;-1757.736;1;285;-70;-72.6;44.7;44.9;13;12.6;28.0;0.0;
18/02/2025 08:20:22;100;0;285.24;-4;-19.59;-5.32;772.1;12.60;75623;2834.897;-1757.740;1;285;-70;-71.0;44.7;44.9;13;12.6;28.0;0.0;
18/02/2025 08:20:42;100;0;282.90;-4;-19.07;-5.52;775.0;12.60;75621;2834.898;-1757.744;1;285;-70;-72.6;44.7;44.9;13;12.6;28.0;0.0;
18/02/2025 08:21:02;100;0;282.44;-4;-19.38;-5.41;777.8;12.60;75606;2834.899;-1757.748;1;285;-70;-72.6;44.7;44.9;13;12.6;28.0;0.0;
18/02/2025 08:21:22;100;0;284.05;-4;-18.79;-5.36;780.8;12.60;75604;2834.899;-1757.753;1;285;-70;-71.0;45.0;45.1;13;12.6;28.0;0.0;
18/02/2025 08:21:42;100;0;284.70;-4;-20.12;-5.40;783.7;12.50;75591;2834.900;-1757.757;1;285;-70;-72.6;45.0;45.4;13;12.6;28.0;0.0;
18/02/2025 08:22:02;100;0;285.02;-4;-20.03;-5.43;786.7;12.50;75574;2834.901;-1757.761;1;285;-70;-72.6;45.0;45.2;13;12.6;28.0;0.0;
18/02/2025 08:22:22;100;0;287.16;-4;-19.42;-5.39;789.8;12.50;75576;2834.902;-1757.765;1;285;-70;-72.6;45.0;45.2;13;12.6;28.0;0.0;
18/02/2025 08:22:42;100;0;287.82;-4;-20.51;-5.57;792.7;12.40;75574;2834.903;-1757.769;1;285;-70;-72.6;45.0;45.2;13;12.6;28.0;0.0;
18/02/2025 08:23:02;100;0;291.40;-4;-19.71;-5.23;796.0;12.40;75572;2834.904;-1757.774;1;285;-70;-72.6;45.0;45.4;13;12.6;28.0;0.0;
18/02/2025 08:23:22;100;0;291.01;-4;-20.31;-5.61;799.1;12.40;75560;2834.906;-1757.778;1;285;-70;-75.8;45.0;45.2;13;12.6;28.0;0.0;
18/02/2025 08:23:42;100;0;293.59;-4;-20.13;-5.14;802.3;12.40;75559;2834.907;-1757.782;1;285;-70;-72.6;45.0;45.2;13;12.6;28.0;0.0;
18/02/2025 08:24:02;100;0;292.39;-4;-20.21;-5.28;805.5;12.30;75552;2834.908;-1757.786;1;285;-70;-72.6;45.0;45.2;13;12.6;28.0;0.0;
18/02/2025 08:24:22;100;0;290.60;-4;-20.10;-5.30;808.6;12.30;75545;2834.910;-1757.791;1;285;-70;-72.6;45.0;45.2;13;12.6;28.0;0.0;
18/02/2025 08:24:42;100;0;287.16;-4;-20.11;-5.36;811.8;12.30;75540;2834.911;-1757.795;1;285;-70;-72.6;45.0;45.4;13;12.6;28.0;0.0;
18/02/2025 08:25:02;100;0;285.69;-4;-20.22;-5.32;815.0;12.30;75528;2834.912;-1757.799;1;285;-70;-72.6;45.0;45.2;13;12.6;28.0;0.0;
18/02/2025 08:25:22;100;0;284.61;-4;-20.34;-5.35;818.2;12.20;75522;2834.912;-1757.804;1;285;-70;-72.6;45.0;45.4;13;12.6;28.0;0.0;
18/02/2025 08:25:42;100;0;284.13;-4;-20.01;-5.30;821.5;12.20;75520;2834.913;-1757.809;1;285;-70;-72.6;45.0;45.2;13;12.6;28.0;0.0;
18/02/2025 08:26:02;100;0;283.11;-4;-20.20;-5.41;824.8;12.20;75516;2834.914;-1757.813;1;285;-70;-72.6;45.0;45.2;13;12.6;28.0;0.0;
18/02/2025 08:26:22;100;0;281.75;-4;-20.16;-5.29;828.1;12.20;75516;2834.915;-1757.818;1;285;-70;-74.2;45.0;45.4;13;12.6;28.0;0.0;
18/02/2025 08:26:42;100;0;282.23;-4;-19.91;-5.39;831.4;12.10;75502;2834.915;-1757.823;1;285;-70;-72.6;45.0;45.2;13;12.6;28.0;0.0;
18/02/2025 08:27:02;100;0;282.03;-4;-20.21;-5.36;834.7;12.10;75499;2834.916;-1757.827;1;285;-70;-72.6;45.0;45.4;13;12.6;28.0;0.0;
18/02/2025 08:27:22;100;0;282.60;-4;-19.99;-5.41;838.0;12.10;75492;2834.917;-1757.832;1;285;-70;-71.0;45.0;45.2;13;12.6;28.0;0.0;
18/02/2025 08:27:42;100;0;284.23;-4;-19.77;-5.35;841.3;12.00;75479;2834.918;-1757.837;1;285;-70;-72.6;45.0;45.2;13;13.1;28.0;0.0;
18/02/2025 08:28:02;100;0;285.82;-4;-19.76;-5.33;844.5;12.00;75469;2834.919;-1757.841;1;285;-70;-72.6;45.0;45.4;13;12.6;28.0;0.0;
18/02/2025 08:28:22;100;0;286.95;-4;-19.58;-5.32;847.6;12.00;75457;2834.920;-1757.846;1;285;-70;-74.2;45.0;45.2;13;12.6;28.0;0.0;
18/02/2025 08:28:42;100;0;289.90;-4;-19.42;-5.54;850.6;11.90;75448;2834.921;-1757.850;1;285;-70;-72.6;45.0;45.2;13;12.6;28.0;0.0;
18/02/2025 08:29:02;100;0;290.27;-4;-19.08;-5.28;853.6;11.90;75446;2834.922;-1757.854;1;285;-70;-72.6;45.0;45.2;13;12.6;28.0;0.0;
18/02/2025 08:29:22;100;0;292.32;-4;-19.90;-5.39;856.6;11.90;75445;2834.923;-1757.858;1;285;-70;-72.6;45.0;45.2;13;12.6;28.0;0.0;
18/02/2025 08:29:42;100;0;293.98;-4;-19.36;-5.40;859.4;11.90;75441;2834.925;-1757.862;1;285;-70;-72.6;45.0;45.2;13;12.6;28.0;0.0;
18/02/2025 08:30:02;100;0;295.73;-4;-19.50;-5.42;862.3;11.90;75449;2834.926;-1757.866;1;285;-70;-72.6;45.0;45.4;15;15.3;28.0;0.0;
18/02/2025 08:30:22;100;0;296.27;-4;-20.11;-3.83;865.1;11.80;75438;2834.928;-1757.869;1;285;-70;-72.6;45.0;45.4;15;15.3;28.0;0.0;
18/02/2025 08:30:42;100;0;298.01;-4;-19.50;-3.95;867.9;11.80;75434;2834.929;-1757.873;1;285;-70;-72.6;45.0;45.2;15;15.8;28.0;0.0;
18/02/2025 08:31:02;100;0;295.01;-4;-20.03;-3.99;870.4;11.80;75435;2834.930;-1757.876;1;285;-70;-72.6;45.0;45.2;15;15.3;28.0;0.0;
18/02/2025 08:31:22;100;0;297.81;-4;-20.81;-4.49;873.2;11.70;75424;2834.932;-1757.880;1;285;-70;-72.6;45.0;45.4;15;15.3;28.0;0.0;
18/02/2025 08:31:42;100;0;296.78;-4;-18.65;-3.46;876.1;11.70;75428;2834.933;-1757.884;1;285;-70;-72.6;45.4;45.4;15;15.8;28.0;0.0;
18/02/2025 08:32:02;100;0;297.49;-4;-22.06;-4.05;878.8;11.70;75419;2834.935;-1757.887;1;284;-70;-72.6;44.8;44.8;17;17.1;28.0;0.0;
18/02/2025 08:32:22;100;0;297.99;-4;-19.35;-2.46;881.8;11.70;75410;2834.936;-1757.891;1;284;-70;-72.6;44.8;44.6;17;17.6;28.0;0.0;
18/02/2025 08:32:42;100;0;298.46;-4;-18.07;-2.55;884.7;11.70;75415;2834.938;-1757.895;1;284;-70;-72.6;45.4;45.4;19;19.9;28.0;0.0;
18/02/2025 08:33:02;100;0;294.90;-4;-20.37;-1.54;887.1;11.60;75402;2834.939;-1757.898;1;284;-70;-72.6;45.4;45.5;15;14.9;28.0;0.0;
18/02/2025 08:33:22;100;0;289.24;-4;-20.22;-4.03;889.6;11.60;75402;2834.940;-1757.902;1;284;-70;-71.0;45.4;45.5;13;13.1;28.0;0.0;
18/02/2025 08:33:42;100;0;282.55;-4;-19.66;-5.41;892.3;11.60;75407;2834.941;-1757.905;1;284;-70;-72.6;45.4;45.5;13;12.6;28.0;0.0;
18/02/2025 08:34:02;100;0;278.92;-4;-20.41;-5.39;894.9;11.60;75394;2834.941;-1757.909;1;284;-70;-72.6;45.4;45.5;13;13.1;28.0;0.0;
18/02/2025 08:34:22;100;0;278.07;-4;-20.54;-5.21;897.6;11.50;75375;2834.941;-1757.913;1;284;-70;-72.6;45.4;45.7;11;10.8;28.0;0.0;
18/02/2025 08:34:42;100;0;278.97;-4;-20.54;-6.22;900.6;11.50;75355;2834.942;-1757.917;1;284;-70;-71.0;45.4;45.7;11;10.4;28.0;0.0;
18/02/2025 08:35:02;100;0;279.09;-4;-20.67;-6.25;903.7;11.50;75354;2834.942;-1757.921;1;285;-70;-71.0;45.4;45.7;11;10.8;28.0;0.0;
18/02/2025 08:35:22;100;0;282.21;-4;-20.09;-6.41;906.9;11.40;75353;2834.943;-1757.926;1;285;-70;-72.6;45.4;45.5;13;13.1;28.0;0.0;
18/02/2025 08:35:42;100;0;281.63;-4;-20.24;-4.86;910.0;11.40;75345;2834.943;-1757.930;1;285;-70;-72.6;45.4;45.7;13;13.5;28.0;0.0;
18/02/2025 08:36:02;100;0;281.68;-4;-20.17;-4.68;913.2;11.40;75345;2834.944;-1757.935;1;285;-70;-72.6;45.4;45.5;13;13.5;28.0;0.0;
18/02/2025 08:36:22;100;0;282.60;-4;-20.15;-5.10;916.2;11.40;75333;2834.945;-1757.939;1;285;-70;-71.0;45.4;45.7;13;14.0;28.0;0.0;
18/02/2025 08:36:42;100;0;283.39;-4;-20.38;-4.77;919.3;11.30;75335;2834.945;-1757.944;1;285;-70;-72.6;45.4;45.5;13;14.0;28.0;0.0;
18/02/2025 08:37:02;100;0;282.48;-4;-20.27;-5.02;922.3;11.30;75338;2834.946;-1757.948;1;285;-70;-71.0;45.4;45.7;13;13.5;28.0;0.0;
18/02/2025 08:37:22;100;0;281.78;-4;-20.62;-4.70;925.4;11.30;75326;2834.947;-1757.952;1;285;-70;-72.6;45.4;45.7;13;13.5;28.0;0.0;
18/02/2025 08:37:42;100;0;281.47;-4;-20.77;-4.61;928.8;11.30;75317;2834.947;-1757.957;1;285;-70;-72.6;45.4;45.5;13;13.5;28.0;0.0;
18/02/2025 08:38:02;100;0;282.04;-4;-20.33;-4.99;932.1;11.20;75318;2834.948;-1757.961;1;285;-70;-72.6;45.4;45.5;13;14.0;28.0;0.0;
18/02/2025 08:38:22;100;0;282.89;-4;-20.65;-4.97;935.5;11.20;75316;2834.949;-1757.966;1;285;-70;-71.0;45.4;45.5;13;14.0;28.0;0.0;
18/02/2025 08:38:42;100;0;283.25;-4;-20.56;-4.79;939.0;11.20;75317;2834.950;-1757.971;1;285;-70;-72.6;45.4;45.5;13;14.0;28.0;0.0;
18/02/2025 08:39:02;100;0;282.73;-4;-20.37;-4.83;942.4;11.20;75314;2834.950;-1757.976;1;285;-70;-72.6;45.4;45.5;13;13.5;28.0;0.0;
18/02/2025 08:39:22;100;0;282.35;-4;-20.23;-4.78;946.1;11.10;75301;2834.951;-1757.981;1;285;-70;-72.6;45.4;45.5;13;14.0;28.0;0.0;
18/02/2025 08:39:42;100;0;282.27;-4;-19.78;-4.74;949.7;11.10;75302;2834.952;-1757.986;1;285;-70;-72.6;45.4;45.5;13;14.0;28.0;0.0;
18/02/2025 08:40:02;100;0;282.34;-4;-19.71;-4.86;953.2;11.10;75300;2834.953;-1757.991;1;285;-70;-72.6;45.4;45.7;13;13.5;28.0;0.0;
18/02/2025 08:40:22;100;0;283.05;-4;-19.72;-4.82;956.4;11.10;75302;2834.954;-1757.996;1;285;-70;-72.6;45.4;45.7;13;13.5;28.0;0.0;
18/02/2025 08:40:42;100;0;283.08;-4;-20.62;-4.90;959.6;11.10;75297;2834.954;-1758.000;1;285;-70;-72.6;45.4;45.7;13;14.0;28.0;0.0;
18/02/2025 08:41:02;100;0;281.28;-4;-20.01;-4.91;962.9;11.00;75292;2834.955;-1758.005;1;285;-70;-72.6;45.4;45.7;13;13.5;28.0;0.0;
18/02/2025 08:41:22;100;0;280.22;-4;-20.65;-4.81;966.1;11.00;75290;2834.955;-1758.009;1;285;-70;-72.6;45.4;45.5;13;14.0;28.0;0.0;
18/02/2025 08:41:43;100;0;282.59;-4;-20.15;-4.86;969.4;11.00;75283;2834.956;-1758.014;1;285;-70;-72.6;45.4;45.7;13;13.5;28.0;0.0;
18/02/2025 08:42:03;100;0;281.67;-4;-20.57;-5.10;972.5;11.00;75285;2834.957;-1758.018;1;285;-70;-72.6;45.4;45.5;13;13.5;28.0;0.0;
18/02/2025 08:42:23;100;0;280.68;-4;-20.41;-4.67;975.5;10.90;75278;2834.957;-1758.022;1;285;-70;-72.6;45.4;45.5;13;14.0;28.0;0.0;
18/02/2025 08:42:43;100;0;280.17;-4;-19.80;-4.55;978.6;10.90;75283;2834.958;-1758.027;1;285;-70;-72.6;45.4;45.5;13;13.5;28.0;0.0;
18/02/2025 08:43:03;100;0;279.26;-4;-20.15;-4.77;981.8;10.90;75278;2834.958;-1758.031;1;285;-70;-72.6;45.4;45.5;11;10.8;28.0;0.0;
18/02/2025 08:43:23;100;0;280.94;-4;-19.86;-6.08;984.5;10.90;75270;2834.959;-1758.035;1;285;-70;-72.6;45.4;45.5;11;11.3;28.0;0.0;
18/02/2025 08:43:43;100;0;278.56;-4;-19.95;-6.20;987.5;10.90;75259;2834.959;-1758.039;1;285;-70;-72.6;45.4;45.5;11;11.3;28.0;0.0;
18/02/2025 08:44:03;100;0;279.53;-4;-19.67;-6.21;990.1;10.80;75263;2834.960;-1758.043;1;285;-70;-72.6;45.4;45.7;11;11.3;28.0;0.0;
18/02/2025 08:44:23;100;0;281.01;-4;-20.03;-6.17;992.9;10.80;75265;2834.960;-1758.047;1;285;-70;-71.0;45.4;45.7;11;11.3;28.0;0.0;
18/02/2025 08:44:43;100;0;283.43;-4;-19.81;-6.06;995.5;10.80;75252;2834.961;-1758.051;1;286;-70;-72.6;45.4;45.7;11;11.3;28.0;0.0;
18/02/2025 08:45:03;100;0;285.87;-4;-19.78;-6.24;998.2;10.80;75248;2834.961;-1758.055;1;286;-70;-74.2;45.4;45.5;11;11.3;28.0;0.0;
18/02/2025 08:45:08;118;0;286.42;-4;-19.84;-6.19;998.8;10.80;75256;2834.962;-1758.055;1;286;150;-67.7;34.0;34.0;11;11.3;28.0;0.0;
18/02/2025 08:45:18;118;0;88.65;-4;-10.38;-6.85;999.9;10.80;75237;2834.962;-1758.054;1;286;150;58.1;34.0;33.9;11;11.3;26.8;-1.0;
18/02/2025 08:45:28;118;0;70.05;-4;0.33;-6.78;1000.4;10.80;74958;2834.962;-1758.053;1;285;150;153.2;34.0;33.7;11;11.3;26.8;-1.0;
18/02/2025 08:45:38;118;0;284.18;-4;2.28;-7.25;1000.2;10.80;74785;2834.962;-1758.053;1;286;150;153.2;34.0;33.7;11;11.3;27.9;-1.0;
18/02/2025 08:45:58;117;0;279.22;-4;2.49;-6.82;999.9;10.80;74794;2834.961;-1758.054;1;286;150;154.8;34.0;33.7;11;11.3;28.0;-1.0;
18/02/2025 08:46:18;117;0;275.66;-4;3.05;-6.86;999.4;10.80;74783;2834.961;-1758.054;1;286;150;153.2;28.9;28.6;70;70.4;28.0;-1.0;
18/02/2025 08:46:38;117;0;275.54;-4;19.67;24.59;998.7;10.80;74782;2834.961;-1758.055;1;286;150;154.8;28.9;29.0;51;51.0;28.0;-1.0;
18/02/2025 08:46:58;117;0;279.29;-4;19.08;14.05;997.5;10.70;74775;2834.961;-1758.057;1;286;150;154.8;28.9;29.2;40;40.2;28.0;-1.0;
18/02/2025 08:47:18;117;0;281.94;-4;19.06;8.16;996.2;10.70;74783;2834.961;-1758.059;1;286;150;156.5;28.9;29.2;37;36.6;28.0;-1.0;
18/02/2025 08:47:38;117;0;283.36;-4;18.25;6.50;994.9;10.70;74771;2834.962;-1758.061;1;286;150;153.2;28.4;28.4;35;35.6;28.0;-1.0;
18/02/2025 08:47:58;117;0;283.17;-4;20.01;5.83;993.5;10.70;74771;2834.962;-1758.063;1;286;150;156.5;28.4;28.1;35;35.2;28.0;-1.0;
18/02/2025 08:48:18;117;0;283.73;-4;19.89;5.88;991.9;10.70;74769;2834.962;-1758.065;1;286;150;154.8;28.4;28.1;35;35.6;28.0;-1.0;
18/02/2025 08:48:38;117;0;284.36;-4;19.70;5.84;990.4;10.70;74773;2834.962;-1758.067;1;286;150;154.8;28.4;28.1;35;35.2;28.0;-1.0;
18/02/2025 08:48:58;117;0;284.33;-4;19.67;5.89;988.9;10.70;74766;2834.963;-1758.069;1;286;150;154.8;28.4;28.1;35;35.2;28.0;-1.0;
18/02/2025 08:49:18;117;0;284.58;-4;19.78;5.86;987.4;10.60;74757;2834.963;-1758.071;1;286;150;154.8;28.4;28.1;35;35.2;28.0;-1.0;
18/02/2025 08:49:38;117;0;286.80;-4;19.92;5.84;985.9;10.60;74755;2834.963;-1758.073;1;286;150;154.8;28.4;28.1;35;35.2;28.0;-1.0;
18/02/2025 08:49:58;117;0;287.50;-4;19.57;5.83;984.5;10.60;74759;2834.964;-1758.075;1;286;150;154.8;28.4;28.0;35;35.2;28.0;-1.0;
18/02/2025 08:50:18;117;0;287.93;-4;19.68;5.86;983.0;10.60;74750;2834.964;-1758.077;1;286;150;154.8;28.4;28.1;35;35.2;28.0;-1.0;
18/02/2025 08:50:38;117;0;286.45;-4;19.70;5.85;981.6;10.60;74755;2834.965;-1758.079;1;286;150;154.8;28.4;28.1;35;35.2;28.0;-1.0;
18/02/2025 08:50:58;117;0;288.52;-4;19.73;5.76;980.1;10.50;74742;2834.965;-1758.081;1;286;150;153.2;28.4;28.1;35;35.2;28.0;-1.0;
18/02/2025 08:51:18;117;0;290.41;-4;19.95;5.84;978.6;10.50;74741;2834.965;-1758.083;1;286;170;172.6;28.4;28.1;35;35.2;28.0;-1.0;
18/02/2025 08:51:38;117;0;297.34;-4;18.54;5.89;977.2;10.50;74705;2834.966;-1758.085;1;286;190;193.5;28.0;27.8;33;32.9;28.0;-1.0;
18/02/2025 08:51:58;117;0;290.57;-4;20.13;4.72;975.6;10.50;74658;2834.967;-1758.087;1;286;210;212.9;28.0;27.5;33;32.9;28.0;-1.0;
18/02/2025 08:52:18;117;0;297.22;-4;19.25;4.88;973.8;10.50;74623;2834.968;-1758.090;1;286;230;233.9;28.0;27.5;33;32.9;28.0;-1.0;
18/02/2025 08:52:38;117;0;290.29;-4;19.01;4.86;971.9;10.50;74578;2834.968;-1758.092;1;286;250;253.2;28.0;27.5;33;33.4;28.0;-1.0;
18/02/2025 08:52:58;117;0;296.92;-4;18.41;4.88;970.0;10.50;74534;2834.969;-1758.095;1;286;270;272.6;27.5;27.5;33;33.4;28.0;-1.0;
18/02/2025 08:53:18;117;0;298.87;-4;17.89;4.81;968.0;10.50;74490;2834.971;-1758.098;1;286;270;271.0;26.8;26.8;31;30.7;28.0;-1.0;
18/02/2025 08:53:38;117;0;298.60;-4;20.48;3.63;965.8;10.50;74495;2834.972;-1758.101;1;286;270;269.4;26.8;26.1;31;30.7;28.0;-1.0;
18/02/2025 08:53:58;117;0;298.20;-4;20.76;3.87;963.5;10.40;74486;2834.973;-1758.104;1;286;270;274.2;26.8;26.2;31;30.7;28.0;-1.0;
18/02/2025 08:54:18;117;0;297.26;-4;21.05;3.57;961.1;10.40;74482;2834.974;-1758.107;1;286;270;272.6;26.8;26.2;31;30.7;28.0;-1.0;
18/02/2025 08:54:38;117;0;297.04;-4;20.50;3.61;958.6;10.40;74479;2834.975;-1758.110;1;286;270;272.6;26.8;26.2;31;30.7;28.0;-1.0;
18/02/2025 08:54:58;117;0;297.36;-4;20.62;3.61;956.2;10.40;74483;2834.976;-1758.113;1;285;270;272.6;26.8;26.1;31;30.7;28.0;-1.0;
18/02/2025 08:55:18;117;0;297.39;-4;20.34;3.58;954.0;10.40;74476;2834.978;-1758.115;1;285;270;271.0;26.8;26.1;31;30.7;28.0;-1.0;
18/02/2025 08:55:38;117;0;297.93;-4;20.52;3.61;951.7;10.40;74472;2834.979;-1758.118;1;285;270;272.6;26.8;26.1;31;30.7;28.0;-1.0;
18/02/2025 08:55:58;117;0;297.59;-4;20.37;3.80;949.4;10.40;74472;2834.980;-1758.121;1;285;270;272.6;26.8;26.1;31;30.7;28.0;-1.0;
18/02/2025 08:56:18;117;0;299.02;-4;20.51;3.67;947.3;10.40;74461;2834.981;-1758.124;1;285;270;272.6;26.8;26.1;31;30.7;28.0;-1.0;
18/02/2025 08:56:38;117;0;298.44;-4;20.84;3.54;945.1;10.40;74470;2834.982;-1758.126;1;285;270;272.6;26.8;26.1;31;30.7;28.0;-1.0;
18/02/2025 08:56:58;117;0;299.72;-4;20.46;3.55;943.0;10.40;74457;2834.983;-1758.129;1;285;270;272.6;26.8;26.2;31;30.7;28.0;-1.0;
18/02/2025 08:57:18;117;0;300.12;-4;20.34;3.58;940.8;10.30;74460;2834.984;-1758.132;1;285;270;271.0;26.8;27.0;28;27.5;28.0;-1.0;
18/02/2025 08:57:38;117;0;298.67;-4;20.39;2.03;938.7;10.30;74462;2834.986;-1758.135;1;285;270;269.4;26.8;27.1;30;29.8;28.0;-1.0;
18/02/2025 08:57:58;117;0;302.73;-4;20.14;3.34;936.5;10.30;74449;2834.987;-1758.137;1;285;270;272.6;26.8;27.0;25;24.8;28.0;-1.0;
18/02/2025 08:58:18;117;0;300.40;-4;19.57;0.85;934.3;10.30;74452;2834.988;-1758.140;1;285;270;272.6;26.8;27.1;29;28.9;28.0;-1.0;
18/02/2025 08:58:38;117;0;299.73;-4;19.46;3.26;932.1;10.30;74460;2834.989;-1758.143;1;285;270;274.2;26.8;27.2;29;29.3;28.0;-1.0;
18/02/2025 08:58:58;117;0;298.02;-4;19.34;3.20;929.9;10.30;74461;2834.991;-1758.146;1;285;270;272.6;26.8;27.1;29;29.3;28.0;-1.0;
18/02/2025 08:59:18;117;0;298.05;-4;19.42;3.24;927.7;10.30;74464;2834.992;-1758.149;1;285;270;271.0;26.8;27.1;29;29.3;28.0;-1.0;
18/02/2025 08:59:38;117;0;299.14;-4;20.22;3.22;925.5;10.30;74451;2834.993;-1758.151;1;285;270;272.6;26.8;27.1;29;29.3;28.0;-1.0;
18/02/2025 08:59:58;117;0;302.47;-4;19.10;2.54;923.1;10.30;74456;2834.995;-1758.155;1;285;270;271.0;26.8;27.1;25;24.8;28.0;-1.0;
18/02/2025 09:00:18;117;0;303.57;-4;19.41;0.53;921.0;10.20;74438;2834.996;-1758.157;1;284;270;272.6;26.8;27.1;22;22.1;28.0;-1.0;
18/02/2025 09:00:38;117;0;298.76;-4;19.08;-0.86;918.8;10.20;74447;2834.997;-1758.160;1;284;270;272.6;26.8;27.1;28;28.0;28.0;-1.0;
18/02/2025 09:00:58;117;0;299.30;-4;17.46;2.80;916.8;10.20;74437;2834.998;-1758.163;1;284;290;293.5;26.1;25.9;28;28.0;28.0;-1.0;
18/02/2025 09:01:18;117;0;296.04;-4;22.64;2.54;915.1;10.20;74401;2834.999;-1758.165;1;284;310;312.9;26.9;26.8;32;32.5;28.0;-1.0;
18/02/2025 09:01:38;117;0;298.83;-4;19.45;5.22;912.9;10.20;74353;2835.000;-1758.168;1;284;310;312.9;26.9;26.8;28;27.5;28.0;-1.0;
18/02/2025 09:01:58;117;0;297.82;-4;18.89;2.14;910.6;10.20;74347;2835.002;-1758.171;1;284;310;312.9;26.5;26.5;28;27.5;28.0;-1.0;
18/02/2025 09:02:18;117;0;296.48;-4;17.29;2.00;908.6;10.20;74352;2835.003;-1758.174;1;284;310;312.9;25.7;25.6;30;29.8;28.0;-1.0;
18/02/2025 09:02:38;117;0;297.82;-4;20.67;3.38;906.6;10.20;74347;2835.004;-1758.176;1;284;330;333.9;25.7;25.2;30;30.2;28.0;-1.0;
18/02/2025 09:02:58;117;0;301.26;-4;21.47;3.53;904.2;10.20;74305;2835.005;-1758.179;1;284;330;333.9;25.7;25.8;25;24.8;28.0;-1.0;
18/02/2025 09:03:18;117;0;300.37;-4;20.17;0.76;901.6;10.20;74303;2835.006;-1758.182;1;284;330;333.9;25.7;25.9;25;24.4;28.0;-1.0;
18/02/2025 09:03:38;117;0;298.93;-4;19.55;0.77;899.2;10.20;74300;2835.008;-1758.185;1;284;330;333.9;25.7;25.9;28;28.0;28.0;-1.0;
18/02/2025 09:03:58;117;0;299.15;-4;19.64;2.70;896.9;10.10;74284;2835.009;-1758.188;1;284;330;333.9;25.7;25.9;28;28.4;28.0;-1.0;
18/02/2025 09:04:18;117;0;299.04;-4;19.66;2.61;894.7;10.20;74296;2835.010;-1758.191;1;284;330;332.3;25.7;25.9;28;28.4;28.0;-1.0;
18/02/2025 09:04:38;117;0;299.04;-4;19.81;2.74;892.4;10.10;74291;2835.011;-1758.194;1;284;330;332.3;25.7;25.9;28;28.4;28.0;-1.0;
18/02/2025 09:04:58;117;0;298.62;-4;20.15;2.75;890.1;10.10;74289;2835.013;-1758.197;1;284;330;333.9;25.7;25.9;28;28.4;28.0;-1.0;
18/02/2025 09:05:18;117;0;298.84;-4;19.81;2.71;887.9;10.10;74289;2835.014;-1758.200;1;283;330;333.9;25.7;26.1;28;28.4;28.0;-1.0;
18/02/2025 09:05:38;117;0;296.39;-4;19.73;2.91;885.8;10.10;74285;2835.015;-1758.202;1;283;330;332.3;25.7;25.9;30;29.8;28.0;-1.0;
18/02/2025 09:05:58;117;0;296.25;-4;19.67;3.59;883.7;10.10;74288;2835.016;-1758.205;1;283;330;333.9;25.7;25.9;30;30.2;28.0;-1.0;
18/02/2025 09:06:18;117;0;297.92;-4;20.72;3.78;881.4;10.10;74283;2835.017;-1758.208;1;283;330;333.9;25.7;25.9;28;28.0;28.0;-1.0;
18/02/2025 09:06:38;117;0;298.15;-4;20.08;2.12;879.1;10.10;74291;2835.018;-1758.211;1;283;330;332.3;25.7;26.1;28;27.5;28.0;-1.0;
18/02/2025 09:06:58;117;0;297.75;-4;19.76;2.09;876.9;10.10;74280;2835.019;-1758.214;1;283;330;333.9;25.7;25.9;28;27.5;28.0;-1.0;
18/02/2025 09:07:18;117;0;297.52;-4;19.59;2.43;874.6;10.10;74279;2835.021;-1758.217;1;283;330;333.9;25.7;25.9;28;27.5;28.0;-1.0;
18/02/2025 09:07:38;117;0;295.46;-4;19.51;2.27;872.3;10.10;74279;2835.022;-1758.220;1;283;330;333.9;25.7;25.9;30;29.8;28.0;-1.0;
18/02/2025 09:07:58;117;0;295.73;-4;19.35;3.71;870.0;10.10;74284;2835.023;-1758.223;1;283;330;333.9;25.7;25.9;30;30.2;28.0;-1.0;
18/02/2025 09:08:18;117;0;295.49;-4;19.66;3.77;867.8;10.10;74270;2835.024;-1758.226;1;283;330;333.9;25.7;25.9;30;30.2;28.0;-1.0;
18/02/2025 09:08:38;117;0;294.02;-4;19.93;3.69;865.7;10.10;74280;2835.025;-1758.228;1;283;330;330.6;25.7;25.9;30;30.2;28.0;-1.0;
18/02/2025 09:08:58;117;0;293.47;-4;19.82;3.74;863.4;10.00;74275;2835.026;-1758.232;1;283;330;332.3;25.7;25.9;30;30.2;28.0;-1.0;
18/02/2025 09:09:18;117;0;292.63;-4;19.98;3.72;861.4;10.00;74271;2835.027;-1758.234;1;283;330;333.9;25.7;25.9;32;32.9;28.0;-1.0;
18/02/2025 09:09:38;117;0;292.32;-4;19.86;5.39;859.1;10.00;74273;2835.028;-1758.237;1;283;330;330.6;25.7;25.9;32;33.4;28.0;-1.0;
18/02/2025 09:09:58;117;0;293.40;-4;20.08;5.42;857.0;10.00;74275;2835.028;-1758.240;1;283;330;333.9;25.7;25.9;32;33.4;28.0;-1.0;
18/02/2025 09:10:18;117;0;294.29;-4;20.42;5.35;854.7;10.00;74289;2835.029;-1758.243;1;283;330;333.9;25.7;25.9;30;28.0;28.0;-1.0;
18/02/2025 09:10:38;117;0;294.21;-4;20.12;4.77;852.5;10.00;74273;2835.030;-1758.246;1;283;330;333.9;25.7;26.1;30;32.0;28.0;-1.0;
18/02/2025 09:10:58;117;0;294.16;-4;20.16;4.84;850.1;10.00;74276;2835.031;-1758.249;1;282;330;332.3;25.7;25.9;30;32.0;28.0;-1.0;
18/02/2025 09:11:18;117;0;293.65;-4;20.10;4.92;847.8;10.00;74278;2835.033;-1758.252;1;282;330;332.3;25.7;25.9;30;32.0;28.0;-1.0;
18/02/2025 09:11:38;117;0;293.33;-4;19.91;4.82;845.4;10.00;74279;2835.034;-1758.255;1;282;330;333.9;25.7;26.1;30;32.0;28.0;-1.0;
18/02/2025 09:11:58;117;0;294.65;-4;20.71;4.88;843.1;10.00;74274;2835.035;-1758.258;1;282;330;332.3;25.7;26.1;30;32.0;28.0;-1.0;
18/02/2025 09:12:18;117;0;296.70;-4;19.72;4.81;840.7;10.00;74272;2835.036;-1758.262;1;282;330;332.3;25.7;25.9;27;27.1;28.0;-1.0;
18/02/2025 09:12:38;117;0;294.90;-4;19.81;2.01;838.3;10.00;74266;2835.037;-1758.265;1;282;330;333.9;25.7;26.1;29;28.9;28.0;-1.0;
18/02/2025 09:12:58;117;0;295.94;-4;19.98;3.15;835.9;10.00;74269;2835.038;-1758.268;1;282;330;332.3;25.7;25.9;29;29.3;28.0;-1.0;
18/02/2025 09:13:18;117;0;295.98;-4;20.12;3.20;833.4;10.00;74264;2835.039;-1758.271;1;282;330;333.9;25.7;25.9;29;29.3;28.0;-1.0;
18/02/2025 09:13:38;117;0;295.61;-4;20.02;3.26;830.9;10.00;74265;2835.041;-1758.274;1;282;330;332.3;25.7;25.9;29;29.3;28.0;-1.0;
18/02/2025 09:13:58;117;0;295.44;-4;19.75;3.22;828.3;10.00;74267;2835.042;-1758.278;1;282;330;332.3;25.7;26.1;29;29.3;28.0;-1.0;
18/02/2025 09:14:18;117;0;295.08;-4;19.91;3.27;825.7;10.00;74253;2835.043;-1758.281;1;282;330;333.9;25.7;25.9;29;29.3;28.0;-1.0;
18/02/2025 09:14:38;117;0;294.31;-4;19.58;3.22;823.0;10.00;74267;2835.044;-1758.285;1;282;330;332.3;25.7;25.9;29;29.3;28.0;-1.0;
18/02/2025 09:14:58;117;0;293.87;-4;19.41;3.24;820.5;10.00;74261;2835.045;-1758.288;1;282;330;333.9;25.7;26.1;29;29.3;28.0;-1.0;
18/02/2025 09:15:19;117;0;294.41;-4;19.84;3.21;818.0;10.00;74259;2835.047;-1758.291;1;281;330;333.9;25.7;26.1;29;29.3;28.0;-1.0;
18/02/2025 09:15:39;117;0;295.08;-4;19.88;3.21;815.4;10.00;74259;2835.048;-1758.295;1;281;330;333.9;25.7;25.9;27;27.1;28.0;-1.0;
18/02/2025 09:15:59;117;0;294.85;-4;19.83;1.99;812.9;10.00;74265;2835.049;-1758.298;1;281;330;333.9;25.7;26.1;27;27.1;28.0;-1.0;
18/02/2025 09:16:19;117;0;295.56;-4;19.92;1.82;810.3;10.00;74252;2835.050;-1758.302;1;281;330;333.9;25.7;25.9;27;27.1;28.0;-1.0;
18/02/2025 09:16:39;117;0;296.55;-4;19.89;1.85;807.7;10.00;74265;2835.051;-1758.305;1;281;330;333.9;25.7;25.9;27;27.1;28.0;-1.0;
18/02/2025 09:16:59;117;0;295.77;-4;19.58;2.06;805.2;10.00;74279;2835.053;-1758.308;1;281;330;332.3;25.7;25.9;27;27.1;28.0;-1.0;
18/02/2025 09:17:19;117;0;295.19;-4;19.77;2.04;802.5;10.00;74276;2835.054;-1758.312;1;281;330;332.3;25.7;25.9;27;27.1;28.0;-1.0;
18/02/2025 09:17:39;117;0;294.85;-4;19.46;1.88;799.9;10.00;74273;2835.055;-1758.315;1;281;330;333.9;25.7;25.9;27;27.1;28.0;-1.0;
