Timestamp;NavState;SecurityLevel;Heading;Declination;Pitch;Roll;Depth;Temperature;Pa;Lat;Lon;DeadReckoning;DesiredH;BallastCmd;BallastPos;LinCmd;LinPos;AngCmd;AngPos;Voltage;Altitude;
16/02/2025 16:33:52;119;0;40.18;-4;-52.29;-24.78;-0.3;19.70;76567;2838.604;-1801.758;0;161;500;509.7;100.0;100.6;0;-0.5;28.4;-1.0;
16/02/2025 16:34:02;116;0;21.16;-4;-47.76;-12.32;-0.3;19.80;76586;2838.604;-1801.757;0;161;500;508.1;100.0;100.6;0;-0.5;28.4;-1.0;
16/02/2025 16:34:27;116;0;327.68;-4;-49.36;-14.10;-0.3;19.80;76584;2838.606;-1801.759;0;161;500;508.1;100.0;100.6;0;-0.5;28.4;-1.0;
16/02/2025 16:34:54;116;0;312.82;-4;-54.63;-16.54;-0.1;19.80;76589;2838.606;-1801.758;0;161;500;508.1;100.0;100.6;0;-0.5;28.4;-1.0;
16/02/2025 16:35:05;116;0;318.59;-4;-47.92;-15.59;-0.1;19.90;76594;2838.606;-1801.758;0;161;500;509.7;100.0;100.4;0;-0.5;28.4;-1.0;
16/02/2025 16:35:25;116;0;316.58;-4;-49.78;-9.83;0.1;19.90;76601;2838.605;-1801.758;0;161;500;508.1;100.0;100.6;0;-0.9;28.4;-1.0;
16/02/2025 16:36:06;116;0;319.33;-4;-61.59;-31.69;-0.0;20.00;76622;2838.605;-1801.759;0;161;500;508.1;100.0;100.6;0;-0.5;28.4;-1.0;
16/02/2025 16:36:53;116;0;295.09;-4;-60.97;-9.10;0.0;20.10;76635;2838.608;-1801.759;0;161;500;509.7;100.0;100.6;0;-0.5;28.4;-1.0;
16/02/2025 16:37:04;116;0;291.37;-4;-56.50;-21.94;0.0;20.20;76644;2838.609;-1801.758;0;161;500;509.7;100.0;100.4;0;-0.5;28.4;-1.0;
16/02/2025 16:37:24;110;0;298.72;-4;-57.19;-10.06;-0.1;20.20;76641;2838.609;-1801.758;0;161;-50;395.2;100.0;100.0;-14;-14.4;28.4;-1.0;
16/02/2025 16:37:34;110;0;297.42;-4;-51.40;-22.79;0.1;20.20;76993;2838.609;-1801.758;1;161;-50;243.5;100.0;99.7;-14;-14.4;28.3;-1.0;
16/02/2025 16:37:44;110;0;301.74;-4;-59.19;-13.47;0.6;20.30;77245;2838.609;-1801.759;1;161;-50;85.5;100.0;99.7;-14;-14.4;28.3;-1.0;
16/02/2025 16:37:54;110;0;300.11;-4;-62.82;-16.56;0.8;20.30;77581;2838.610;-1801.759;1;161;-50;-50.0;100.0;99.9;-14;-14.4;28.3;-1.0;
16/02/2025 16:38:04;110;0;302.47;-4;-67.67;-9.72;1.3;20.30;77857;2838.610;-1801.760;1;161;-50;-50.0;48.4;48.3;-14;-14.4;28.4;-1.0;
16/02/2025 16:38:24;100;0;327.03;-4;-32.69;-19.36;4.5;20.40;77811;2838.613;-1801.762;1;161;-50;-46.8;48.4;48.2;-14;-14.4;28.4;-1.0;
16/02/2025 16:38:44;100;0;334.97;-4;-30.98;-19.47;8.2;20.50;77816;2838.617;-1801.764;1;161;-50;-46.8;48.4;48.2;70;69.9;28.4;-1.0;
16/02/2025 16:39:04;100;0;333.12;-4;-32.47;22.65;12.1;20.50;77813;2838.621;-1801.766;1;161;-50;-46.8;47.7;47.7;70;69.9;28.4;-1.0;
16/02/2025 16:39:24;100;0;324.09;-4;-35.44;23.21;16.4;20.50;77799;2838.624;-1801.769;1;161;-50;-46.8;46.1;46.1;70;70.4;28.4;0.0;
16/02/2025 16:39:44;100;0;312.52;-4;-33.44;23.97;20.4;20.50;77792;2838.627;-1801.773;1;161;-50;-45.2;45.0;44.9;70;69.9;28.4;0.0;
16/02/2025 16:40:04;100;0;301.96;-4;-27.91;24.04;24.3;20.50;77814;2838.630;-1801.777;1;160;-50;-46.8;45.7;45.7;70;69.9;28.4;0.0;
16/02/2025 16:40:24;100;0;291.11;-4;-30.39;23.66;28.1;20.50;77804;2838.632;-1801.781;1;160;-50;-48.4;45.7;45.9;70;70.4;28.4;0.0;
16/02/2025 16:40:44;100;0;283.20;-4;-30.53;23.43;31.9;20.50;77791;2838.633;-1801.785;1;160;-50;-48.4;45.7;45.9;70;69.9;28.4;0.0;
16/02/2025 16:41:04;100;0;273.40;-4;-29.75;23.29;35.5;20.50;77794;2838.634;-1801.789;1;160;-50;-45.2;45.7;45.9;70;69.9;28.4;0.0;
16/02/2025 16:41:24;100;0;263.42;-4;-29.38;23.51;39.1;20.50;77782;2838.635;-1801.794;1;160;-50;-46.8;45.7;45.9;70;69.9;28.4;0.0;
16/02/2025 16:41:44;100;0;252.83;-4;-29.25;23.39;42.5;20.50;77784;2838.635;-1801.798;1;160;-50;-46.8;45.7;45.9;70;69.9;28.4;0.0;
16/02/2025 16:42:04;100;0;239.61;-4;-29.51;23.64;45.9;20.50;77783;2838.634;-1801.801;1;160;-50;-46.8;45.7;45.9;70;69.9;28.4;0.0;
16/02/2025 16:42:24;100;0;228.10;-4;-29.86;23.67;49.4;20.50;77788;2838.633;-1801.804;1;159;-50;-46.8;45.7;45.8;70;69.9;28.4;0.0;
16/02/2025 16:42:44;100;0;217.63;-4;-30.24;23.39;53.1;20.50;77786;2838.631;-1801.807;1;159;-50;-46.8;45.7;45.9;70;70.4;28.4;0.0;
16/02/2025 16:43:04;100;0;205.89;-4;-29.39;23.59;56.6;20.50;77794;2838.629;-1801.809;1;159;-50;-46.8;45.7;45.9;70;69.9;28.4;0.0;
16/02/2025 16:43:24;100;0;194.38;-4;-29.49;23.61;60.1;20.50;77791;2838.627;-1801.811;1;159;-50;-46.8;45.7;45.9;56;55.5;28.3;0.0;
16/02/2025 16:43:44;100;0;184.74;-4;-28.76;15.60;63.5;20.50;77791;2838.624;-1801.812;1;159;-50;-46.8;46.0;46.2;43;42.9;28.4;0.0;
16/02/2025 16:44:04;100;0;175.33;-4;-28.23;9.06;67.0;20.50;77773;2838.622;-1801.812;1;159;-50;-45.2;46.6;47.0;25;24.8;28.4;0.0;
16/02/2025 16:44:24;100;0;170.88;-4;-27.88;0.39;70.3;20.50;77783;2838.619;-1801.812;1;159;-50;-45.2;47.2;47.6;20;19.9;28.4;0.0;
16/02/2025 16:44:44;100;0;170.39;-4;-29.72;-2.02;73.7;20.50;77776;2838.617;-1801.812;1;159;-50;-46.8;47.2;47.6;20;19.4;28.4;0.0;
16/02/2025 16:45:04;100;0;167.57;-4;-29.50;-1.92;77.2;20.50;77767;2838.615;-1801.812;1;159;-50;-46.8;47.2;47.6;15;14.9;28.4;0.0;
16/02/2025 16:45:24;100;0;164.34;-4;-28.97;-4.58;80.7;20.50;77776;2838.613;-1801.812;1;159;-50;-46.8;47.5;47.6;12;12.2;28.4;0.0;
16/02/2025 16:45:44;100;0;164.51;-4;-28.41;-5.84;84.0;20.50;77783;2838.611;-1801.811;1;159;-50;-45.2;48.0;48.0;12;11.7;28.4;0.0;
16/02/2025 16:46:04;100;0;160.22;-4;-29.31;-5.86;87.3;20.50;77776;2838.608;-1801.811;1;159;-50;-45.2;48.0;48.3;10;9.9;28.4;0.0;
16/02/2025 16:46:24;100;0;156.73;-4;-29.41;-7.09;90.6;20.50;77759;2838.607;-1801.810;1;159;-50;-46.8;48.0;48.2;10;9.5;28.4;0.0;
16/02/2025 16:46:44;100;0;157.89;-4;-29.49;-7.09;93.8;20.50;77767;2838.605;-1801.809;1;159;-50;-46.8;48.0;48.3;10;9.5;28.4;0.0;
16/02/2025 16:47:04;100;0;162.62;-4;-29.44;-6.95;97.1;20.50;77740;2838.602;-1801.809;1;159;-50;-46.8;48.0;48.3;10;9.5;28.4;0.0;
16/02/2025 16:47:24;100;0;163.37;-4;-30.12;-6.91;100.4;20.50;77729;2838.601;-1801.808;1;159;-50;-46.8;48.0;48.2;12;12.6;28.4;0.0;
16/02/2025 16:47:44;100;0;158.71;-4;-30.19;-5.25;103.8;20.40;77707;2838.599;-1801.808;1;159;-50;-46.8;48.0;48.3;10;9.5;28.4;0.0;
16/02/2025 16:48:05;100;0;156.12;-4;-30.04;-7.03;107.0;20.40;77699;2838.597;-1801.807;1;159;-50;-46.8;48.0;48.3;10;9.0;28.4;0.0;
16/02/2025 16:48:25;100;0;154.32;-4;-30.81;-7.05;110.4;20.40;77680;2838.595;-1801.806;1;159;-50;-45.2;48.0;48.3;10;9.5;28.4;0.0;
16/02/2025 16:48:45;100;0;165.85;-4;-29.54;-7.21;113.6;20.40;77656;2838.593;-1801.806;1;159;-50;-45.2;48.0;48.3;14;14.0;28.4;0.0;
16/02/2025 16:49:05;100;0;171.37;-4;-30.01;-4.34;116.8;20.40;77634;2838.591;-1801.806;1;159;-50;-46.8;48.0;48.2;21;21.7;28.4;0.0;
16/02/2025 16:49:25;100;0;166.71;-4;-29.71;-0.87;119.9;20.30;77618;2838.589;-1801.806;1;159;-50;-46.8;48.0;48.3;15;14.9;28.4;0.0;
16/02/2025 16:49:45;100;0;163.51;-4;-29.24;-4.47;122.8;20.30;77597;2838.587;-1801.806;1;159;-50;-45.2;48.0;48.3;12;12.2;28.4;0.0;
16/02/2025 16:50:05;100;0;158.07;-4;-28.94;-5.87;125.8;20.30;77579;2838.586;-1801.805;1;159;-50;-45.2;48.3;48.3;10;9.9;28.4;0.0;
16/02/2025 16:50:25;100;0;155.67;-4;-29.09;-7.00;128.8;20.20;77569;2838.584;-1801.804;1;159;-50;-45.2;48.3;48.3;10;9.5;28.4;0.0;
16/02/2025 16:50:45;100;0;154.14;-4;-29.37;-6.97;131.8;20.20;77554;2838.582;-1801.804;1;159;-50;-45.2;48.3;48.3;10;9.5;28.4;0.0;
16/02/2025 16:51:05;100;0;149.15;-4;-29.29;-6.96;134.9;20.20;77549;2838.580;-1801.803;1;159;-50;-46.8;48.3;48.3;10;9.5;28.4;0.0;
16/02/2025 16:51:25;100;0;152.87;-4;-29.64;-6.99;138.0;20.10;77523;2838.579;-1801.802;1;159;-50;-46.8;48.3;48.3;10;9.5;28.4;0.0;
16/02/2025 16:51:45;100;0;163.66;-4;-30.00;-6.93;141.3;20.10;77516;2838.577;-1801.801;1;159;-50;-46.8;48.3;48.3;12;12.2;28.4;0.0;
16/02/2025 16:52:05;100;0;164.94;-4;-29.64;-5.43;144.6;20.10;77493;2838.575;-1801.801;1;158;-50;-46.8;48.3;48.3;14;14.0;28.4;0.0;
16/02/2025 16:52:25;100;0;160.88;-4;-29.10;-4.47;147.7;20.00;77486;2838.573;-1801.801;1;158;-50;-46.8;48.3;48.3;11;10.8;28.4;0.0;
16/02/2025 16:52:45;100;0;164.00;-4;-30.24;-6.61;150.9;20.00;77468;2838.571;-1801.800;1;158;-50;-45.2;48.3;48.3;13;13.1;28.4;0.0;
16/02/2025 16:53:05;100;0;168.76;-4;-30.31;-5.01;154.2;20.00;77453;2838.569;-1801.800;1;158;-50;-45.2;48.3;48.3;19;19.0;28.4;0.0;
16/02/2025 16:53:25;100;0;165.20;-4;-30.11;-2.11;157.5;19.90;77448;2838.567;-1801.800;1;158;-50;-46.8;48.3;48.3;14;13.5;28.4;0.0;
16/02/2025 16:53:45;100;0;160.76;-4;-29.07;-5.21;160.7;19.90;77428;2838.565;-1801.799;1;158;-50;-46.8;48.3;48.3;11;10.8;28.4;0.0;
16/02/2025 16:54:05;100;0;161.01;-4;-29.01;-6.55;163.9;19.80;77413;2838.563;-1801.799;1;158;-50;-46.8;48.3;48.3;11;10.4;28.4;0.0;
16/02/2025 16:54:25;100;0;157.51;-4;-28.98;-6.61;166.9;19.80;77394;2838.561;-1801.798;1;158;-50;-46.8;48.6;48.7;11;10.4;28.4;0.0;
16/02/2025 16:54:45;100;0;151.94;-4;-29.54;-6.61;169.8;19.80;77388;2838.560;-1801.798;1;158;-50;-46.8;48.6;48.9;11;10.4;28.4;0.0;
16/02/2025 16:55:05;100;0;157.42;-4;-29.82;-6.62;172.9;19.70;77370;2838.558;-1801.797;1;158;-50;-46.8;48.6;48.9;11;10.4;28.4;0.0;
16/02/2025 16:55:25;100;0;160.17;-4;-30.13;-6.55;176.0;19.70;77355;2838.556;-1801.797;1;158;-50;-45.2;48.6;48.9;11;10.4;28.4;0.0;
16/02/2025 16:55:45;100;0;164.16;-4;-30.19;-6.54;179.3;19.60;77326;2838.554;-1801.796;1;158;-50;-45.2;48.6;48.9;14;14.0;28.4;0.0;
16/02/2025 16:56:05;100;0;164.99;-4;-30.65;-4.59;182.7;19.60;77315;2838.552;-1801.796;1;158;-50;-46.8;48.6;48.9;14;14.4;28.4;0.0;
16/02/2025 16:56:25;100;0;167.69;-4;-30.59;-4.54;186.0;19.50;77299;2838.550;-1801.796;1;158;-50;-46.8;48.6;48.9;18;18.1;28.4;0.0;
16/02/2025 16:56:45;100;0;160.48;-4;-30.84;-2.48;189.5;19.50;77293;2838.548;-1801.795;1;158;-50;-48.4;48.6;48.9;11;10.8;28.4;0.0;
16/02/2025 16:57:05;100;0;155.19;-4;-29.89;-6.20;192.8;19.40;77273;2838.547;-1801.795;1;158;-50;-45.2;48.6;48.9;11;10.8;28.4;0.0;
16/02/2025 16:57:25;100;0;152.58;-4;-30.07;-6.29;196.0;19.40;77272;2838.545;-1801.794;1;158;-50;-46.8;48.6;48.9;11;10.8;28.4;0.0;
16/02/2025 16:57:43;118;0;151.98;-4;-30.28;-6.23;198.9;19.40;77260;2838.543;-1801.793;1;158;210;-38.7;21.9;21.9;13;13.5;28.4;0.0;
16/02/2025 16:57:53;118;0;134.62;-4;-16.42;-5.87;200.1;19.30;77237;2838.542;-1801.792;1;158;210;88.7;21.9;21.6;13;13.5;28.0;-1.0;
16/02/2025 16:58:03;118;0;129.95;-4;11.20;-5.63;200.3;19.30;76944;2838.542;-1801.792;1;158;210;212.9;21.9;21.4;13;13.1;28.0;-1.0;
16/02/2025 16:58:13;118;0;151.33;-4;24.40;-5.52;199.5;19.30;76690;2838.542;-1801.791;1;158;210;212.9;21.9;21.9;13;13.1;28.4;-1.0;
16/02/2025 16:58:23;118;0;154.96;-4;27.38;-5.66;198.1;19.30;76705;2838.541;-1801.791;1;158;210;212.9;21.9;22.1;13;13.1;28.4;-1.0;
16/02/2025 16:58:43;117;0;150.99;-4;27.91;-5.71;195.3;19.20;76684;2838.540;-1801.790;1;158;210;214.5;21.9;22.1;13;13.1;28.4;-1.0;
16/02/2025 16:59:03;117;0;147.56;-4;28.13;-5.71;192.2;19.20;76688;2838.538;-1801.789;1;158;210;212.9;21.3;21.2;38;37.9;28.4;-1.0;
16/02/2025 16:59:23;117;0;149.26;-4;30.61;7.78;189.0;19.10;76671;2838.537;-1801.788;1;158;210;214.5;21.3;21.2;38;38.4;28.4;-1.0;
16/02/2025 16:59:43;117;0;155.18;-4;30.79;7.86;185.7;19.10;76678;2838.535;-1801.787;1;158;210;216.1;21.3;21.4;38;38.4;28.4;-1.0;
16/02/2025 17:00:03;117;0;155.37;-4;30.97;7.81;182.5;19.00;76678;2838.533;-1801.786;1;158;210;214.5;21.3;21.4;38;38.4;28.4;-1.0;
16/02/2025 17:00:23;117;0;152.83;-4;31.08;7.81;179.3;19.00;76673;2838.531;-1801.786;1;158;210;214.5;21.3;21.4;38;38.4;28.4;-1.0;
16/02/2025 17:00:43;117;0;150.40;-4;31.03;7.81;176.3;18.90;76677;2838.530;-1801.785;1;158;210;212.9;21.3;21.2;38;38.4;28.4;-1.0;
16/02/2025 17:01:03;117;0;147.83;-4;31.08;7.86;173.2;18.90;76660;2838.529;-1801.784;1;158;210;214.5;21.3;21.2;38;38.4;28.4;-1.0;
16/02/2025 17:01:23;117;0;146.24;-4;31.32;7.77;170.1;18.90;76667;2838.527;-1801.783;1;158;210;212.9;21.3;21.2;38;38.4;28.4;-1.0;
16/02/2025 17:01:43;117;0;142.26;-4;31.63;7.92;167.1;18.80;76686;2838.526;-1801.782;1;158;210;212.9;21.3;21.2;42;42.4;28.4;-1.0;
16/02/2025 17:02:03;117;0;147.28;-4;31.73;10.19;163.9;18.80;76693;2838.525;-1801.781;1;158;210;214.5;21.3;21.4;38;37.9;28.4;-1.0;
16/02/2025 17:02:23;117;0;146.81;-4;31.18;7.23;160.8;18.80;76696;2838.523;-1801.779;1;158;210;214.5;21.3;21.2;38;37.5;28.4;-1.0;
16/02/2025 17:02:43;117;0;144.44;-4;31.66;7.38;157.7;18.80;76693;2838.522;-1801.778;1;158;210;214.5;21.3;21.2;40;40.6;28.4;-1.0;
16/02/2025 17:03:03;117;0;146.81;-4;31.37;9.22;154.5;18.70;76697;2838.520;-1801.777;1;158;210;214.5;21.3;21.4;38;37.5;28.4;-1.0;
16/02/2025 17:03:23;117;0;148.08;-4;30.84;7.21;151.6;18.70;76709;2838.519;-1801.776;1;158;210;214.5;21.3;21.2;38;37.5;28.4;-1.0;
16/02/2025 17:03:43;117;0;148.29;-4;30.42;7.09;148.8;18.70;76707;2838.518;-1801.775;1;158;210;212.9;21.3;21.2;38;37.5;28.4;-1.0;
16/02/2025 17:04:03;117;0;147.41;-4;30.55;7.26;146.0;18.70;76719;2838.517;-1801.775;1;158;210;212.9;21.3;21.2;38;37.5;28.4;-1.0;
16/02/2025 17:04:23;117;0;147.23;-4;30.94;7.23;143.4;18.70;76717;2838.516;-1801.774;1;159;210;214.5;21.3;21.2;38;37.5;28.4;-1.0;
16/02/2025 17:04:43;117;0;147.46;-4;31.11;7.16;140.5;18.60;76719;2838.514;-1801.773;1;159;210;214.5;21.3;21.2;38;37.5;28.4;-1.0;
16/02/2025 17:05:03;117;0;146.39;-4;30.55;7.13;137.9;18.60;76724;2838.513;-1801.772;1;159;210;214.5;21.3;21.2;38;37.5;28.4;-1.0;
16/02/2025 17:05:23;117;0;144.53;-4;30.46;7.15;135.3;18.60;76728;2838.512;-1801.771;1;159;210;214.5;21.3;21.2;40;40.6;28.4;-1.0;
16/02/2025 17:05:43;117;0;138.89;-4;30.92;9.18;132.9;18.60;76734;2838.511;-1801.770;1;159;210;212.9;21.3;21.4;46;46.0;28.4;-1.0;
16/02/2025 17:06:03;117;0;140.01;-4;31.71;12.35;130.3;18.60;76751;2838.511;-1801.769;1;159;210;214.5;21.3;21.2;46;46.5;28.4;-1.0;
16/02/2025 17:06:23;117;0;143.84;-4;31.27;12.27;127.6;18.60;76755;2838.509;-1801.768;1;159;210;214.5;21.3;21.2;41;41.1;28.4;-1.0;
16/02/2025 17:06:43;117;0;145.57;-4;31.00;9.03;125.0;18.60;76753;2838.508;-1801.767;1;159;210;214.5;21.3;21.2;39;38.8;28.4;-1.0;
16/02/2025 17:07:03;117;0;146.83;-4;31.05;7.58;122.3;18.60;76765;2838.507;-1801.767;1;159;210;212.9;21.3;21.2;39;37.9;28.4;-1.0;
16/02/2025 17:07:23;117;0;147.94;-4;31.22;7.66;119.7;18.60;76766;2838.506;-1801.766;1;159;210;212.9;21.3;21.2;39;37.9;28.4;-1.0;
16/02/2025 17:07:43;117;0;149.72;-4;31.19;7.55;117.0;18.60;76771;2838.505;-1801.765;1;159;210;212.9;21.3;21.2;39;37.9;28.4;-1.0;
16/02/2025 17:08:03;117;0;150.37;-4;31.24;7.63;114.2;18.60;76786;2838.504;-1801.764;1;159;210;212.9;21.3;21.2;39;37.9;28.4;-1.0;
16/02/2025 17:08:23;117;0;152.56;-4;31.35;7.89;111.4;18.60;76783;2838.502;-1801.764;1;159;210;214.5;21.3;21.2;39;37.9;28.4;-1.0;
16/02/2025 17:08:43;117;0;148.40;-4;30.70;7.60;108.8;18.60;76800;2838.501;-1801.763;1;159;210;214.5;21.3;21.2;39;37.9;28.4;-1.0;
16/02/2025 17:09:03;117;0;147.13;-4;30.73;7.48;106.4;18.60;76806;2838.500;-1801.762;1;159;210;214.5;21.3;21.2;39;37.9;28.4;-1.0;
16/02/2025 17:09:23;117;0;145.30;-4;29.69;7.71;104.0;18.60;76820;2838.500;-1801.762;1;159;210;214.5;21.3;21.2;39;37.9;28.4;-1.0;
16/02/2025 17:09:43;117;0;136.99;-4;30.92;7.39;101.7;18.60;76834;2838.499;-1801.761;1;159;210;214.5;21.3;21.2;48;47.8;28.4;-1.0;
16/02/2025 17:10:03;117;0;137.35;-4;31.36;13.35;99.3;18.60;76832;2838.498;-1801.760;1;159;210;214.5;21.3;21.4;48;48.3;28.4;-1.0;
16/02/2025 17:10:23;117;0;142.97;-4;31.33;13.33;96.9;18.60;76845;2838.497;-1801.759;1;159;210;216.1;21.3;21.2;41;40.6;28.4;-1.0;
16/02/2025 17:10:43;117;0;146.70;-4;30.62;8.61;94.4;18.60;76864;2838.496;-1801.758;1;159;210;212.9;21.3;21.2;39;38.8;28.4;-1.0;
16/02/2025 17:11:03;117;0;149.07;-4;30.49;7.49;92.1;18.60;76864;2838.495;-1801.757;1;159;210;214.5;21.3;21.2;39;38.4;28.4;-1.0;
16/02/2025 17:11:23;117;0;150.77;-4;29.91;7.65;89.8;18.60;76876;2838.494;-1801.757;1;159;210;214.5;21.3;21.2;39;38.4;28.4;-1.0;
16/02/2025 17:11:43;117;0;149.94;-4;29.76;7.51;87.5;18.60;76882;2838.493;-1801.756;1;159;210;216.1;21.3;21.4;39;38.4;28.4;-1.0;
16/02/2025 17:12:03;117;0;149.92;-4;31.01;7.71;85.3;18.60;76893;2838.493;-1801.756;1;159;210;214.5;21.3;21.2;39;38.4;28.4;-1.0;
16/02/2025 17:12:23;117;0;150.15;-4;30.98;7.74;83.0;18.70;76898;2838.492;-1801.755;1;159;210;214.5;21.3;21.2;39;38.4;28.4;-1.0;
16/02/2025 17:12:43;117;0;153.02;-4;30.00;7.65;80.5;18.70;76915;2838.491;-1801.755;1;159;210;214.5;21.3;21.2;39;38.4;28.4;-1.0;
16/02/2025 17:13:03;117;0;153.92;-4;30.22;7.70;78.1;18.70;76931;2838.489;-1801.754;1;159;210;214.5;21.3;21.2;39;38.4;28.4;-1.0;
16/02/2025 17:13:23;117;0;152.73;-4;31.06;7.68;75.7;18.70;76942;2838.488;-1801.754;1;159;210;214.5;21.3;21.2;39;38.4;28.4;-1.0;
16/02/2025 17:13:43;117;0;151.17;-4;30.75;7.75;73.1;18.70;76969;2838.487;-1801.753;1;159;210;214.5;21.3;21.2;39;38.4;28.4;-1.0;
16/02/2025 17:14:03;117;0;151.55;-4;30.47;7.70;70.6;18.70;76986;2838.486;-1801.753;1;159;210;212.9;21.3;21.2;39;38.4;28.4;-1.0;
16/02/2025 17:14:23;117;0;152.23;-4;30.60;7.70;68.0;18.80;76987;2838.485;-1801.752;1;159;210;216.1;21.3;21.2;39;38.4;28.4;-1.0;
16/02/2025 17:14:43;117;0;152.83;-4;30.87;7.67;65.7;18.80;77005;2838.484;-1801.752;1;159;210;212.9;21.3;21.2;39;38.4;28.4;-1.0;
16/02/2025 17:15:03;117;0;150.33;-4;30.59;7.74;63.2;18.80;77005;2838.483;-1801.751;1;159;210;214.5;21.3;21.2;39;38.4;28.4;-1.0;
16/02/2025 17:15:23;117;0;151.10;-4;29.80;7.65;60.7;18.80;77016;2838.482;-1801.750;1;159;210;214.5;21.3;21.2;39;38.4;28.3;-1.0;
16/02/2025 17:15:43;117;0;151.90;-4;30.01;7.68;58.2;18.90;77020;2838.481;-1801.750;1;159;210;216.1;21.3;21.2;39;38.4;28.4;-1.0;
16/02/2025 17:16:03;117;0;150.75;-4;30.06;7.76;55.7;18.90;77031;2838.480;-1801.749;1;159;210;214.5;21.3;21.2;39;38.4;28.4;-1.0;
16/02/2025 17:16:23;117;0;151.42;-4;30.68;7.75;53.2;18.90;77033;2838.478;-1801.749;1;159;210;214.5;21.3;21.2;39;38.4;28.4;-1.0;
16/02/2025 17:16:43;117;0;152.84;-4;30.25;7.66;50.6;18.90;77046;2838.477;-1801.748;1;159;210;214.5;21.3;21.4;39;38.4;28.4;-1.0;
16/02/2025 17:17:03;117;0;154.60;-4;30.30;7.68;48.2;19.00;77039;2838.476;-1801.747;1;159;210;216.1;21.3;21.4;39;38.4;28.4;-1.0;
16/02/2025 17:17:23;117;0;154.85;-4;30.39;7.78;45.7;19.00;77047;2838.475;-1801.747;1;159;210;214.5;21.3;21.2;39;38.4;28.4;-1.0;
16/02/2025 17:17:43;117;0;156.31;-4;29.60;7.64;43.2;19.00;77063;2838.474;-1801.747;1;159;210;214.5;21.3;21.2;39;38.4;28.4;-1.0;
16/02/2025 17:18:03;117;0;158.01;-4;30.52;7.62;40.8;19.00;77065;2838.473;-1801.746;1;159;210;214.5;21.3;21.2;39;38.4;28.4;-1.0;
16/02/2025 17:18:23;117;0;159.19;-4;30.31;7.60;38.3;19.00;77075;2838.471;-1801.746;1;159;210;214.5;21.3;21.2;37;36.6;28.4;-1.0;
16/02/2025 17:18:43;117;0;159.87;-4;30.01;6.67;35.8;19.10;77073;2838.470;-1801.746;1;159;210;214.5;21.3;21.2;37;36.6;28.4;-1.0;
16/02/2025 17:19:03;117;0;157.05;-4;30.25;6.39;33.2;19.10;77081;2838.469;-1801.745;1;159;210;216.1;21.3;21.4;37;36.6;28.4;-1.0;
16/02/2025 17:19:23;117;0;158.14;-4;28.89;6.76;30.6;19.10;77088;2838.467;-1801.745;1;159;210;214.5;21.0;21.1;37;36.6;28.4;-1.0;
16/02/2025 17:19:43;117;0;156.54;-4;30.75;6.37;28.3;19.10;77093;2838.466;-1801.745;1;159;210;214.5;21.0;20.9;37;36.6;28.4;-1.0;
16/02/2025 17:20:03;117;0;155.44;-4;33.39;6.58;25.7;19.20;77100;2838.465;-1801.744;1;159;210;214.5;22.0;22.2;37;36.1;28.4;-1.0;
16/02/2025 17:20:23;117;0;158.17;-4;28.89;6.65;22.9;19.20;77100;2838.464;-1801.744;1;159;210;214.5;21.7;21.6;37;36.1;28.4;-1.0;
16/02/2025 17:20:43;117;0;160.61;-4;28.95;6.91;20.4;19.20;77098;2838.462;-1801.743;1;159;210;214.5;21.4;21.4;37;36.6;28.4;-1.0;
16/02/2025 17:21:03;117;0;162.88;-4;29.16;6.59;18.0;19.20;77117;2838.461;-1801.743;1;159;210;216.1;21.4;21.2;37;36.6;28.4;-1.0;
16/02/2025 17:21:23;117;0;163.27;-4;31.52;6.63;15.3;19.20;77118;2838.460;-1801.743;1;159;210;214.5;21.4;21.2;35;34.7;28.4;-1.0;
16/02/2025 17:21:43;117;0;164.19;-4;29.89;5.88;12.5;19.30;77115;2838.458;-1801.743;1;159;210;216.1;21.4;21.2;35;35.2;28.4;-1.0;
16/02/2025 17:22:03;117;0;164.18;-4;30.60;5.54;9.8;19.30;77122;2838.457;-1801.743;1;159;210;214.5;21.4;21.2;35;35.2;28.4;-1.0;
16/02/2025 17:22:24;117;0;162.27;-4;29.08;5.96;7.1;19.30;77139;2838.455;-1801.743;1;159;210;214.5;21.4;21.2;35;35.2;28.4;-1.0;
16/02/2025 17:22:44;117;0;161.46;-4;27.78;6.36;4.5;19.40;77158;2838.454;-1801.742;1;159;210;214.5;20.7;20.8;35;35.2;28.4;-1.0;
16/02/2025 17:22:55;115;0;160.74;-4;30.76;5.47;3.1;19.40;77141;2838.453;-1801.742;1;159;500;224.2;100.0;64.2;0;-0.5;28.4;-1.0;
16/02/2025 17:23:05;115;0;141.83;-4;11.02;-13.72;2.0;19.40;77120;2838.452;-1801.741;1;159;500;340.3;100.0;100.0;0;-0.5;28.1;-1.0;
16/02/2025 17:23:15;115;0;146.98;-4;-64.54;-17.90;2.6;19.40;76839;2838.452;-1801.741;1;159;500;456.5;100.0;100.6;0;-0.5;28.2;-1.0;
16/02/2025 17:23:25;115;0;114.00;-4;-69.81;-2.73;2.5;19.40;76602;2838.452;-1801.742;1;159;500;506.5;100.0;100.7;0;-0.5;28.2;-1.0;
16/02/2025 17:23:35;115;0;97.51;-4;-45.75;-13.80;-0.8;19.40;76513;2838.453;-1801.740;1;159;500;506.5;100.0;100.7;0;-0.9;28.4;-1.0;
16/02/2025 17:23:55;119;0;50.33;-4;-55.42;-24.86;-0.4;19.50;76526;2838.453;-1801.740;1;159;500;508.1;100.0;100.7;0;-0.5;28.4;-1.0;
16/02/2025 17:24:05;119;0;13.03;-4;-54.89;-9.11;-0.5;19.50;76541;2838.399;-1801.699;0;159;500;508.1;100.0;100.7;0;-0.5;28.4;-1.0;
