Timestamp;NavState;SecurityLevel;Heading;Declination;Pitch;Roll;Depth;Temperature;Pa;Lat;Lon;DeadReckoning;DesiredH;BallastCmd;BallastPos;LinCmd;LinPos;AngCmd;AngPos;Voltage;Altitude;
19/02/2025 03:32:00;119;0;23.76;-4;-57.79;2.68;0.1;19.00;76099;2837.436;-1758.480;0;165;500;509.7;100.0;100.7;0;-0.5;27.8;-1.0;
19/02/2025 03:32:10;116;0;38.69;-4;-50.66;-10.02;0.1;19.00;76126;2837.437;-1758.479;0;165;500;508.1;100.0;100.7;0;-0.9;27.8;-1.0;
19/02/2025 03:32:43;116;0;62.10;-4;-55.00;-8.28;-0.1;19.00;76129;2837.439;-1758.481;0;165;500;508.1;100.0;100.7;0;-0.5;27.8;-1.0;
19/02/2025 03:33:08;116;0;77.53;-4;-44.12;-18.06;0.2;19.10;76129;2837.439;-1758.480;0;165;500;508.1;100.0;100.7;0;-0.5;27.8;-1.0;
19/02/2025 03:33:28;116;0;81.77;-4;-52.86;-13.85;0.1;19.10;76136;2837.440;-1758.481;0;165;500;509.7;100.0;100.7;0;-0.9;27.8;-1.0;
19/02/2025 03:33:41;116;0;84.99;-4;-60.49;-26.82;0.2;19.20;76139;2837.441;-1758.480;0;165;500;508.1;100.0;100.7;0;-0.5;27.8;-1.0;
19/02/2025 03:34:34;116;0;24.55;-4;-52.03;-18.15;0.1;19.30;76149;2837.442;-1758.479;0;165;500;508.1;100.0;100.7;0;-0.5;27.8;-1.0;
19/02/2025 03:35:36;116;0;61.35;-4;-52.73;-9.53;0.1;19.40;76168;2837.442;-1758.478;0;165;500;508.1;100.0;100.6;0;-0.5;27.8;-1.0;
19/02/2025 03:35:40;116;0;88.11;-4;-52.06;-14.70;0.0;19.40;76171;2837.443;-1758.479;0;165;500;509.7;100.0;100.6;0;-0.5;27.8;-1.0;
19/02/2025 03:35:50;116;0;89.17;-4;-52.03;-14.23;0.2;19.50;76177;2837.443;-1758.480;0;165;500;508.1;100.0;100.7;0;-0.5;27.8;-1.0;
19/02/2025 03:36:03;116;0;67.33;-4;-57.87;-15.27;0.1;19.50;76173;2837.443;-1758.479;0;165;500;509.7;100.0;100.7;0;-0.5;27.8;-1.0;
19/02/2025 03:36:23;110;0;62.35;-4;-56.16;-26.23;-0.1;19.60;76170;2837.443;-1758.479;0;165;-50;393.5;100.0;99.7;-9;-9.0;27.8;-1.0;
19/02/2025 03:36:33;110;0;54.67;-4;-58.39;-7.04;0.2;19.60;76533;2837.444;-1758.480;1;165;-50;240.3;100.0;99.7;-9;-9.0;27.7;-1.0;
19/02/2025 03:36:43;110;0;47.96;-4;-57.95;-9.27;0.6;19.60;76779;2837.445;-1758.480;1;165;-50;82.3;100.0;99.7;-9;-9.0;27.7;-1.0;
19/02/2025 03:36:53;110;0;37.85;-4;-69.71;-6.56;0.9;19.70;77122;2837.446;-1758.480;1;165;-50;-50.0;100.0;99.7;-9;-9.0;27.7;-1.0;
19/02/2025 03:37:03;110;0;9.29;-4;-63.28;-27.54;1.2;19.70;77382;2837.446;-1758.480;1;165;-50;-50.0;47.4;47.3;-9;-9.0;27.8;-1.0;
19/02/2025 03:37:23;100;0;27.14;-4;-31.98;-17.93;4.4;19.80;77349;2837.450;-1758.479;1;165;-50;-48.4;47.4;47.0;-9;-9.0;27.8;-1.0;
19/02/2025 03:37:43;100;0;40.60;-4;-30.51;-16.27;8.4;19.80;77361;2837.454;-1758.477;1;166;-50;-46.8;47.4;47.6;-70;-69.9;27.8;-1.0;
19/02/2025 03:38:03;100;0;50.42;-4;-30.54;-45.37;12.2;19.80;77367;2837.457;-1758.475;1;166;-50;-45.2;47.4;47.6;-70;-70.4;27.8;-1.0;
19/02/2025 03:38:23;100;0;55.97;-4;-29.10;-44.54;16.3;19.90;77376;2837.461;-1758.472;1;167;-50;-45.2;47.4;47.6;-70;-70.4;27.8;0.0;
19/02/2025 03:38:43;100;0;68.81;-4;-30.02;-45.13;20.2;19.90;77374;2837.463;-1758.469;1;167;-50;-45.2;47.4;47.6;-70;-70.4;27.8;0.0;
19/02/2025 03:39:03;100;0;78.73;-4;-29.33;-45.04;24.0;19.90;77379;2837.465;-1758.466;1;168;-50;-45.2;47.4;47.6;-70;-70.4;27.8;0.0;
19/02/2025 03:39:23;100;0;90.48;-4;-29.27;-45.02;27.8;20.00;77384;2837.467;-1758.462;1;168;-50;-45.2;47.4;47.6;-70;-70.4;27.8;0.0;
19/02/2025 03:39:43;100;0;100.95;-4;-29.13;-45.14;31.6;20.00;77388;2837.467;-1758.459;1;168;-50;-45.2;47.4;47.6;-63;-63.2;27.8;0.0;
19/02/2025 03:40:03;100;0;112.45;-4;-28.40;-41.26;35.4;20.00;77390;2837.467;-1758.456;1;169;-50;-45.2;47.9;48.2;-51;-50.5;27.8;0.0;
19/02/2025 03:40:23;100;0;122.55;-4;-29.29;-35.17;39.2;20.00;77396;2837.467;-1758.453;1;169;-50;-45.2;47.9;48.3;-39;-38.4;27.8;0.0;
19/02/2025 03:40:43;100;0;133.04;-4;-28.59;-29.12;43.1;20.00;77398;2837.466;-1758.451;1;169;-50;-45.2;48.3;48.3;-24;-23.9;27.8;0.0;
19/02/2025 03:41:03;100;0;139.58;-4;-28.91;-22.22;46.8;20.00;77393;2837.464;-1758.449;1;170;-50;-45.2;48.6;48.9;-14;-14.0;27.8;0.0;
19/02/2025 03:41:23;100;0;145.16;-4;-31.78;-17.92;50.8;20.00;77401;2837.463;-1758.447;1;170;-50;-45.2;48.6;49.0;-4;-4.1;27.8;0.0;
19/02/2025 03:41:43;100;0;151.21;-4;-31.21;-12.68;54.9;20.00;77390;2837.461;-1758.446;1;170;-50;-45.2;48.6;49.0;4;4.1;27.8;0.0;
19/02/2025 03:42:03;100;0;150.81;-4;-31.45;-9.15;59.2;20.00;77399;2837.459;-1758.444;1;170;-50;-45.2;48.6;49.0;4;4.5;27.8;0.0;
19/02/2025 03:42:23;100;0;155.03;-4;-30.69;-9.06;63.5;20.00;77393;2837.457;-1758.443;1;170;-50;-43.5;48.6;49.0;8;8.1;27.8;0.0;
19/02/2025 03:42:43;100;0;160.52;-4;-32.03;-6.96;67.8;20.00;77391;2837.455;-1758.442;1;170;-50;-45.2;48.0;47.9;11;11.3;27.8;0.0;
19/02/2025 03:43:03;100;0;162.87;-4;-30.61;-5.84;72.1;20.00;77396;2837.453;-1758.442;1;170;-50;-43.5;48.0;47.9;11;11.3;27.8;0.0;
19/02/2025 03:43:23;100;0;162.14;-4;-30.23;-5.73;76.4;20.00;77388;2837.451;-1758.441;1;170;-50;-45.2;48.0;47.9;11;11.3;27.8;0.0;
19/02/2025 03:43:44;100;0;161.34;-4;-30.15;-5.90;80.7;20.00;77388;2837.449;-1758.440;1;170;-50;-45.2;48.0;47.7;11;11.3;27.8;0.0;
19/02/2025 03:44:04;100;0;160.26;-4;-29.83;-5.71;84.9;20.00;77374;2837.446;-1758.439;1;170;-50;-43.5;48.0;47.9;11;11.3;27.8;0.0;
19/02/2025 03:44:24;100;0;162.23;-4;-31.06;-5.79;89.3;19.90;77373;2837.444;-1758.439;1;170;-50;-45.2;48.0;47.7;11;11.3;27.8;0.0;
19/02/2025 03:44:44;100;0;159.22;-4;-29.86;-5.70;93.7;19.90;77375;2837.442;-1758.438;1;170;-50;-45.2;48.0;47.7;11;11.3;27.8;0.0;
19/02/2025 03:45:04;100;0;155.27;-4;-29.69;-5.78;98.1;19.90;77360;2837.440;-1758.436;1;171;-50;-45.2;48.0;47.7;7;7.2;27.8;0.0;
19/02/2025 03:45:24;100;0;154.69;-4;-28.75;-8.10;102.2;19.90;77354;2837.438;-1758.435;1;171;-50;-46.8;48.4;48.5;7;6.8;27.8;0.0;
19/02/2025 03:45:44;100;0;154.19;-4;-30.98;-8.14;106.4;19.90;77347;2837.436;-1758.434;1;171;-50;-43.5;48.4;48.7;7;6.8;27.8;0.0;
19/02/2025 03:46:04;100;0;162.46;-4;-31.10;-8.15;110.8;19.90;77326;2837.433;-1758.433;1;171;-50;-45.2;48.4;48.7;12;12.2;27.8;0.0;
19/02/2025 03:46:24;100;0;161.99;-4;-30.57;-4.99;115.4;19.90;77316;2837.431;-1758.432;1;171;-50;-43.5;48.4;48.7;12;12.6;27.8;0.0;
19/02/2025 03:46:44;100;0;160.60;-4;-30.27;-5.18;119.7;19.90;77316;2837.429;-1758.432;1;171;-50;-45.2;48.4;48.7;12;12.6;27.8;0.0;
19/02/2025 03:47:04;100;0;162.52;-4;-31.12;-4.93;124.1;19.80;77301;2837.427;-1758.431;1;171;-50;-45.2;48.4;48.7;12;13.1;27.8;0.0;
19/02/2025 03:47:24;100;0;166.85;-4;-30.62;-5.20;128.3;19.80;77274;2837.424;-1758.430;1;171;-50;-43.5;48.4;48.7;12;13.1;27.8;0.0;
19/02/2025 03:47:44;100;0;166.57;-4;-30.70;-5.26;132.4;19.80;77255;2837.422;-1758.430;1;171;-50;-45.2;48.4;48.7;12;13.1;27.8;0.0;
19/02/2025 03:48:04;100;0;168.78;-4;-31.57;-5.23;136.6;19.80;77241;2837.420;-1758.430;1;171;-50;-45.2;48.4;48.7;12;12.6;27.8;0.0;
19/02/2025 03:48:24;100;0;163.65;-4;-29.89;-5.26;140.9;19.70;77219;2837.418;-1758.429;1;171;-50;-45.2;48.4;48.6;12;12.6;27.8;0.0;
19/02/2025 03:48:44;100;0;159.13;-4;-29.91;-4.84;144.7;19.70;77226;2837.416;-1758.428;1;171;-50;-45.2;48.4;48.7;12;12.6;27.8;0.0;
19/02/2025 03:49:04;100;0;154.54;-4;-30.22;-5.30;148.5;19.70;77210;2837.414;-1758.427;1;171;-50;-45.2;48.4;48.7;7;7.2;27.8;0.0;
19/02/2025 03:49:24;100;0;149.90;-4;-30.26;-8.13;152.2;19.70;77200;2837.413;-1758.426;1;171;-50;-43.5;48.4;48.7;1;0.9;27.8;0.0;
19/02/2025 03:49:44;100;0;149.98;-4;-29.96;-11.20;156.1;19.60;77188;2837.411;-1758.425;1;171;-50;-45.2;48.4;48.7;1;0.5;27.8;0.0;
19/02/2025 03:50:04;100;0;146.74;-4;-29.12;-11.33;159.8;19.60;77180;2837.410;-1758.423;1;172;-50;-45.2;48.4;48.7;-6;-5.9;27.8;0.0;
19/02/2025 03:50:24;100;0;153.80;-4;-29.08;-14.69;163.3;19.60;77156;2837.408;-1758.422;1;172;-50;-45.2;48.4;48.7;6;5.9;27.8;0.0;
19/02/2025 03:50:44;100;0;160.96;-4;-29.75;-8.59;166.9;19.50;77141;2837.406;-1758.422;1;172;-50;-45.2;48.4;48.7;11;10.8;27.8;0.0;
19/02/2025 03:51:04;100;0;166.99;-4;-29.72;-5.87;170.6;19.50;77139;2837.405;-1758.421;1;172;-50;-45.2;48.4;48.7;11;11.3;27.8;0.0;
19/02/2025 03:51:24;100;0;170.40;-4;-30.07;-5.82;174.1;19.50;77129;2837.403;-1758.421;1;172;-50;-45.2;48.4;48.7;11;11.3;27.8;0.0;
19/02/2025 03:51:44;100;0;170.90;-4;-30.54;-5.83;177.9;19.40;77115;2837.401;-1758.421;1;172;-50;-45.2;48.4;48.7;11;11.3;27.8;0.0;
19/02/2025 03:52:04;100;0;170.41;-4;-30.41;-5.71;181.6;19.40;77094;2837.399;-1758.421;1;172;-50;-45.2;48.4;48.7;11;11.3;27.8;0.0;
19/02/2025 03:52:24;100;0;165.12;-4;-30.06;-5.78;185.4;19.40;77084;2837.397;-1758.421;1;172;-50;-43.5;48.4;48.7;11;11.3;27.8;0.0;
19/02/2025 03:52:44;100;0;158.62;-4;-29.97;-5.99;189.0;19.30;77086;2837.395;-1758.420;1;172;-50;-45.2;48.4;48.7;11;11.3;27.8;0.0;
19/02/2025 03:53:04;100;0;152.53;-4;-29.99;-5.78;192.5;19.30;77065;2837.394;-1758.419;1;172;-50;-43.5;48.4;48.7;5;5.0;27.8;0.0;
19/02/2025 03:53:24;100;0;148.64;-4;-30.03;-9.28;196.0;19.20;77050;2837.393;-1758.418;1;172;-50;-45.2;48.4;48.7;-1;-1.4;27.8;0.0;
19/02/2025 03:53:40;118;0;149.67;-4;-29.47;-12.29;198.9;19.20;77046;2837.391;-1758.417;1;172;150;-40.3;22.1;22.1;9;9.5;27.8;0.0;
19/02/2025 03:53:50;118;0;135.13;-4;-17.21;-7.63;200.2;19.20;77015;2837.391;-1758.415;1;172;150;90.3;22.1;21.8;9;9.5;27.4;-1.0;
19/02/2025 03:54:00;118;0;130.53;-4;9.77;-7.23;200.6;19.20;76735;2837.391;-1758.415;1;172;150;153.2;22.1;21.5;9;9.5;27.3;-1.0;
19/02/2025 03:54:10;118;0;155.72;-4;23.39;-7.81;199.9;19.20;76624;2837.391;-1758.415;1;172;150;153.2;22.1;21.1;9;9.5;27.8;-1.0;
19/02/2025 03:54:30;117;0;148.48;-4;30.39;-7.71;197.6;19.10;76622;2837.390;-1758.415;1;172;150;154.8;22.1;20.8;9;9.5;27.8;-1.0;
19/02/2025 03:54:50;117;0;147.36;-4;30.49;-7.83;195.2;19.10;76610;2837.390;-1758.414;1;173;150;153.2;22.1;22.2;40;40.2;27.8;-1.0;
19/02/2025 03:55:10;117;0;151.29;-4;31.78;9.10;193.0;19.10;76617;2837.390;-1758.413;1;173;150;153.2;22.1;22.4;34;33.8;27.8;-1.0;
19/02/2025 03:55:30;117;0;155.54;-4;30.64;5.16;190.8;19.00;76609;2837.389;-1758.413;1;173;150;154.8;22.1;22.2;31;30.7;27.8;-1.0;
19/02/2025 03:55:50;117;0;157.93;-4;30.88;3.49;188.6;19.00;76608;2837.389;-1758.413;1;173;150;156.5;22.1;22.2;31;30.7;27.8;-1.0;
19/02/2025 03:56:10;117;0;160.88;-4;30.52;3.50;186.4;18.90;76607;2837.389;-1758.413;1;173;150;154.8;22.1;22.2;31;30.7;27.8;-1.0;
19/02/2025 03:56:30;117;0;161.89;-4;30.69;3.53;184.1;18.90;76613;2837.388;-1758.413;1;173;150;154.8;22.1;22.2;31;30.7;27.8;-1.0;
19/02/2025 03:56:50;117;0;164.29;-4;30.00;3.39;181.9;18.90;76613;2837.387;-1758.413;1;173;150;154.8;22.1;22.4;31;30.7;27.8;-1.0;
19/02/2025 03:57:10;117;0;164.47;-4;30.41;3.47;179.6;18.80;76609;2837.387;-1758.413;1;173;150;154.8;22.1;22.4;31;30.7;27.8;-1.0;
19/02/2025 03:57:30;117;0;165.02;-4;30.19;3.42;177.5;18.80;76607;2837.386;-1758.413;1;173;150;154.8;22.1;22.4;31;30.7;27.8;-1.0;
19/02/2025 03:57:50;117;0;163.87;-4;30.03;3.55;175.3;18.80;76602;2837.386;-1758.413;1;173;150;154.8;22.1;22.2;31;30.2;27.8;-1.0;
19/02/2025 03:58:10;117;0;163.78;-4;30.28;3.51;173.3;18.80;76613;2837.385;-1758.413;1;173;150;156.5;22.1;22.4;31;30.7;27.8;-1.0;
19/02/2025 03:58:30;117;0;163.13;-4;30.38;3.47;171.3;18.70;76603;2837.385;-1758.413;1;173;150;154.8;22.1;22.2;31;30.7;27.8;-1.0;
19/02/2025 03:58:50;117;0;160.57;-4;30.67;3.50;169.2;18.70;76610;2837.385;-1758.412;1;173;150;153.2;22.1;22.4;31;30.7;27.8;-1.0;
19/02/2025 03:59:10;117;0;155.76;-4;30.50;3.57;167.1;18.70;76605;2837.384;-1758.412;1;173;150;154.8;22.1;22.4;31;30.7;27.8;-1.0;
19/02/2025 03:59:30;117;0;151.38;-4;30.33;3.54;165.0;18.70;76612;2837.384;-1758.412;1;173;150;154.8;22.1;22.4;35;35.2;27.8;-1.0;
19/02/2025 03:59:50;117;0;144.94;-4;30.43;6.53;162.8;18.60;76605;2837.384;-1758.411;1;173;150;156.5;22.1;22.2;44;44.7;27.8;-1.0;
19/02/2025 04:00:10;117;0;140.80;-4;31.58;11.47;160.8;18.60;76609;2837.384;-1758.410;1;173;150;154.8;22.1;22.2;47;46.9;27.8;-1.0;
19/02/2025 04:00:30;117;0;137.70;-4;31.82;12.74;158.6;18.60;76605;2837.384;-1758.410;1;173;150;154.8;22.1;22.4;54;54.2;27.8;-1.0;
19/02/2025 04:00:50;117;0;134.81;-4;32.95;16.69;156.4;18.60;76605;2837.384;-1758.409;1;173;150;154.8;23.0;23.1;58;58.2;27.8;-1.0;
19/02/2025 04:01:10;117;0;135.02;-4;31.82;19.03;154.1;18.50;76609;2837.384;-1758.408;1;173;150;154.8;23.0;23.1;61;60.9;27.8;-1.0;
19/02/2025 04:01:30;117;0;134.81;-4;31.59;20.58;151.7;18.50;76616;2837.384;-1758.407;1;174;150;154.8;23.0;23.1;61;60.9;27.8;-1.0;
19/02/2025 04:01:50;117;0;141.01;-4;31.62;20.64;149.4;18.50;76621;2837.384;-1758.406;1;174;150;151.6;23.0;23.1;51;50.5;27.8;-1.0;
19/02/2025 04:02:10;117;0;144.87;-4;30.08;14.14;147.1;18.50;76631;2837.383;-1758.405;1;174;150;154.8;23.0;23.1;44;44.2;27.8;-1.0;
19/02/2025 04:02:30;117;0;146.65;-4;29.40;10.48;145.0;18.50;76627;2837.383;-1758.405;1;174;150;154.8;23.0;23.1;41;41.1;27.8;-1.0;
19/02/2025 04:02:50;117;0;148.59;-4;29.47;8.91;143.2;18.50;76632;2837.383;-1758.404;1;174;170;174.2;23.0;23.1;37;36.6;27.8;-1.0;
19/02/2025 04:03:10;117;0;150.53;-4;28.34;6.62;141.2;18.50;76591;2837.383;-1758.404;1;174;190;193.5;22.5;22.4;37;36.6;27.8;-1.0;
19/02/2025 04:03:30;117;0;152.11;-4;29.27;6.65;139.1;18.50;76554;2837.382;-1758.403;1;174;190;195.2;22.5;22.2;34;33.8;27.8;-1.0;
19/02/2025 04:03:50;117;0;153.21;-4;29.70;5.07;136.7;18.50;76552;2837.382;-1758.403;1;174;190;195.2;22.5;22.1;34;33.4;27.8;-1.0;
19/02/2025 04:04:10;117;0;154.22;-4;29.29;4.97;134.3;18.50;76569;2837.381;-1758.402;1;174;190;195.2;22.5;22.2;34;33.4;27.8;-1.0;
19/02/2025 04:04:30;117;0;155.01;-4;29.23;4.91;131.8;18.40;76559;2837.380;-1758.402;1;174;190;193.5;22.5;22.2;34;33.4;27.8;-1.0;
19/02/2025 04:04:50;117;0;156.22;-4;29.19;5.07;129.4;18.40;76555;2837.379;-1758.401;1;174;190;195.2;22.5;22.2;34;33.4;27.8;-1.0;
19/02/2025 04:05:10;117;0;156.88;-4;28.68;5.02;127.0;18.40;76567;2837.379;-1758.401;1;174;190;191.9;22.1;22.1;32;32.0;27.8;-1.0;
19/02/2025 04:05:30;117;0;155.57;-4;28.94;4.10;124.7;18.40;76562;2837.378;-1758.401;1;174;190;195.2;21.8;21.8;32;31.6;27.8;-1.0;
19/02/2025 04:05:50;117;0;153.74;-4;29.72;4.22;122.5;18.40;76581;2837.378;-1758.400;1;175;190;193.5;21.8;21.6;34;33.8;27.8;-1.0;
19/02/2025 04:06:10;117;0;155.08;-4;30.16;5.53;120.1;18.40;76584;2837.377;-1758.400;1;175;190;195.2;21.8;21.6;34;34.3;27.8;-1.0;
19/02/2025 04:06:30;117;0;147.19;-4;30.15;5.69;117.8;18.40;76590;2837.377;-1758.399;1;175;190;193.5;21.8;21.6;42;42.4;27.8;-1.0;
19/02/2025 04:06:50;117;0;149.14;-4;30.05;9.97;115.5;18.40;76611;2837.376;-1758.398;1;175;190;193.5;21.8;21.5;39;38.8;27.8;-1.0;
19/02/2025 04:07:10;117;0;150.46;-4;29.93;7.44;113.4;18.40;76613;2837.376;-1758.398;1;175;190;195.2;21.8;21.5;37;36.6;27.8;-1.0;
19/02/2025 04:07:30;117;0;149.89;-4;31.30;6.59;111.2;18.40;76629;2837.376;-1758.397;1;175;190;195.2;21.8;21.6;37;36.6;27.8;-1.0;
19/02/2025 04:07:50;117;0;147.95;-4;29.98;6.88;108.9;18.40;76632;2837.375;-1758.397;1;175;190;193.5;21.8;21.6;41;41.5;27.8;-1.0;
19/02/2025 04:08:10;117;0;149.73;-4;30.71;9.47;106.6;18.40;76646;2837.375;-1758.396;1;175;190;195.2;21.8;21.6;39;38.8;27.8;-1.0;
19/02/2025 04:08:30;117;0;150.83;-4;30.38;7.52;104.4;18.50;76651;2837.375;-1758.396;1;175;190;191.9;21.8;21.6;36;34.7;27.8;-1.0;
19/02/2025 04:08:50;117;0;151.44;-4;29.98;6.09;102.3;18.40;76663;2837.374;-1758.395;1;175;190;193.5;21.8;21.5;36;35.2;27.8;-1.0;
19/02/2025 04:09:10;117;0;150.36;-4;30.66;6.16;100.4;18.50;76667;2837.374;-1758.395;1;175;210;214.5;21.8;21.6;36;35.2;27.8;-1.0;
19/02/2025 04:09:30;117;0;149.57;-4;29.73;6.11;98.2;18.50;76644;2837.374;-1758.394;1;175;210;214.5;21.8;21.5;38;38.4;27.8;-1.0;
19/02/2025 04:09:50;117;0;149.00;-4;29.44;8.01;95.9;18.50;76649;2837.373;-1758.394;1;176;210;214.5;21.8;21.5;41;41.1;27.8;-1.0;
19/02/2025 04:10:10;117;0;150.17;-4;30.30;9.58;93.6;18.50;76657;2837.373;-1758.393;1;176;210;214.5;21.8;21.6;38;37.5;27.8;-1.0;
19/02/2025 04:10:30;117;0;149.99;-4;29.63;7.01;91.3;18.50;76668;2837.373;-1758.393;1;176;210;214.5;21.8;21.5;38;37.0;27.8;-1.0;
19/02/2025 04:10:50;117;0;148.70;-4;30.25;7.11;88.9;18.50;76678;2837.372;-1758.392;1;176;210;214.5;21.8;21.6;42;42.0;27.8;-1.0;
19/02/2025 04:11:10;117;0;148.61;-4;30.49;10.02;86.4;18.50;76689;2837.371;-1758.391;1;176;210;212.9;21.8;21.6;42;42.4;27.8;-1.0;
19/02/2025 04:11:30;117;0;148.74;-4;30.01;9.92;84.1;18.50;76691;2837.371;-1758.391;1;176;210;214.5;21.8;21.6;42;42.4;27.8;-1.0;
19/02/2025 04:11:50;117;0;151.56;-4;29.96;9.95;81.8;18.60;76696;2837.371;-1758.390;1;176;210;214.5;21.8;21.5;37;37.0;27.8;-1.0;
19/02/2025 04:12:10;117;0;154.65;-4;29.75;6.78;79.4;18.60;76707;2837.370;-1758.390;1;176;210;214.5;21.8;21.6;35;34.7;27.8;-1.0;
19/02/2025 04:12:30;117;0;155.58;-4;29.18;6.09;77.2;18.60;76709;2837.369;-1758.389;1;176;210;214.5;21.8;21.6;33;32.9;27.8;-1.0;
19/02/2025 04:12:50;117;0;153.62;-4;29.61;4.61;75.0;18.60;76726;2837.369;-1758.389;1;176;210;214.5;21.8;21.5;35;35.2;27.8;-1.0;
19/02/2025 04:13:10;117;0;154.96;-4;29.58;6.34;72.8;18.60;76739;2837.369;-1758.388;1;176;210;214.5;21.8;21.5;35;35.6;27.8;-1.0;
19/02/2025 04:13:30;117;0;153.49;-4;29.73;6.33;70.5;18.70;76755;2837.368;-1758.388;1;176;210;214.5;21.8;21.6;35;35.6;27.8;-1.0;
19/02/2025 04:13:50;117;0;151.34;-4;29.62;6.47;68.3;18.70;76755;2837.368;-1758.387;1;176;210;214.5;21.8;21.6;37;37.5;27.8;-1.0;
19/02/2025 04:14:10;117;0;150.64;-4;29.50;7.38;66.0;18.70;76769;2837.367;-1758.387;1;177;210;214.5;21.8;21.5;40;40.2;27.8;-1.0;
19/02/2025 04:14:30;117;0;145.62;-4;29.89;8.98;63.6;18.70;76771;2837.367;-1758.386;1;177;210;214.5;21.8;21.6;47;46.9;27.8;-1.0;
19/02/2025 04:14:50;117;0;149.46;-4;30.15;12.86;61.2;18.70;76775;2837.366;-1758.385;1;177;210;214.5;21.8;21.6;41;41.1;27.8;-1.0;
19/02/2025 04:15:10;117;0;150.81;-4;29.39;8.87;58.9;18.80;76786;2837.366;-1758.385;1;177;210;214.5;21.8;21.5;41;40.6;27.8;-1.0;
19/02/2025 04:15:30;117;0;151.55;-4;30.04;8.97;56.5;18.80;76790;2837.365;-1758.384;1;177;210;214.5;21.8;21.6;39;38.8;27.8;-1.0;
19/02/2025 04:15:50;117;0;151.90;-4;29.81;7.40;54.4;18.80;76810;2837.365;-1758.384;1;177;210;212.9;21.8;21.6;37;34.7;27.8;-1.0;
19/02/2025 04:16:10;117;0;151.97;-4;29.51;6.62;52.1;18.80;76810;2837.364;-1758.383;1;177;210;214.5;21.8;21.5;37;36.1;27.8;-1.0;
19/02/2025 04:16:30;117;0;149.89;-4;30.53;6.63;49.8;18.80;76812;2837.364;-1758.383;1;177;210;214.5;21.8;21.5;40;40.2;27.8;-1.0;
19/02/2025 04:16:50;117;0;148.42;-4;30.22;8.93;47.2;18.90;76845;2837.363;-1758.382;1;177;210;214.5;21.8;21.6;45;45.1;27.8;-1.0;
19/02/2025 04:17:10;117;0;149.53;-4;29.73;11.91;44.6;18.90;76836;2837.363;-1758.381;1;178;210;214.5;21.8;21.6;43;42.9;27.8;-1.0;
19/02/2025 04:17:30;117;0;151.70;-4;30.29;9.66;42.3;18.90;76836;2837.362;-1758.381;1;178;210;214.5;21.8;21.5;39;38.8;27.8;-1.0;
19/02/2025 04:17:51;117;0;153.01;-4;30.38;7.39;39.9;18.90;76848;2837.362;-1758.380;1;178;210;212.9;21.8;21.6;37;36.1;27.8;-1.0;
19/02/2025 04:18:11;117;0;150.86;-4;29.51;6.55;37.4;19.00;76847;2837.361;-1758.380;1;178;210;214.5;21.8;21.5;41;41.5;27.8;-1.0;
19/02/2025 04:18:31;117;0;153.47;-4;29.25;9.70;34.9;19.00;76855;2837.360;-1758.379;1;178;210;214.5;21.8;21.5;38;37.5;27.8;-1.0;
19/02/2025 04:18:51;117;0;152.83;-4;30.25;7.29;32.4;19.00;76851;2837.360;-1758.378;1;178;210;214.5;21.8;21.5;38;37.0;27.8;-1.0;
19/02/2025 04:19:11;117;0;151.77;-4;29.50;7.28;29.7;19.00;76861;2837.359;-1758.378;1;178;210;216.1;21.8;21.6;41;41.1;27.8;-1.0;
19/02/2025 04:19:31;117;0;152.13;-4;30.97;9.60;27.1;19.00;76857;2837.358;-1758.377;1;178;210;212.9;21.8;21.6;41;41.5;27.8;-1.0;
19/02/2025 04:19:51;117;0;153.81;-4;27.75;9.56;24.7;19.00;76862;2837.357;-1758.377;1;178;210;214.5;21.1;21.1;39;38.8;27.8;-1.0;
19/02/2025 04:20:11;117;0;153.22;-4;31.47;7.60;22.5;19.10;76869;2837.357;-1758.376;1;178;210;214.5;21.1;20.9;36;33.8;27.8;-1.0;
19/02/2025 04:20:31;117;0;154.13;-4;28.94;6.33;20.2;19.10;76874;2837.357;-1758.376;1;178;210;214.5;20.8;20.8;36;36.6;27.8;-1.0;
19/02/2025 04:20:51;117;0;153.91;-4;30.04;7.25;17.9;19.10;76870;2837.356;-1758.375;1;179;210;212.9;20.8;20.5;38;38.4;27.8;-1.0;
19/02/2025 04:21:11;117;0;154.60;-4;33.46;8.21;14.9;19.10;76886;2837.355;-1758.375;1;179;210;214.5;21.8;21.8;38;38.8;27.8;-1.0;
19/02/2025 04:21:31;117;0;154.32;-4;27.84;7.56;12.1;19.10;76874;2837.354;-1758.374;1;179;210;214.5;21.2;21.2;41;41.5;27.8;-1.0;
19/02/2025 04:21:51;117;0;155.98;-4;32.66;9.77;9.3;19.20;76878;2837.353;-1758.373;1;179;210;214.5;22.0;21.9;37;36.6;27.8;-1.0;
19/02/2025 04:22:11;117;0;155.23;-4;30.08;7.48;6.2;19.20;76880;2837.352;-1758.373;1;179;210;214.5;22.0;22.2;40;40.6;27.8;-1.0;
19/02/2025 04:22:31;117;0;157.49;-4;25.38;8.84;3.7;19.20;76884;2837.351;-1758.372;1;179;210;214.5;20.6;20.6;37;36.6;27.8;-1.0;
19/02/2025 04:22:36;115;0;156.28;-4;29.99;6.69;3.1;19.20;76884;2837.351;-1758.372;1;179;500;219.4;100.0;61.1;0;-0.5;27.8;-1.0;
19/02/2025 04:22:46;115;0;137.04;-4;11.31;-12.15;2.1;19.20;76870;2837.350;-1758.371;1;179;500;337.1;100.0;100.0;0;-0.5;27.6;-1.0;
19/02/2025 04:22:56;115;0;141.32;-4;-64.84;-9.03;2.7;19.30;76614;2837.351;-1758.371;1;179;500;453.2;100.0;100.6;0;-0.5;27.6;-1.0;
19/02/2025 04:23:06;115;0;160.79;-4;-71.20;-5.92;2.4;19.20;76328;2837.351;-1758.371;1;179;500;508.1;100.0;100.6;0;-0.5;27.6;-1.0;
19/02/2025 04:23:16;115;0;216.23;-4;-34.16;-2.69;-0.2;19.30;76237;2837.350;-1758.373;1;179;500;508.1;100.0;100.9;0;-0.5;27.8;-1.0;
19/02/2025 04:23:36;119;0;259.05;-4;-64.49;-10.31;0.1;19.30;76247;2837.350;-1758.373;1;179;500;509.7;100.0;100.7;0;-0.5;27.8;-1.0;
19/02/2025 04:23:46;119;0;304.18;-4;-53.78;-22.04;0.1;19.30;76251;2837.321;-1758.408;0;179;500;509.7;100.0;100.7;0;-0.5;27.8;-1.0;
