Timestamp;NavState;SecurityLevel;Heading;Declination;Pitch;Roll;Depth;Temperature;Pa;Lat;Lon;DeadReckoning;DesiredH;BallastCmd;BallastPos;LinCmd;LinPos;AngCmd;AngPos;Voltage;Altitude;
16/02/2025 13:10:03;119;0;358.93;-4;-55.00;-11.98;-0.2;19.80;76481;2838.786;-1801.683;0;166;500;509.7;100.0;100.9;0;-0.5;28.4;-1.0;
16/02/2025 13:10:13;116;0;318.77;-4;-49.86;-9.74;-0.1;19.80;76479;2838.790;-1801.684;0;166;500;506.5;100.0;100.9;0;-0.5;28.4;-1.0;
16/02/2025 13:10:39;116;0;296.96;-4;-48.88;-4.24;-0.1;19.80;76486;2838.792;-1801.684;0;166;500;509.7;100.0;100.9;0;-0.5;28.4;-1.0;
16/02/2025 13:10:54;116;0;311.56;-4;-53.60;-0.01;0.0;19.90;76490;2838.793;-1801.684;0;166;500;509.7;100.0;100.9;0;-0.5;28.4;-1.0;
16/02/2025 13:11:15;116;0;304.75;-4;-53.90;-11.91;0.0;19.90;76500;2838.796;-1801.685;0;166;500;509.7;100.0;100.9;0;-0.5;28.4;-1.0;
16/02/2025 13:11:35;116;0;307.91;-4;-57.69;-16.99;-0.0;19.90;76508;2838.799;-1801.684;0;166;500;508.1;100.0;100.9;0;-0.5;28.4;-1.0;
16/02/2025 13:12:37;116;0;304.58;-4;-56.44;-4.79;-0.1;20.00;76522;2838.810;-1801.683;0;166;500;509.7;100.0;100.9;0;-0.5;28.4;-1.0;
16/02/2025 13:12:58;116;0;290.07;-4;-67.23;-1.14;-0.1;20.10;76539;2838.813;-1801.683;0;167;500;508.1;100.0;100.9;0;-0.9;28.4;-1.0;
16/02/2025 13:14:00;116;0;295.87;-4;-53.43;-12.35;0.2;20.30;76539;2838.822;-1801.682;0;167;500;509.7;100.0;100.9;0;-0.5;28.4;-1.0;
16/02/2025 13:14:44;116;0;297.51;-4;-47.79;-17.72;-0.2;20.40;76556;2838.827;-1801.680;0;167;500;509.7;100.0;100.9;0;-0.5;28.4;-1.0;
16/02/2025 13:15:04;116;0;279.52;-4;-56.28;-17.52;-0.2;20.50;76554;2838.834;-1801.680;0;167;500;509.7;100.0;100.9;0;-0.5;28.4;-1.0;
16/02/2025 13:15:29;116;0;270.60;-4;-55.11;-11.18;0.0;20.60;76573;2838.835;-1801.680;0;167;500;509.7;100.0;100.9;0;-0.5;28.4;-1.0;
16/02/2025 13:15:47;116;0;293.24;-4;-47.49;-15.38;0.1;20.60;76558;2838.837;-1801.679;0;167;500;509.7;100.0;100.9;0;-0.5;28.4;-1.0;
16/02/2025 13:15:58;116;0;294.03;-4;-51.22;-9.07;0.0;20.60;76568;2838.839;-1801.679;0;167;500;509.7;100.0;100.9;0;-0.5;28.4;-1.0;
16/02/2025 13:16:18;110;0;297.97;-4;-56.38;-17.34;-0.1;20.70;76579;2838.839;-1801.679;0;167;-50;395.2;100.0;99.7;-13;-13.5;28.4;-1.0;
16/02/2025 13:16:28;110;0;286.66;-4;-48.74;-13.94;0.3;20.70;76939;2838.840;-1801.680;1;167;-50;240.3;100.0;99.9;-13;-14.0;28.4;-1.0;
16/02/2025 13:16:38;110;0;294.94;-4;-60.99;-25.68;0.5;20.70;77179;2838.841;-1801.680;1;167;-50;80.6;100.0;99.9;-13;-13.5;28.4;-1.0;
16/02/2025 13:16:48;110;0;304.70;-4;-57.91;-5.89;0.8;20.70;77516;2838.843;-1801.681;1;167;-50;-50.0;100.0;99.9;-13;-14.0;28.4;-1.0;
16/02/2025 13:16:58;110;0;315.21;-4;-64.35;-36.12;1.1;20.80;77777;2838.845;-1801.682;1;167;-50;-50.0;48.4;48.3;-13;-13.5;28.4;-1.0;
16/02/2025 13:17:18;100;0;320.65;-4;-34.78;-19.72;4.4;20.80;77747;2838.850;-1801.685;1;167;-50;-46.8;48.4;48.0;-13;-14.0;28.4;-1.0;
16/02/2025 13:17:38;100;0;331.37;-4;-29.10;-18.49;8.1;20.80;77743;2838.856;-1801.688;1;167;-50;-45.2;48.4;48.0;70;69.9;28.4;-1.0;
16/02/2025 13:17:58;100;0;327.34;-4;-33.25;22.86;11.8;20.90;77745;2838.862;-1801.692;1;167;-50;-45.2;47.5;47.3;70;70.4;28.4;-1.0;
16/02/2025 13:18:18;100;0;312.58;-4;-35.16;23.33;16.0;20.80;77742;2838.867;-1801.695;1;167;-50;-45.2;45.9;45.8;70;70.4;28.4;0.0;
16/02/2025 13:18:38;100;0;301.99;-4;-31.37;23.72;20.0;20.80;77754;2838.872;-1801.700;1;167;-50;-45.2;45.9;45.7;70;70.4;28.4;0.0;
16/02/2025 13:18:58;100;0;289.41;-4;-30.98;23.60;23.9;20.80;77746;2838.876;-1801.705;1;166;-50;-45.2;45.9;45.7;70;70.4;28.4;0.0;
16/02/2025 13:19:18;100;0;279.31;-4;-29.90;23.29;27.7;20.80;77754;2838.880;-1801.710;1;166;-50;-45.2;45.9;45.7;70;70.4;28.4;0.0;
16/02/2025 13:19:38;100;0;264.82;-4;-30.52;23.15;31.5;20.80;77754;2838.883;-1801.715;1;166;-50;-45.2;45.9;45.7;70;70.4;28.4;0.0;
16/02/2025 13:19:58;100;0;254.22;-4;-29.85;23.40;35.2;20.80;77749;2838.885;-1801.720;1;166;-50;-45.2;45.9;45.7;70;70.4;28.4;0.0;
16/02/2025 13:20:18;100;0;244.14;-4;-29.89;23.73;38.9;20.80;77749;2838.886;-1801.725;1;166;-50;-45.2;45.9;45.7;70;70.4;28.4;0.0;
16/02/2025 13:20:38;100;0;235.61;-4;-30.10;23.45;42.6;20.80;77747;2838.888;-1801.729;1;166;-50;-45.2;45.9;45.7;70;69.9;28.4;0.0;
16/02/2025 13:20:58;100;0;225.75;-4;-29.93;23.40;46.3;20.80;77752;2838.888;-1801.733;1;166;-50;-43.5;45.9;45.7;70;70.4;28.4;0.0;
16/02/2025 13:21:18;100;0;216.71;-4;-30.74;23.59;50.1;20.80;77741;2838.889;-1801.737;1;165;-50;-45.2;45.9;45.7;70;70.4;28.4;0.0;
16/02/2025 13:21:38;100;0;203.74;-4;-30.25;23.43;54.0;20.80;77741;2838.889;-1801.740;1;165;-50;-45.2;45.9;45.7;64;64.1;28.4;0.0;
16/02/2025 13:21:58;100;0;191.50;-4;-28.90;19.76;57.8;20.80;77733;2838.889;-1801.742;1;165;-50;-45.2;46.3;46.5;48;47.8;28.4;0.0;
16/02/2025 13:22:18;100;0;183.69;-4;-29.60;11.92;61.5;20.80;77738;2838.888;-1801.744;1;165;-50;-45.2;46.3;46.5;35;34.7;28.4;0.0;
16/02/2025 13:22:38;100;0;178.83;-4;-28.89;5.33;65.3;20.80;77736;2838.888;-1801.745;1;165;-50;-46.8;46.6;46.5;27;27.1;28.4;0.0;
16/02/2025 13:22:58;100;0;173.14;-4;-28.18;1.70;69.0;20.80;77726;2838.888;-1801.746;1;165;-50;-45.2;47.1;47.4;18;18.1;28.4;0.0;
16/02/2025 13:23:18;100;0;171.08;-4;-28.73;-3.12;72.8;20.80;77728;2838.887;-1801.746;1;165;-50;-45.2;47.5;47.9;15;14.9;28.4;0.0;
16/02/2025 13:23:38;100;0;168.58;-4;-29.30;-4.57;76.6;20.80;77726;2838.887;-1801.747;1;165;-50;-45.2;47.5;47.9;13;13.1;28.4;0.0;
16/02/2025 13:23:58;100;0;168.13;-4;-30.58;-5.43;80.5;20.80;77723;2838.887;-1801.748;1;165;-50;-45.2;47.5;47.9;13;12.6;28.4;0.0;
16/02/2025 13:24:18;100;0;164.57;-4;-29.55;-5.41;84.3;20.80;77726;2838.887;-1801.748;1;165;-50;-45.2;47.5;47.9;11;10.8;28.4;0.0;
16/02/2025 13:24:38;100;0;165.07;-4;-28.86;-6.57;88.2;20.80;77724;2838.886;-1801.748;1;165;-50;-45.2;47.9;47.9;11;10.4;28.4;0.0;
16/02/2025 13:24:58;100;0;164.41;-4;-29.32;-6.49;92.0;20.70;77710;2838.886;-1801.749;1;165;-50;-43.5;47.9;47.7;11;10.4;28.4;0.0;
16/02/2025 13:25:18;100;0;160.61;-4;-29.51;-6.57;95.7;20.80;77712;2838.886;-1801.749;1;165;-50;-43.5;47.9;47.7;11;10.4;28.4;0.0;
16/02/2025 13:25:38;100;0;161.20;-4;-29.04;-6.57;99.5;20.70;77707;2838.886;-1801.749;1;165;-50;-45.2;47.9;47.9;11;10.4;28.4;0.0;
16/02/2025 13:25:58;100;0;164.63;-4;-28.70;-6.58;103.2;20.70;77699;2838.886;-1801.749;1;165;-50;-45.2;48.2;48.5;11;10.4;28.4;0.0;
16/02/2025 13:26:18;100;0;166.60;-4;-31.37;-6.53;106.8;20.70;77664;2838.886;-1801.750;1;165;-50;-45.2;48.2;48.6;11;10.4;28.4;0.0;
16/02/2025 13:26:38;100;0;164.88;-4;-29.82;-6.61;110.6;20.70;77626;2838.886;-1801.750;1;165;-50;-45.2;48.2;48.6;11;10.4;28.4;0.0;
16/02/2025 13:26:58;100;0;172.30;-4;-30.07;-6.63;114.1;20.60;77595;2838.886;-1801.751;1;165;-50;-45.2;48.2;48.6;17;17.1;28.4;0.0;
16/02/2025 13:27:18;100;0;172.44;-4;-30.21;-3.03;117.5;20.60;77585;2838.886;-1801.752;1;165;-50;-45.2;48.2;48.6;19;19.0;28.4;0.0;
16/02/2025 13:27:38;100;0;162.82;-4;-30.86;-2.31;121.0;20.60;77552;2838.886;-1801.752;1;165;-50;-45.2;48.2;48.6;11;10.8;28.4;0.0;
16/02/2025 13:27:58;100;0;157.67;-4;-28.94;-6.27;124.5;20.60;77539;2838.886;-1801.752;1;165;-50;-45.2;48.6;48.6;11;10.4;28.4;0.0;
16/02/2025 13:28:18;100;0;154.39;-4;-30.72;-6.63;128.0;20.50;77514;2838.887;-1801.752;1;165;-50;-45.2;48.6;48.7;11;10.4;28.4;0.0;
16/02/2025 13:28:38;100;0;147.90;-4;-30.19;-6.66;131.5;20.50;77496;2838.887;-1801.751;1;165;-50;-45.2;48.6;48.6;6;5.9;28.4;0.0;
16/02/2025 13:28:58;100;0;153.79;-4;-30.52;-9.14;135.1;20.40;77492;2838.887;-1801.751;1;165;-50;-45.2;48.6;48.6;10;9.9;28.4;0.0;
16/02/2025 13:29:18;100;0;152.67;-4;-29.63;-6.66;138.9;20.40;77477;2838.888;-1801.751;1;165;-50;-45.2;48.6;48.6;10;10.4;28.4;0.0;
16/02/2025 13:29:38;100;0;150.11;-4;-30.45;-6.59;142.4;20.40;77464;2838.888;-1801.750;1;165;-50;-45.2;48.6;48.6;8;8.1;28.4;0.0;
16/02/2025 13:29:59;100;0;148.11;-4;-29.91;-7.81;146.1;20.30;77450;2838.888;-1801.750;1;165;-50;-45.2;48.6;48.6;8;8.1;28.4;0.0;
16/02/2025 13:30:19;100;0;147.21;-4;-30.17;-7.75;149.7;20.30;77442;2838.889;-1801.749;1;165;-50;-45.2;48.6;48.7;6;5.4;28.4;0.0;
16/02/2025 13:30:39;100;0;151.77;-4;-30.27;-9.26;153.3;20.20;77413;2838.889;-1801.749;1;165;-50;-45.2;48.6;48.7;9;9.0;28.4;0.0;
16/02/2025 13:30:59;100;0;157.61;-4;-30.28;-6.89;157.1;20.20;77409;2838.889;-1801.749;1;165;-50;-45.2;48.6;48.6;9;9.5;28.4;0.0;
16/02/2025 13:31:19;100;0;161.43;-4;-30.05;-6.84;160.8;20.10;77391;2838.889;-1801.749;1;165;-50;-45.2;48.6;48.7;9;9.5;28.4;0.0;
16/02/2025 13:31:39;100;0;163.63;-4;-30.08;-6.87;164.4;20.10;77390;2838.889;-1801.749;1;165;-50;-45.2;48.6;48.6;11;11.3;28.4;0.0;
16/02/2025 13:31:59;100;0;167.10;-4;-30.42;-5.89;168.0;20.10;77382;2838.889;-1801.750;1;165;-50;-48.4;48.6;48.6;11;11.7;28.4;0.0;
16/02/2025 13:32:19;100;0;165.32;-4;-30.70;-5.84;171.7;20.00;77367;2838.889;-1801.750;1;165;-50;-45.2;48.6;48.7;11;11.7;28.4;0.0;
16/02/2025 13:32:39;100;0;159.67;-4;-30.18;-5.91;175.3;20.00;77363;2838.889;-1801.750;1;165;-50;-45.2;48.6;48.6;11;11.7;28.4;0.0;
16/02/2025 13:32:59;100;0;154.77;-4;-29.65;-5.90;178.8;19.90;77342;2838.889;-1801.750;1;165;-50;-45.2;48.6;48.7;11;11.7;28.4;0.0;
16/02/2025 13:33:19;100;0;148.39;-4;-29.39;-6.05;182.0;19.90;77335;2838.890;-1801.750;1;165;-50;-45.2;48.6;48.7;8;8.1;28.4;0.0;
16/02/2025 13:33:39;100;0;144.95;-4;-29.50;-7.73;185.2;19.90;77326;2838.891;-1801.749;1;165;-50;-45.2;48.6;48.6;4;4.1;28.4;0.0;
16/02/2025 13:33:59;100;0;144.80;-4;-29.49;-9.90;188.4;19.80;77314;2838.891;-1801.749;1;165;-50;-45.2;48.6;48.7;4;3.6;28.4;0.0;
16/02/2025 13:34:19;100;0;146.60;-4;-29.31;-9.95;191.6;19.80;77299;2838.892;-1801.748;1;165;-50;-45.2;48.6;48.6;6;5.9;28.4;0.0;
16/02/2025 13:34:39;100;0;151.07;-4;-29.71;-8.54;194.8;19.70;77282;2838.893;-1801.748;1;165;-50;-45.2;48.6;48.6;9;9.0;28.4;0.0;
16/02/2025 13:34:59;100;0;149.87;-4;-29.50;-6.76;197.9;19.70;77277;2838.894;-1801.748;1;165;-50;-43.5;48.6;48.6;9;9.5;28.4;0.0;
16/02/2025 13:35:05;118;0;149.89;-4;-29.72;-7.00;198.9;19.70;77255;2838.894;-1801.748;1;165;170;-40.3;21.9;21.8;13;13.5;28.4;0.0;
16/02/2025 13:35:15;118;0;132.34;-4;-15.95;-6.09;200.0;19.70;77243;2838.894;-1801.747;1;165;170;90.3;21.9;21.5;13;13.5;28.0;-1.0;
16/02/2025 13:35:25;118;0;127.82;-4;12.23;-5.57;200.3;19.60;76955;2838.895;-1801.747;1;165;170;174.2;21.9;21.2;13;13.5;28.0;-1.0;
16/02/2025 13:35:35;118;0;149.49;-4;25.24;-5.85;199.4;19.60;76802;2838.896;-1801.747;1;165;170;174.2;21.9;20.6;13;13.5;28.4;-1.0;
16/02/2025 13:35:55;117;0;146.32;-4;30.85;-5.83;197.0;19.60;76790;2838.897;-1801.747;1;165;170;172.6;21.9;20.5;13;13.5;28.4;-1.0;
16/02/2025 13:36:15;117;0;142.53;-4;31.54;-5.87;193.8;19.50;76786;2838.899;-1801.747;1;165;170;171.0;21.9;21.9;43;42.9;28.4;-1.0;
16/02/2025 13:36:35;117;0;140.78;-4;31.69;10.56;191.0;19.50;76774;2838.900;-1801.747;1;165;170;174.2;21.9;21.9;45;45.1;28.4;-1.0;
16/02/2025 13:36:55;117;0;138.76;-4;31.81;11.66;188.1;19.40;76780;2838.901;-1801.746;1;165;170;174.2;21.9;21.9;50;50.1;28.4;-1.0;
16/02/2025 13:37:15;117;0;140.25;-4;32.31;14.58;185.1;19.40;76781;2838.902;-1801.746;1;165;170;174.2;22.5;22.8;48;47.8;28.4;-1.0;
16/02/2025 13:37:35;117;0;142.41;-4;30.75;12.64;182.3;19.30;76781;2838.904;-1801.745;1;165;170;174.2;22.5;22.7;45;44.7;28.4;-1.0;
16/02/2025 13:37:55;117;0;145.98;-4;30.34;11.02;179.4;19.30;76767;2838.905;-1801.745;1;165;170;174.2;22.5;22.7;40;39.7;28.4;-1.0;
16/02/2025 13:38:15;117;0;150.79;-4;29.78;8.32;176.6;19.30;76777;2838.905;-1801.745;1;165;170;174.2;22.5;22.7;37;35.6;28.4;-1.0;
16/02/2025 13:38:35;117;0;154.91;-4;29.67;6.61;173.8;19.20;76779;2838.906;-1801.745;1;165;170;174.2;22.5;22.7;37;36.6;28.4;-1.0;
16/02/2025 13:38:55;117;0;157.25;-4;29.56;6.60;171.0;19.20;76775;2838.907;-1801.746;1;165;170;174.2;22.5;22.8;37;36.6;28.4;-1.0;
16/02/2025 13:39:15;117;0;160.29;-4;29.35;6.61;168.3;19.20;76776;2838.908;-1801.746;1;165;170;174.2;22.5;22.7;37;36.6;28.4;-1.0;
16/02/2025 13:39:35;117;0;162.71;-4;29.23;6.58;165.6;19.10;76778;2838.909;-1801.747;1;165;170;174.2;22.5;22.7;37;36.6;28.4;-1.0;
16/02/2025 13:39:55;117;0;164.47;-4;29.32;6.62;162.9;19.10;76773;2838.909;-1801.747;1;165;170;174.2;22.5;22.8;35;34.7;28.4;-1.0;
16/02/2025 13:40:15;117;0;166.36;-4;28.77;5.54;160.3;19.10;76772;2838.910;-1801.748;1;165;170;174.2;22.2;22.2;35;34.3;28.4;-1.0;
16/02/2025 13:40:35;117;0;164.14;-4;30.26;5.62;157.7;19.00;76768;2838.911;-1801.748;1;165;170;171.0;22.2;21.9;35;34.7;28.4;-1.0;
16/02/2025 13:40:55;117;0;161.96;-4;30.15;5.57;155.1;19.00;76770;2838.912;-1801.749;1;165;170;171.0;22.2;21.9;35;34.7;28.4;-1.0;
16/02/2025 13:41:15;117;0;160.20;-4;30.24;5.59;152.5;19.00;76781;2838.913;-1801.749;1;165;170;174.2;22.2;21.9;35;34.3;28.4;-1.0;
16/02/2025 13:41:35;117;0;155.45;-4;30.52;5.67;149.7;19.00;76777;2838.914;-1801.750;1;165;170;174.2;22.2;21.9;35;34.3;28.4;-1.0;
16/02/2025 13:41:55;117;0;151.50;-4;30.43;5.58;146.9;18.90;76772;2838.915;-1801.750;1;165;170;174.2;22.2;21.8;37;37.0;28.4;-1.0;
16/02/2025 13:42:15;117;0;147.58;-4;30.23;7.16;144.1;18.90;76779;2838.916;-1801.750;1;165;170;174.2;22.2;21.9;39;39.3;28.4;-1.0;
16/02/2025 13:42:35;117;0;145.22;-4;30.29;8.17;141.5;18.90;76764;2838.917;-1801.749;1;165;170;174.2;22.2;21.9;39;39.3;28.4;-1.0;
16/02/2025 13:42:55;117;0;140.15;-4;30.76;8.36;138.9;18.90;76776;2838.918;-1801.749;1;165;170;174.2;22.2;21.8;46;46.0;28.4;-1.0;
16/02/2025 13:43:15;117;0;141.55;-4;31.12;12.09;136.3;18.90;76774;2838.920;-1801.749;1;165;170;174.2;22.2;21.9;46;46.5;28.4;-1.0;
16/02/2025 13:43:35;117;0;144.68;-4;31.03;12.07;133.6;18.90;76774;2838.921;-1801.749;1;165;170;174.2;22.2;21.9;41;41.1;28.4;-1.0;
16/02/2025 13:43:55;117;0;148.30;-4;30.88;8.69;130.8;18.80;76773;2838.922;-1801.749;1;165;170;174.2;22.2;21.9;39;38.8;28.4;-1.0;
16/02/2025 13:44:15;117;0;147.35;-4;30.56;7.77;128.2;18.80;76781;2838.923;-1801.749;1;165;170;175.8;22.2;21.9;39;38.4;28.4;-1.0;
16/02/2025 13:44:35;117;0;146.51;-4;30.76;7.83;125.5;18.80;76783;2838.924;-1801.749;1;165;170;175.8;22.2;21.9;39;38.4;28.4;-1.0;
16/02/2025 13:44:55;117;0;151.24;-4;30.34;7.73;122.9;18.80;76785;2838.926;-1801.749;1;165;170;174.2;22.2;21.8;37;37.0;28.4;-1.0;
16/02/2025 13:45:15;117;0;148.91;-4;30.26;6.87;120.4;18.80;76779;2838.927;-1801.749;1;165;170;174.2;22.2;21.9;37;37.0;28.4;-1.0;
16/02/2025 13:45:35;117;0;149.07;-4;30.44;7.07;118.1;18.80;76790;2838.928;-1801.749;1;165;170;174.2;22.2;21.9;37;37.0;28.4;-1.0;
16/02/2025 13:45:55;117;0;154.50;-4;29.99;6.95;115.6;18.80;76805;2838.929;-1801.749;1;165;170;172.6;22.2;21.9;37;37.0;28.4;-1.0;
16/02/2025 13:46:15;117;0;157.52;-4;30.27;7.18;113.1;18.80;76794;2838.930;-1801.750;1;165;170;174.2;22.2;21.9;37;37.0;28.4;-1.0;
16/02/2025 13:46:35;117;0;163.07;-4;30.43;7.10;110.7;18.70;76801;2838.931;-1801.750;1;165;170;174.2;22.2;21.8;35;35.2;28.4;-1.0;
16/02/2025 13:46:55;117;0;170.04;-4;30.55;6.54;108.4;18.70;76807;2838.932;-1801.751;1;165;170;174.2;22.2;21.8;28;28.0;28.4;-1.0;
16/02/2025 13:47:15;117;0;173.38;-4;29.75;1.87;106.0;18.70;76810;2838.933;-1801.752;1;165;170;175.8;22.2;21.8;23;23.0;28.4;-1.0;
16/02/2025 13:47:35;117;0;177.18;-4;29.23;-0.88;103.8;18.70;76812;2838.934;-1801.754;1;165;170;175.8;22.2;21.8;16;15.8;28.4;-1.0;
16/02/2025 13:47:55;117;0;172.31;-4;28.79;-4.73;101.5;18.70;76827;2838.936;-1801.755;1;165;170;174.2;21.8;21.9;24;23.9;28.4;-1.0;
16/02/2025 13:48:15;117;0;167.25;-4;29.33;0.21;99.2;18.70;76832;2838.937;-1801.755;1;165;170;174.2;21.8;21.8;31;31.1;28.4;-1.0;
16/02/2025 13:48:35;117;0;161.13;-4;29.89;4.07;97.0;18.70;76850;2838.938;-1801.756;1;165;170;174.2;21.8;21.8;36;36.1;28.4;-1.0;
16/02/2025 13:48:55;117;0;158.94;-4;30.58;6.66;94.6;18.70;76855;2838.939;-1801.757;1;165;170;175.8;21.8;21.9;36;36.1;28.4;-1.0;
16/02/2025 13:49:15;117;0;155.52;-4;29.86;6.59;92.2;18.70;76858;2838.940;-1801.757;1;165;170;174.2;21.8;21.9;36;36.1;28.4;-1.0;
16/02/2025 13:49:35;117;0;153.56;-4;30.27;6.59;89.9;18.70;76883;2838.941;-1801.757;1;165;170;175.8;21.8;21.9;36;36.1;28.4;-1.0;
16/02/2025 13:49:55;117;0;153.76;-4;29.81;6.62;87.7;18.70;76891;2838.943;-1801.758;1;165;170;174.2;21.8;21.9;36;36.1;28.4;-1.0;
16/02/2025 13:50:15;117;0;153.96;-4;29.63;6.60;85.6;18.80;76910;2838.944;-1801.758;1;165;170;175.8;21.8;21.9;36;36.1;28.4;-1.0;
16/02/2025 13:50:35;117;0;150.19;-4;29.67;6.65;83.6;18.80;76932;2838.946;-1801.758;1;165;190;193.5;21.8;21.9;36;36.1;28.4;-1.0;
16/02/2025 13:50:55;117;0;152.91;-4;29.36;6.57;81.8;18.80;76908;2838.947;-1801.759;1;165;210;214.5;21.8;21.9;36;36.1;28.4;-1.0;
16/02/2025 13:51:15;117;0;151.72;-4;29.14;6.73;79.7;18.80;76879;2838.949;-1801.759;1;165;210;214.5;21.8;21.9;36;36.1;28.4;-1.0;
16/02/2025 13:51:35;117;0;150.62;-4;29.00;6.65;77.6;18.80;76882;2838.950;-1801.759;1;165;210;214.5;21.8;21.9;36;36.6;28.4;-1.0;
16/02/2025 13:51:55;117;0;152.66;-4;28.55;6.65;75.5;18.80;76900;2838.952;-1801.760;1;165;210;214.5;21.4;21.4;36;36.1;28.4;-1.0;
16/02/2025 13:52:15;117;0;153.52;-4;30.63;6.73;73.2;18.90;76919;2838.953;-1801.760;1;165;210;212.9;21.4;21.1;36;36.1;28.4;-1.0;
16/02/2025 13:52:35;117;0;154.57;-4;30.69;6.67;70.9;18.90;76933;2838.954;-1801.761;1;165;210;214.5;21.4;21.1;36;36.1;28.4;-1.0;
16/02/2025 13:52:55;117;0;157.66;-4;30.81;6.71;68.6;18.90;76940;2838.956;-1801.761;1;165;210;214.5;21.4;21.1;36;36.1;28.4;-1.0;
16/02/2025 13:53:15;117;0;158.57;-4;30.33;6.68;66.2;18.90;76953;2838.957;-1801.762;1;165;210;214.5;21.4;21.1;36;36.1;28.4;-1.0;
16/02/2025 13:53:35;117;0;158.59;-4;30.36;6.65;63.9;18.90;76963;2838.958;-1801.762;1;165;210;212.9;21.4;21.1;36;36.1;28.4;-1.0;
16/02/2025 13:53:55;117;0;159.23;-4;30.28;6.66;61.6;19.00;76960;2838.959;-1801.763;1;165;210;212.9;21.4;21.1;36;36.1;28.4;-1.0;
16/02/2025 13:54:15;117;0;160.56;-4;30.67;6.63;59.3;19.00;76979;2838.960;-1801.763;1;165;210;214.5;21.4;21.1;36;36.1;28.4;-1.0;
16/02/2025 13:54:35;117;0;159.62;-4;31.00;6.75;57.0;19.00;76993;2838.962;-1801.764;1;165;210;214.5;21.4;21.1;36;36.1;28.4;-1.0;
16/02/2025 13:54:55;117;0;157.90;-4;30.23;6.66;54.7;19.00;77001;2838.963;-1801.764;1;165;210;214.5;21.4;21.1;36;36.1;28.4;-1.0;
16/02/2025 13:55:15;117;0;157.51;-4;30.51;6.73;52.3;19.00;77002;2838.964;-1801.765;1;165;210;214.5;21.4;21.1;36;36.1;28.4;-1.0;
16/02/2025 13:55:35;117;0;158.84;-4;30.45;6.70;49.9;19.10;77008;2838.965;-1801.765;1;165;210;214.5;21.4;21.1;36;36.1;28.4;-1.0;
16/02/2025 13:55:55;117;0;159.21;-4;30.84;6.68;47.3;19.10;77017;2838.966;-1801.766;1;165;210;214.5;21.4;21.1;36;36.1;28.4;-1.0;
16/02/2025 13:56:15;117;0;158.88;-4;30.23;6.70;44.9;19.10;77022;2838.967;-1801.766;1;165;210;214.5;21.4;21.1;36;36.1;28.4;-1.0;
16/02/2025 13:56:35;117;0;160.31;-4;30.37;6.69;42.3;19.10;77022;2838.968;-1801.767;1;165;210;214.5;21.4;21.1;36;36.1;28.4;-1.0;
16/02/2025 13:56:55;117;0;158.44;-4;29.83;6.74;39.8;19.10;77035;2838.969;-1801.767;1;165;210;214.5;21.4;21.1;36;36.1;28.4;-1.0;
16/02/2025 13:57:15;117;0;156.57;-4;30.60;6.91;37.3;19.20;77050;2838.970;-1801.767;1;165;210;212.9;21.4;21.2;36;36.1;28.4;-1.0;
16/02/2025 13:57:35;117;0;155.57;-4;29.83;6.70;34.8;19.20;77050;2838.972;-1801.768;1;165;210;214.5;21.4;21.1;36;36.1;28.4;-1.0;
16/02/2025 13:57:55;117;0;153.72;-4;30.65;6.66;32.3;19.20;77054;2838.973;-1801.768;1;165;210;214.5;21.4;21.1;36;36.1;28.4;-1.0;
16/02/2025 13:58:15;117;0;150.16;-4;30.76;6.66;29.9;19.30;77058;2838.974;-1801.768;1;165;210;212.9;21.4;21.1;36;36.1;28.4;-1.0;
16/02/2025 13:58:35;117;0;147.58;-4;30.69;6.73;27.3;19.30;77063;2838.975;-1801.768;1;165;210;212.9;21.4;21.1;38;37.9;28.4;-1.0;
16/02/2025 13:58:55;117;0;144.50;-4;31.46;7.98;24.7;19.30;77068;2838.977;-1801.768;1;165;210;212.9;21.4;21.1;41;41.1;28.4;-1.0;
16/02/2025 13:59:15;117;0;144.61;-4;29.12;9.62;22.0;19.30;77086;2838.978;-1801.768;1;165;210;214.5;21.4;21.1;41;41.5;28.4;-1.0;
16/02/2025 13:59:35;117;0;145.74;-4;29.99;9.52;19.3;19.30;77074;2838.979;-1801.768;1;165;210;214.5;21.4;21.1;41;41.5;28.4;-1.0;
16/02/2025 13:59:55;117;0;146.30;-4;30.13;9.44;16.5;19.40;77083;2838.980;-1801.767;1;165;210;212.9;21.4;21.1;41;41.5;28.4;-1.0;
16/02/2025 14:00:15;117;0;147.62;-4;31.44;9.53;13.8;19.40;77089;2838.981;-1801.767;1;165;210;212.9;21.4;21.1;38;37.9;28.4;-1.0;
16/02/2025 14:00:35;117;0;148.19;-4;30.85;7.18;11.1;19.40;77087;2838.982;-1801.767;1;165;210;214.5;21.4;21.1;38;37.5;28.4;-1.0;
16/02/2025 14:00:55;117;0;148.84;-4;30.47;7.05;8.4;19.40;77103;2838.983;-1801.767;1;165;210;214.5;21.4;21.1;38;37.5;28.4;-1.0;
16/02/2025 14:01:15;117;0;148.29;-4;31.37;7.18;5.5;19.50;77106;2838.984;-1801.767;1;165;210;212.9;21.4;21.1;38;37.5;28.4;-1.0;
16/02/2025 14:01:33;115;0;149.68;-4;27.84;6.43;3.1;19.50;77110;2838.985;-1801.767;1;165;500;219.4;100.0;63.9;0;-0.5;28.4;-1.0;
16/02/2025 14:01:43;115;0;131.97;-4;13.55;-13.20;2.0;19.50;77081;2838.985;-1801.766;1;165;500;338.7;100.0;100.1;0;-0.5;28.2;-1.0;
16/02/2025 14:01:53;115;0;131.92;-4;-55.29;-12.00;2.6;19.50;76817;2838.986;-1801.767;1;165;500;454.8;100.0;100.7;0;-0.5;28.2;-1.0;
16/02/2025 14:02:03;115;0;121.16;-4;-69.80;-19.55;2.4;19.50;76554;2838.988;-1801.767;1;165;500;506.5;100.0;100.9;0;-0.5;28.2;-1.0;
16/02/2025 14:02:14;115;0;131.55;-4;-49.86;-5.26;-0.7;19.50;76466;2838.988;-1801.767;1;165;500;506.5;100.0;100.7;0;-0.9;28.4;-1.0;
16/02/2025 14:02:34;119;0;237.90;-4;-53.63;-17.89;-0.2;19.60;76489;2838.988;-1801.767;1;165;500;508.1;100.0;100.9;0;-0.5;28.4;-1.0;
16/02/2025 14:02:42;119;0;263.76;-4;-47.54;-10.50;-0.3;19.60;76486;2838.929;-1801.660;0;165;500;508.1;100.0;100.9;0;-0.5;28.4;-1.0;
