Timestamp;NavState;SecurityLevel;Heading;Declination;Pitch;Roll;Depth;Temperature;Pa;Lat;Lon;DeadReckoning;DesiredH;BallastCmd;BallastPos;LinCmd;LinPos;AngCmd;AngPos;Voltage;Altitude;
19/02/2025 18:24:53;119;0;149.33;-4;-49.01;-22.88;0.0;19.00;76062;2838.955;-1759.555;0;168;500;509.7;100.0;100.6;0;-0.5;27.7;-1.0;
19/02/2025 18:25:03;116;0;152.79;-4;-54.62;-12.16;-0.1;19.00;76070;2838.954;-1759.554;0;168;500;509.7;100.0;100.4;0;-0.5;27.6;-1.0;
19/02/2025 18:25:28;116;0;127.35;-4;-55.21;-17.57;0.0;19.10;76085;2838.954;-1759.555;0;169;500;509.7;100.0;100.6;0;-0.9;27.7;-1.0;
19/02/2025 18:25:43;116;0;137.70;-4;-54.51;-26.49;0.0;19.10;76083;2838.954;-1759.554;0;168;500;509.7;100.0;100.6;0;-0.5;27.7;-1.0;
19/02/2025 18:26:04;116;0;132.33;-4;-55.48;-7.55;-0.0;19.20;76083;2838.953;-1759.554;0;168;500;509.7;100.0;100.6;0;-0.5;27.6;-1.0;
19/02/2025 18:26:24;116;0;138.76;-4;-61.47;-15.39;-0.1;19.20;76083;2838.951;-1759.552;0;168;500;509.7;100.0;100.6;0;-0.5;27.7;-1.0;
19/02/2025 18:27:11;116;0;127.37;-4;-52.50;-7.81;0.0;19.30;76097;2838.951;-1759.552;0;169;500;509.7;100.0;100.4;0;-0.5;27.7;-1.0;
19/02/2025 18:28:02;116;0;124.43;-4;-66.42;-14.44;0.1;19.40;76113;2838.948;-1759.550;0;169;500;509.7;100.0;100.4;0;-0.5;27.6;-1.0;
19/02/2025 18:28:22;116;0;136.87;-4;-50.19;-23.95;0.1;19.50;76114;2838.946;-1759.550;0;169;500;509.7;100.0;100.6;0;-0.5;27.7;-1.0;
19/02/2025 18:28:33;116;0;123.68;-4;-60.44;-13.39;-0.0;19.50;76119;2838.946;-1759.550;0;169;500;511.3;100.0;100.4;0;-0.5;27.7;-1.0;
19/02/2025 18:28:44;116;0;132.68;-4;-51.19;-6.31;0.0;19.50;76122;2838.946;-1759.550;0;169;500;511.3;100.0;100.6;0;-0.5;27.7;-1.0;
19/02/2025 18:29:04;110;0;146.71;-4;-61.63;-1.45;0.0;19.60;76129;2838.946;-1759.550;0;169;-50;393.5;100.0;100.6;-10;-9.9;27.7;-1.0;
19/02/2025 18:29:14;110;0;139.47;-4;-56.52;-12.47;0.1;19.60;76479;2838.946;-1759.550;1;169;-50;243.5;100.0;100.6;-10;-9.9;27.6;-1.0;
19/02/2025 18:29:24;110;0;154.19;-4;-55.29;-21.11;0.6;19.70;76741;2838.947;-1759.550;1;169;-50;82.3;100.0;100.6;-10;-9.9;27.6;-1.0;
19/02/2025 18:29:34;110;0;195.68;-4;-73.38;-53.51;1.0;19.70;77066;2838.947;-1759.550;1;169;-50;-50.0;100.0;100.4;-10;-9.9;27.6;-1.0;
19/02/2025 18:29:44;110;0;188.87;-4;-71.42;-26.92;1.3;19.70;77325;2838.947;-1759.551;1;169;-50;-50.0;45.5;45.4;-10;-9.9;27.7;-1.0;
19/02/2025 18:30:04;100;0;221.28;-4;-32.44;-18.05;4.7;19.80;77308;2838.946;-1759.553;1;168;-50;-48.4;45.5;45.1;-10;-9.9;27.7;-1.0;
19/02/2025 18:30:24;100;0;229.97;-4;-25.14;-16.18;8.2;19.80;77312;2838.945;-1759.557;1;168;-50;-46.8;46.9;47.1;70;69.9;27.7;-1.0;
19/02/2025 18:30:44;100;0;235.66;-4;-33.34;23.66;11.7;19.80;77311;2838.944;-1759.560;1;167;-50;-48.4;45.9;45.9;70;70.4;27.6;-1.0;
19/02/2025 18:31:04;100;0;222.70;-4;-32.72;23.46;15.9;19.80;77324;2838.942;-1759.562;1;166;-50;-46.8;45.1;45.1;70;69.9;27.7;0.0;
19/02/2025 18:31:24;100;0;209.70;-4;-29.89;24.06;19.8;19.80;77318;2838.940;-1759.565;1;166;-50;-45.2;45.1;44.9;66;65.9;27.6;0.0;
19/02/2025 18:31:44;100;0;201.24;-4;-28.99;20.75;23.5;19.90;77335;2838.938;-1759.566;1;166;-50;-46.8;45.4;45.5;55;55.1;27.7;0.0;
19/02/2025 18:32:04;100;0;190.27;-4;-28.86;15.54;27.1;19.90;77314;2838.936;-1759.567;1;165;-50;-46.8;45.7;45.9;38;37.9;27.6;0.0;
19/02/2025 18:32:24;100;0;184.84;-4;-28.64;6.82;30.7;19.90;77328;2838.933;-1759.568;1;165;-50;-46.8;46.2;46.4;29;28.9;27.6;0.0;
19/02/2025 18:32:44;100;0;182.13;-4;-28.12;2.50;34.3;19.90;77322;2838.931;-1759.568;1;165;-50;-46.8;46.7;47.0;25;24.8;27.7;0.0;
19/02/2025 18:33:04;100;0;178.43;-4;-28.89;0.27;37.8;19.90;77324;2838.929;-1759.569;1;165;-50;-46.8;47.1;47.1;19;19.0;27.7;0.0;
19/02/2025 18:33:24;100;0;172.70;-4;-28.95;-2.52;41.4;19.90;77332;2838.926;-1759.568;1;164;-50;-45.2;47.4;47.7;15;14.9;27.6;0.0;
19/02/2025 18:33:44;100;0;169.40;-4;-29.45;-4.37;45.0;19.90;77332;2838.924;-1759.568;1;164;-50;-46.8;47.4;47.7;13;13.1;27.6;0.0;
19/02/2025 18:34:04;100;0;166.30;-4;-29.38;-5.13;48.7;19.90;77329;2838.922;-1759.567;1;164;-50;-46.8;47.4;47.7;13;12.6;27.7;0.0;
19/02/2025 18:34:24;100;0;164.09;-4;-29.18;-5.41;52.3;19.90;77324;2838.919;-1759.567;1;164;-50;-46.8;47.4;47.7;13;12.6;27.7;0.0;
19/02/2025 18:34:44;100;0;164.94;-4;-29.75;-5.31;56.0;19.90;77329;2838.917;-1759.566;1;164;-50;-46.8;47.4;47.7;13;12.6;27.6;0.0;
19/02/2025 18:35:04;100;0;159.63;-4;-30.13;-5.27;59.8;19.90;77325;2838.915;-1759.565;1;164;-50;-46.8;47.4;47.7;13;12.6;27.7;0.0;
19/02/2025 18:35:24;100;0;161.81;-4;-29.80;-5.08;63.7;19.90;77314;2838.913;-1759.564;1;164;-50;-46.8;47.4;47.7;13;13.1;27.6;0.0;
19/02/2025 18:35:44;100;0;155.98;-4;-29.28;-5.19;67.5;19.90;77322;2838.910;-1759.563;1;165;-50;-46.8;47.4;47.7;10;9.9;27.7;0.0;
19/02/2025 18:36:04;100;0;154.23;-4;-29.43;-6.83;71.2;19.90;77312;2838.908;-1759.561;1;165;-50;-45.2;47.4;47.9;10;9.5;27.7;0.0;
19/02/2025 18:36:24;100;0;153.15;-4;-29.16;-6.97;75.0;19.90;77313;2838.906;-1759.560;1;165;-50;-45.2;47.4;47.7;8;8.1;27.7;0.0;
19/02/2025 18:36:44;100;0;159.04;-4;-29.24;-7.69;78.6;19.90;77310;2838.904;-1759.559;1;165;-50;-46.8;47.4;47.7;12;12.2;27.6;0.0;
19/02/2025 18:37:04;100;0;159.29;-4;-29.17;-5.21;82.3;19.90;77298;2838.902;-1759.558;1;165;-50;-46.8;47.4;47.9;12;12.6;27.7;0.0;
19/02/2025 18:37:24;100;0;159.60;-4;-29.86;-5.20;86.0;19.90;77296;2838.900;-1759.557;1;165;-50;-45.2;47.4;47.9;12;12.6;27.7;0.0;
19/02/2025 18:37:44;100;0;163.53;-4;-29.88;-5.16;89.8;19.90;77296;2838.897;-1759.556;1;165;-50;-45.2;47.4;47.7;12;12.6;27.6;0.0;
19/02/2025 18:38:04;100;0;161.74;-4;-29.88;-5.12;93.8;19.90;77280;2838.895;-1759.555;1;165;-50;-46.8;47.4;47.7;12;12.6;27.7;0.0;
19/02/2025 18:38:24;100;0;160.38;-4;-29.21;-5.16;97.5;19.80;77254;2838.892;-1759.554;1;165;-50;-46.8;47.4;47.7;12;12.6;27.7;0.0;
19/02/2025 18:38:44;100;0;154.80;-4;-29.29;-5.06;101.3;19.80;77240;2838.890;-1759.553;1;165;-50;-46.8;47.4;47.7;9;9.0;27.6;0.0;
19/02/2025 18:39:04;100;0;147.53;-4;-28.15;-7.40;104.9;19.80;77225;2838.888;-1759.551;1;166;-50;-46.8;47.9;47.7;0;0.0;27.6;0.0;
19/02/2025 18:39:24;100;0;146.95;-4;-28.47;-11.54;108.4;19.80;77208;2838.887;-1759.549;1;166;-50;-45.2;48.4;48.3;0;-0.5;27.7;0.0;
19/02/2025 18:39:44;100;0;147.51;-4;-28.98;-11.70;111.9;19.80;77203;2838.885;-1759.547;1;166;-50;-46.8;48.7;48.7;0;0.0;27.6;0.0;
19/02/2025 18:40:04;100;0;147.85;-4;-30.17;-11.62;115.6;19.80;77184;2838.883;-1759.546;1;167;-50;-45.2;48.7;49.0;0;-0.5;27.7;0.0;
19/02/2025 18:40:24;100;0;147.61;-4;-30.88;-11.58;119.5;19.70;77190;2838.881;-1759.544;1;167;-50;-46.8;48.7;48.9;-2;-1.8;27.7;0.0;
19/02/2025 18:40:44;100;0;147.20;-4;-30.78;-12.44;123.3;19.70;77183;2838.879;-1759.542;1;167;-50;-48.4;48.7;49.0;-2;-1.8;27.6;0.0;
19/02/2025 18:41:04;100;0;143.39;-4;-29.63;-12.30;127.2;19.70;77164;2838.877;-1759.540;1;167;-50;-45.2;48.7;49.0;-9;-9.0;27.6;0.0;
19/02/2025 18:41:24;100;0;145.23;-4;-29.86;-16.19;130.7;19.70;77151;2838.876;-1759.539;1;168;-50;-45.2;48.7;49.0;-9;-9.5;27.6;0.0;
19/02/2025 18:41:44;100;0;150.49;-4;-29.49;-16.25;134.3;19.60;77138;2838.874;-1759.537;1;168;-50;-46.8;48.7;48.9;1;0.9;27.7;0.0;
19/02/2025 18:42:04;100;0;149.61;-4;-29.73;-10.99;137.8;19.60;77133;2838.872;-1759.536;1;168;-50;-46.8;48.7;49.0;1;1.4;27.6;0.0;
19/02/2025 18:42:24;100;0;149.63;-4;-29.82;-10.78;141.3;19.60;77100;2838.870;-1759.534;1;169;-50;-46.8;48.7;48.9;1;1.4;27.7;0.0;
19/02/2025 18:42:44;100;0;152.05;-4;-30.62;-10.92;144.7;19.50;77081;2838.869;-1759.533;1;169;-50;-46.8;48.7;49.0;3;3.2;27.6;0.0;
19/02/2025 18:43:04;100;0;149.83;-4;-30.03;-9.77;148.3;19.50;77071;2838.867;-1759.531;1;169;-50;-46.8;48.7;48.9;0;-0.5;27.7;0.0;
19/02/2025 18:43:24;100;0;149.38;-4;-29.86;-11.74;151.9;19.50;77058;2838.865;-1759.530;1;169;-50;-45.2;48.7;48.9;0;-0.5;27.6;0.0;
19/02/2025 18:43:44;100;0;155.32;-4;-30.55;-11.88;155.6;19.40;77034;2838.863;-1759.529;1;170;-50;-46.8;48.7;48.9;6;5.9;27.7;0.0;
19/02/2025 18:44:05;100;0;164.01;-4;-30.59;-8.35;159.4;19.40;77021;2838.861;-1759.528;1;170;-50;-46.8;48.7;48.9;12;12.2;27.7;0.0;
19/02/2025 18:44:25;100;0;169.57;-4;-31.20;-5.21;163.2;19.40;77008;2838.859;-1759.528;1;170;-50;-46.8;48.7;49.0;12;12.6;27.6;0.0;
19/02/2025 18:44:45;100;0;173.86;-4;-30.72;-5.22;167.1;19.30;76997;2838.856;-1759.527;1;170;-50;-46.8;48.7;49.0;12;12.6;27.6;0.0;
19/02/2025 18:45:05;100;0;179.33;-4;-31.93;-4.89;170.7;19.30;76984;2838.854;-1759.528;1;169;-50;-46.8;48.7;49.0;17;17.1;27.6;0.0;
19/02/2025 18:45:25;100;0;180.01;-4;-30.70;-2.51;174.5;19.20;76972;2838.852;-1759.528;1;169;-50;-46.8;48.7;48.9;17;17.6;27.7;0.0;
19/02/2025 18:45:45;100;0;184.83;-4;-30.63;-3.12;178.4;19.20;76977;2838.850;-1759.529;1;169;-50;-45.2;48.7;49.0;24;23.9;27.6;0.0;
19/02/2025 18:46:05;100;0;181.39;-4;-31.87;0.59;182.3;19.20;76972;2838.847;-1759.529;1;169;-50;-45.2;48.7;49.0;20;19.9;27.7;0.0;
19/02/2025 18:46:25;100;0;179.21;-4;-31.47;-1.69;186.2;19.10;76958;2838.845;-1759.529;1;168;-50;-46.8;48.7;49.0;17;17.1;27.6;0.0;
19/02/2025 18:46:45;100;0;174.60;-4;-30.88;-3.35;190.1;19.10;76959;2838.842;-1759.529;1;168;-50;-46.8;48.7;48.9;14;14.0;27.6;0.0;
19/02/2025 18:47:05;100;0;166.41;-4;-30.27;-4.61;193.9;19.10;76952;2838.840;-1759.529;1;168;-50;-46.8;48.7;49.0;12;12.2;27.6;0.0;
19/02/2025 18:47:25;100;0;160.59;-4;-30.60;-5.56;197.6;19.00;76926;2838.838;-1759.528;1;168;-50;-46.8;48.7;48.9;12;12.2;27.7;0.0;
19/02/2025 18:47:32;118;0;159.11;-4;-30.48;-5.68;199.0;19.00;76921;2838.837;-1759.527;1;168;150;-43.5;22.0;22.1;10;9.5;27.7;0.0;
19/02/2025 18:47:42;118;0;147.27;-4;-17.72;-7.29;200.4;19.00;76921;2838.836;-1759.526;1;169;150;83.9;22.0;21.8;10;9.5;27.2;-1.0;
19/02/2025 18:47:52;118;0;136.25;-4;10.54;-7.48;200.9;19.00;76630;2838.836;-1759.526;1;169;150;154.8;22.0;21.5;10;9.5;27.2;-1.0;
19/02/2025 18:48:02;118;0;163.20;-4;23.96;-7.92;200.2;18.90;76503;2838.836;-1759.526;1;169;150;154.8;22.0;20.9;10;9.5;27.6;-1.0;
19/02/2025 18:48:22;117;0;162.38;-4;30.25;-8.03;198.0;18.90;76510;2838.835;-1759.525;1;169;150;154.8;22.0;20.6;10;9.5;27.7;-1.0;
19/02/2025 18:48:42;117;0;159.61;-4;30.73;-8.00;195.6;18.90;76491;2838.834;-1759.525;1;169;150;154.8;22.0;22.2;33;32.9;27.7;-1.0;
19/02/2025 18:49:02;117;0;164.29;-4;30.49;5.17;193.5;18.80;76511;2838.833;-1759.525;1;169;150;154.8;22.0;22.4;33;33.4;27.7;-1.0;
19/02/2025 18:49:22;117;0;168.21;-4;30.70;5.10;191.4;18.80;76495;2838.832;-1759.525;1;169;150;154.8;22.0;22.4;33;33.4;27.7;-1.0;
19/02/2025 18:49:42;117;0;171.84;-4;30.09;5.09;189.2;18.80;76505;2838.831;-1759.525;1;169;150;156.5;22.0;22.4;33;33.4;27.7;-1.0;
19/02/2025 18:50:02;117;0;172.85;-4;30.07;5.10;187.2;18.70;76494;2838.830;-1759.525;1;169;150;154.8;22.0;22.2;31;31.1;27.6;-1.0;
19/02/2025 18:50:22;117;0;173.33;-4;30.17;3.67;185.2;18.70;76496;2838.830;-1759.525;1;169;150;156.5;22.0;22.4;31;30.7;27.7;-1.0;
19/02/2025 18:50:42;117;0;172.79;-4;30.16;3.55;183.3;18.70;76497;2838.829;-1759.525;1;169;150;154.8;22.0;22.2;31;30.7;27.7;-1.0;
19/02/2025 18:51:02;117;0;169.88;-4;29.63;3.65;181.5;18.60;76490;2838.828;-1759.525;1;169;150;154.8;22.0;22.4;31;30.7;27.7;-1.0;
19/02/2025 18:51:22;117;0;166.62;-4;30.91;3.70;179.6;18.60;76504;2838.828;-1759.525;1;169;150;156.5;22.0;22.2;31;30.7;27.6;-1.0;
19/02/2025 18:51:42;117;0;164.83;-4;29.96;3.69;177.7;18.60;76487;2838.827;-1759.524;1;169;170;174.2;22.0;22.4;31;30.7;27.7;-1.0;
19/02/2025 18:52:02;117;0;161.49;-4;29.95;4.01;175.7;18.50;76454;2838.826;-1759.524;1;169;190;195.2;22.0;22.4;33;32.9;27.6;-1.0;
19/02/2025 18:52:22;117;0;162.58;-4;30.04;5.33;173.6;18.50;76402;2838.825;-1759.524;1;169;190;195.2;22.0;22.2;33;32.9;27.6;-1.0;
19/02/2025 18:52:42;117;0;157.90;-4;29.46;5.44;171.3;18.50;76400;2838.824;-1759.523;1;169;190;191.9;22.0;22.4;35;35.2;27.7;-1.0;
19/02/2025 18:53:02;117;0;151.75;-4;30.92;6.32;169.0;18.40;76388;2838.823;-1759.522;1;169;190;195.2;22.0;22.2;42;42.0;27.7;-1.0;
19/02/2025 18:53:22;117;0;151.31;-4;30.98;10.34;166.6;18.40;76383;2838.823;-1759.522;1;169;190;195.2;22.0;22.4;42;42.4;27.7;-1.0;
19/02/2025 18:53:42;117;0;146.90;-4;30.09;10.39;164.4;18.40;76393;2838.822;-1759.521;1;169;190;195.2;22.0;22.2;49;49.2;27.6;-1.0;
19/02/2025 18:54:02;117;0;146.61;-4;29.39;14.19;162.0;18.40;76393;2838.821;-1759.520;1;170;190;195.2;22.0;22.2;49;49.6;27.7;-1.0;
19/02/2025 18:54:22;117;0;144.23;-4;31.76;14.17;159.6;18.40;76384;2838.820;-1759.519;1;170;190;195.2;22.0;22.2;54;54.2;27.6;-1.0;
19/02/2025 18:54:42;117;0;146.08;-4;31.09;15.54;156.9;18.30;76382;2838.819;-1759.517;1;170;190;195.2;22.0;22.2;54;54.6;27.7;-1.0;
19/02/2025 18:55:02;117;0;147.26;-4;30.30;16.82;154.3;18.30;76380;2838.818;-1759.516;1;171;190;195.2;22.0;22.4;51;50.5;27.6;-1.0;
19/02/2025 18:55:22;117;0;149.08;-4;29.86;14.17;151.9;18.30;76385;2838.817;-1759.515;1;171;190;193.5;22.0;22.2;48;47.4;27.6;-1.0;
19/02/2025 18:55:42;117;0;156.68;-4;30.72;12.68;149.6;18.30;76393;2838.816;-1759.515;1;171;190;195.2;22.0;22.4;37;37.0;27.6;-1.0;
19/02/2025 18:56:02;117;0;159.11;-4;29.78;6.73;147.3;18.30;76390;2838.816;-1759.514;1;171;190;195.2;22.0;22.2;35;35.2;27.7;-1.0;
19/02/2025 18:56:22;117;0;160.93;-4;28.98;5.79;145.0;18.20;76405;2838.814;-1759.514;1;171;190;195.2;21.7;21.6;35;34.7;27.7;-1.0;
19/02/2025 18:56:42;117;0;160.53;-4;30.40;5.72;142.8;18.20;76411;2838.814;-1759.513;1;172;190;196.8;21.7;21.5;35;34.7;27.7;-1.0;
19/02/2025 18:57:02;117;0;162.21;-4;30.74;5.67;140.5;18.20;76417;2838.813;-1759.513;1;172;190;195.2;21.7;21.5;33;32.9;27.7;-1.0;
19/02/2025 18:57:22;117;0;161.90;-4;30.24;4.38;138.3;18.20;76426;2838.812;-1759.513;1;172;190;195.2;21.7;21.5;33;32.0;27.6;-1.0;
19/02/2025 18:57:42;117;0;159.44;-4;29.77;4.45;136.1;18.20;76440;2838.811;-1759.512;1;172;190;195.2;21.7;21.5;35;35.2;27.7;-1.0;
19/02/2025 18:58:02;117;0;158.35;-4;32.53;6.41;134.1;18.20;76447;2838.810;-1759.512;1;172;190;195.2;22.5;22.5;35;35.6;27.7;-1.0;
19/02/2025 18:58:22;117;0;159.25;-4;29.03;6.44;131.8;18.20;76462;2838.809;-1759.511;1;172;190;195.2;22.5;22.7;35;35.2;27.6;-1.0;
19/02/2025 18:58:42;117;0;160.01;-4;28.01;6.32;129.7;18.20;76472;2838.808;-1759.511;1;172;190;195.2;21.9;21.9;35;35.6;27.6;-1.0;
19/02/2025 18:59:02;117;0;161.65;-4;28.94;6.17;127.7;18.20;76492;2838.807;-1759.510;1;172;210;214.5;21.6;21.6;35;35.2;27.6;-1.0;
19/02/2025 18:59:22;117;0;164.73;-4;29.62;6.36;126.0;18.20;76466;2838.807;-1759.510;1;172;230;235.5;21.6;21.6;33;32.9;27.7;-1.0;
19/02/2025 18:59:42;117;0;168.40;-4;28.26;4.41;123.9;18.20;76426;2838.806;-1759.510;1;172;230;235.5;21.1;21.1;33;32.5;27.7;-1.0;
19/02/2025 19:00:02;117;0;168.79;-4;30.37;4.77;121.8;18.20;76445;2838.805;-1759.510;1;172;230;235.5;21.1;20.9;33;32.5;27.6;-1.0;
19/02/2025 19:00:22;117;0;168.44;-4;29.42;4.67;119.4;18.20;76451;2838.804;-1759.510;1;172;230;235.5;21.1;20.8;33;32.5;27.7;-1.0;
19/02/2025 19:00:42;117;0;171.72;-4;30.80;4.25;116.9;18.20;76462;2838.803;-1759.510;1;172;230;235.5;21.1;20.9;33;32.0;27.7;-1.0;
19/02/2025 19:01:02;117;0;175.67;-4;30.36;4.40;114.3;18.20;76476;2838.801;-1759.510;1;172;230;233.9;21.1;20.9;33;32.5;27.6;-1.0;
19/02/2025 19:01:22;117;0;176.60;-4;30.13;4.41;111.8;18.30;76478;2838.800;-1759.510;1;172;230;235.5;21.1;20.9;31;31.1;27.7;-1.0;
19/02/2025 19:01:42;117;0;172.73;-4;30.13;3.77;109.2;18.30;76483;2838.799;-1759.510;1;172;230;235.5;21.1;20.9;33;32.9;27.7;-1.0;
19/02/2025 19:02:02;117;0;169.86;-4;29.95;5.16;106.8;18.30;76517;2838.797;-1759.510;1;172;230;235.5;21.1;20.9;33;33.4;27.7;-1.0;
19/02/2025 19:02:22;117;0;169.42;-4;30.06;5.29;104.4;18.30;76539;2838.796;-1759.510;1;172;230;235.5;21.1;20.9;33;33.4;27.7;-1.0;
19/02/2025 19:02:42;117;0;168.88;-4;30.69;5.04;102.0;18.30;76558;2838.795;-1759.509;1;172;230;235.5;21.1;20.9;33;33.4;27.7;-1.0;
19/02/2025 19:03:02;117;0;164.44;-4;30.83;5.43;99.4;18.30;76575;2838.794;-1759.509;1;172;230;235.5;21.1;20.9;33;33.4;27.7;-1.0;
19/02/2025 19:03:22;117;0;160.05;-4;30.25;5.30;96.7;18.40;76585;2838.793;-1759.509;1;172;230;233.9;21.1;20.9;35;35.6;27.6;-1.0;
19/02/2025 19:03:42;117;0;155.93;-4;30.33;6.65;94.2;18.40;76588;2838.792;-1759.508;1;172;230;233.9;21.1;20.9;39;38.8;27.7;-1.0;
19/02/2025 19:04:02;117;0;157.12;-4;30.60;8.28;91.5;18.40;76600;2838.790;-1759.507;1;173;230;232.3;21.1;20.9;39;39.3;27.7;-1.0;
19/02/2025 19:04:22;117;0;158.48;-4;30.42;8.28;88.9;18.40;76613;2838.789;-1759.506;1;173;230;235.5;21.1;20.9;37;37.0;27.6;-1.0;
19/02/2025 19:04:42;117;0;159.37;-4;30.60;6.69;86.1;18.40;76618;2838.788;-1759.506;1;173;230;235.5;21.1;20.8;37;36.1;27.7;-1.0;
19/02/2025 19:05:02;117;0;158.88;-4;30.27;6.72;83.3;18.50;76625;2838.786;-1759.505;1;173;230;232.3;21.1;20.9;37;36.1;27.7;-1.0;
19/02/2025 19:05:22;117;0;157.70;-4;30.20;6.76;80.7;18.50;76628;2838.785;-1759.504;1;174;230;235.5;21.1;20.9;37;36.6;27.7;-1.0;
19/02/2025 19:05:42;117;0;161.11;-4;30.55;6.67;77.8;18.50;76637;2838.784;-1759.504;1;174;230;235.5;21.1;20.8;35;34.7;27.7;-1.0;
19/02/2025 19:06:02;117;0;161.65;-4;30.42;5.84;75.1;18.50;76645;2838.782;-1759.503;1;174;230;233.9;21.1;20.8;35;34.7;27.7;-1.0;
19/02/2025 19:06:22;117;0;159.50;-4;29.86;5.77;72.2;18.50;76658;2838.781;-1759.502;1;174;230;235.5;21.1;20.9;37;37.0;27.6;-1.0;
19/02/2025 19:06:42;117;0;156.86;-4;30.58;7.45;69.4;18.60;76668;2838.780;-1759.502;1;175;230;233.9;21.1;20.9;41;41.1;27.6;-1.0;
19/02/2025 19:07:02;117;0;157.85;-4;30.76;9.67;66.6;18.60;76689;2838.778;-1759.501;1;175;230;233.9;21.1;20.9;41;41.5;27.7;-1.0;
19/02/2025 19:07:22;117;0;159.34;-4;30.86;9.69;63.7;18.60;76686;2838.777;-1759.500;1;175;230;235.5;21.1;20.9;38;37.5;27.7;-1.0;
19/02/2025 19:07:42;117;0;158.56;-4;30.27;7.22;60.8;18.60;76690;2838.776;-1759.499;1;175;230;235.5;21.1;20.9;38;37.0;27.7;-1.0;
19/02/2025 19:08:02;117;0;159.92;-4;30.86;7.23;57.7;18.70;76702;2838.774;-1759.499;1;176;230;235.5;21.1;20.9;38;37.0;27.7;-1.0;
19/02/2025 19:08:22;117;0;160.98;-4;30.64;7.16;54.8;18.70;76710;2838.773;-1759.498;1;176;230;235.5;21.1;20.9;38;37.0;27.7;-1.0;
19/02/2025 19:08:42;117;0;161.51;-4;30.09;7.13;51.8;18.70;76714;2838.771;-1759.498;1;176;230;237.1;21.1;20.8;38;37.0;27.7;-1.0;
19/02/2025 19:09:02;117;0;162.05;-4;30.62;7.23;49.0;18.70;76711;2838.770;-1759.497;1;177;230;235.5;21.1;20.9;38;37.0;27.6;-1.0;
19/02/2025 19:09:22;117;0;161.74;-4;30.10;7.17;46.0;18.80;76726;2838.768;-1759.496;1;177;230;237.1;21.1;20.9;38;37.0;27.6;-1.0;
19/02/2025 19:09:42;117;0;161.30;-4;30.07;7.05;43.0;18.80;76730;2838.767;-1759.496;1;177;230;235.5;21.1;20.8;38;37.0;27.7;-1.0;
19/02/2025 19:10:02;117;0;161.22;-4;30.52;7.07;40.2;18.80;76721;2838.765;-1759.495;1;178;230;233.9;21.1;20.9;38;37.0;27.7;-1.0;
19/02/2025 19:10:22;117;0;160.11;-4;30.23;7.11;37.3;18.80;76732;2838.764;-1759.494;1;178;230;237.1;21.1;20.9;40;40.2;27.6;-1.0;
19/02/2025 19:10:42;117;0;159.24;-4;30.57;9.19;34.3;18.90;76733;2838.762;-1759.494;1;178;230;235.5;21.1;20.8;40;40.6;27.6;-1.0;
19/02/2025 19:11:02;117;0;159.41;-4;30.20;9.15;31.4;18.90;76740;2838.761;-1759.493;1;179;230;235.5;21.1;20.9;40;40.6;27.7;-1.0;
19/02/2025 19:11:22;117;0;159.23;-4;30.07;9.34;28.5;18.90;76743;2838.759;-1759.492;1;179;230;235.5;21.1;20.9;40;41.1;27.7;-1.0;
19/02/2025 19:11:42;117;0;160.62;-4;29.57;9.31;25.9;18.90;76750;2838.758;-1759.492;1;180;230;235.5;21.1;20.9;40;41.1;27.6;-1.0;
19/02/2025 19:12:02;117;0;161.76;-4;31.59;9.33;23.0;19.00;76754;2838.757;-1759.491;1;180;230;235.5;21.1;20.9;40;41.1;27.7;-1.0;
19/02/2025 19:12:22;117;0;162.18;-4;29.32;9.20;20.1;19.00;76760;2838.755;-1759.490;1;180;230;235.5;21.1;20.9;40;41.1;27.6;-1.0;
19/02/2025 19:12:42;117;0;164.05;-4;30.30;9.22;17.3;19.00;76762;2838.754;-1759.490;1;181;230;230.6;21.1;20.9;38;37.9;27.7;-1.0;
19/02/2025 19:13:02;117;0;164.63;-4;29.28;7.19;14.4;19.00;76755;2838.752;-1759.490;1;181;230;235.5;21.1;20.8;38;37.5;27.6;-1.0;
19/02/2025 19:13:22;117;0;165.10;-4;30.90;7.37;11.5;19.00;76771;2838.751;-1759.489;1;181;230;235.5;21.1;20.8;36;36.1;27.6;-1.0;
19/02/2025 19:13:42;117;0;165.40;-4;30.00;6.59;8.9;19.10;76775;2838.749;-1759.489;1;182;230;237.1;21.1;20.8;36;35.6;27.6;-1.0;
19/02/2025 19:14:02;117;0;166.91;-4;28.39;6.41;6.0;19.10;76780;2838.748;-1759.488;1;182;230;235.5;20.6;20.6;36;35.6;27.7;-1.0;
19/02/2025 19:14:22;117;0;168.04;-4;31.18;6.25;3.1;19.10;76782;2838.746;-1759.488;1;182;230;235.5;20.6;20.3;36;35.6;27.7;-1.0;
19/02/2025 19:14:25;115;0;169.33;-4;30.55;6.23;2.7;19.10;76782;2838.746;-1759.488;1;182;500;241.9;100.0;61.9;0;-0.5;27.6;-1.0;
19/02/2025 19:14:35;115;0;148.13;-4;13.81;-12.14;1.5;19.10;76755;2838.745;-1759.487;1;183;500;361.3;100.0;100.0;0;-0.5;27.4;-1.0;
19/02/2025 19:14:45;115;0;150.86;-4;-62.70;-16.57;2.0;19.10;76496;2838.745;-1759.487;1;183;500;474.2;100.0;100.6;0;-0.5;27.4;-1.0;
19/02/2025 19:14:55;115;0;111.65;-4;-72.76;-5.57;1.7;19.10;76234;2838.745;-1759.487;1;183;500;508.1;100.0;100.6;0;-0.5;27.4;-1.0;
19/02/2025 19:15:05;115;0;116.50;-4;-24.59;-12.05;-0.2;19.20;76190;2838.745;-1759.485;1;185;500;508.1;100.0;100.6;0;-0.5;27.6;-1.0;
19/02/2025 19:15:25;119;0;123.68;-4;-45.50;-16.19;0.1;19.20;76205;2838.745;-1759.485;1;185;500;508.1;100.0;100.7;0;-0.5;27.7;-1.0;
19/02/2025 19:15:35;119;0;120.22;-4;-48.60;-15.27;-0.2;19.20;76202;2838.676;-1759.454;0;185;500;509.7;100.0;100.7;0;-0.5;27.6;-1.0;
