Timestamp;NavState;SecurityLevel;Heading;Declination;Pitch;Roll;Depth;Temperature;Pa;Lat;Lon;DeadReckoning;DesiredH;BallastCmd;BallastPos;LinCmd;LinPos;AngCmd;AngPos;Voltage;Altitude;
17/02/2025 01:05:03;119;0;87.03;-4;-48.07;-16.36;-0.1;17.30;75761;2838.759;-1759.849;0;104;500;508.1;100.0;100.7;0;0.5;28.3;-1.0;
17/02/2025 01:05:13;116;0;104.07;-4;-60.37;-15.18;0.0;17.30;75776;2838.761;-1759.860;0;104;500;509.7;100.0;100.7;0;0.5;28.3;-1.0;
17/02/2025 01:05:39;116;0;106.10;-4;-63.63;-16.79;-0.1;17.40;75792;2838.762;-1759.862;0;104;500;509.7;100.0;100.7;0;0.5;28.3;-1.0;
17/02/2025 01:06:05;116;0;97.02;-4;-67.18;-16.61;-0.1;17.50;75801;2838.761;-1759.863;0;104;500;509.7;100.0;100.7;0;0.5;28.3;-1.0;
17/02/2025 01:06:45;116;0;96.53;-4;-53.02;-15.71;-0.1;17.60;75808;2838.765;-1759.865;0;104;500;509.7;100.0;100.7;0;0.5;28.3;-1.0;
17/02/2025 01:07:05;116;0;87.61;-4;-52.36;-14.46;-0.1;17.60;75813;2838.766;-1759.866;0;104;500;509.7;100.0;100.7;0;0.0;28.3;-1.0;
17/02/2025 01:07:25;116;0;95.27;-4;-49.22;-14.99;0.1;17.70;75814;2838.767;-1759.867;0;104;500;509.7;100.0;100.7;0;0.5;28.3;-1.0;
17/02/2025 01:07:45;116;0;72.95;-4;-58.67;-11.28;-0.1;17.80;75827;2838.769;-1759.869;0;104;500;509.7;100.0;100.9;0;0.0;28.3;-1.0;
17/02/2025 01:08:05;116;0;66.99;-4;-55.91;-11.58;-0.1;17.80;75832;2838.771;-1759.870;0;105;500;509.7;100.0;100.7;0;0.0;28.3;-1.0;
17/02/2025 01:08:25;116;0;94.96;-4;-55.24;-8.24;-0.2;17.90;75838;2838.772;-1759.874;0;105;500;509.7;100.0;100.7;0;0.5;28.3;-1.0;
17/02/2025 01:08:45;116;0;91.85;-4;-53.47;-6.80;-0.1;17.90;75843;2838.776;-1759.878;0;105;500;509.7;100.0;100.7;0;0.5;28.3;-1.0;
17/02/2025 01:09:25;116;0;85.38;-4;-53.17;-11.63;0.0;18.00;75856;2838.778;-1759.878;0;105;500;508.1;100.0;100.7;0;0.0;28.3;-1.0;
17/02/2025 01:09:40;116;0;74.16;-4;-49.68;-6.46;-0.1;18.10;75857;2838.778;-1759.879;0;-9999;500;508.1;100.0;100.7;0;0.0;28.3;-1.0;
17/02/2025 01:10:03;116;0;74.68;-4;-56.56;0.51;-0.1;18.10;75856;2838.780;-1759.880;0;106;500;508.1;100.0;100.7;0;0.5;28.3;-1.0;
17/02/2025 01:10:17;116;0;74.56;-4;-57.08;-15.07;-0.1;18.20;75868;2838.781;-1759.881;0;106;500;508.1;100.0;100.7;0;0.0;28.3;-1.0;
17/02/2025 01:10:31;116;0;88.77;-4;-48.14;-12.34;-0.0;18.20;75872;2838.782;-1759.882;0;-9999;500;508.1;100.0;100.9;0;0.0;28.3;-1.0;
17/02/2025 01:10:42;116;0;91.17;-4;-52.70;2.62;-0.0;18.20;75871;2838.784;-1759.884;0;106;500;508.1;100.0;100.7;0;0.5;28.3;-1.0;
17/02/2025 01:11:45;116;0;80.22;-4;-53.86;-9.76;-0.1;18.40;75894;2838.789;-1759.888;0;106;500;509.7;100.0;100.7;0;0.5;28.3;-1.0;
17/02/2025 01:13:43;116;0;83.34;-4;-52.40;-16.76;-0.2;18.90;75934;2838.800;-1759.895;0;107;500;508.1;100.0;100.7;0;0.0;28.3;-1.0;
17/02/2025 01:14:54;116;0;90.62;-4;-54.46;-13.59;-0.2;19.10;75956;2838.806;-1759.899;0;108;500;509.7;100.0;100.7;0;0.5;28.3;-1.0;
17/02/2025 01:16:19;116;0;94.10;-4;-57.29;-17.51;-0.1;19.50;75976;2838.813;-1759.906;0;109;500;508.1;100.0;100.7;0;0.0;28.3;-1.0;
17/02/2025 01:16:39;116;0;92.18;-4;-55.22;-8.98;-0.2;19.60;75986;2838.814;-1759.908;0;110;500;508.1;100.0;100.7;0;0.5;28.3;-1.0;
17/02/2025 01:16:59;116;0;77.16;-4;-61.51;-13.59;-0.0;19.70;76002;2838.815;-1759.907;0;110;500;509.7;100.0;100.9;0;0.0;28.3;-1.0;
17/02/2025 01:17:19;116;0;78.31;-4;-64.85;-2.14;0.0;19.70;76008;2838.817;-1759.908;0;110;500;509.7;100.0;100.7;0;0.0;28.3;-1.0;
17/02/2025 01:17:39;116;0;98.01;-4;-67.62;-6.62;-0.2;19.80;76001;2838.819;-1759.911;0;110;500;509.7;100.0;100.7;0;0.5;28.3;-1.0;
17/02/2025 01:17:59;116;0;94.84;-4;-45.64;-7.51;-0.1;19.80;76004;2838.820;-1759.912;0;110;500;509.7;100.0;100.9;0;0.0;28.3;-1.0;
17/02/2025 01:18:19;116;0;81.29;-4;-50.89;-17.56;-0.1;19.90;76017;2838.822;-1759.914;0;111;500;508.1;100.0;100.7;0;0.0;28.3;-1.0;
17/02/2025 01:18:39;116;0;84.69;-4;-60.13;-22.63;-0.1;20.00;76020;2838.825;-1759.914;0;111;500;509.7;100.0;100.7;0;0.0;28.3;-1.0;
17/02/2025 01:18:59;116;0;69.02;-4;-51.92;-2.52;-0.1;20.00;76026;2838.826;-1759.915;0;111;500;509.7;100.0;100.7;0;0.5;28.3;-1.0;
17/02/2025 01:19:19;116;0;83.39;-4;-51.56;-7.44;-0.1;20.10;76029;2838.828;-1759.916;0;111;500;509.7;100.0;100.7;0;0.5;28.3;-1.0;
17/02/2025 01:19:39;116;0;92.99;-4;-60.33;-2.79;-0.1;20.10;76028;2838.830;-1759.918;0;111;500;509.7;100.0;100.7;0;0.5;28.3;-1.0;
17/02/2025 01:19:59;116;0;92.47;-4;-53.74;-21.30;-0.1;20.20;76038;2838.832;-1759.921;0;112;500;508.1;100.0;100.7;0;0.5;28.3;-1.0;
17/02/2025 01:20:19;116;0;79.96;-4;-51.02;-14.68;-0.2;20.20;76041;2838.834;-1759.921;0;112;500;508.1;100.0;100.7;0;0.0;28.3;-1.0;
17/02/2025 01:20:39;116;0;107.91;-4;-67.15;-13.79;-0.2;20.30;76064;2838.835;-1759.922;0;112;500;509.7;100.0;100.7;0;0.5;28.3;-1.0;
17/02/2025 01:21:00;116;0;105.91;-4;-56.18;-12.07;-0.2;20.30;76056;2838.837;-1759.926;0;112;500;508.1;100.0;100.7;0;0.5;28.3;-1.0;
17/02/2025 01:21:20;116;0;116.41;-4;-55.70;-24.58;-0.2;20.40;76061;2838.838;-1759.926;0;112;500;509.7;100.0;100.7;0;0.5;28.3;-1.0;
17/02/2025 01:21:40;116;0;92.16;-4;-60.09;-15.84;-0.2;20.40;76062;2838.839;-1759.927;0;112;500;509.7;100.0;100.7;0;0.5;28.2;-1.0;
17/02/2025 01:22:00;116;0;90.78;-4;-62.07;-6.86;-0.0;20.50;76064;2838.841;-1759.929;0;112;500;508.1;100.0;100.7;0;0.0;28.3;-1.0;
17/02/2025 01:22:20;116;0;96.61;-4;-54.33;-10.87;-0.1;20.50;76070;2838.843;-1759.931;0;113;500;509.7;100.0;100.7;0;0.5;28.3;-1.0;
17/02/2025 01:22:40;116;0;99.47;-4;-50.13;-16.53;-0.1;20.50;76071;2838.843;-1759.933;0;113;500;509.7;100.0;100.7;0;0.0;28.3;-1.0;
17/02/2025 01:23:00;116;0;107.02;-4;-54.43;-7.62;-0.1;20.60;76072;2838.845;-1759.935;0;113;500;509.7;100.0;100.7;0;0.5;28.3;-1.0;
17/02/2025 01:23:20;116;0;111.96;-4;-61.79;-16.41;-0.1;20.60;76073;2838.847;-1759.937;0;113;500;508.1;100.0;100.7;0;0.0;28.3;-1.0;
17/02/2025 01:23:40;116;0;120.70;-4;-55.47;-11.20;-0.1;20.70;76087;2838.848;-1759.938;0;113;500;509.7;100.0;100.7;0;0.5;28.3;-1.0;
17/02/2025 01:24:00;116;0;129.30;-4;-58.29;-25.89;0.0;20.70;76094;2838.850;-1759.938;0;113;500;508.1;100.0;100.7;0;0.5;28.3;-1.0;
17/02/2025 01:24:20;116;0;117.01;-4;-63.11;-26.08;-0.2;20.70;76098;2838.851;-1759.940;0;113;500;509.7;100.0;100.7;0;0.0;28.3;-1.0;
17/02/2025 01:24:40;116;0;86.65;-4;-45.32;-3.64;0.1;20.80;76088;2838.853;-1759.940;0;113;500;509.7;100.0;100.9;0;0.5;28.3;-1.0;
17/02/2025 01:25:00;116;0;84.80;-4;-53.44;-11.91;-0.1;20.80;76101;2838.854;-1759.942;0;113;500;509.7;100.0;100.7;0;0.0;28.3;-1.0;
17/02/2025 01:25:20;116;0;101.83;-4;-48.16;-16.06;-0.1;20.80;76108;2838.856;-1759.943;0;114;500;508.1;100.0;100.7;0;0.5;28.3;-1.0;
17/02/2025 01:25:40;116;0;101.70;-4;-48.75;-7.55;-0.1;20.90;76109;2838.858;-1759.945;0;114;500;508.1;100.0;100.7;0;0.0;28.3;-1.0;
17/02/2025 01:26:00;116;0;110.26;-4;-51.75;-22.17;-0.2;20.90;76113;2838.856;-1759.948;0;114;500;508.1;100.0;100.7;0;0.5;28.2;-1.0;
17/02/2025 01:26:20;116;0;114.41;-4;-51.16;-10.60;-0.2;20.90;76122;2838.857;-1759.950;0;113;500;509.7;100.0;100.7;0;0.5;28.3;-1.0;
17/02/2025 01:26:40;116;0;121.87;-4;-58.80;-12.50;-0.1;21.00;76121;2838.858;-1759.952;0;113;500;509.7;100.0;100.7;0;0.5;28.3;-1.0;
17/02/2025 01:27:00;116;0;113.58;-4;-58.23;-0.36;-0.1;21.00;76128;2838.859;-1759.953;0;113;500;508.1;100.0;100.7;0;0.0;28.3;-1.0;
17/02/2025 01:27:20;116;0;109.63;-4;-57.69;-3.98;-0.1;21.00;76132;2838.860;-1759.956;0;114;500;509.7;100.0;100.9;0;0.0;28.3;-1.0;
17/02/2025 01:27:40;116;0;109.80;-4;-62.45;-13.49;-0.1;21.10;76136;2838.861;-1759.956;0;114;500;509.7;100.0;100.7;0;0.5;28.3;-1.0;
17/02/2025 01:28:00;116;0;104.96;-4;-62.03;-12.14;0.2;21.10;76136;2838.864;-1759.957;0;114;500;509.7;100.0;100.7;0;0.5;28.3;-1.0;
17/02/2025 01:28:20;116;0;90.74;-4;-47.35;-8.33;-0.1;21.10;76145;2838.865;-1759.959;0;114;500;508.1;100.0;100.7;0;0.0;28.3;-1.0;
17/02/2025 01:28:40;116;0;71.09;-4;-53.63;-9.07;-0.2;21.10;76144;2838.865;-1759.961;0;114;500;508.1;100.0;100.7;0;0.0;28.3;-1.0;
17/02/2025 01:29:00;116;0;75.59;-4;-55.30;-5.89;-0.1;21.20;76145;2838.867;-1759.962;0;114;500;509.7;100.0;100.7;0;0.5;28.3;-1.0;
17/02/2025 01:29:20;116;0;90.61;-4;-56.73;-16.47;-0.1;21.20;76147;2838.868;-1759.964;0;114;500;509.7;100.0;100.7;0;0.5;28.3;-1.0;
17/02/2025 01:29:40;116;0;102.49;-4;-55.27;-28.41;-0.1;21.20;76159;2838.869;-1759.965;0;114;500;509.7;100.0;100.7;0;0.0;28.3;-1.0;
17/02/2025 01:30:00;116;0;95.85;-4;-61.48;-8.85;-0.1;21.20;76153;2838.870;-1759.966;0;114;500;509.7;100.0;100.7;0;0.5;28.3;-1.0;
17/02/2025 01:30:20;116;0;88.62;-4;-52.90;-5.97;-0.2;21.20;76163;2838.873;-1759.966;0;114;500;508.1;100.0;100.7;0;0.5;28.3;-1.0;
17/02/2025 01:30:40;116;0;82.45;-4;-56.95;-5.77;-0.1;21.30;76150;2838.874;-1759.967;0;115;500;509.7;100.0;100.7;0;0.5;28.3;-1.0;
17/02/2025 01:31:00;116;0;110.64;-4;-58.29;-7.28;-0.1;21.30;76167;2838.877;-1759.969;0;115;500;508.1;100.0;100.7;0;0.5;28.3;-1.0;
17/02/2025 01:31:20;116;0;106.76;-4;-60.97;-0.87;-0.2;21.30;76171;2838.878;-1759.969;0;115;500;508.1;100.0;100.7;0;0.5;28.3;-1.0;
17/02/2025 01:31:40;116;0;125.54;-4;-54.11;-6.66;-0.2;21.30;76157;2838.879;-1759.970;0;115;500;509.7;100.0;100.7;0;0.5;28.3;-1.0;
17/02/2025 01:32:00;116;0;124.34;-4;-53.45;-7.39;-0.1;21.30;76170;2838.881;-1759.973;0;115;500;509.7;100.0;100.7;0;0.0;28.3;-1.0;
17/02/2025 01:32:21;116;0;121.45;-4;-53.08;-15.98;-0.2;21.40;76182;2838.883;-1759.973;0;115;500;509.7;100.0;100.7;0;0.5;28.3;-1.0;
17/02/2025 01:32:41;116;0;118.35;-4;-60.70;-2.91;-0.2;21.40;76184;2838.884;-1759.976;0;115;500;509.7;100.0;100.7;0;0.5;28.3;-1.0;
17/02/2025 01:33:01;116;0;131.83;-4;-66.32;-18.13;-0.2;21.40;76170;2838.884;-1759.976;0;115;500;508.1;100.0;100.7;0;0.5;28.3;-1.0;
17/02/2025 01:33:21;116;0;108.49;-4;-65.87;-2.88;-0.3;21.40;76183;2838.886;-1759.976;0;115;500;509.7;100.0;100.7;0;0.5;28.3;-1.0;
17/02/2025 01:33:41;116;0;110.52;-4;-59.17;-19.40;-0.1;21.40;76190;2838.888;-1759.978;0;116;500;508.1;100.0;100.7;0;0.5;28.3;-1.0;
17/02/2025 01:34:01;116;0;108.08;-4;-52.46;-14.67;-0.2;21.50;76192;2838.889;-1759.979;0;116;500;508.1;100.0;100.7;0;0.5;28.3;-1.0;
17/02/2025 01:34:21;116;0;115.30;-4;-51.85;-16.81;-0.2;21.50;76197;2838.891;-1759.982;0;116;500;508.1;100.0;100.7;0;0.5;28.3;-1.0;
17/02/2025 01:34:41;116;0;103.03;-4;-50.34;-15.58;-0.1;21.50;76202;2838.893;-1759.982;0;116;500;509.7;100.0;100.7;0;0.0;28.3;-1.0;
17/02/2025 01:35:01;116;0;99.93;-4;-51.30;-3.86;-0.2;21.50;76198;2838.894;-1759.983;0;116;500;508.1;100.0;100.7;0;0.0;28.3;-1.0;
17/02/2025 01:35:21;116;0;105.83;-4;-55.69;-4.19;-0.2;21.50;76203;2838.895;-1759.984;0;116;500;511.3;100.0;100.7;0;0.5;28.3;-1.0;
17/02/2025 01:35:41;116;0;105.85;-4;-57.88;-0.62;-0.3;21.50;76211;2838.897;-1759.985;0;116;500;509.7;100.0;100.7;0;0.5;28.3;-1.0;
17/02/2025 01:36:01;116;0;104.15;-4;-53.05;-20.38;-0.0;21.60;76213;2838.899;-1759.987;0;116;500;508.1;100.0;100.7;0;0.0;28.3;-1.0;
17/02/2025 01:36:21;116;0;61.13;-4;-47.08;-29.15;-0.2;21.60;76209;2838.899;-1759.987;0;116;500;509.7;100.0;100.7;0;0.0;28.3;-1.0;
17/02/2025 01:36:41;116;0;82.64;-4;-47.99;-1.03;-0.1;21.60;76212;2838.900;-1759.990;0;116;500;509.7;100.0;100.7;0;0.0;28.3;-1.0;
17/02/2025 01:37:01;116;0;96.07;-4;-54.54;-18.90;-0.1;21.60;76222;2838.902;-1759.991;0;116;500;509.7;100.0;100.7;0;0.5;28.3;-1.0;
17/02/2025 01:37:21;116;0;86.50;-4;-50.38;-21.27;-0.2;21.60;76217;2838.905;-1759.994;0;117;500;509.7;100.0;100.7;0;0.5;28.3;-1.0;
17/02/2025 01:37:41;116;0;98.02;-4;-46.86;-10.04;-0.2;21.60;76227;2838.906;-1759.995;0;117;500;508.1;100.0;100.7;0;0.0;28.3;-1.0;
17/02/2025 01:38:01;116;0;105.24;-4;-50.84;-17.39;-0.2;21.60;76226;2838.907;-1759.995;0;117;500;509.7;100.0;100.7;0;0.5;28.3;-1.0;
17/02/2025 01:38:21;116;0;90.13;-4;-56.56;-15.05;-0.2;21.70;76223;2838.909;-1759.997;0;117;500;509.7;100.0;100.7;0;0.0;28.3;-1.0;
17/02/2025 01:38:41;116;0;92.47;-4;-60.71;-20.82;-0.1;21.70;76233;2838.910;-1759.999;0;117;500;509.7;100.0;100.9;0;0.0;28.3;-1.0;
17/02/2025 01:38:55;116;0;104.78;-4;-59.46;-7.26;-0.1;21.70;76236;2838.912;-1759.999;0;117;500;509.7;100.0;100.7;0;0.0;28.3;-1.0;
17/02/2025 01:39:15;116;0;100.45;-4;-53.14;-16.85;-0.2;21.70;76241;2838.913;-1800.000;0;117;500;509.7;100.0;100.7;0;0.0;28.3;-1.0;
17/02/2025 01:39:35;116;0;107.33;-4;-58.71;-10.24;-0.2;21.70;76234;2838.916;-1800.003;0;117;500;509.7;100.0;100.7;0;0.5;28.3;-1.0;
17/02/2025 01:39:59;116;0;125.19;-4;-51.66;-8.80;-0.1;21.70;76239;2838.917;-1800.004;0;118;500;509.7;100.0;100.9;0;0.0;28.3;-1.0;
17/02/2025 01:40:19;116;0;130.31;-4;-53.66;-7.99;-0.3;21.70;76234;2838.917;-1800.005;0;118;500;509.7;100.0;100.7;0;0.5;28.3;-1.0;
17/02/2025 01:40:39;116;0;134.15;-4;-51.87;-12.00;-0.1;21.80;76243;2838.918;-1800.007;0;117;500;508.1;100.0;100.7;0;0.5;28.3;-1.0;
17/02/2025 01:40:59;116;0;141.65;-4;-68.84;-2.85;-0.2;21.80;76252;2838.919;-1800.008;0;118;500;509.7;100.0;100.7;0;0.0;28.3;-1.0;
17/02/2025 01:41:19;116;0;143.71;-4;-45.71;-19.90;-0.1;21.80;76246;2838.920;-1800.010;0;118;500;509.7;100.0;100.7;0;0.5;28.3;-1.0;
17/02/2025 01:41:39;116;0;119.85;-4;-55.97;-2.76;-0.2;21.80;76254;2838.923;-1800.011;0;118;500;508.1;100.0;100.9;0;0.0;28.3;-1.0;
17/02/2025 01:41:59;116;0;117.25;-4;-56.29;-21.23;-0.2;21.80;76254;2838.924;-1800.013;0;118;500;509.7;100.0;100.7;0;0.0;28.3;-1.0;
17/02/2025 01:42:19;116;0;124.42;-4;-54.25;-14.86;-0.2;21.80;76253;2838.927;-1800.014;0;118;500;509.7;100.0;100.9;0;0.5;28.3;-1.0;
17/02/2025 01:42:39;116;0;146.99;-4;-53.69;-15.10;-0.2;21.80;76268;2838.928;-1800.015;0;118;500;509.7;100.0;100.9;0;0.5;28.3;-1.0;
17/02/2025 01:42:59;116;0;150.77;-4;-55.96;-18.62;-0.2;21.80;76269;2838.927;-1800.017;0;118;500;509.7;100.0;100.7;0;0.0;28.3;-1.0;
17/02/2025 01:43:19;116;0;160.58;-4;-53.62;-13.15;-0.1;21.80;76275;2838.931;-1800.019;0;118;500;508.1;100.0;100.9;0;0.5;28.3;-1.0;
17/02/2025 01:43:35;116;0;187.84;-4;-54.90;-12.20;-0.1;21.80;76269;2838.931;-1800.019;0;118;500;508.1;100.0;100.7;0;0.5;28.3;-1.0;
17/02/2025 01:43:55;116;0;212.83;-4;-58.18;-19.46;-0.2;21.90;76271;2838.932;-1800.019;0;118;500;509.7;100.0;100.7;0;0.0;28.3;-1.0;
17/02/2025 01:44:15;116;0;200.08;-4;-59.68;-5.87;-0.2;21.90;76271;2838.933;-1800.022;0;118;500;508.1;100.0;100.9;0;0.0;28.3;-1.0;
17/02/2025 01:44:35;116;0;184.95;-4;-52.48;-16.08;-0.1;21.90;76273;2838.936;-1800.025;0;118;500;509.7;100.0;100.9;0;0.0;28.3;-1.0;
17/02/2025 01:44:59;116;0;183.18;-4;-53.34;-13.37;-0.2;21.90;76267;2838.936;-1800.026;0;118;500;509.7;100.0;100.9;0;0.5;28.3;-1.0;
17/02/2025 01:45:19;116;0;191.70;-4;-57.16;-13.97;-0.2;21.90;76286;2838.938;-1800.027;0;118;500;509.7;100.0;100.7;0;0.5;28.2;-1.0;
17/02/2025 01:45:31;116;0;177.00;-4;-54.44;-3.47;-0.2;21.90;76280;2838.939;-1800.028;0;119;500;508.1;100.0;100.7;0;0.5;28.3;-1.0;
17/02/2025 01:45:51;116;0;206.52;-4;-50.67;-2.35;-0.2;21.90;76282;2838.940;-1800.029;0;119;500;508.1;100.0;100.7;0;0.5;28.3;-1.0;
17/02/2025 01:46:11;116;0;188.84;-4;-49.49;-21.97;-0.1;21.90;76289;2838.942;-1800.032;0;119;500;509.7;100.0;100.7;0;0.0;28.3;-1.0;
17/02/2025 01:46:31;116;0;207.18;-4;-63.59;-13.11;-0.2;21.90;76295;2838.943;-1800.033;0;119;500;509.7;100.0;100.7;0;0.0;28.3;-1.0;
17/02/2025 01:46:51;116;0;208.92;-4;-47.05;-9.79;-0.1;21.90;76280;2838.945;-1800.034;0;119;500;508.1;100.0;100.9;0;0.5;28.3;-1.0;
17/02/2025 01:47:11;116;0;224.55;-4;-50.74;-17.60;-0.3;21.90;76302;2838.946;-1800.035;0;119;500;509.7;100.0;100.7;0;0.0;28.3;-1.0;
17/02/2025 01:47:31;116;0;242.05;-4;-55.88;-7.82;-0.2;21.90;76296;2838.947;-1800.038;0;119;500;509.7;100.0;100.9;0;0.0;28.3;-1.0;
17/02/2025 01:47:51;116;0;251.72;-4;-47.83;-16.20;-0.2;21.90;76299;2838.948;-1800.039;0;119;500;509.7;100.0;100.9;0;0.5;28.3;-1.0;
17/02/2025 01:48:11;116;0;238.57;-4;-57.87;-20.56;-0.1;21.90;76291;2838.950;-1800.041;0;119;500;509.7;100.0;100.9;0;0.0;28.3;-1.0;
17/02/2025 01:48:31;116;0;241.66;-4;-56.78;-7.71;-0.1;21.90;76305;2838.951;-1800.043;0;119;500;509.7;100.0;100.7;0;0.0;28.3;-1.0;
17/02/2025 01:48:51;116;0;246.69;-4;-65.42;-11.11;-0.2;21.90;76308;2838.953;-1800.046;0;119;500;508.1;100.0;100.7;0;0.0;28.1;-1.0;
17/02/2025 01:49:11;116;0;277.92;-4;-55.76;-20.21;-0.2;21.90;76307;2838.953;-1800.047;0;119;500;509.7;100.0;100.7;0;0.0;28.3;-1.0;
17/02/2025 01:49:31;116;0;302.32;-4;-57.14;-8.70;-0.1;22.00;76321;2838.955;-1800.048;0;119;500;509.7;100.0;100.7;0;0.5;28.3;-1.0;
17/02/2025 01:49:51;116;0;328.29;-4;-61.34;-8.16;-0.2;22.00;76309;2838.956;-1800.050;0;119;500;509.7;100.0;100.7;0;0.0;28.3;-1.0;
17/02/2025 01:50:11;116;0;337.17;-4;-60.71;-18.56;-0.3;22.00;76312;2838.958;-1800.052;0;119;500;509.7;100.0;100.7;0;0.0;28.3;-1.0;
17/02/2025 01:50:31;116;0;333.80;-4;-52.90;-18.39;-0.2;22.00;76322;2838.959;-1800.053;0;119;500;509.7;100.0;100.7;0;0.0;28.3;-1.0;
17/02/2025 01:50:51;116;0;334.36;-4;-60.05;-5.54;-0.2;22.00;76322;2838.960;-1800.056;0;119;500;509.7;100.0;100.7;0;0.0;28.3;-1.0;
17/02/2025 01:51:11;116;0;0.79;-4;-50.41;-10.95;-0.2;22.00;76318;2838.961;-1800.057;0;119;500;509.7;100.0;100.7;0;0.0;28.3;-1.0;
17/02/2025 01:51:31;116;0;28.37;-4;-47.59;-6.84;-0.2;22.00;76315;2838.962;-1800.058;0;119;500;509.7;100.0;100.7;0;0.5;28.3;-1.0;
17/02/2025 01:51:51;116;0;41.23;-4;-51.15;-3.63;-0.1;22.00;76323;2838.963;-1800.059;0;119;500;509.7;100.0;100.7;0;0.0;28.3;-1.0;
17/02/2025 01:52:11;116;0;57.80;-4;-52.65;-20.89;-0.2;22.00;76323;2838.966;-1800.061;0;119;500;509.7;100.0;100.7;0;0.0;28.3;-1.0;
17/02/2025 01:52:31;116;0;66.58;-4;-53.08;-7.42;-0.2;22.00;76325;2838.967;-1800.062;0;120;500;509.7;100.0;100.7;0;0.5;28.3;-1.0;
17/02/2025 01:52:51;116;0;86.46;-4;-55.40;-18.24;-0.2;22.00;76319;2838.969;-1800.063;0;120;500;509.7;100.0;100.7;0;0.5;28.3;-1.0;
17/02/2025 01:53:11;116;0;84.54;-4;-57.08;-11.58;-0.2;22.10;76341;2838.970;-1800.064;0;120;500;509.7;100.0;100.7;0;0.5;28.3;-1.0;
17/02/2025 01:53:31;116;0;82.97;-4;-53.53;-12.24;-0.1;22.10;76339;2838.971;-1800.066;0;120;500;509.7;100.0;100.9;0;0.5;28.3;-1.0;
17/02/2025 01:53:51;116;0;51.97;-4;-48.75;-4.01;-0.2;22.10;76346;2838.973;-1800.067;0;120;500;509.7;100.0;100.7;0;0.0;28.3;-1.0;
17/02/2025 01:54:11;116;0;54.06;-4;-57.12;-5.56;-0.2;22.10;76340;2838.972;-1800.067;0;120;500;508.1;100.0;100.7;0;0.0;28.3;-1.0;
17/02/2025 01:54:31;116;0;66.61;-4;-56.51;-13.47;-0.1;22.10;76331;2838.976;-1800.069;0;120;500;509.7;100.0;100.7;0;0.5;28.3;-1.0;
17/02/2025 01:54:52;116;0;40.73;-4;-54.13;-5.87;-0.1;22.10;76340;2838.977;-1800.070;0;120;500;508.1;100.0;100.7;0;0.0;28.3;-1.0;
17/02/2025 01:55:12;116;0;18.21;-4;-53.71;-16.56;-0.2;22.10;76342;2838.979;-1800.072;0;120;500;509.7;100.0;100.9;0;0.5;28.3;-1.0;
17/02/2025 01:55:32;116;0;43.70;-4;-54.59;-17.80;-0.1;22.10;76342;2838.981;-1800.073;0;120;500;509.7;100.0;100.7;0;0.5;28.3;-1.0;
17/02/2025 01:55:52;116;0;38.48;-4;-52.94;-27.08;-0.2;22.10;76347;2838.982;-1800.075;0;120;500;509.7;100.0;100.9;0;0.0;28.3;-1.0;
17/02/2025 01:56:12;116;0;31.20;-4;-50.55;-13.69;-0.3;22.10;76353;2838.983;-1800.075;0;120;500;509.7;100.0;100.7;0;0.5;28.3;-1.0;
17/02/2025 01:56:32;116;0;11.03;-4;-53.86;-13.62;-0.2;22.10;76350;2838.984;-1800.076;0;120;500;509.7;100.0;100.7;0;0.0;28.3;-1.0;
17/02/2025 01:56:52;116;0;7.77;-4;-54.76;-13.29;-0.2;22.10;76347;2838.986;-1800.078;0;120;500;508.1;100.0;100.7;0;0.5;28.3;-1.0;
17/02/2025 01:57:12;116;0;29.10;-4;-57.67;-21.23;-0.1;22.10;76360;2838.987;-1800.078;0;121;500;508.1;100.0;100.7;0;0.0;28.3;-1.0;
17/02/2025 01:57:32;116;0;34.76;-4;-62.39;-6.85;-0.0;22.20;76371;2838.988;-1800.080;0;121;500;509.7;100.0;100.7;0;0.5;28.3;-1.0;
17/02/2025 01:57:52;116;0;43.01;-4;-57.52;-7.53;-0.1;22.10;76355;2838.989;-1800.081;0;121;500;509.7;100.0;100.7;0;0.0;28.3;-1.0;
17/02/2025 01:58:12;116;0;49.15;-4;-61.03;-13.76;-0.2;22.10;76360;2838.990;-1800.081;0;121;500;509.7;100.0;100.7;0;0.0;28.3;-1.0;
17/02/2025 01:58:32;116;0;34.99;-4;-57.45;-0.93;-0.2;22.20;76371;2838.991;-1800.082;0;121;500;509.7;100.0;100.7;0;0.5;28.3;-1.0;
17/02/2025 01:58:52;116;0;16.23;-4;-48.81;-1.84;-0.3;22.20;76376;2838.991;-1800.083;0;121;500;508.1;100.0;100.7;0;0.0;28.3;-1.0;
17/02/2025 01:59:12;116;0;49.83;-4;-51.34;-5.68;-0.2;22.20;76371;2838.993;-1800.084;0;121;500;506.5;100.0;100.7;0;0.5;28.3;-1.0;
17/02/2025 01:59:32;116;0;34.19;-4;-58.48;-18.28;-0.2;22.20;76376;2838.994;-1800.085;0;121;500;509.7;100.0;100.7;0;0.5;28.3;-1.0;
17/02/2025 01:59:52;116;0;41.16;-4;-53.46;-21.39;-0.2;22.20;76375;2838.995;-1800.086;0;121;500;509.7;100.0;100.7;0;0.5;28.3;-1.0;
17/02/2025 02:00:12;116;0;22.81;-4;-54.49;-16.05;-0.2;22.20;76372;2838.996;-1800.086;0;121;500;509.7;100.0;100.7;0;0.5;28.3;-1.0;
17/02/2025 02:00:32;116;0;24.65;-4;-60.95;-21.51;-0.2;22.20;76380;2838.997;-1800.087;0;121;500;509.7;100.0;100.7;0;0.0;28.3;-1.0;
17/02/2025 02:00:52;116;0;28.62;-4;-61.20;-10.84;-0.2;22.20;76377;2838.998;-1800.089;0;121;500;509.7;100.0;100.9;0;0.5;28.3;-1.0;
17/02/2025 02:01:12;116;0;32.91;-4;-54.95;-19.28;-0.2;22.20;76379;2838.999;-1800.090;0;121;500;508.1;100.0;100.7;0;0.5;28.3;-1.0;
17/02/2025 02:01:32;116;0;41.53;-4;-54.21;-11.03;-0.1;22.20;76381;2839.000;-1800.091;0;121;500;509.7;100.0;100.7;0;0.5;28.3;-1.0;
17/02/2025 02:01:52;116;0;46.91;-4;-56.69;-7.43;-0.1;22.20;76392;2839.001;-1800.093;0;121;500;509.7;100.0;100.7;0;0.5;28.1;-1.0;
17/02/2025 02:02:12;116;0;18.27;-4;-55.18;-15.15;-0.2;22.20;76384;2839.002;-1800.094;0;121;500;509.7;100.0;100.7;0;0.0;28.3;-1.0;
17/02/2025 02:02:32;116;0;40.36;-4;-59.82;-12.04;-0.3;22.20;76386;2839.002;-1800.095;0;121;500;509.7;100.0;100.7;0;0.0;28.3;-1.0;
17/02/2025 02:02:52;116;0;60.45;-4;-46.08;-9.32;-0.1;22.30;76397;2839.004;-1800.096;0;121;500;509.7;100.0;100.7;0;0.0;28.3;-1.0;
17/02/2025 02:03:10;116;0;47.63;-4;-53.64;-11.16;-0.1;22.30;76388;2839.005;-1800.097;0;121;500;508.1;100.0;100.7;0;0.0;28.3;-1.0;
17/02/2025 02:03:30;116;0;32.19;-4;-56.81;-3.69;0.1;22.30;76391;2839.006;-1800.098;0;121;500;508.1;100.0;100.7;0;0.0;28.3;-1.0;
17/02/2025 02:03:50;116;0;33.00;-4;-59.06;-15.49;-0.2;22.30;76397;2839.007;-1800.099;0;121;500;509.7;100.0;100.7;0;0.0;28.3;-1.0;
17/02/2025 02:04:05;116;0;29.26;-4;-51.46;-22.73;-0.2;22.30;76392;2839.008;-1800.099;0;121;500;508.1;100.0;100.9;0;0.0;28.3;-1.0;
17/02/2025 02:04:25;116;0;31.72;-4;-57.86;-13.99;-0.2;22.30;76403;2839.008;-1800.100;0;121;500;508.1;100.0;100.7;0;0.5;28.3;-1.0;
17/02/2025 02:04:36;116;0;30.46;-4;-59.35;-9.66;-0.2;22.30;76400;2839.009;-1800.101;0;121;500;509.7;100.0;100.7;0;0.5;28.3;-1.0;
17/02/2025 02:04:56;116;0;28.27;-4;-50.99;-15.23;-0.2;22.30;76403;2839.010;-1800.102;0;121;500;508.1;100.0;100.7;0;0.5;28.3;-1.0;
17/02/2025 02:05:16;116;0;28.99;-4;-54.78;1.64;-0.3;22.30;76400;2839.010;-1800.103;0;121;500;509.7;100.0;100.7;0;0.0;28.3;-1.0;
17/02/2025 02:05:36;116;0;56.33;-4;-57.86;-13.43;-0.2;22.30;76403;2839.012;-1800.104;0;121;500;508.1;100.0;100.7;0;0.5;28.3;-1.0;
17/02/2025 02:05:56;116;0;81.05;-4;-57.64;-11.39;-0.2;22.30;76400;2839.012;-1800.105;0;121;500;508.1;100.0;100.7;0;0.0;28.3;-1.0;
17/02/2025 02:06:16;116;0;51.34;-4;-56.74;-2.83;-0.1;22.30;76405;2839.013;-1800.106;0;121;500;508.1;100.0;100.7;0;0.5;28.3;-1.0;
17/02/2025 02:06:36;116;0;38.97;-4;-54.21;-21.16;-0.2;22.30;76406;2839.014;-1800.107;0;122;500;509.7;100.0;100.7;0;0.0;28.3;-1.0;
17/02/2025 02:06:56;116;0;57.32;-4;-57.44;-18.61;-0.1;22.30;76408;2839.014;-1800.108;0;122;500;509.7;100.0;100.7;0;0.0;28.3;-1.0;
17/02/2025 02:07:16;116;0;42.17;-4;-58.58;-16.22;-0.2;22.30;76400;2839.015;-1800.109;0;122;500;508.1;100.0;100.7;0;0.0;28.3;-1.0;
17/02/2025 02:07:36;116;0;20.84;-4;-51.80;-4.99;-0.3;22.30;76409;2839.016;-1800.111;0;122;500;509.7;100.0;100.7;0;0.0;28.3;-1.0;
17/02/2025 02:07:56;116;0;19.36;-4;-51.68;-11.38;-0.1;22.30;76414;2839.016;-1800.111;0;122;500;509.7;100.0;100.7;0;0.0;28.3;-1.0;
17/02/2025 02:08:16;116;0;30.66;-4;-57.53;-3.23;-0.1;22.30;76410;2839.018;-1800.113;0;122;500;509.7;100.0;100.7;0;0.5;28.3;-1.0;
17/02/2025 02:08:36;116;0;16.26;-4;-51.64;-7.33;-0.2;22.30;76416;2839.018;-1800.114;0;122;500;509.7;100.0;100.7;0;0.5;28.3;-1.0;
17/02/2025 02:08:56;116;0;25.71;-4;-52.16;-9.02;-0.2;22.30;76416;2839.019;-1800.115;0;122;500;508.1;100.0;100.7;0;0.0;28.3;-1.0;
17/02/2025 02:09:16;116;0;37.62;-4;-61.56;-3.43;-0.1;22.30;76419;2839.020;-1800.116;0;122;500;509.7;100.0;100.7;0;0.5;28.3;-1.0;
17/02/2025 02:09:36;116;0;45.21;-4;-53.17;-12.78;-0.1;22.30;76424;2839.021;-1800.117;0;122;500;509.7;100.0;100.7;0;0.5;28.3;-1.0;
17/02/2025 02:09:56;116;0;62.07;-4;-55.57;-4.37;-0.2;22.30;76421;2839.021;-1800.117;0;122;500;508.1;100.0;100.7;0;0.5;28.3;-1.0;
17/02/2025 02:10:16;116;0;64.19;-4;-56.60;-13.77;-0.2;22.40;76426;2839.023;-1800.118;0;122;500;509.7;100.0;100.9;0;0.5;28.3;-1.0;
17/02/2025 02:10:36;116;0;66.78;-4;-57.53;-26.46;-0.3;22.30;76409;2839.022;-1800.119;0;122;500;509.7;100.0;100.9;0;0.5;28.3;-1.0;
17/02/2025 02:10:56;116;0;46.76;-4;-48.60;-6.96;-0.2;22.40;76429;2839.024;-1800.122;0;122;500;506.5;100.0;100.7;0;0.0;28.3;-1.0;
17/02/2025 02:11:16;116;0;57.39;-4;-47.74;-17.39;-0.2;22.40;76434;2839.024;-1800.123;0;122;500;509.7;100.0;100.7;0;0.0;28.3;-1.0;
17/02/2025 02:11:36;116;0;73.42;-4;-54.95;-20.66;-0.2;22.40;76422;2839.025;-1800.123;0;122;500;508.1;100.0;100.7;0;0.5;28.3;-1.0;
17/02/2025 02:11:56;116;0;67.73;-4;-62.18;-10.78;-0.2;22.40;76431;2839.026;-1800.124;0;122;500;509.7;100.0;101.0;0;0.5;28.3;-1.0;
17/02/2025 02:12:16;116;0;54.87;-4;-58.18;-8.75;-0.1;22.40;76434;2839.026;-1800.125;0;122;500;509.7;100.0;100.7;0;0.5;28.3;-1.0;
17/02/2025 02:12:37;116;0;53.97;-4;-59.53;-1.70;0.0;22.40;76431;2839.027;-1800.125;0;122;500;509.7;100.0;100.9;0;0.5;28.3;-1.0;
17/02/2025 02:12:57;116;0;46.09;-4;-65.43;2.14;-0.1;22.40;76431;2839.027;-1800.125;0;122;500;508.1;100.0;100.7;0;0.0;28.3;-1.0;
17/02/2025 02:13:17;116;0;56.08;-4;-57.08;-5.35;-0.1;22.40;76436;2839.028;-1800.127;0;122;500;509.7;100.0;100.7;0;0.5;28.3;-1.0;
17/02/2025 02:13:37;116;0;38.85;-4;-58.52;-11.08;-0.2;22.40;76434;2839.028;-1800.127;0;122;500;509.7;100.0;100.7;0;0.0;28.3;-1.0;
17/02/2025 02:13:57;116;0;36.93;-4;-57.46;-11.62;-0.2;22.40;76447;2839.029;-1800.128;0;122;500;509.7;100.0;100.7;0;0.0;28.3;-1.0;
17/02/2025 02:14:17;116;0;48.12;-4;-52.32;-11.13;-0.3;22.40;76442;2839.030;-1800.128;0;122;500;509.7;100.0;100.7;0;0.0;28.3;-1.0;
17/02/2025 02:14:37;116;0;42.17;-4;-54.74;-7.49;-0.2;22.40;76440;2839.031;-1800.130;0;122;500;508.1;100.0;100.7;0;0.0;28.3;-1.0;
17/02/2025 02:14:57;116;0;44.14;-4;-54.43;-20.01;-0.2;22.40;76443;2839.032;-1800.131;0;122;500;509.7;100.0;100.9;0;0.5;28.3;-1.0;
17/02/2025 02:15:17;116;0;52.36;-4;-51.00;-18.23;-0.2;22.40;76440;2839.032;-1800.133;0;122;500;508.1;100.0;100.7;0;0.0;28.3;-1.0;
17/02/2025 02:15:37;116;0;45.46;-4;-56.96;-12.15;-0.2;22.40;76437;2839.033;-1800.133;0;122;500;508.1;100.0;100.9;0;0.5;28.3;-1.0;
17/02/2025 02:15:57;116;0;41.73;-4;-54.33;-20.43;-0.2;22.40;76443;2839.034;-1800.134;0;122;500;509.7;100.0;100.7;0;0.0;28.3;-1.0;
17/02/2025 02:16:17;116;0;35.19;-4;-59.13;-4.84;-0.2;22.40;76453;2839.034;-1800.135;0;122;500;509.7;100.0;100.7;0;0.0;28.3;-1.0;
17/02/2025 02:16:37;116;0;23.33;-4;-51.32;-18.82;-0.3;22.40;76453;2839.034;-1800.135;0;122;500;508.1;100.0;100.7;0;0.0;28.3;-1.0;
17/02/2025 02:16:57;116;0;26.90;-4;-50.44;-7.95;-0.2;22.40;76456;2839.035;-1800.136;0;122;500;509.7;100.0;100.7;0;0.0;28.3;-1.0;
17/02/2025 02:17:17;116;0;27.33;-4;-53.89;-9.33;-0.2;22.50;76450;2839.035;-1800.137;0;122;500;508.1;100.0;100.7;0;0.5;28.3;-1.0;
17/02/2025 02:17:37;116;0;56.95;-4;-54.38;-8.27;-0.2;22.50;76461;2839.037;-1800.139;0;122;500;508.1;100.0;100.7;0;0.0;28.3;-1.0;
17/02/2025 02:17:57;116;0;55.75;-4;-52.61;-14.09;-0.2;22.50;76461;2839.038;-1800.140;0;122;500;509.7;100.0;100.7;0;0.0;28.3;-1.0;
17/02/2025 02:18:17;116;0;28.23;-4;-51.03;-22.14;-0.3;22.50;76458;2839.038;-1800.140;0;122;500;509.7;100.0;100.7;0;0.5;28.2;-1.0;
17/02/2025 02:18:37;116;0;66.12;-4;-57.98;-7.90;-0.2;22.50;76461;2839.038;-1800.140;0;122;500;509.7;100.0;100.7;0;0.5;28.3;-1.0;
17/02/2025 02:18:57;116;0;81.56;-4;-64.11;-10.16;-0.3;22.50;76464;2839.040;-1800.141;0;122;500;509.7;100.0;100.7;0;0.5;28.3;-1.0;
17/02/2025 02:19:17;116;0;58.43;-4;-50.70;-21.25;-0.3;22.50;76460;2839.040;-1800.142;0;122;500;509.7;100.0;100.7;0;0.0;28.3;-1.0;
17/02/2025 02:19:37;116;0;51.17;-4;-50.85;-4.02;-0.2;22.50;76477;2839.041;-1800.143;0;122;500;509.7;100.0;100.7;0;0.0;28.3;-1.0;
17/02/2025 02:19:57;116;0;44.17;-4;-52.70;-15.64;-0.2;22.50;76462;2839.041;-1800.144;0;122;500;509.7;100.0;100.7;0;0.5;28.3;-1.0;
17/02/2025 02:20:17;116;0;41.37;-4;-56.63;-8.70;-0.2;22.50;76471;2839.041;-1800.144;0;122;500;508.1;100.0;100.9;0;0.0;28.3;-1.0;
17/02/2025 02:20:37;116;0;59.62;-4;-55.66;-19.90;-0.2;22.50;76473;2839.043;-1800.145;0;122;500;508.1;100.0;100.7;0;0.0;28.3;-1.0;
17/02/2025 02:20:57;116;0;29.04;-4;-49.94;-9.65;-0.2;22.50;76476;2839.043;-1800.145;0;122;500;509.7;100.0;100.9;0;0.0;28.3;-1.0;
17/02/2025 02:21:17;116;0;39.92;-4;-57.10;-32.51;-0.2;22.50;76464;2839.044;-1800.146;0;122;500;509.7;100.0;100.7;0;0.0;28.3;-1.0;
17/02/2025 02:21:37;116;0;51.18;-4;-53.90;-12.41;-0.2;22.50;76467;2839.045;-1800.146;0;122;500;509.7;100.0;100.7;0;0.5;28.3;-1.0;
17/02/2025 02:21:57;116;0;70.17;-4;-58.76;-11.99;-0.3;22.50;76472;2839.046;-1800.148;0;122;500;508.1;100.0;100.7;0;0.0;28.3;-1.0;
17/02/2025 02:22:17;116;0;88.36;-4;-59.31;-13.78;-0.1;22.50;76480;2839.046;-1800.149;0;122;500;511.3;100.0;100.7;0;0.0;28.3;-1.0;
17/02/2025 02:22:37;116;0;98.19;-4;-55.31;-26.57;-0.3;22.60;76485;2839.046;-1800.149;0;122;500;508.1;100.0;100.7;0;0.5;28.1;-1.0;
17/02/2025 02:22:57;116;0;84.19;-4;-53.15;-11.53;-0.3;22.60;76491;2839.047;-1800.149;0;122;500;508.1;100.0;100.7;0;0.5;28.3;-1.0;
17/02/2025 02:23:17;116;0;85.40;-4;-53.75;-7.56;-0.2;22.60;76488;2839.047;-1800.149;0;122;500;508.1;100.0;100.7;0;0.5;28.2;-1.0;
17/02/2025 02:23:37;116;0;74.29;-4;-60.21;-14.71;-0.2;22.60;76475;2839.048;-1800.149;0;122;500;509.7;100.0;100.7;0;0.0;28.3;-1.0;
17/02/2025 02:23:58;116;0;81.04;-4;-59.22;-9.49;-0.3;22.60;76489;2839.048;-1800.151;0;122;500;509.7;100.0;100.7;0;0.5;28.3;-1.0;
17/02/2025 02:24:18;116;0;79.32;-4;-52.66;-13.32;-0.2;22.60;76476;2839.048;-1800.151;0;122;500;509.7;100.0;100.7;0;0.5;28.3;-1.0;
17/02/2025 02:24:38;116;0;85.94;-4;-66.30;-9.94;-0.2;22.60;76504;2839.050;-1800.152;0;122;500;509.7;100.0;100.7;0;0.0;28.3;-1.0;
17/02/2025 02:24:58;116;0;91.77;-4;-52.71;-18.45;-0.2;22.60;76491;2839.051;-1800.153;0;122;500;509.7;100.0;100.7;0;0.5;28.3;-1.0;
17/02/2025 02:25:18;116;0;64.00;-4;-57.02;-11.51;-0.2;22.60;76494;2839.050;-1800.154;0;122;500;508.1;100.0;100.7;0;0.0;28.3;-1.0;
17/02/2025 02:25:38;116;0;61.32;-4;-52.41;-10.59;-0.3;22.60;76497;2839.050;-1800.154;0;122;500;508.1;100.0;100.7;0;0.5;28.3;-1.0;
17/02/2025 02:25:58;116;0;75.67;-4;-54.37;-2.18;-0.3;22.60;76491;2839.051;-1800.155;0;122;500;509.7;100.0;100.7;0;0.0;28.3;-1.0;
17/02/2025 02:26:18;116;0;68.33;-4;-49.25;-10.28;-0.2;22.60;76497;2839.052;-1800.154;0;122;500;508.1;100.0;100.7;0;0.5;28.3;-1.0;
17/02/2025 02:26:38;116;0;58.46;-4;-52.78;-17.05;-0.2;22.60;76496;2839.052;-1800.154;0;122;500;508.1;100.0;100.7;0;0.5;28.3;-1.0;
17/02/2025 02:26:58;116;0;61.47;-4;-50.15;-14.49;-0.1;22.60;76499;2839.052;-1800.155;0;122;500;509.7;100.0;100.7;0;0.0;28.3;-1.0;
17/02/2025 02:27:18;116;0;56.31;-4;-63.98;-22.85;-0.3;22.60;76499;2839.052;-1800.155;0;122;500;506.5;100.0;100.7;0;0.0;28.3;-1.0;
17/02/2025 02:27:38;116;0;52.26;-4;-61.70;-20.50;-0.3;22.60;76499;2839.053;-1800.155;0;122;500;509.7;100.0;100.7;0;0.5;28.3;-1.0;
17/02/2025 02:27:58;116;0;44.15;-4;-52.98;-20.76;-0.2;22.60;76508;2839.052;-1800.155;0;122;500;509.7;100.0;100.7;0;0.0;28.3;-1.0;
17/02/2025 02:28:18;116;0;67.67;-4;-58.32;-14.91;-0.2;22.60;76508;2839.053;-1800.156;0;122;500;509.7;100.0;100.7;0;0.5;28.3;-1.0;
17/02/2025 02:28:38;116;0;82.68;-4;-52.16;-4.20;-0.3;22.60;76503;2839.054;-1800.157;0;122;500;509.7;100.0;100.7;0;0.0;28.3;-1.0;
17/02/2025 02:28:58;116;0;73.20;-4;-51.65;-12.43;-0.2;22.60;76503;2839.055;-1800.158;0;122;500;509.7;100.0;100.7;0;0.0;28.3;-1.0;
17/02/2025 02:29:18;116;0;92.74;-4;-62.72;-3.84;-0.2;22.70;76513;2839.055;-1800.157;0;122;500;508.1;100.0;100.9;0;0.5;28.3;-1.0;
17/02/2025 02:29:38;116;0;74.81;-4;-54.71;-3.46;-0.1;22.60;76505;2839.054;-1800.158;0;122;500;509.7;100.0;100.7;0;0.5;28.3;-1.0;
17/02/2025 02:29:58;116;0;62.71;-4;-57.94;-16.48;-0.2;22.70;76513;2839.054;-1800.158;0;122;500;508.1;100.0;100.7;0;0.5;28.3;-1.0;
17/02/2025 02:30:18;116;0;71.75;-4;-53.70;-5.56;-0.3;22.60;76511;2839.055;-1800.159;0;122;500;508.1;100.0;100.7;0;0.0;28.3;-1.0;
17/02/2025 02:30:38;116;0;103.83;-4;-58.40;-14.50;-0.3;22.70;76513;2839.056;-1800.158;0;123;500;508.1;100.0;100.9;0;0.5;28.3;-1.0;
17/02/2025 02:30:58;116;0;97.12;-4;-53.26;-14.42;-0.3;22.70;76516;2839.056;-1800.158;0;123;500;509.7;100.0;100.7;0;0.0;28.3;-1.0;
17/02/2025 02:31:18;116;0;91.49;-4;-49.40;-17.16;-0.3;22.60;76502;2839.056;-1800.159;0;123;500;509.7;100.0;100.7;0;0.0;28.3;-1.0;
17/02/2025 02:31:38;116;0;63.65;-4;-51.96;-14.10;-0.2;22.70;76512;2839.056;-1800.159;0;123;500;508.1;100.0;100.7;0;0.5;28.3;-1.0;
17/02/2025 02:31:58;116;0;46.50;-4;-62.14;-17.68;-0.2;22.70;76516;2839.056;-1800.160;0;123;500;509.7;100.0;100.7;0;0.0;28.3;-1.0;
17/02/2025 02:32:18;116;0;43.71;-4;-60.91;-4.49;-0.2;22.70;76518;2839.056;-1800.160;0;122;500;509.7;100.0;100.7;0;0.5;28.3;-1.0;
17/02/2025 02:32:38;116;0;49.33;-4;-50.06;-5.06;-0.3;22.70;76524;2839.056;-1800.161;0;123;500;508.1;100.0;100.7;0;0.0;28.3;-1.0;
17/02/2025 02:32:58;116;0;58.14;-4;-49.66;-10.12;-0.3;22.70;76516;2839.056;-1800.161;0;122;500;508.1;100.0;100.9;0;0.0;28.3;-1.0;
17/02/2025 02:33:18;116;0;60.26;-4;-53.21;-6.95;-0.3;22.70;76521;2839.056;-1800.160;0;122;500;508.1;100.0;100.9;0;0.5;28.3;-1.0;
17/02/2025 02:33:38;116;0;78.08;-4;-58.47;-5.01;-0.3;22.70;76521;2839.057;-1800.161;0;122;500;508.1;100.0;100.7;0;0.5;28.3;-1.0;
17/02/2025 02:33:58;116;0;58.34;-4;-47.96;-16.62;-0.2;22.70;76538;2839.056;-1800.161;0;122;500;509.7;100.0;100.9;0;0.0;28.3;-1.0;
17/02/2025 02:34:18;116;0;70.28;-4;-58.45;-20.38;-0.3;22.70;76518;2839.057;-1800.162;0;122;500;509.7;100.0;100.9;0;0.5;28.3;-1.0;
17/02/2025 02:34:39;116;0;69.22;-4;-60.01;-7.63;-0.3;22.70;76527;2839.057;-1800.162;0;122;500;509.7;100.0;100.7;0;0.0;28.3;-1.0;
17/02/2025 02:34:59;116;0;66.08;-4;-58.25;-11.25;-0.3;22.70;76526;2839.057;-1800.162;0;122;500;509.7;100.0;100.7;0;0.5;28.3;-1.0;
17/02/2025 02:35:19;116;0;64.35;-4;-50.80;-14.82;-0.1;22.70;76535;2839.057;-1800.161;0;123;500;508.1;100.0;100.7;0;0.5;28.2;-1.0;
17/02/2025 02:35:39;116;0;62.62;-4;-52.63;-8.79;-0.3;22.70;76529;2839.056;-1800.160;0;123;500;509.7;100.0;100.7;0;0.5;28.3;-1.0;
17/02/2025 02:35:59;116;0;62.52;-4;-56.83;-0.33;-0.2;22.70;76529;2839.056;-1800.161;0;123;500;509.7;100.0;100.9;0;0.0;28.3;-1.0;
17/02/2025 02:36:19;116;0;43.86;-4;-53.32;-8.53;-0.2;22.70;76537;2839.056;-1800.161;0;122;500;508.1;100.0;100.7;0;0.5;28.3;-1.0;
17/02/2025 02:36:39;116;0;49.30;-4;-56.34;-11.44;-0.2;22.70;76534;2839.056;-1800.162;0;122;500;509.7;100.0;100.7;0;0.0;28.2;-1.0;
17/02/2025 02:36:59;116;0;65.05;-4;-51.23;-3.05;-0.3;22.70;76537;2839.057;-1800.162;0;122;500;508.1;100.0;100.7;0;0.5;28.3;-1.0;
17/02/2025 02:37:19;116;0;61.63;-4;-50.44;-10.45;-0.3;22.70;76540;2839.056;-1800.161;0;122;500;508.1;100.0;100.7;0;0.5;28.3;-1.0;
17/02/2025 02:37:39;116;0;77.96;-4;-56.96;-18.33;-0.2;22.70;76540;2839.056;-1800.161;0;122;500;509.7;100.0;100.7;0;0.5;28.3;-1.0;
17/02/2025 02:37:59;116;0;88.29;-4;-58.30;-12.36;-0.2;22.70;76545;2839.057;-1800.161;0;122;500;508.1;100.0;100.7;0;0.0;28.3;-1.0;
17/02/2025 02:38:19;116;0;82.09;-4;-59.08;2.60;-0.1;22.70;76534;2839.057;-1800.161;0;123;500;508.1;100.0;100.7;0;0.0;28.3;-1.0;
17/02/2025 02:38:39;116;0;87.86;-4;-50.69;-16.29;-0.2;22.70;76545;2839.057;-1800.160;0;123;500;508.1;100.0;100.7;0;0.5;28.3;-1.0;
17/02/2025 02:38:59;116;0;95.43;-4;-59.55;-19.55;-0.3;22.70;76542;2839.055;-1800.159;0;123;500;508.1;100.0;100.7;0;0.0;28.3;-1.0;
17/02/2025 02:39:19;116;0;92.25;-4;-50.55;-9.02;-0.1;22.70;76545;2839.054;-1800.159;0;122;500;508.1;100.0;100.7;0;0.5;28.3;-1.0;
17/02/2025 02:39:39;116;0;96.30;-4;-59.37;-19.38;-0.3;22.70;76548;2839.055;-1800.159;0;122;500;508.1;100.0;100.7;0;0.5;28.3;-1.0;
17/02/2025 02:39:59;116;0;89.34;-4;-46.41;-9.54;-0.3;22.70;76545;2839.055;-1800.160;0;122;500;508.1;100.0;100.7;0;0.0;28.3;-1.0;
17/02/2025 02:40:19;116;0;103.17;-4;-50.94;-12.41;-0.3;22.70;76551;2839.054;-1800.160;0;122;500;509.7;100.0;100.9;0;0.0;28.3;-1.0;
17/02/2025 02:40:39;116;0;103.60;-4;-54.14;-21.67;-0.2;22.70;76549;2839.054;-1800.159;0;122;500;508.1;100.0;100.7;0;0.0;28.1;-1.0;
17/02/2025 02:40:59;116;0;83.88;-4;-55.65;-4.12;-0.2;22.70;76539;2839.053;-1800.159;0;122;500;509.7;100.0;100.7;0;0.0;28.3;-1.0;
17/02/2025 02:41:19;116;0;65.22;-4;-56.57;-8.12;-0.2;22.70;76550;2839.053;-1800.159;0;122;500;508.1;100.0;100.9;0;0.5;28.3;-1.0;
17/02/2025 02:41:39;116;0;69.75;-4;-57.46;-10.55;-0.3;22.70;76547;2839.053;-1800.160;0;122;500;509.7;100.0;100.9;0;0.0;28.1;-1.0;
17/02/2025 02:41:59;116;0;48.54;-4;-49.79;-12.55;-0.2;22.70;76547;2839.053;-1800.160;0;122;500;508.1;100.0;100.7;0;0.0;28.3;-1.0;
17/02/2025 02:42:19;116;0;28.66;-4;-61.83;-19.20;-0.2;22.70;76553;2839.053;-1800.159;0;122;500;509.7;100.0;100.9;0;0.0;28.3;-1.0;
17/02/2025 02:42:39;116;0;54.44;-4;-54.79;-14.45;-0.3;22.70;76561;2839.052;-1800.159;0;122;500;509.7;100.0;100.9;0;0.0;28.2;-1.0;
17/02/2025 02:42:59;116;0;63.78;-4;-57.66;-8.70;-0.3;22.70;76558;2839.052;-1800.158;0;122;500;508.1;100.0;100.7;0;0.0;28.3;-1.0;
17/02/2025 02:43:19;116;0;56.51;-4;-50.56;-4.25;-0.2;22.70;76558;2839.052;-1800.157;0;122;500;508.1;100.0;100.9;0;0.5;28.3;-1.0;
17/02/2025 02:43:39;116;0;31.56;-4;-52.93;-7.45;-0.4;22.70;76559;2839.052;-1800.157;0;122;500;508.1;100.0;100.7;0;0.5;28.3;-1.0;
17/02/2025 02:43:59;116;0;60.76;-4;-57.68;-19.20;-0.3;22.70;76556;2839.051;-1800.158;0;122;500;508.1;100.0;100.7;0;0.5;28.3;-1.0;
17/02/2025 02:44:19;116;0;50.53;-4;-45.37;-7.93;-0.2;22.70;76561;2839.051;-1800.158;0;122;500;508.1;100.0;100.9;0;0.5;28.3;-1.0;
17/02/2025 02:44:39;116;0;65.62;-4;-55.63;4.06;-0.2;22.70;76549;2839.050;-1800.157;0;122;500;509.7;100.0;100.7;0;0.0;28.3;-1.0;
17/02/2025 02:44:59;116;0;86.71;-4;-60.49;-13.07;-0.3;22.70;76559;2839.050;-1800.157;0;122;500;506.5;100.0;100.7;0;0.5;28.3;-1.0;
17/02/2025 02:45:19;116;0;93.07;-4;-52.75;-6.92;-0.1;22.80;76566;2839.051;-1800.158;0;122;500;508.1;100.0;100.9;0;0.5;28.3;-1.0;
17/02/2025 02:45:40;116;0;94.87;-4;-54.04;-17.96;-0.2;22.70;76561;2839.051;-1800.158;0;122;500;508.1;100.0;100.9;0;0.5;28.3;-1.0;
17/02/2025 02:46:00;116;0;103.95;-4;-57.67;-15.25;-0.3;22.70;76558;2839.050;-1800.158;0;122;500;508.1;100.0;100.9;0;0.5;28.3;-1.0;
17/02/2025 02:46:20;116;0;100.53;-4;-56.35;-14.88;-0.2;22.70;76561;2839.048;-1800.158;0;122;500;508.1;100.0;100.7;0;0.5;28.3;-1.0;
17/02/2025 02:46:40;116;0;104.87;-4;-54.58;-16.73;-0.3;22.80;76572;2839.048;-1800.157;0;122;500;508.1;100.0;100.7;0;0.0;28.3;-1.0;
17/02/2025 02:47:00;116;0;87.25;-4;-47.01;-6.46;-0.3;22.80;76566;2839.048;-1800.157;0;122;500;506.5;100.0;100.9;0;0.5;28.3;-1.0;
17/02/2025 02:47:20;116;0;106.82;-4;-54.30;-8.65;-0.2;22.70;76556;2839.048;-1800.157;0;122;500;508.1;100.0;100.7;0;0.5;28.3;-1.0;
17/02/2025 02:47:40;116;0;99.68;-4;-51.46;-20.10;-0.3;22.80;76566;2839.047;-1800.157;0;122;500;508.1;100.0;100.9;0;0.0;28.3;-1.0;
17/02/2025 02:48:00;116;0;103.55;-4;-58.58;-5.06;-0.2;22.80;76568;2839.047;-1800.158;0;122;500;509.7;100.0;100.7;0;0.0;28.3;-1.0;
17/02/2025 02:48:20;116;0;136.39;-4;-52.70;-19.34;-0.3;22.70;76572;2839.046;-1800.158;0;122;500;508.1;100.0;100.7;0;0.5;28.3;-1.0;
17/02/2025 02:48:40;116;0;146.59;-4;-62.21;-24.53;-0.1;22.80;76575;2839.044;-1800.159;0;122;500;508.1;100.0;100.7;0;0.5;28.3;-1.0;
17/02/2025 02:49:00;116;0;137.30;-4;-63.14;-34.11;-0.3;22.80;76582;2839.043;-1800.159;0;122;500;508.1;100.0;100.7;0;0.5;28.3;-1.0;
17/02/2025 02:49:20;116;0;111.57;-4;-57.96;-14.72;-0.3;22.80;76575;2839.044;-1800.160;0;122;500;508.1;100.0;100.7;0;0.0;28.3;-1.0;
17/02/2025 02:49:40;116;0;100.60;-4;-49.55;-16.59;-0.2;22.70;76569;2839.042;-1800.158;0;122;500;508.1;100.0;100.7;0;0.5;28.3;-1.0;
17/02/2025 02:50:00;116;0;103.10;-4;-54.35;-5.63;-0.2;22.70;76569;2839.041;-1800.158;0;122;500;508.1;100.0;100.7;0;0.0;28.3;-1.0;
17/02/2025 02:50:20;116;0;119.58;-4;-53.85;-11.72;-0.2;22.70;76572;2839.041;-1800.159;0;122;500;508.1;100.0;100.9;0;0.5;28.3;-1.0;
17/02/2025 02:50:40;116;0;137.97;-4;-53.18;-26.55;-0.2;22.80;76583;2839.040;-1800.160;0;121;500;508.1;100.0;100.7;0;0.5;28.3;-1.0;
17/02/2025 02:51:00;116;0;158.62;-4;-54.83;-15.21;-0.2;22.80;76583;2839.039;-1800.161;0;121;500;508.1;100.0;100.7;0;0.5;28.2;-1.0;
17/02/2025 02:51:20;116;0;145.00;-4;-52.74;-18.31;-0.2;22.80;76582;2839.039;-1800.161;0;121;500;504.8;100.0;100.7;0;0.5;28.3;-1.0;
17/02/2025 02:51:40;116;0;116.35;-4;-56.29;-5.69;-0.3;22.80;76580;2839.037;-1800.162;0;121;500;508.1;100.0;100.7;0;0.5;28.3;-1.0;
17/02/2025 02:52:00;116;0;101.44;-4;-49.73;-12.15;-0.0;22.80;76577;2839.037;-1800.161;0;121;500;508.1;100.0;100.9;0;0.0;28.3;-1.0;
17/02/2025 02:52:20;116;0;104.45;-4;-43.15;-3.67;-0.3;22.80;76577;2839.037;-1800.161;0;121;500;508.1;100.0;100.7;0;0.0;28.3;-1.0;
17/02/2025 02:52:40;116;0;87.76;-4;-56.07;-16.63;-0.3;22.70;76581;2839.036;-1800.161;0;121;500;508.1;100.0;100.7;0;0.0;28.3;-1.0;
17/02/2025 02:53:00;116;0;119.23;-4;-52.73;-18.10;-0.3;22.80;76588;2839.035;-1800.161;0;121;500;508.1;100.0;100.9;0;0.5;28.3;-1.0;
17/02/2025 02:53:20;116;0;123.48;-4;-54.76;-8.45;-0.3;22.80;76589;2839.034;-1800.162;0;121;500;508.1;100.0;100.7;0;0.5;28.3;-1.0;
17/02/2025 02:53:40;116;0;114.65;-4;-57.60;-2.84;-0.3;22.80;76583;2839.034;-1800.162;0;121;500;508.1;100.0;100.7;0;0.5;28.3;-1.0;
17/02/2025 02:54:00;116;0;97.69;-4;-55.80;0.32;-0.3;22.80;76585;2839.033;-1800.163;0;121;500;508.1;100.0;100.7;0;0.5;28.3;-1.0;
17/02/2025 02:54:20;116;0;121.31;-4;-60.22;-21.41;-0.2;22.80;76586;2839.031;-1800.163;0;121;500;508.1;100.0;100.7;0;0.0;28.3;-1.0;
17/02/2025 02:54:40;116;0;115.43;-4;-62.65;-18.91;-0.2;22.80;76591;2839.031;-1800.163;0;121;500;508.1;100.0;100.7;0;0.5;28.2;-1.0;
17/02/2025 02:55:00;116;0;92.49;-4;-57.56;-19.33;-0.2;22.80;76591;2839.030;-1800.163;0;121;500;508.1;100.0;100.7;0;0.0;28.3;-1.0;
17/02/2025 02:55:20;116;0;101.86;-4;-50.57;-8.88;-0.2;22.80;76591;2839.030;-1800.164;0;121;500;508.1;100.0;100.7;0;0.5;28.3;-1.0;
17/02/2025 02:55:40;116;0;94.87;-4;-46.91;-15.19;-0.2;22.80;76588;2839.028;-1800.164;0;120;500;508.1;100.0;100.9;0;0.5;28.3;-1.0;
17/02/2025 02:56:00;116;0;84.07;-4;-60.10;-9.07;-0.3;22.80;76590;2839.028;-1800.164;0;120;500;508.1;100.0;100.9;0;0.5;28.3;-1.0;
17/02/2025 02:56:20;116;0;76.72;-4;-59.24;-7.53;-0.2;22.80;76591;2839.027;-1800.165;0;120;500;508.1;100.0;100.9;0;0.5;28.3;-1.0;
17/02/2025 02:56:41;116;0;91.31;-4;-58.22;-13.17;-0.2;22.80;76588;2839.027;-1800.165;0;120;500;508.1;100.0;100.7;0;0.5;28.3;-1.0;
17/02/2025 02:57:01;116;0;100.66;-4;-57.06;-14.02;-0.3;22.80;76599;2839.026;-1800.165;0;120;500;508.1;100.0;100.7;0;0.0;28.3;-1.0;
17/02/2025 02:57:21;116;0;91.66;-4;-53.44;-23.82;-0.2;22.80;76593;2839.025;-1800.165;0;120;500;508.1;100.0;100.9;0;0.5;28.3;-1.0;
17/02/2025 02:57:41;116;0;88.26;-4;-52.98;-18.03;-0.3;22.80;76597;2839.025;-1800.167;0;120;500;508.1;100.0;100.9;0;0.5;28.1;-1.0;
17/02/2025 02:58:01;116;0;95.41;-4;-60.76;-16.23;-0.3;22.80;76605;2839.024;-1800.167;0;120;500;508.1;100.0;100.7;0;0.5;28.3;-1.0;
17/02/2025 02:58:21;116;0;101.31;-4;-55.92;-20.68;-0.2;22.80;76599;2839.023;-1800.167;0;120;500;508.1;100.0;100.7;0;0.0;28.3;-1.0;
17/02/2025 02:58:41;116;0;93.03;-4;-56.90;-28.79;-0.3;22.80;76598;2839.023;-1800.168;0;120;500;508.1;100.0;100.7;0;0.5;28.3;-1.0;
17/02/2025 02:59:01;116;0;90.66;-4;-56.54;-13.89;-0.3;22.80;76604;2839.023;-1800.168;0;120;500;509.7;100.0;100.7;0;0.0;28.3;-1.0;
17/02/2025 02:59:21;116;0;95.18;-4;-56.40;-16.61;-0.2;22.80;76596;2839.022;-1800.168;0;120;500;508.1;100.0;100.7;0;0.5;28.3;-1.0;
17/02/2025 02:59:41;116;0;96.49;-4;-53.99;-12.10;-0.1;22.80;76607;2839.022;-1800.169;0;120;500;508.1;100.0;100.7;0;0.0;28.3;-1.0;
17/02/2025 03:00:01;116;0;89.80;-4;-55.50;-16.75;-0.4;22.80;76609;2839.021;-1800.169;0;120;500;508.1;100.0;100.7;0;0.5;28.3;-1.0;
17/02/2025 03:00:21;116;0;90.73;-4;-50.42;-13.87;-0.3;22.80;76598;2839.020;-1800.170;0;120;500;508.1;100.0;100.9;0;0.5;28.3;-1.0;
17/02/2025 03:00:41;116;0;87.93;-4;-53.20;-18.12;-0.3;22.80;76610;2839.020;-1800.170;0;120;500;508.1;100.0;100.7;0;0.5;28.3;-1.0;
17/02/2025 03:01:01;116;0;86.15;-4;-56.76;-14.42;-0.2;22.80;76609;2839.019;-1800.170;0;120;500;508.1;100.0;100.7;0;0.5;28.3;-1.0;
17/02/2025 03:01:21;116;0;96.92;-4;-58.53;-19.50;-0.3;22.80;76614;2839.019;-1800.171;0;119;500;508.1;100.0;100.7;0;0.0;28.3;-1.0;
17/02/2025 03:01:41;116;0;90.19;-4;-58.35;-13.66;-0.3;22.80;76606;2839.018;-1800.172;0;119;500;508.1;100.0;100.7;0;0.0;28.3;-1.0;
17/02/2025 03:02:01;116;0;90.38;-4;-49.19;-7.30;-0.1;22.80;76612;2839.018;-1800.171;0;119;500;508.1;100.0;100.7;0;0.0;28.3;-1.0;
17/02/2025 03:02:21;116;0;83.26;-4;-48.61;-5.95;-0.4;22.80;76612;2839.018;-1800.172;0;119;500;508.1;100.0;100.7;0;0.0;28.3;-1.0;
17/02/2025 03:02:41;116;0;124.67;-4;-44.74;-9.11;-0.2;22.80;76620;2839.017;-1800.173;0;119;500;506.5;100.0;100.9;0;0.5;28.3;-1.0;
17/02/2025 03:03:01;116;0;118.54;-4;-59.74;-15.28;-0.3;22.80;76612;2839.017;-1800.173;0;119;500;508.1;100.0;100.9;0;0.5;28.3;-1.0;
17/02/2025 03:03:21;116;0;122.22;-4;-54.17;-7.33;-0.2;22.80;76609;2839.016;-1800.173;0;119;500;508.1;100.0;100.7;0;0.0;28.3;-1.0;
17/02/2025 03:03:41;116;0;132.53;-4;-53.49;-7.31;-0.3;22.80;76617;2839.015;-1800.174;0;119;500;506.5;100.0;100.7;0;0.0;28.3;-1.0;
17/02/2025 03:04:01;116;0;107.02;-4;-45.81;-4.02;-0.3;22.80;76612;2839.013;-1800.175;0;119;500;506.5;100.0;100.7;0;0.5;28.3;-1.0;
17/02/2025 03:04:21;116;0;91.76;-4;-55.76;-11.81;-0.3;22.80;76612;2839.012;-1800.175;0;119;500;506.5;100.0;100.9;0;0.5;28.3;-1.0;
17/02/2025 03:04:41;116;0;99.34;-4;-53.11;-10.62;-0.3;22.80;76612;2839.013;-1800.175;0;119;500;506.5;100.0;100.7;0;0.0;28.3;-1.0;
17/02/2025 03:05:01;116;0;101.36;-4;-60.48;-11.59;-0.2;22.80;76622;2839.013;-1800.175;0;119;500;508.1;100.0;100.7;0;0.0;28.3;-1.0;
17/02/2025 03:05:21;116;0;96.13;-4;-59.63;-11.31;-0.3;22.80;76625;2839.012;-1800.176;0;119;500;508.1;100.0;100.9;0;0.0;28.3;-1.0;
17/02/2025 03:05:41;116;0;100.42;-4;-54.59;-5.41;-0.2;22.80;76621;2839.012;-1800.177;0;119;500;508.1;100.0;100.9;0;0.5;28.3;-1.0;
17/02/2025 03:06:01;116;0;126.01;-4;-53.53;-7.09;-0.2;22.80;76622;2839.011;-1800.177;0;119;500;506.5;100.0;100.7;0;0.5;28.3;-1.0;
17/02/2025 03:06:21;116;0;116.86;-4;-50.72;-9.66;-0.3;22.80;76618;2839.010;-1800.177;0;119;500;506.5;100.0;100.9;0;0.5;28.3;-1.0;
17/02/2025 03:06:41;116;0;121.66;-4;-51.02;-13.42;-0.3;22.80;76629;2839.010;-1800.178;0;119;500;508.1;100.0;100.9;0;0.5;28.3;-1.0;
17/02/2025 03:07:01;116;0;114.06;-4;-51.27;-14.22;-0.3;22.80;76625;2839.009;-1800.178;0;119;500;506.5;100.0;100.7;0;0.5;28.2;-1.0;
17/02/2025 03:07:21;116;0;117.86;-4;-51.01;-16.20;-0.3;22.80;76628;2839.009;-1800.179;0;118;500;508.1;100.0;100.7;0;0.0;28.3;-1.0;
17/02/2025 03:07:41;116;0;104.71;-4;-58.80;-13.48;-0.1;22.80;76625;2839.008;-1800.179;0;118;500;508.1;100.0;100.7;0;0.5;28.3;-1.0;
17/02/2025 03:08:02;116;0;100.01;-4;-57.19;-20.82;-0.2;22.80;76625;2839.007;-1800.179;0;118;500;508.1;100.0;100.7;0;0.5;28.3;-1.0;
17/02/2025 03:08:22;116;0;107.15;-4;-49.90;-8.44;-0.3;22.80;76629;2839.007;-1800.180;0;118;500;508.1;100.0;100.9;0;0.0;28.3;-1.0;
17/02/2025 03:08:42;116;0;97.90;-4;-61.70;-20.02;-0.2;22.80;76635;2839.006;-1800.180;0;118;500;508.1;100.0;100.7;0;0.0;28.3;-1.0;
17/02/2025 03:09:02;116;0;84.87;-4;-48.61;-6.23;-0.2;22.90;76640;2839.006;-1800.183;0;118;500;506.5;100.0;100.9;0;0.5;28.3;-1.0;
17/02/2025 03:09:22;116;0;95.66;-4;-56.76;-22.94;-0.2;22.80;76629;2839.006;-1800.184;0;118;500;508.1;100.0;100.7;0;0.5;28.3;-1.0;
17/02/2025 03:09:42;116;0;83.10;-4;-56.61;-22.73;-0.3;22.80;76629;2839.004;-1800.185;0;118;500;508.1;100.0;100.7;0;0.5;28.2;-1.0;
17/02/2025 03:10:02;116;0;80.17;-4;-55.14;-5.55;-0.2;22.90;76635;2839.004;-1800.185;0;118;500;508.1;100.0;100.9;0;0.5;28.3;-1.0;
17/02/2025 03:10:22;116;0;77.78;-4;-52.90;-11.72;-0.3;22.80;76632;2839.004;-1800.185;0;118;500;504.8;100.0;100.9;0;0.0;28.3;-1.0;
17/02/2025 03:10:42;116;0;70.46;-4;-50.89;-9.95;-0.3;22.90;76637;2839.001;-1800.184;0;118;500;508.1;100.0;100.7;0;0.5;28.3;-1.0;
17/02/2025 03:11:02;116;0;73.10;-4;-40.81;-11.49;-0.2;22.80;76635;2839.002;-1800.186;0;118;500;506.5;100.0;100.7;0;0.5;28.3;-1.0;
17/02/2025 03:11:22;116;0;78.18;-4;-51.96;-9.49;-0.3;22.90;76635;2839.001;-1800.185;0;118;500;508.1;100.0;100.9;0;0.5;28.3;-1.0;
17/02/2025 03:11:42;116;0;99.91;-4;-46.79;-11.93;-0.2;22.80;76635;2839.002;-1800.187;0;118;500;506.5;100.0;100.7;0;0.0;28.3;-1.0;
17/02/2025 03:12:02;116;0;90.80;-4;-51.22;-15.21;-0.2;22.90;76635;2839.000;-1800.187;0;118;500;506.5;100.0;100.9;0;0.5;28.3;-1.0;
17/02/2025 03:12:22;116;0;90.67;-4;-50.77;-14.51;-0.3;22.90;76643;2839.000;-1800.187;0;118;500;508.1;100.0;100.9;0;0.5;28.3;-1.0;
17/02/2025 03:12:42;116;0;119.45;-4;-56.99;-10.12;-0.3;22.90;76640;2839.000;-1800.186;0;117;500;508.1;100.0;100.7;0;0.5;28.3;-1.0;
17/02/2025 03:13:02;116;0;116.18;-4;-55.99;-13.22;-0.3;22.90;76640;2838.999;-1800.186;0;118;500;508.1;100.0;100.9;0;0.5;28.3;-1.0;
17/02/2025 03:13:22;116;0;107.21;-4;-62.85;-8.95;-0.3;22.90;76640;2838.999;-1800.188;0;117;500;508.1;100.0;100.7;0;0.5;28.3;-1.0;
17/02/2025 03:13:42;116;0;98.85;-4;-50.07;-11.64;0.0;22.90;76637;2838.998;-1800.188;0;117;500;508.1;100.0;100.9;0;0.5;28.3;-1.0;
17/02/2025 03:14:02;116;0;94.40;-4;-46.98;-9.48;-0.2;22.90;76640;2838.997;-1800.188;0;117;500;508.1;100.0;100.9;0;0.5;28.3;-1.0;
17/02/2025 03:14:22;116;0;109.64;-4;-56.58;-20.87;-0.4;22.90;76646;2838.996;-1800.189;0;117;500;508.1;100.0;100.9;0;0.0;28.3;-1.0;
17/02/2025 03:14:42;116;0;88.72;-4;-54.02;-13.14;-0.2;22.90;76651;2838.996;-1800.190;0;117;500;506.5;100.0;100.9;0;0.5;28.3;-1.0;
17/02/2025 03:15:02;116;0;96.11;-4;-60.73;-4.13;-0.3;22.90;76646;2838.996;-1800.190;0;117;500;508.1;100.0;100.9;0;0.5;28.3;-1.0;
17/02/2025 03:15:22;116;0;107.29;-4;-56.22;-23.50;-0.4;22.90;76655;2838.995;-1800.190;0;117;500;508.1;100.0;100.7;0;0.5;28.3;-1.0;
17/02/2025 03:15:42;116;0;89.04;-4;-47.69;-9.74;-0.2;22.90;76646;2838.996;-1800.191;0;117;500;506.5;100.0;100.7;0;0.0;28.3;-1.0;
17/02/2025 03:16:02;116;0;103.75;-4;-49.85;-18.07;-0.3;22.90;76646;2838.994;-1800.191;0;117;500;506.5;100.0;100.7;0;0.5;28.3;-1.0;
17/02/2025 03:16:22;116;0;104.09;-4;-48.64;-13.69;-0.2;22.90;76640;2838.995;-1800.192;0;117;500;508.1;100.0;100.9;0;0.5;28.3;-1.0;
17/02/2025 03:16:42;116;0;93.73;-4;-59.41;-7.42;-0.3;22.90;76648;2838.992;-1800.193;0;117;500;506.5;100.0;100.9;0;0.5;28.3;-1.0;
17/02/2025 03:17:02;116;0;104.50;-4;-60.50;-8.80;-0.3;22.90;76657;2838.993;-1800.193;0;117;500;508.1;100.0;100.7;0;0.5;28.3;-1.0;
17/02/2025 03:17:22;116;0;96.31;-4;-56.99;-16.70;-0.4;22.90;76645;2838.991;-1800.194;0;117;500;508.1;100.0;100.9;0;0.5;28.3;-1.0;
17/02/2025 03:17:42;116;0;101.50;-4;-57.13;-8.58;-0.4;22.90;76655;2838.992;-1800.194;0;117;500;508.1;100.0;100.7;0;0.5;28.3;-1.0;
17/02/2025 03:18:02;116;0;114.93;-4;-50.20;-8.95;-0.4;22.90;76648;2838.991;-1800.195;0;117;500;508.1;100.0;100.9;0;0.5;28.3;-1.0;
17/02/2025 03:18:22;116;0;92.93;-4;-53.40;-3.38;-0.4;22.90;76654;2838.991;-1800.196;0;117;500;506.5;100.0;100.7;0;0.5;28.3;-1.0;
17/02/2025 03:18:43;116;0;80.32;-4;-61.93;4.44;-0.2;22.90;76648;2838.990;-1800.195;0;117;500;506.5;100.0;100.7;0;0.5;28.3;-1.0;
17/02/2025 03:19:03;116;0;97.71;-4;-47.08;-7.10;-0.2;22.90;76660;2838.990;-1800.195;0;117;500;506.5;100.0;100.7;0;0.5;28.3;-1.0;
17/02/2025 03:19:23;116;0;105.24;-4;-50.18;-11.49;-0.3;22.90;76652;2838.990;-1800.196;0;116;500;506.5;100.0;100.7;0;0.5;28.3;-1.0;
17/02/2025 03:19:43;116;0;111.29;-4;-53.34;-10.06;-0.2;22.90;76657;2838.988;-1800.196;0;116;500;506.5;100.0;100.7;0;0.5;28.3;-1.0;
17/02/2025 03:20:03;116;0;109.87;-4;-50.61;-12.64;-0.3;22.90;76649;2838.989;-1800.197;0;116;500;508.1;100.0;100.9;0;0.5;28.3;-1.0;
17/02/2025 03:20:23;116;0;106.62;-4;-52.38;-5.79;-0.4;22.90;76663;2838.988;-1800.198;0;116;500;508.1;100.0;100.9;0;0.5;28.3;-1.0;
17/02/2025 03:20:43;116;0;112.67;-4;-47.31;-14.55;-0.2;22.90;76655;2838.987;-1800.198;0;116;500;508.1;100.0;100.7;0;0.5;28.3;-1.0;
17/02/2025 03:21:03;116;0;109.40;-4;-55.06;-10.92;-0.3;22.90;76660;2838.987;-1800.198;0;116;500;508.1;100.0;100.9;0;0.5;28.3;-1.0;
17/02/2025 03:21:23;116;0;115.61;-4;-55.35;-19.38;-0.2;22.90;76665;2838.986;-1800.199;0;116;500;508.1;100.0;100.7;0;0.5;28.3;-1.0;
17/02/2025 03:21:43;116;0;101.17;-4;-50.83;-13.47;-0.3;22.90;76666;2838.986;-1800.199;0;116;500;508.1;100.0;100.7;0;0.0;28.3;-1.0;
17/02/2025 03:22:03;116;0;95.14;-4;-47.75;-14.49;-0.3;22.90;76654;2838.985;-1800.199;0;116;500;506.5;100.0;100.7;0;0.5;28.3;-1.0;
17/02/2025 03:22:23;116;0;111.47;-4;-48.10;-12.20;-0.3;22.90;76668;2838.986;-1800.199;0;116;500;506.5;100.0;100.7;0;0.5;28.3;-1.0;
17/02/2025 03:22:43;116;0;97.43;-4;-55.80;-11.12;-0.4;22.90;76660;2838.985;-1800.199;0;116;500;508.1;100.0;100.9;0;0.5;28.3;-1.0;
17/02/2025 03:23:03;116;0;108.99;-4;-49.60;-10.31;-0.3;22.90;76660;2838.985;-1800.199;0;116;500;508.1;100.0;100.9;0;0.0;28.3;-1.0;
17/02/2025 03:23:23;116;0;111.35;-4;-50.94;-15.98;-0.3;22.90;76660;2838.984;-1800.199;0;116;500;508.1;100.0;100.7;0;0.0;28.3;-1.0;
17/02/2025 03:23:43;116;0;110.38;-4;-54.31;-13.04;-0.3;22.90;76660;2838.984;-1800.200;0;116;500;508.1;100.0;100.9;0;0.5;28.3;-1.0;
17/02/2025 03:24:03;116;0;117.44;-4;-53.60;-3.95;-0.3;22.90;76660;2838.983;-1800.200;0;116;500;508.1;100.0;100.7;0;0.5;28.3;-1.0;
17/02/2025 03:24:23;116;0;117.21;-4;-50.56;-17.48;-0.3;22.90;76668;2838.983;-1800.201;0;116;500;508.1;100.0;100.7;0;0.5;28.3;-1.0;
17/02/2025 03:24:43;116;0;122.22;-4;-62.22;-24.21;-0.4;22.90;76667;2838.982;-1800.201;0;116;500;508.1;100.0;100.7;0;0.5;28.3;-1.0;
17/02/2025 03:25:03;116;0;96.28;-4;-53.73;-15.45;-0.3;22.90;76666;2838.983;-1800.201;0;116;500;508.1;100.0;100.7;0;0.0;28.3;-1.0;
17/02/2025 03:25:23;116;0;88.90;-4;-50.54;-17.81;-0.3;22.90;76671;2838.982;-1800.201;0;116;500;506.5;100.0;100.9;0;0.0;28.3;-1.0;
17/02/2025 03:25:43;116;0;98.00;-4;-50.60;-16.05;-0.4;22.90;76671;2838.981;-1800.201;0;116;500;508.1;100.0;100.7;0;0.5;28.3;-1.0;
17/02/2025 03:26:03;116;0;108.36;-4;-58.38;-18.33;-0.3;22.90;76676;2838.982;-1800.202;0;116;500;508.1;100.0;100.7;0;0.0;28.3;-1.0;
17/02/2025 03:26:23;116;0;105.19;-4;-52.85;-22.22;-0.3;22.90;76679;2838.982;-1800.201;0;116;500;506.5;100.0;100.7;0;0.5;28.3;-1.0;
17/02/2025 03:26:43;116;0;106.35;-4;-53.71;-21.61;-0.4;22.90;76677;2838.982;-1800.202;0;116;500;508.1;100.0;100.7;0;0.5;28.3;-1.0;
17/02/2025 03:27:03;116;0;93.39;-4;-67.06;-3.52;-0.4;22.90;76673;2838.982;-1800.202;0;116;500;508.1;100.0;100.7;0;0.5;28.3;-1.0;
17/02/2025 03:27:23;116;0;99.84;-4;-53.88;-4.30;-0.3;22.90;76667;2838.981;-1800.202;0;116;500;508.1;100.0;100.7;0;0.0;28.3;-1.0;
17/02/2025 03:27:43;116;0;91.86;-4;-56.07;-10.40;-0.4;22.90;76679;2838.981;-1800.202;0;116;500;508.1;100.0;100.7;0;0.5;28.3;-1.0;
17/02/2025 03:28:03;116;0;88.56;-4;-59.47;-9.86;-0.3;22.90;76679;2838.981;-1800.202;0;116;500;506.5;100.0;100.7;0;0.5;28.3;-1.0;
17/02/2025 03:28:23;116;0;99.19;-4;-48.25;-10.00;-0.2;22.90;76678;2838.980;-1800.203;0;116;500;506.5;100.0;100.9;0;0.5;28.3;-1.0;
17/02/2025 03:28:43;116;0;89.48;-4;-55.77;-10.97;-0.3;22.90;76681;2838.981;-1800.203;0;116;500;506.5;100.0;100.7;0;0.5;28.3;-1.0;
17/02/2025 03:29:03;116;0;96.25;-4;-60.41;-1.35;-0.4;22.90;76678;2838.980;-1800.203;0;116;500;508.1;100.0;100.7;0;0.5;28.3;-1.0;
17/02/2025 03:29:23;116;0;114.87;-4;-55.42;-9.71;-0.3;22.90;76672;2838.980;-1800.202;0;116;500;506.5;100.0;100.7;0;0.5;28.3;-1.0;
17/02/2025 03:29:44;116;0;94.42;-4;-53.95;-12.06;-0.4;22.90;76681;2838.979;-1800.203;0;116;500;508.1;100.0;100.7;0;0.5;28.3;-1.0;
17/02/2025 03:30:04;116;0;93.13;-4;-54.36;-11.96;-0.3;22.90;76669;2838.979;-1800.203;0;115;500;506.5;100.0;100.9;0;0.5;28.3;-1.0;
17/02/2025 03:30:24;116;0;92.13;-4;-59.90;-7.11;-0.3;22.90;76681;2838.979;-1800.203;0;115;500;506.5;100.0;100.7;0;0.5;28.3;-1.0;
17/02/2025 03:30:44;116;0;80.18;-4;-53.48;-6.84;-0.3;22.90;76681;2838.979;-1800.203;0;115;500;506.5;100.0;100.9;0;0.5;28.3;-1.0;
17/02/2025 03:31:04;116;0;105.09;-4;-55.07;-24.57;-0.3;22.90;76689;2838.979;-1800.203;0;115;500;506.5;100.0;100.9;0;0.5;28.3;-1.0;
17/02/2025 03:31:24;116;0;112.81;-4;-60.98;-34.80;-0.4;22.90;76675;2838.979;-1800.203;0;115;500;506.5;100.0;100.9;0;0.5;28.3;-1.0;
17/02/2025 03:31:44;116;0;111.99;-4;-56.53;-21.86;-0.3;22.90;76683;2838.980;-1800.203;0;115;500;506.5;100.0;100.9;0;0.5;28.3;-1.0;
17/02/2025 03:32:04;116;0;121.36;-4;-56.06;-13.94;-0.4;22.90;76686;2838.980;-1800.203;0;115;500;508.1;100.0;100.7;0;0.5;28.3;-1.0;
17/02/2025 03:32:24;116;0;92.80;-4;-52.02;-11.27;-0.3;22.90;76686;2838.979;-1800.203;0;115;500;508.1;100.0;100.9;0;0.5;28.3;-1.0;
17/02/2025 03:32:44;116;0;83.66;-4;-55.87;-14.49;-0.3;22.90;76683;2838.979;-1800.203;0;115;500;508.1;100.0;100.9;0;0.5;28.3;-1.0;
17/02/2025 03:33:04;116;0;99.25;-4;-52.09;0.56;-0.2;22.90;76689;2838.979;-1800.203;0;115;500;506.5;100.0;100.7;0;0.5;28.3;-1.0;
17/02/2025 03:33:24;116;0;104.89;-4;-59.06;-18.06;-0.3;22.90;76698;2838.980;-1800.202;0;115;500;508.1;100.0;100.7;0;0.5;28.3;-1.0;
17/02/2025 03:33:44;116;0;110.87;-4;-57.15;-9.31;-0.3;22.90;76695;2838.980;-1800.203;0;115;500;506.5;100.0;100.7;0;0.0;28.3;-1.0;
17/02/2025 03:34:04;116;0;109.17;-4;-55.17;-11.41;-0.2;22.90;76694;2838.979;-1800.203;0;116;500;508.1;100.0;100.7;0;0.0;28.3;-1.0;
17/02/2025 03:34:24;116;0;104.75;-4;-49.67;-10.83;-0.3;22.90;76690;2838.979;-1800.203;0;115;500;508.1;100.0;100.7;0;0.5;28.3;-1.0;
17/02/2025 03:34:44;116;0;115.23;-4;-51.73;-10.68;-0.3;23.00;76693;2838.980;-1800.202;0;115;500;508.1;100.0;100.9;0;0.5;28.3;-1.0;
17/02/2025 03:35:04;116;0;111.86;-4;-53.29;-13.69;-0.3;22.90;76685;2838.979;-1800.202;0;116;500;506.5;100.0;100.9;0;0.0;28.3;-1.0;
17/02/2025 03:35:24;116;0;124.14;-4;-57.16;-9.37;-0.3;23.00;76699;2838.980;-1800.202;0;115;500;504.8;100.0;100.7;0;0.0;28.1;-1.0;
17/02/2025 03:35:44;116;0;132.17;-4;-59.69;-17.14;-0.3;22.90;76685;2838.980;-1800.202;0;116;500;506.5;100.0;100.7;0;0.5;28.3;-1.0;
17/02/2025 03:36:04;116;0;130.12;-4;-49.99;-20.21;-0.2;23.00;76698;2838.980;-1800.201;0;116;500;508.1;100.0;100.7;0;0.5;28.3;-1.0;
17/02/2025 03:36:24;116;0;133.65;-4;-54.66;-18.22;-0.3;23.00;76698;2838.979;-1800.201;0;116;500;504.8;100.0;100.7;0;0.5;28.3;-1.0;
17/02/2025 03:36:44;116;0;123.15;-4;-50.96;-12.90;-0.3;23.00;76704;2838.980;-1800.201;0;116;500;506.5;100.0;100.7;0;0.0;28.3;-1.0;
17/02/2025 03:37:04;116;0;111.51;-4;-51.46;-7.61;-0.4;23.00;76706;2838.980;-1800.201;0;116;500;508.1;100.0;100.7;0;0.5;28.3;-1.0;
17/02/2025 03:37:24;116;0;129.87;-4;-57.20;-6.64;-0.4;23.00;76700;2838.979;-1800.201;0;116;500;506.5;100.0;100.7;0;0.5;28.3;-1.0;
17/02/2025 03:37:44;116;0;119.11;-4;-55.71;-16.03;-0.4;23.00;76703;2838.980;-1800.201;0;116;500;506.5;100.0;100.9;0;0.0;28.3;-1.0;
17/02/2025 03:38:04;116;0;111.80;-4;-56.82;-5.00;-0.2;23.00;76709;2838.981;-1800.201;0;116;500;506.5;100.0;100.7;0;0.5;28.3;-1.0;
17/02/2025 03:38:24;116;0;99.91;-4;-58.35;-2.53;-0.2;23.00;76700;2838.981;-1800.200;0;116;500;506.5;100.0;100.9;0;0.5;28.3;-1.0;
17/02/2025 03:38:44;116;0;93.59;-4;-51.85;-9.56;-0.4;23.00;76703;2838.980;-1800.200;0;116;500;506.5;100.0;100.9;0;0.5;28.3;-1.0;
17/02/2025 03:39:04;116;0;126.47;-4;-46.61;-14.99;-0.4;23.00;76706;2838.982;-1800.200;0;116;500;506.5;100.0;100.7;0;0.5;28.3;-1.0;
17/02/2025 03:39:24;116;0;128.58;-4;-48.07;-14.16;-0.2;23.00;76700;2838.981;-1800.201;0;116;500;506.5;100.0;100.9;0;0.5;28.3;-1.0;
17/02/2025 03:39:44;116;0;138.99;-4;-65.29;-9.89;-0.3;23.00;76702;2838.982;-1800.201;0;116;500;506.5;100.0;100.7;0;0.5;28.3;-1.0;
17/02/2025 03:40:04;116;0;126.76;-4;-56.75;-20.17;-0.2;23.00;76706;2838.981;-1800.201;0;116;500;508.1;100.0;100.7;0;0.5;28.1;-1.0;
17/02/2025 03:40:24;116;0;113.66;-4;-53.90;-24.03;-0.3;23.00;76711;2838.981;-1800.201;0;116;500;506.5;100.0;100.9;0;0.0;28.3;-1.0;
17/02/2025 03:40:45;116;0;105.68;-4;-45.86;-10.49;-0.2;23.00;76711;2838.981;-1800.200;0;116;500;506.5;100.0;100.7;0;0.5;28.2;-1.0;
17/02/2025 03:41:05;116;0;107.92;-4;-66.83;-12.46;-0.3;23.00;76711;2838.981;-1800.200;0;116;500;506.5;100.0;100.7;0;0.0;28.3;-1.0;
17/02/2025 03:41:25;116;0;107.14;-4;-55.77;-2.91;-0.2;23.00;76706;2838.982;-1800.200;0;116;500;506.5;100.0;100.9;0;0.5;28.3;-1.0;
17/02/2025 03:41:45;116;0;116.05;-4;-51.57;-16.45;-0.2;23.00;76708;2838.982;-1800.199;0;116;500;508.1;100.0;100.9;0;0.0;28.3;-1.0;
17/02/2025 03:42:05;116;0;112.50;-4;-55.02;-8.52;-0.3;23.00;76711;2838.983;-1800.200;0;116;500;506.5;100.0;100.7;0;0.5;28.3;-1.0;
17/02/2025 03:42:25;116;0;115.60;-4;-49.55;-11.34;-0.5;23.00;76709;2838.982;-1800.200;0;116;500;508.1;100.0;100.7;0;0.5;28.3;-1.0;
