Timestamp;NavState;SecurityLevel;Heading;Declination;Pitch;Roll;Depth;Temperature;Pa;Lat;Lon;DeadReckoning;DesiredH;BallastCmd;BallastPos;LinCmd;LinPos;AngCmd;AngPos;Voltage;Altitude;
24/02/2025 05:03:30;119;0;213.89;-4;-57.87;0.03;-0.1;17.30;75645;2836.194;-1800.241;0;137;500;508.1;100.0;100.4;0;-0.5;26.7;-1.0;
24/02/2025 05:03:40;116;0;232.49;-4;-51.84;-12.00;-0.1;17.30;75651;2836.199;-1800.245;0;137;500;509.7;100.0;100.3;0;-0.5;26.7;-1.0;
24/02/2025 05:04:23;116;0;231.77;-4;-61.87;-2.55;-0.1;17.40;75664;2836.207;-1800.253;0;137;500;509.7;100.0;100.4;0;-0.5;26.7;-1.0;
24/02/2025 05:04:45;116;0;232.48;-4;-56.10;-8.77;-0.1;17.50;75683;2836.208;-1800.253;0;137;500;508.1;100.0;100.4;0;-0.5;26.7;-1.0;
24/02/2025 05:05:05;116;0;218.82;-4;-56.55;-10.04;-0.1;17.50;75675;2836.210;-1800.258;0;132;500;508.1;100.0;100.4;0;-0.5;26.7;-1.0;
24/02/2025 05:05:16;116;0;226.14;-4;-57.91;-18.41;-0.1;17.60;75685;2836.212;-1800.261;0;132;500;508.1;100.0;100.4;0;-0.5;26.7;-1.0;
24/02/2025 05:06:18;116;0;219.07;-4;-56.02;-22.42;-0.2;17.80;75703;2836.222;-1800.271;0;132;500;509.7;100.0;100.4;0;-0.5;26.7;-1.0;
24/02/2025 05:07:31;116;0;220.92;-4;-53.67;-10.28;-0.1;18.00;75728;2836.234;-1800.283;0;132;500;508.1;100.0;100.4;0;-0.9;26.7;-1.0;
24/02/2025 05:09:06;116;0;233.14;-4;-48.06;-13.36;-0.2;18.40;75758;2836.249;-1800.297;0;132;500;508.1;100.0;100.4;0;-0.5;26.7;-1.0;
24/02/2025 05:10:51;116;0;237.65;-4;-52.32;-12.51;-0.1;18.80;75794;2836.267;-1800.313;0;132;500;508.1;100.0;100.4;0;-0.5;26.7;-1.0;
24/02/2025 05:11:11;110;0;254.73;-4;-56.77;-10.29;0.0;18.90;75807;2836.267;-1800.313;0;132;-70;391.9;100.0;100.3;-7;-7.2;26.7;-1.0;
24/02/2025 05:11:21;110;0;242.02;-4;-56.25;-20.39;0.1;18.90;76141;2836.267;-1800.313;1;132;-70;243.5;100.0;100.4;-7;-7.7;26.7;-1.0;
24/02/2025 05:11:31;110;0;245.40;-4;-61.68;-26.90;0.7;19.00;76386;2836.267;-1800.314;1;132;-70;80.6;100.0;100.4;-7;-7.7;26.7;-1.0;
24/02/2025 05:11:41;110;0;256.49;-4;-67.65;-21.80;0.9;19.00;76730;2836.267;-1800.314;1;132;-70;-69.4;100.0;100.4;-7;-7.7;26.7;-1.0;
24/02/2025 05:11:51;110;0;264.43;-4;-69.56;-15.55;1.1;19.10;77039;2836.267;-1800.315;1;132;-70;-69.4;42.9;42.9;-7;-7.7;26.7;-1.0;
24/02/2025 05:12:11;100;0;285.19;-4;-32.20;-15.56;4.5;19.10;77008;2836.268;-1800.318;1;132;-70;-64.5;42.9;42.6;-7;-7.7;26.7;-1.0;
24/02/2025 05:12:31;100;0;295.76;-4;-20.61;-15.41;7.6;19.20;77015;2836.270;-1800.323;1;132;-70;-62.9;42.9;42.6;70;69.9;26.7;-1.0;
24/02/2025 05:12:51;100;0;289.03;-4;-23.94;23.89;10.3;19.20;77026;2836.271;-1800.326;1;132;-70;-61.3;41.7;41.5;70;70.4;26.7;-1.0;
24/02/2025 05:13:11;100;0;277.47;-4;-21.14;23.73;13.2;19.20;77028;2836.272;-1800.331;1;132;-70;-62.9;41.7;41.4;70;70.4;26.8;0.0;
24/02/2025 05:13:31;100;0;267.81;-4;-20.53;24.14;15.9;19.20;77040;2836.272;-1800.335;1;132;-70;-62.9;41.7;41.4;70;70.4;26.7;0.0;
24/02/2025 05:13:51;100;0;256.64;-4;-20.25;23.73;18.5;19.20;77042;2836.272;-1800.339;1;132;-70;-62.9;41.7;41.4;70;70.4;26.7;0.0;
24/02/2025 05:14:11;100;0;245.93;-4;-20.47;23.93;21.2;19.20;77042;2836.271;-1800.344;1;132;-70;-62.9;41.7;41.4;70;70.4;26.7;0.0;
24/02/2025 05:14:31;100;0;234.73;-4;-20.33;23.87;23.9;19.20;77041;2836.269;-1800.347;1;132;-70;-62.9;41.7;41.5;70;70.4;26.7;0.0;
24/02/2025 05:14:51;100;0;222.52;-4;-19.20;23.92;26.6;19.20;77042;2836.267;-1800.351;1;132;-70;-62.9;41.7;41.4;70;70.4;26.7;0.0;
24/02/2025 05:15:11;100;0;209.58;-4;-19.08;23.74;29.1;19.20;77044;2836.264;-1800.353;1;132;-70;-61.3;41.7;41.5;70;70.4;26.8;0.0;
24/02/2025 05:15:31;100;0;197.67;-4;-19.31;23.82;31.6;19.20;77053;2836.262;-1800.355;1;132;-70;-62.9;41.7;41.4;70;70.4;26.7;0.0;
24/02/2025 05:15:51;100;0;185.67;-4;-19.22;23.84;34.1;19.30;77058;2836.259;-1800.355;1;132;-70;-62.9;41.7;41.4;70;70.4;26.7;0.0;
24/02/2025 05:16:11;100;0;173.52;-4;-19.04;23.75;36.7;19.30;77052;2836.256;-1800.355;1;132;-70;-64.5;41.7;41.4;66;65.4;26.7;0.0;
24/02/2025 05:16:31;100;0;160.83;-4;-18.68;20.87;39.1;19.30;77058;2836.253;-1800.355;1;132;-70;-62.9;42.1;42.4;48;47.8;26.7;0.0;
24/02/2025 05:16:51;100;0;151.08;-4;-18.92;11.94;41.6;19.30;77058;2836.250;-1800.353;1;132;-70;-64.5;42.5;42.4;32;32.0;26.7;0.0;
24/02/2025 05:17:11;100;0;145.30;-4;-18.96;4.19;44.0;19.30;77060;2836.248;-1800.352;1;132;-70;-62.9;42.8;42.9;23;23.0;26.7;0.0;
24/02/2025 05:17:31;100;0;143.34;-4;-19.86;-0.37;46.5;19.30;77060;2836.246;-1800.350;1;132;-70;-62.9;42.8;43.0;21;21.2;26.7;0.0;
24/02/2025 05:17:51;100;0;141.45;-4;-20.03;-1.19;49.0;19.30;77062;2836.244;-1800.348;1;132;-70;-62.9;42.8;43.0;19;18.5;26.7;0.0;
24/02/2025 05:18:11;100;0;141.88;-4;-20.04;-2.48;51.7;19.30;77065;2836.241;-1800.347;1;132;-70;-62.9;42.8;43.0;19;18.1;26.8;0.0;
24/02/2025 05:18:31;100;0;143.13;-4;-19.86;-2.52;54.3;19.30;77070;2836.239;-1800.345;1;132;-70;-61.3;42.8;43.0;21;21.2;26.7;0.0;
24/02/2025 05:18:51;100;0;142.36;-4;-19.78;-0.64;56.9;19.30;77074;2836.237;-1800.343;1;132;-70;-62.9;42.8;43.0;21;21.7;26.7;0.0;
24/02/2025 05:19:11;100;0;138.34;-4;-20.09;-0.65;59.6;19.30;77077;2836.234;-1800.341;1;132;-70;-62.9;42.8;43.0;17;17.1;26.8;0.0;
24/02/2025 05:19:32;100;0;137.14;-4;-19.78;-3.31;62.1;19.30;77075;2836.232;-1800.339;1;132;-70;-62.9;42.8;43.0;17;16.7;26.7;0.0;
24/02/2025 05:19:52;100;0;137.67;-4;-20.01;-3.34;64.7;19.30;77070;2836.230;-1800.337;1;132;-70;-62.9;42.8;43.0;17;16.7;26.7;0.0;
24/02/2025 05:20:12;100;0;136.03;-4;-19.80;-3.32;67.3;19.30;77088;2836.228;-1800.335;1;132;-70;-64.5;42.8;43.0;17;16.7;26.7;0.0;
24/02/2025 05:20:32;100;0;132.78;-4;-19.64;-3.29;69.9;19.30;77082;2836.226;-1800.332;1;132;-70;-62.9;42.8;43.0;17;16.7;26.7;0.0;
24/02/2025 05:20:52;100;0;132.07;-4;-19.42;-3.31;72.5;19.30;77086;2836.224;-1800.330;1;132;-70;-62.9;42.8;43.0;17;16.7;26.7;0.0;
24/02/2025 05:21:12;100;0;128.22;-4;-19.30;-3.42;75.1;19.30;77080;2836.223;-1800.327;1;132;-70;-62.9;42.8;43.0;15;14.9;26.7;0.0;
24/02/2025 05:21:32;100;0;125.94;-4;-19.63;-4.45;77.7;19.30;77071;2836.221;-1800.325;1;132;-70;-62.9;42.8;43.0;15;14.4;26.7;0.0;
24/02/2025 05:21:52;100;0;125.76;-4;-19.24;-4.48;80.3;19.30;77071;2836.219;-1800.322;1;132;-70;-62.9;42.8;43.0;15;14.4;26.7;0.0;
24/02/2025 05:22:12;100;0;126.38;-4;-19.53;-4.39;83.0;19.30;77067;2836.218;-1800.319;1;132;-70;-62.9;42.8;43.0;15;14.4;26.7;0.0;
24/02/2025 05:22:32;100;0;128.59;-4;-19.28;-4.35;85.7;19.30;77058;2836.216;-1800.317;1;132;-70;-66.1;42.8;43.0;15;14.4;26.7;0.0;
24/02/2025 05:22:52;100;0;132.40;-4;-19.14;-4.85;88.3;19.30;77042;2836.214;-1800.314;1;132;-70;-62.9;42.8;43.0;15;14.4;26.7;0.0;
24/02/2025 05:23:12;100;0;133.20;-4;-19.14;-4.39;90.9;19.30;77037;2836.212;-1800.312;1;132;-70;-66.1;42.8;43.0;15;14.4;26.7;0.0;
24/02/2025 05:23:32;100;0;133.55;-4;-19.26;-4.43;93.5;19.30;77029;2836.210;-1800.309;1;132;-70;-62.9;42.8;43.2;15;14.4;26.7;0.0;
24/02/2025 05:23:52;100;0;131.86;-4;-19.28;-4.42;96.1;19.30;77032;2836.208;-1800.307;1;132;-70;-61.3;42.8;43.0;15;14.4;26.7;0.0;
24/02/2025 05:24:12;100;0;131.35;-4;-19.46;-4.40;98.7;19.20;77019;2836.206;-1800.305;1;132;-70;-62.9;42.8;43.0;15;14.4;26.7;0.0;
24/02/2025 05:24:32;100;0;131.60;-4;-19.03;-4.30;101.2;19.20;77016;2836.204;-1800.302;1;132;-70;-61.3;42.8;43.0;15;14.4;26.8;0.0;
24/02/2025 05:24:52;100;0;133.20;-4;-18.94;-4.42;103.8;19.20;77007;2836.202;-1800.300;1;132;-70;-62.9;43.1;43.2;15;14.4;26.7;0.0;
24/02/2025 05:25:12;100;0;133.26;-4;-20.07;-4.36;106.3;19.20;76994;2836.200;-1800.298;1;132;-70;-62.9;43.1;43.4;15;14.4;26.8;0.0;
24/02/2025 05:25:32;100;0;133.75;-4;-20.49;-4.43;108.9;19.20;76984;2836.198;-1800.295;1;132;-70;-62.9;43.1;43.4;15;14.4;26.7;0.0;
24/02/2025 05:25:52;100;0;133.56;-4;-20.53;-4.36;111.8;19.10;76971;2836.196;-1800.293;1;132;-70;-62.9;43.1;43.4;15;14.4;26.7;0.0;
24/02/2025 05:26:12;100;0;133.18;-4;-20.37;-4.33;114.4;19.10;76966;2836.194;-1800.291;1;132;-70;-62.9;43.1;43.4;15;14.4;26.7;0.0;
24/02/2025 05:26:32;100;0;132.93;-4;-20.28;-4.46;117.0;19.10;76955;2836.192;-1800.289;1;132;-70;-62.9;43.1;43.4;15;14.4;26.8;0.0;
24/02/2025 05:26:52;100;0;130.67;-4;-19.72;-4.42;119.6;19.10;76947;2836.190;-1800.286;1;132;-70;-66.1;43.1;43.4;15;14.4;26.7;0.0;
24/02/2025 05:27:12;100;0;126.96;-4;-19.64;-4.49;122.0;19.10;76932;2836.189;-1800.284;1;132;-70;-61.3;43.1;43.4;15;14.4;26.7;0.0;
24/02/2025 05:27:32;100;0;130.85;-4;-20.02;-4.44;124.4;19.00;76931;2836.187;-1800.282;1;132;-70;-64.5;43.1;43.4;15;14.4;26.7;0.0;
24/02/2025 05:27:52;100;0;134.92;-4;-19.91;-4.41;127.0;19.00;76918;2836.185;-1800.279;1;132;-70;-62.9;43.1;43.4;15;14.4;26.8;0.0;
24/02/2025 05:28:12;100;0;138.55;-4;-19.96;-4.44;129.5;19.00;76910;2836.183;-1800.278;1;132;-70;-62.9;43.1;43.4;17;17.1;26.7;0.0;
24/02/2025 05:28:32;100;0;138.92;-4;-19.91;-2.80;132.0;18.90;76895;2836.181;-1800.276;1;132;-70;-62.9;43.1;43.4;17;17.6;26.8;0.0;
24/02/2025 05:28:52;100;0;141.81;-4;-20.14;-2.74;134.5;18.90;76884;2836.179;-1800.274;1;132;-70;-62.9;43.1;43.4;19;19.0;26.7;0.0;
24/02/2025 05:29:12;100;0;141.77;-4;-20.32;-1.71;137.1;18.90;76883;2836.176;-1800.272;1;132;-70;-62.9;43.1;43.6;19;19.9;26.7;0.0;
24/02/2025 05:29:32;100;0;135.04;-4;-20.26;-1.80;139.7;18.90;76874;2836.174;-1800.270;1;132;-70;-64.5;43.1;43.4;16;15.8;26.7;0.0;
24/02/2025 05:29:52;100;0;129.85;-4;-20.20;-3.77;142.4;18.80;76867;2836.172;-1800.267;1;132;-70;-64.5;43.1;43.4;16;15.8;26.7;0.0;
24/02/2025 05:30:12;100;0;127.69;-4;-19.67;-3.82;144.9;18.80;76854;2836.171;-1800.265;1;132;-70;-61.3;43.1;43.4;16;15.8;26.7;0.0;
24/02/2025 05:30:32;100;0;128.54;-4;-19.42;-3.85;147.4;18.80;76839;2836.169;-1800.262;1;132;-70;-62.9;43.1;43.4;16;15.8;26.7;0.0;
24/02/2025 05:30:52;100;0;128.15;-4;-19.40;-3.89;149.9;18.70;76821;2836.167;-1800.260;1;132;-70;-62.9;43.1;43.4;16;15.8;26.7;0.0;
24/02/2025 05:31:12;100;0;131.58;-4;-19.60;-3.89;152.3;18.70;76814;2836.166;-1800.258;1;132;-70;-61.3;43.1;43.4;16;15.3;26.7;0.0;
24/02/2025 05:31:32;100;0;126.88;-4;-19.47;-3.92;154.7;18.70;76809;2836.164;-1800.256;1;132;-70;-64.5;43.1;43.4;16;15.8;26.7;0.0;
24/02/2025 05:31:52;100;0;123.01;-4;-19.78;-3.86;157.1;18.60;76788;2836.163;-1800.253;1;132;-70;-62.9;43.1;43.4;14;14.0;26.8;0.0;
24/02/2025 05:32:12;100;0;122.46;-4;-19.78;-4.88;159.6;18.60;76785;2836.161;-1800.250;1;132;-70;-62.9;43.1;43.4;14;13.5;26.7;0.0;
24/02/2025 05:32:32;100;0;123.25;-4;-19.90;-4.87;162.1;18.60;76777;2836.160;-1800.248;1;132;-70;-62.9;43.1;43.4;14;13.5;26.7;0.0;
24/02/2025 05:32:52;100;0;120.31;-4;-19.62;-4.94;164.7;18.50;76767;2836.159;-1800.245;1;132;-70;-64.5;43.1;43.4;12;12.2;26.7;0.0;
24/02/2025 05:33:12;100;0;118.12;-4;-19.55;-5.71;167.1;18.50;76761;2836.158;-1800.243;1;132;-70;-64.5;43.1;43.4;9;9.0;26.7;0.0;
24/02/2025 05:33:32;100;0;118.84;-4;-19.67;-7.30;169.5;18.50;76754;2836.156;-1800.240;1;132;-70;-62.9;43.1;43.4;9;8.6;26.7;0.0;
24/02/2025 05:33:52;100;0;122.38;-4;-19.56;-7.17;172.1;18.40;76744;2836.155;-1800.237;1;132;-70;-62.9;43.1;43.4;13;13.1;26.7;0.0;
24/02/2025 05:34:12;100;0;124.90;-4;-19.70;-4.88;174.7;18.40;76736;2836.153;-1800.235;1;132;-70;-62.9;43.1;43.4;15;14.9;26.7;0.0;
24/02/2025 05:34:32;100;0;127.50;-4;-19.62;-3.97;177.3;18.40;76724;2836.152;-1800.232;1;132;-70;-62.9;43.1;43.4;15;15.3;26.7;0.0;
24/02/2025 05:34:52;100;0;130.62;-4;-19.45;-3.92;179.8;18.30;76715;2836.150;-1800.230;1;132;-70;-62.9;43.1;43.4;15;15.3;26.7;0.0;
24/02/2025 05:35:12;100;0;131.55;-4;-19.43;-3.94;182.3;18.30;76697;2836.148;-1800.227;1;132;-70;-62.9;43.1;43.4;15;15.3;26.7;0.0;
24/02/2025 05:35:32;100;0;131.44;-4;-19.50;-3.93;184.7;18.20;76694;2836.146;-1800.225;1;132;-70;-61.3;43.1;43.4;15;15.3;26.7;0.0;
24/02/2025 05:35:52;100;0;131.15;-4;-19.47;-3.92;187.3;18.20;76680;2836.144;-1800.223;1;132;-70;-62.9;43.1;43.4;15;15.3;26.7;0.0;
24/02/2025 05:36:12;100;0;131.75;-4;-19.55;-3.96;189.9;18.20;76679;2836.143;-1800.221;1;132;-70;-62.9;43.1;43.4;15;15.3;26.8;0.0;
24/02/2025 05:36:32;100;0;131.93;-4;-19.57;-3.94;192.5;18.10;76667;2836.141;-1800.218;1;132;-70;-61.3;43.1;43.4;15;15.3;26.7;0.0;
24/02/2025 05:36:52;100;0;130.92;-4;-19.82;-3.93;195.2;18.10;76669;2836.139;-1800.216;1;132;-70;-62.9;43.1;43.4;15;15.3;26.7;0.0;
24/02/2025 05:37:12;100;0;129.89;-4;-19.88;-3.91;198.1;18.00;76663;2836.137;-1800.213;1;132;-70;-62.9;43.1;43.4;15;15.3;26.7;0.0;
24/02/2025 05:37:32;100;0;129.22;-4;-19.93;-3.89;200.9;18.00;76658;2836.135;-1800.210;1;132;-70;-62.9;43.1;43.4;15;15.3;26.7;0.0;
24/02/2025 05:37:52;100;0;128.49;-4;-19.89;-3.91;203.7;18.00;76656;2836.133;-1800.208;1;132;-70;-62.9;43.1;43.4;15;15.3;26.7;0.0;
24/02/2025 05:38:12;100;0;126.92;-4;-19.59;-3.82;206.7;17.90;76648;2836.131;-1800.205;1;132;-70;-62.9;43.1;43.4;15;15.3;26.7;0.0;
24/02/2025 05:38:32;100;0;127.79;-4;-19.41;-3.84;209.6;17.90;76652;2836.129;-1800.202;1;132;-70;-62.9;43.1;43.4;15;15.3;26.7;0.0;
24/02/2025 05:38:52;100;0;129.79;-4;-19.59;-3.96;212.5;17.90;76639;2836.127;-1800.199;1;132;-70;-62.9;43.1;43.4;15;15.3;26.7;0.0;
24/02/2025 05:39:12;100;0;131.00;-4;-19.44;-3.93;215.2;17.90;76641;2836.125;-1800.196;1;132;-70;-62.9;43.1;43.4;15;15.3;26.7;0.0;
24/02/2025 05:39:32;100;0;129.77;-4;-19.89;-3.87;218.2;17.80;76640;2836.123;-1800.193;1;132;-70;-62.9;43.1;43.4;15;15.3;26.7;0.0;
24/02/2025 05:39:52;100;0;130.39;-4;-20.24;-3.86;221.2;17.80;76638;2836.121;-1800.190;1;132;-70;-62.9;43.1;43.4;15;15.3;26.7;0.0;
24/02/2025 05:40:12;100;0;130.41;-4;-19.75;-3.90;224.2;17.80;76624;2836.118;-1800.188;1;132;-70;-62.9;43.1;43.4;15;15.3;26.7;0.0;
24/02/2025 05:40:32;100;0;130.63;-4;-19.67;-3.91;227.2;17.70;76617;2836.116;-1800.185;1;132;-70;-62.9;43.1;43.4;15;15.3;26.7;0.0;
24/02/2025 05:40:52;100;0;128.17;-4;-19.77;-3.88;230.0;17.70;76591;2836.114;-1800.182;1;132;-70;-62.9;43.1;43.4;15;15.3;26.8;0.0;
24/02/2025 05:41:12;100;0;126.94;-4;-19.67;-3.92;232.9;17.70;76592;2836.112;-1800.179;1;132;-70;-62.9;43.1;43.4;15;15.3;26.7;0.0;
24/02/2025 05:41:32;100;0;123.06;-4;-19.91;-3.93;235.8;17.60;76583;2836.111;-1800.176;1;132;-70;-62.9;43.1;43.4;15;15.3;26.7;0.0;
24/02/2025 05:41:52;100;0;123.38;-4;-19.55;-3.91;238.6;17.60;76579;2836.109;-1800.173;1;132;-70;-62.9;43.1;43.4;15;15.3;26.7;0.0;
24/02/2025 05:42:12;100;0;125.26;-4;-19.47;-3.93;241.4;17.60;76561;2836.107;-1800.170;1;132;-70;-61.3;43.1;43.4;15;15.3;26.7;0.0;
24/02/2025 05:42:32;100;0;127.88;-4;-19.48;-3.92;244.2;17.50;76560;2836.105;-1800.167;1;132;-70;-61.3;43.1;43.4;15;15.3;26.7;0.0;
24/02/2025 05:42:52;100;0;129.67;-4;-19.38;-3.92;246.9;17.50;76539;2836.103;-1800.165;1;132;-70;-62.9;43.1;43.4;15;15.3;26.7;0.0;
24/02/2025 05:43:12;100;0;132.25;-4;-19.36;-3.92;249.6;17.40;76531;2836.101;-1800.162;1;132;-70;-62.9;43.1;43.4;15;15.3;26.7;0.0;
24/02/2025 05:43:32;100;0;132.19;-4;-19.61;-3.89;252.4;17.40;76521;2836.099;-1800.160;1;132;-70;-62.9;43.1;43.4;15;15.3;26.7;0.0;
24/02/2025 05:43:52;100;0;129.82;-4;-19.69;-3.95;255.0;17.40;76521;2836.098;-1800.157;1;132;-70;-64.5;43.1;43.4;15;15.3;26.7;0.0;
24/02/2025 05:44:12;100;0;131.50;-4;-19.56;-3.89;257.8;17.30;76510;2836.096;-1800.155;1;132;-70;-62.9;43.1;43.4;15;15.3;26.7;0.0;
24/02/2025 05:44:32;100;0;132.08;-4;-19.50;-3.92;260.4;17.30;76491;2836.094;-1800.152;1;132;-70;-62.9;43.1;43.4;15;15.3;26.7;0.0;
24/02/2025 05:44:52;100;0;134.52;-4;-20.02;-3.91;263.1;17.20;76489;2836.092;-1800.150;1;132;-70;-62.9;43.1;43.4;15;15.3;26.7;0.0;
24/02/2025 05:45:12;100;0;137.19;-4;-19.39;-3.93;265.8;17.20;76488;2836.089;-1800.148;1;132;-70;-62.9;43.1;43.4;15;15.3;26.7;0.0;
24/02/2025 05:45:32;100;0;139.37;-4;-19.49;-3.93;268.5;17.20;76477;2836.087;-1800.146;1;132;-70;-62.9;43.1;43.4;17;17.1;26.7;0.0;
24/02/2025 05:45:52;100;0;142.61;-4;-19.38;-2.95;271.1;17.10;76456;2836.084;-1800.144;1;132;-70;-62.9;43.1;43.4;20;19.9;26.7;0.0;
24/02/2025 05:46:12;100;0;141.00;-4;-19.38;-1.50;273.6;17.10;76455;2836.082;-1800.142;1;132;-70;-66.1;43.1;43.4;18;18.1;26.7;0.0;
24/02/2025 05:46:32;100;0;142.94;-4;-19.91;-2.67;276.1;17.10;76448;2836.080;-1800.140;1;132;-70;-61.3;43.1;43.4;20;20.3;26.8;0.0;
24/02/2025 05:46:52;100;0;144.03;-4;-19.38;-1.20;278.6;17.00;76447;2836.078;-1800.139;1;132;-70;-62.9;43.1;43.4;22;22.1;26.7;0.0;
24/02/2025 05:47:12;100;0;140.91;-4;-19.88;-0.44;281.1;17.00;76437;2836.075;-1800.137;1;132;-70;-62.9;43.1;43.4;18;17.6;26.7;0.0;
24/02/2025 05:47:32;100;0;135.29;-4;-19.38;-2.96;283.6;16.90;76433;2836.073;-1800.135;1;132;-70;-62.9;43.1;43.4;16;15.8;26.8;0.0;
24/02/2025 05:47:52;100;0;132.00;-4;-19.03;-4.04;285.8;16.90;76428;2836.072;-1800.133;1;132;-70;-61.3;43.1;43.4;16;15.3;26.7;0.0;
24/02/2025 05:48:12;100;0;131.23;-4;-19.15;-4.23;288.2;16.90;76400;2836.070;-1800.130;1;132;-70;-62.9;43.1;43.4;16;15.3;26.7;0.0;
24/02/2025 05:48:32;100;0;129.92;-4;-19.18;-4.03;290.4;16.80;76402;2836.069;-1800.128;1;132;-70;-62.9;43.1;43.4;16;15.3;26.7;0.0;
24/02/2025 05:48:52;100;0;129.24;-4;-18.32;-4.03;292.9;16.80;76396;2836.067;-1800.126;1;132;-70;-62.9;43.6;43.6;16;15.3;26.7;0.0;
24/02/2025 05:49:12;100;0;126.43;-4;-19.58;-4.01;295.1;16.80;76384;2836.065;-1800.124;1;132;-70;-62.9;43.6;43.9;16;15.3;26.7;0.0;
24/02/2025 05:49:32;100;0;126.63;-4;-19.85;-4.03;297.4;16.70;76382;2836.064;-1800.122;1;132;-70;-64.5;43.6;43.9;16;15.3;26.7;0.0;
24/02/2025 05:49:52;100;0;126.92;-4;-19.91;-4.06;299.7;16.70;76370;2836.063;-1800.119;1;132;-70;-62.9;43.6;43.9;16;15.3;26.7;0.0;
24/02/2025 05:50:12;100;0;127.15;-4;-19.91;-4.02;301.8;16.70;76370;2836.061;-1800.117;1;132;-70;-61.3;43.6;43.9;16;15.3;26.7;0.0;
24/02/2025 05:50:32;100;0;125.03;-4;-19.64;-4.17;303.9;16.60;76355;2836.060;-1800.115;1;132;-70;-62.9;43.6;43.7;16;15.3;26.7;0.0;
24/02/2025 05:50:52;100;0;119.86;-4;-19.90;-4.26;306.0;16.60;76346;2836.059;-1800.113;1;132;-70;-62.9;43.6;43.9;11;10.8;26.7;0.0;
24/02/2025 05:51:12;100;0;118.45;-4;-19.80;-6.18;308.1;16.60;76338;2836.058;-1800.111;1;132;-70;-62.9;43.6;43.9;11;10.8;26.7;0.0;
24/02/2025 05:51:32;100;0;115.31;-4;-19.72;-6.38;310.4;16.50;76335;2836.057;-1800.108;1;132;-70;-62.9;43.6;43.9;5;5.0;26.7;0.0;
24/02/2025 05:51:52;100;0;116.91;-4;-19.73;-9.43;312.5;16.50;76330;2836.056;-1800.106;1;132;-70;-62.9;43.6;43.9;8;8.1;26.7;0.0;
24/02/2025 05:52:12;100;0;119.33;-4;-19.57;-7.41;314.8;16.50;76323;2836.055;-1800.104;1;132;-70;-62.9;43.6;43.7;10;9.9;26.7;0.0;
24/02/2025 05:52:32;100;0;120.82;-4;-20.12;-6.52;317.0;16.40;76313;2836.054;-1800.102;1;132;-70;-62.9;43.6;43.9;12;12.6;26.7;0.0;
24/02/2025 05:52:52;100;0;121.27;-4;-20.04;-5.11;319.4;16.40;76302;2836.053;-1800.099;1;132;-70;-62.9;43.6;43.9;12;12.6;26.7;0.0;
24/02/2025 05:53:12;100;0;124.66;-4;-19.78;-5.18;321.6;16.30;76298;2836.052;-1800.097;1;132;-70;-62.9;43.6;43.9;14;14.0;26.7;0.0;
24/02/2025 05:53:33;100;0;125.65;-4;-19.67;-4.50;323.9;16.30;76291;2836.050;-1800.095;1;132;-70;-62.9;43.6;44.0;14;14.0;26.7;0.0;
24/02/2025 05:53:53;100;0;127.13;-4;-19.94;-4.45;326.1;16.30;76290;2836.049;-1800.093;1;132;-70;-61.3;43.6;43.9;14;14.0;26.7;0.0;
24/02/2025 05:54:13;100;0;129.73;-4;-19.80;-4.59;328.3;16.20;76283;2836.047;-1800.091;1;132;-70;-61.3;43.6;43.7;14;14.0;26.7;0.0;
24/02/2025 05:54:33;100;0;132.12;-4;-20.09;-4.47;330.7;16.20;76276;2836.046;-1800.089;1;132;-70;-62.9;43.6;43.9;14;14.0;26.7;0.0;
24/02/2025 05:54:53;100;0;132.23;-4;-19.70;-4.46;333.0;16.20;76269;2836.044;-1800.087;1;132;-70;-64.5;43.6;43.7;14;14.0;26.8;0.0;
24/02/2025 05:55:13;100;0;131.30;-4;-19.76;-4.50;335.2;16.10;76263;2836.042;-1800.085;1;132;-70;-62.9;43.6;43.9;14;14.0;26.7;0.0;
24/02/2025 05:55:33;100;0;132.47;-4;-20.00;-4.42;337.6;16.10;76250;2836.041;-1800.083;1;132;-70;-61.3;43.6;43.7;14;14.0;26.7;0.0;
24/02/2025 05:55:53;100;0;128.44;-4;-19.98;-4.56;340.1;16.10;76237;2836.039;-1800.080;1;132;-70;-62.9;43.6;43.9;14;14.4;26.7;0.0;
24/02/2025 05:56:13;100;0;126.38;-4;-20.08;-4.47;342.5;16.00;76236;2836.038;-1800.078;1;132;-70;-62.9;43.6;43.9;14;14.0;26.7;0.0;
24/02/2025 05:56:33;100;0;124.76;-4;-19.95;-4.45;345.0;16.00;76232;2836.036;-1800.075;1;132;-70;-62.9;43.6;43.9;14;14.0;26.7;0.0;
24/02/2025 05:56:53;100;0;123.74;-4;-20.01;-4.36;347.5;16.00;76225;2836.035;-1800.073;1;132;-70;-61.3;43.6;43.9;14;14.0;26.7;0.0;
24/02/2025 05:57:13;100;0;122.44;-4;-20.15;-4.49;350.1;15.90;76230;2836.033;-1800.070;1;132;-70;-64.5;43.6;43.9;14;14.4;26.7;0.0;
24/02/2025 05:57:33;100;0;120.98;-4;-20.12;-4.52;352.8;15.90;76217;2836.032;-1800.067;1;132;-70;-62.9;43.6;43.7;12;12.2;26.7;0.0;
24/02/2025 05:57:53;100;0;120.31;-4;-19.73;-5.56;355.4;15.90;76202;2836.031;-1800.065;1;132;-70;-62.9;43.6;43.7;12;12.2;26.7;0.0;
24/02/2025 05:58:13;100;0;119.36;-4;-19.81;-5.60;358.0;15.80;76207;2836.029;-1800.062;1;132;-70;-62.9;43.6;43.7;10;9.5;26.7;0.0;
24/02/2025 05:58:33;100;0;120.20;-4;-19.47;-6.89;360.6;15.80;76197;2836.028;-1800.059;1;132;-70;-62.9;43.6;43.7;10;9.5;26.7;0.0;
24/02/2025 05:58:53;100;0;125.11;-4;-19.54;-6.88;363.2;15.80;76196;2836.026;-1800.056;1;132;-70;-62.9;43.6;44.0;14;14.0;26.7;0.0;
24/02/2025 05:59:13;100;0;126.40;-4;-19.77;-4.38;365.8;15.80;76185;2836.025;-1800.054;1;132;-70;-62.9;43.6;43.9;14;14.4;26.7;0.0;
24/02/2025 05:59:33;100;0;126.70;-4;-19.80;-4.39;368.4;15.70;76176;2836.023;-1800.051;1;132;-70;-62.9;43.6;43.9;14;14.4;26.7;0.0;
24/02/2025 05:59:53;100;0;128.37;-4;-19.83;-4.34;371.1;15.70;76175;2836.021;-1800.048;1;132;-70;-62.9;43.6;43.9;14;14.4;26.7;0.0;
24/02/2025 06:00:13;100;0;128.81;-4;-19.77;-4.37;373.8;15.60;76166;2836.019;-1800.046;1;132;-70;-61.3;43.6;43.9;14;14.4;26.7;0.0;
24/02/2025 06:00:33;100;0;130.11;-4;-19.75;-4.35;376.4;15.60;76145;2836.017;-1800.043;1;132;-70;-62.9;43.6;43.9;14;14.4;26.7;0.0;
24/02/2025 06:00:53;100;0;131.97;-4;-19.74;-4.36;379.1;15.60;76147;2836.016;-1800.041;1;132;-70;-62.9;43.6;43.9;14;14.4;26.7;0.0;
24/02/2025 06:01:13;100;0;134.39;-4;-19.63;-4.34;381.8;15.60;76139;2836.013;-1800.039;1;132;-70;-62.9;43.6;43.9;14;14.4;26.8;0.0;
24/02/2025 06:01:33;100;0;135.29;-4;-19.69;-4.37;384.4;15.50;76144;2836.011;-1800.037;1;132;-70;-62.9;43.6;43.9;14;14.4;26.7;0.0;
24/02/2025 06:01:53;100;0;136.19;-4;-19.74;-4.36;387.0;15.50;76140;2836.009;-1800.034;1;132;-70;-64.5;43.6;43.9;14;14.4;26.7;0.0;
24/02/2025 06:02:13;100;0;137.76;-4;-19.90;-4.34;389.6;15.50;76122;2836.007;-1800.032;1;132;-70;-62.9;43.6;43.9;16;15.8;26.8;0.0;
24/02/2025 06:02:33;100;0;139.74;-4;-20.06;-3.34;392.4;15.40;76138;2836.005;-1800.030;1;132;-70;-62.9;43.6;43.9;16;16.2;26.7;0.0;
24/02/2025 06:02:53;100;0;139.07;-4;-19.77;-3.37;395.0;15.40;76120;2836.003;-1800.028;1;132;-70;-62.9;43.6;43.9;16;16.2;26.7;0.0;
24/02/2025 06:03:13;100;0;137.57;-4;-19.98;-3.42;397.6;15.40;76110;2836.001;-1800.026;1;132;-70;-62.9;43.6;43.9;16;16.2;26.7;0.0;
24/02/2025 06:03:33;100;0;135.50;-4;-19.85;-3.41;400.3;15.30;76108;2835.998;-1800.024;1;132;-70;-62.9;43.6;43.9;16;16.2;26.7;0.0;
24/02/2025 06:03:53;100;0;133.96;-4;-19.76;-3.38;402.9;15.30;76105;2835.996;-1800.022;1;132;-70;-62.9;43.6;43.9;16;16.2;26.7;0.0;
24/02/2025 06:04:13;100;0;130.65;-4;-19.84;-3.42;405.5;15.30;76103;2835.995;-1800.019;1;132;-70;-62.9;43.6;43.9;16;16.2;26.7;0.0;
24/02/2025 06:04:33;100;0;126.65;-4;-19.92;-3.37;408.2;15.20;76099;2835.993;-1800.017;1;132;-70;-62.9;43.6;43.7;16;16.2;26.7;0.0;
24/02/2025 06:04:53;100;0;122.06;-4;-20.17;-3.34;410.9;15.20;76094;2835.991;-1800.014;1;132;-70;-62.9;43.6;43.9;12;12.2;26.7;0.0;
24/02/2025 06:05:13;100;0;118.92;-4;-19.82;-5.56;413.6;15.20;76084;2835.990;-1800.011;1;132;-70;-62.9;43.6;43.9;10;9.9;26.7;0.0;
24/02/2025 06:05:33;100;0;118.22;-4;-19.67;-6.87;416.4;15.20;76077;2835.989;-1800.008;1;132;-70;-62.9;43.6;43.9;10;9.5;26.7;0.0;
24/02/2025 06:05:53;100;0;123.53;-4;-19.20;-6.85;419.0;15.10;76071;2835.987;-1800.005;1;132;-70;-61.3;43.6;43.7;13;13.1;26.7;0.0;
24/02/2025 06:06:13;100;0;128.55;-4;-19.09;-4.89;421.6;15.10;76059;2835.985;-1800.002;1;132;-70;-62.9;43.6;43.7;15;14.9;26.7;0.0;
24/02/2025 06:06:33;100;0;133.37;-4;-19.64;-3.86;424.1;15.10;76060;2835.983;-1800.000;1;132;-70;-62.9;43.6;43.9;15;15.3;26.7;0.0;
24/02/2025 06:06:53;100;0;135.18;-4;-19.72;-3.90;426.6;15.00;76053;2835.982;-1759.998;1;132;-70;-62.9;43.6;43.9;15;15.3;26.7;0.0;
24/02/2025 06:07:13;100;0;137.57;-4;-19.78;-3.87;429.1;15.00;76048;2835.980;-1759.996;1;132;-70;-62.9;43.6;43.7;15;15.3;26.7;0.0;
24/02/2025 06:07:33;100;0;139.81;-4;-19.85;-3.84;431.5;15.00;76049;2835.977;-1759.994;1;132;-70;-62.9;43.6;43.9;17;17.1;26.7;0.0;
24/02/2025 06:07:53;100;0;142.47;-4;-19.70;-2.67;434.0;15.00;76036;2835.975;-1759.993;1;132;-70;-61.3;43.6;43.7;19;19.0;26.7;0.0;
24/02/2025 06:08:13;100;0;142.96;-4;-19.99;-2.01;436.5;14.90;76036;2835.973;-1759.991;1;132;-70;-62.9;43.6;43.9;19;19.0;26.7;0.0;
24/02/2025 06:08:33;100;0;143.43;-4;-19.98;-1.96;439.0;14.90;76031;2835.971;-1759.989;1;132;-70;-62.9;43.6;43.9;19;19.4;26.7;0.0;
24/02/2025 06:08:53;100;0;143.96;-4;-19.90;-1.96;441.4;14.90;76029;2835.969;-1759.988;1;132;-70;-62.9;43.6;43.7;21;21.2;26.7;0.0;
24/02/2025 06:09:13;100;0;143.99;-4;-19.87;-0.78;443.8;14.90;76017;2835.967;-1759.986;1;132;-70;-61.3;43.6;43.9;21;21.2;26.7;0.0;
24/02/2025 06:09:33;100;0;144.92;-4;-20.02;-0.81;446.2;14.80;76017;2835.964;-1759.985;1;132;-70;-62.9;43.6;43.9;21;21.2;26.7;0.0;
24/02/2025 06:09:53;100;0;143.95;-4;-19.86;-0.80;448.5;14.80;76015;2835.962;-1759.983;1;132;-70;-62.9;43.6;43.9;21;21.7;26.7;0.0;
24/02/2025 06:10:13;100;0;143.54;-4;-19.84;-0.83;450.7;14.80;76012;2835.960;-1759.982;1;132;-70;-61.3;43.6;43.9;21;21.7;26.7;0.0;
24/02/2025 06:10:33;100;0;142.85;-4;-19.88;-0.83;453.0;14.70;76007;2835.958;-1759.980;1;132;-70;-62.9;43.6;43.9;21;21.7;26.7;0.0;
24/02/2025 06:10:53;100;0;141.62;-4;-19.95;-0.84;455.3;14.70;75994;2835.956;-1759.979;1;132;-70;-62.9;43.6;43.9;19;19.0;26.7;0.0;
24/02/2025 06:11:13;100;0;139.63;-4;-19.72;-2.27;457.6;14.70;75997;2835.955;-1759.977;1;132;-70;-62.9;43.6;43.9;17;17.1;26.7;0.0;
24/02/2025 06:11:33;100;0;140.40;-4;-19.53;-3.31;459.8;14.70;75986;2835.953;-1759.975;1;132;-70;-62.9;43.6;43.9;17;16.7;26.7;0.0;
24/02/2025 06:11:53;100;0;142.17;-4;-19.38;-3.37;461.9;14.60;75982;2835.951;-1759.974;1;132;-70;-64.5;43.6;43.9;19;19.0;26.7;0.0;
24/02/2025 06:12:13;100;0;141.09;-4;-19.52;-1.78;464.1;14.60;75971;2835.949;-1759.972;1;132;-70;-62.9;43.6;43.9;19;19.9;26.7;0.0;
24/02/2025 06:12:33;100;0;138.85;-4;-19.42;-1.77;466.2;14.60;75973;2835.947;-1759.971;1;132;-70;-62.9;43.6;43.9;17;17.1;26.7;0.0;
24/02/2025 06:12:53;100;0;137.34;-4;-19.44;-3.24;468.3;14.60;75966;2835.946;-1759.969;1;132;-70;-62.9;43.6;43.9;17;17.1;26.7;0.0;
24/02/2025 06:13:13;100;0;136.25;-4;-19.21;-3.28;470.4;14.50;75953;2835.944;-1759.967;1;132;-70;-61.3;43.6;43.9;17;16.7;26.7;0.0;
24/02/2025 06:13:33;100;0;134.39;-4;-19.32;-3.24;472.4;14.50;75960;2835.942;-1759.966;1;132;-90;-91.9;43.6;43.9;17;16.7;26.7;0.0;
24/02/2025 06:13:53;100;0;132.53;-4;-18.69;-3.09;474.5;14.50;76027;2835.941;-1759.964;1;132;-90;-93.5;44.0;44.3;15;14.9;26.7;0.0;
24/02/2025 06:14:13;100;0;131.61;-4;-19.36;-4.19;476.8;14.50;76029;2835.939;-1759.962;1;132;-90;-93.5;44.0;44.2;15;14.9;26.7;0.0;
24/02/2025 06:14:33;100;0;131.40;-4;-19.70;-4.23;479.2;14.40;76020;2835.937;-1759.960;1;132;-90;-93.5;44.0;44.2;15;14.9;26.7;0.0;
24/02/2025 06:14:53;100;0;132.21;-4;-19.73;-4.18;481.6;14.40;76017;2835.936;-1759.958;1;132;-90;-95.2;44.0;44.3;15;14.4;26.7;0.0;
24/02/2025 06:15:13;100;0;131.66;-4;-19.64;-4.22;484.0;14.40;76011;2835.934;-1759.956;1;132;-90;-95.2;44.0;44.2;15;14.9;26.7;0.0;
24/02/2025 06:15:33;100;0;129.49;-4;-19.68;-4.18;486.5;14.40;76006;2835.932;-1759.953;1;132;-90;-95.2;44.0;44.3;15;14.9;26.7;0.0;
24/02/2025 06:15:53;100;0;126.23;-4;-19.61;-4.19;488.9;14.40;76004;2835.931;-1759.951;1;132;-90;-93.5;44.0;44.2;15;14.9;26.7;0.0;
24/02/2025 06:16:13;100;0;123.56;-4;-19.66;-4.17;491.3;14.30;76000;2835.929;-1759.948;1;132;-90;-96.8;44.0;44.3;15;14.9;26.7;0.0;
24/02/2025 06:16:33;100;0;123.86;-4;-19.82;-4.18;493.9;14.30;75995;2835.928;-1759.946;1;132;-90;-96.8;44.0;44.3;15;14.9;26.7;0.0;
24/02/2025 06:16:53;100;0;123.97;-4;-20.00;-4.13;496.4;14.30;75993;2835.926;-1759.943;1;132;-90;-96.8;44.0;44.3;15;14.9;26.7;0.0;
24/02/2025 06:17:13;100;0;123.20;-4;-19.94;-4.14;499.0;14.30;75988;2835.925;-1759.941;1;132;-90;-95.2;44.0;44.2;15;14.9;26.7;0.0;
24/02/2025 06:17:33;100;0;122.14;-4;-19.97;-4.18;501.6;14.20;75976;2835.924;-1759.938;1;132;-90;-96.8;44.0;44.2;13;12.6;26.7;0.0;
24/02/2025 06:17:53;100;0;122.64;-4;-19.99;-5.20;504.2;14.20;75969;2835.922;-1759.935;1;132;-90;-95.2;44.0;44.3;13;12.6;26.7;0.0;
24/02/2025 06:18:13;100;0;124.04;-4;-20.00;-5.16;506.9;14.20;75972;2835.921;-1759.932;1;132;-90;-95.2;44.0;44.3;13;12.6;26.7;0.0;
24/02/2025 06:18:33;100;0;126.16;-4;-19.86;-5.12;509.6;14.20;75973;2835.919;-1759.930;1;132;-90;-95.2;44.0;44.3;15;14.9;26.7;0.0;
24/02/2025 06:18:53;100;0;126.41;-4;-20.01;-3.89;512.2;14.10;75964;2835.917;-1759.927;1;132;-90;-96.8;44.0;44.3;15;14.9;26.7;0.0;
24/02/2025 06:19:13;100;0;123.49;-4;-19.91;-3.92;514.9;14.10;75960;2835.916;-1759.924;1;132;-90;-96.8;44.0;44.3;15;14.9;26.7;0.0;
24/02/2025 06:19:33;100;0;122.51;-4;-19.73;-3.98;517.5;14.10;75960;2835.914;-1759.922;1;132;-90;-96.8;44.0;44.3;13;13.1;26.7;0.0;
24/02/2025 06:19:53;100;0;121.15;-4;-19.57;-4.99;520.0;14.10;75958;2835.913;-1759.919;1;132;-90;-96.8;44.0;44.3;13;13.1;26.7;0.0;
24/02/2025 06:20:13;100;0;120.50;-4;-19.68;-5.07;522.6;14.00;75941;2835.912;-1759.916;1;132;-90;-96.8;44.0;44.3;11;10.8;26.7;0.0;
24/02/2025 06:20:33;100;0;120.19;-4;-19.50;-6.31;525.2;14.00;75940;2835.910;-1759.913;1;132;-90;-96.8;44.0;44.3;11;10.4;26.7;0.0;
24/02/2025 06:20:53;100;0;120.54;-4;-19.68;-6.29;527.9;14.00;75944;2835.909;-1759.911;1;132;-90;-96.8;44.0;44.2;11;10.4;26.7;0.0;
24/02/2025 06:21:13;100;0;120.97;-4;-19.62;-6.31;530.4;14.00;75942;2835.907;-1759.908;1;132;-90;-96.8;44.0;44.3;11;10.4;26.7;0.0;
24/02/2025 06:21:33;100;0;119.67;-4;-19.51;-6.34;533.2;13.90;75932;2835.906;-1759.905;1;132;-90;-96.8;44.0;44.2;11;10.4;26.7;0.0;
24/02/2025 06:21:53;100;0;119.30;-4;-19.67;-6.28;535.8;13.90;75935;2835.905;-1759.902;1;132;-90;-95.2;44.0;44.3;11;10.4;26.7;0.0;
24/02/2025 06:22:13;100;0;120.27;-4;-19.69;-6.31;538.5;13.90;75928;2835.903;-1759.899;1;132;-90;-96.8;44.0;44.3;11;10.4;26.7;0.0;
24/02/2025 06:22:33;100;0;121.36;-4;-19.57;-6.27;541.3;13.90;75917;2835.902;-1759.896;1;132;-90;-96.8;44.0;44.3;11;10.4;26.7;0.0;
24/02/2025 06:22:53;100;0;122.19;-4;-19.61;-6.16;544.0;13.90;75921;2835.900;-1759.893;1;132;-90;-96.8;44.0;44.3;11;10.4;26.7;0.0;
24/02/2025 06:23:13;100;0;122.13;-4;-19.65;-6.30;546.7;13.80;75914;2835.899;-1759.890;1;132;-90;-96.8;44.0;44.3;11;10.4;26.7;0.0;
24/02/2025 06:23:33;100;0;123.60;-4;-19.69;-6.36;549.5;13.80;75920;2835.897;-1759.888;1;132;-90;-95.2;44.0;44.2;13;13.1;26.7;0.0;
24/02/2025 06:23:53;100;0;121.50;-4;-19.70;-4.79;552.1;13.80;75904;2835.896;-1759.885;1;132;-90;-96.8;44.0;44.3;13;13.5;26.7;0.0;
24/02/2025 06:24:13;100;0;120.29;-4;-19.85;-4.85;554.8;13.80;75899;2835.894;-1759.882;1;132;-90;-96.8;44.0;44.3;11;10.8;26.7;0.0;
24/02/2025 06:24:33;100;0;121.29;-4;-19.34;-6.17;557.4;13.80;75899;2835.893;-1759.879;1;132;-90;-96.8;44.0;44.2;11;10.4;26.7;0.0;
24/02/2025 06:24:53;100;0;123.54;-4;-19.19;-6.21;559.9;13.70;75889;2835.891;-1759.876;1;132;-90;-96.8;44.0;44.3;13;13.1;26.7;0.0;
24/02/2025 06:25:13;100;0;125.41;-4;-19.40;-4.68;562.5;13.70;75885;2835.890;-1759.874;1;132;-90;-96.8;44.0;44.3;13;13.5;26.7;0.0;
24/02/2025 06:25:33;100;0;127.96;-4;-19.29;-4.71;565.1;13.70;75884;2835.888;-1759.871;1;132;-90;-96.8;44.0;44.3;13;13.5;26.7;0.0;
24/02/2025 06:25:53;100;0;128.55;-4;-19.40;-4.68;567.6;13.70;75887;2835.886;-1759.869;1;132;-90;-95.2;44.0;44.3;13;13.5;26.7;0.0;
24/02/2025 06:26:13;100;0;129.91;-4;-19.34;-4.75;570.0;13.70;75885;2835.884;-1759.866;1;132;-90;-95.2;44.0;44.3;13;13.5;26.7;0.0;
24/02/2025 06:26:33;100;0;132.69;-4;-19.50;-4.68;572.7;13.60;75865;2835.882;-1759.864;1;132;-90;-95.2;44.0;44.3;13;13.5;26.7;0.0;
24/02/2025 06:26:53;100;0;134.12;-4;-19.54;-4.69;575.3;13.60;75870;2835.880;-1759.862;1;132;-90;-96.8;44.0;44.3;15;14.9;26.7;0.0;
24/02/2025 06:27:13;100;0;134.56;-4;-19.60;-3.73;577.8;13.60;75864;2835.879;-1759.860;1;132;-90;-95.2;44.0;44.3;15;15.3;26.7;0.0;
24/02/2025 06:27:33;100;0;135.09;-4;-19.38;-3.75;580.4;13.60;75867;2835.876;-1759.857;1;132;-90;-96.8;44.0;44.3;15;15.3;26.7;0.0;
24/02/2025 06:27:53;100;0;137.05;-4;-19.44;-3.79;582.9;13.50;75849;2835.874;-1759.855;1;132;-90;-96.8;44.0;44.3;15;15.3;26.7;0.0;
24/02/2025 06:28:13;100;0;140.16;-4;-19.50;-3.77;585.4;13.50;75858;2835.872;-1759.853;1;132;-90;-95.2;44.0;44.3;17;17.1;26.7;0.0;
24/02/2025 06:28:33;100;0;142.50;-4;-19.44;-2.55;587.9;13.50;75845;2835.870;-1759.852;1;132;-90;-96.8;44.0;44.3;19;19.0;26.7;0.0;
24/02/2025 06:28:54;100;0;142.01;-4;-19.87;-1.77;590.5;13.50;75843;2835.868;-1759.850;1;132;-90;-98.4;44.0;44.3;19;19.4;26.7;0.0;
24/02/2025 06:29:14;100;0;140.96;-4;-19.75;-1.71;593.2;13.40;75834;2835.865;-1759.848;1;132;-90;-96.8;44.0;44.3;19;19.4;26.7;0.0;
24/02/2025 06:29:34;100;0;141.40;-4;-19.68;-1.77;595.8;13.40;75840;2835.863;-1759.846;1;132;-90;-96.8;44.0;44.3;19;19.4;26.7;0.0;
24/02/2025 06:29:54;100;0;139.81;-4;-19.91;-1.68;598.5;13.40;75827;2835.861;-1759.844;1;132;-90;-96.8;44.0;44.3;17;17.1;26.7;0.0;
24/02/2025 06:30:14;100;0;138.09;-4;-19.36;-3.09;601.1;13.40;75834;2835.859;-1759.842;1;132;-90;-96.8;44.0;44.3;17;16.7;26.7;0.0;
24/02/2025 06:30:34;100;0;136.18;-4;-19.48;-2.92;603.7;13.40;75826;2835.856;-1759.839;1;132;-90;-96.8;44.0;44.3;15;14.9;26.7;0.0;
24/02/2025 06:30:54;100;0;135.05;-4;-19.91;-4.26;606.4;13.40;75822;2835.854;-1759.837;1;132;-90;-96.8;44.0;44.3;15;14.4;26.7;0.0;
24/02/2025 06:31:14;100;0;133.13;-4;-18.92;-4.40;608.9;13.30;75828;2835.852;-1759.835;1;132;-90;-96.8;44.3;44.3;15;14.4;26.7;0.0;
24/02/2025 06:31:34;100;0;134.81;-4;-19.26;-4.45;611.5;13.30;75812;2835.850;-1759.833;1;132;-90;-96.8;44.3;44.2;15;14.4;26.7;0.0;
24/02/2025 06:31:54;100;0;135.63;-4;-19.06;-4.37;614.1;13.30;75813;2835.848;-1759.830;1;132;-90;-96.8;44.3;44.3;15;14.4;26.8;0.0;
24/02/2025 06:32:14;100;0;135.17;-4;-19.28;-4.34;616.7;13.30;75812;2835.846;-1759.828;1;132;-90;-96.8;44.3;44.3;15;14.4;26.7;0.0;
24/02/2025 06:32:34;100;0;134.77;-4;-19.34;-4.34;619.4;13.30;75812;2835.844;-1759.826;1;132;-90;-96.8;44.3;44.3;15;14.4;26.7;0.0;
24/02/2025 06:32:54;100;0;135.37;-4;-19.43;-4.37;622.0;13.30;75812;2835.842;-1759.823;1;132;-90;-96.8;44.3;44.3;15;14.4;26.7;0.0;
24/02/2025 06:33:14;100;0;136.72;-4;-19.43;-4.35;624.6;13.20;75797;2835.840;-1759.821;1;132;-90;-95.2;44.3;44.3;15;14.4;26.7;0.0;
24/02/2025 06:33:34;100;0;137.85;-4;-19.28;-4.38;627.2;13.20;75780;2835.837;-1759.819;1;132;-90;-96.8;44.3;44.2;15;14.4;26.7;0.0;
24/02/2025 06:33:54;100;0;138.02;-4;-19.50;-4.38;629.7;13.20;75786;2835.835;-1759.817;1;132;-90;-96.8;44.3;44.3;15;14.4;26.7;0.0;
24/02/2025 06:34:14;100;0;137.03;-4;-19.47;-4.35;632.3;13.20;75772;2835.833;-1759.815;1;132;-90;-96.8;44.3;44.3;15;14.4;26.7;0.0;
24/02/2025 06:34:34;100;0;136.64;-4;-19.28;-4.44;635.0;13.10;75785;2835.831;-1759.813;1;132;-90;-96.8;44.3;44.3;15;14.4;26.7;0.0;
24/02/2025 06:34:54;100;0;135.34;-4;-19.41;-4.38;637.6;13.10;75777;2835.829;-1759.810;1;132;-90;-96.8;44.3;44.3;15;14.4;26.7;0.0;
24/02/2025 06:35:14;100;0;134.33;-4;-19.35;-4.34;640.2;13.10;75768;2835.827;-1759.808;1;132;-90;-95.2;44.3;44.3;15;14.4;26.7;0.0;
24/02/2025 06:35:34;100;0;132.35;-4;-19.37;-4.39;642.8;13.10;75768;2835.825;-1759.806;1;132;-90;-96.8;44.3;44.3;15;14.4;26.7;0.0;
24/02/2025 06:35:54;100;0;131.42;-4;-19.23;-4.39;645.3;13.10;75760;2835.823;-1759.803;1;132;-90;-96.8;44.3;44.3;15;14.4;26.7;0.0;
24/02/2025 06:36:14;100;0;130.82;-4;-19.14;-4.34;648.0;13.10;75767;2835.821;-1759.801;1;132;-90;-96.8;44.3;44.2;15;14.4;26.7;0.0;
24/02/2025 06:36:34;100;0;127.26;-4;-19.21;-4.40;650.5;13.00;75748;2835.819;-1759.798;1;132;-90;-96.8;44.3;44.3;15;14.4;26.7;0.0;
24/02/2025 06:36:54;100;0;125.90;-4;-19.47;-4.34;653.1;13.00;75750;2835.817;-1759.796;1;132;-90;-95.2;44.3;44.3;15;14.4;26.7;0.0;
24/02/2025 06:37:14;100;0;123.72;-4;-19.48;-4.32;655.7;13.00;75751;2835.816;-1759.793;1;132;-90;-96.8;44.3;44.3;15;14.4;26.7;0.0;
24/02/2025 06:37:34;100;0;122.93;-4;-19.52;-4.39;658.3;13.00;75742;2835.814;-1759.790;1;132;-90;-96.8;44.3;44.3;13;13.1;26.7;0.0;
24/02/2025 06:37:54;100;0;126.52;-4;-19.08;-5.09;660.9;13.00;75720;2835.813;-1759.787;1;132;-90;-95.2;44.3;44.2;15;14.9;26.7;0.0;
24/02/2025 06:38:14;100;0;127.81;-4;-19.22;-3.89;663.5;12.90;75730;2835.811;-1759.785;1;132;-90;-95.2;44.3;44.3;15;15.3;26.7;0.0;
24/02/2025 06:38:34;100;0;129.08;-4;-19.28;-3.84;666.1;12.90;75725;2835.809;-1759.782;1;132;-90;-96.8;44.3;44.3;15;15.3;26.7;0.0;
24/02/2025 06:38:54;100;0;130.72;-4;-19.12;-3.85;668.7;12.90;75712;2835.807;-1759.780;1;132;-90;-95.2;44.3;44.3;15;15.3;26.7;0.0;
24/02/2025 06:39:14;100;0;133.73;-4;-19.08;-3.88;671.2;12.90;75705;2835.805;-1759.777;1;132;-90;-95.2;44.3;44.3;15;15.3;26.7;0.0;
24/02/2025 06:39:34;100;0;135.72;-4;-19.08;-3.93;673.9;12.80;75704;2835.803;-1759.775;1;132;-90;-96.8;44.3;44.3;15;15.3;26.7;0.0;
24/02/2025 06:39:54;100;0;137.77;-4;-19.00;-3.90;676.4;12.80;75705;2835.801;-1759.773;1;132;-90;-96.8;44.6;44.6;15;15.3;26.7;0.0;
24/02/2025 06:40:14;100;0;139.91;-4;-19.93;-3.87;679.0;12.80;75709;2835.799;-1759.771;1;132;-90;-96.8;44.6;44.8;17;17.6;26.7;0.0;
24/02/2025 06:40:34;100;0;142.44;-4;-20.41;-2.53;681.6;12.80;75698;2835.796;-1759.769;1;132;-90;-95.2;44.6;44.8;20;19.9;26.7;0.0;
24/02/2025 06:40:54;100;0;143.99;-4;-20.38;-1.36;684.4;12.80;75694;2835.794;-1759.767;1;132;-90;-96.8;44.6;44.9;20;20.3;26.7;0.0;
24/02/2025 06:41:14;100;0;143.87;-4;-20.54;-1.38;687.1;12.70;75687;2835.791;-1759.766;1;132;-90;-96.8;44.6;44.9;20;20.3;26.7;0.0;
24/02/2025 06:41:34;100;0;143.45;-4;-21.07;-1.29;689.9;12.70;75692;2835.789;-1759.764;1;132;-90;-96.8;44.6;44.9;20;20.3;26.7;0.0;
24/02/2025 06:41:54;100;0;137.53;-4;-20.58;-1.43;692.7;12.70;75674;2835.787;-1759.762;1;132;-90;-95.2;44.6;44.8;16;15.8;26.7;0.0;
24/02/2025 06:42:14;100;0;133.13;-4;-20.09;-3.77;695.4;12.70;75656;2835.785;-1759.759;1;132;-90;-96.8;44.6;44.9;16;15.8;26.7;0.0;
24/02/2025 06:42:34;100;0;131.26;-4;-20.32;-3.77;698.2;12.70;75657;2835.783;-1759.757;1;132;-90;-95.2;44.6;44.8;16;15.8;26.7;0.0;
24/02/2025 06:42:54;100;0;129.69;-4;-20.43;-3.76;701.0;12.60;75642;2835.781;-1759.754;1;132;-90;-96.8;44.6;44.9;16;15.8;26.7;0.0;
24/02/2025 06:43:14;100;0;129.09;-4;-20.60;-3.74;703.9;12.60;75640;2835.779;-1759.751;1;132;-90;-96.8;44.6;44.8;16;15.8;26.7;0.0;
24/02/2025 06:43:34;100;0;128.08;-4;-20.64;-3.72;706.8;12.60;75634;2835.777;-1759.749;1;132;-90;-96.8;44.6;44.9;16;15.8;26.8;0.0;
24/02/2025 06:43:54;100;0;126.69;-4;-20.53;-3.75;709.8;12.60;75632;2835.775;-1759.746;1;132;-90;-96.8;44.6;44.8;16;15.8;26.8;0.0;
24/02/2025 06:44:14;100;0;125.50;-4;-20.40;-3.78;712.9;12.60;75625;2835.773;-1759.743;1;132;-90;-96.8;44.6;44.9;16;15.3;26.7;0.0;
24/02/2025 06:44:34;100;0;123.04;-4;-20.52;-3.75;715.8;12.50;75617;2835.772;-1759.740;1;132;-90;-96.8;44.6;44.9;13;12.6;26.7;0.0;
24/02/2025 06:44:54;100;0;121.35;-4;-20.48;-5.23;718.9;12.50;75618;2835.770;-1759.736;1;132;-90;-95.2;44.6;44.9;13;12.6;26.7;0.0;
24/02/2025 06:45:14;100;0;120.56;-4;-20.42;-5.25;722.0;12.50;75620;2835.768;-1759.733;1;132;-90;-95.2;44.6;44.8;13;12.6;26.7;0.0;
24/02/2025 06:45:34;100;0;119.93;-4;-20.37;-5.22;725.0;12.50;75612;2835.767;-1759.730;1;132;-90;-98.4;44.6;44.9;11;10.8;26.7;0.0;
24/02/2025 06:45:54;100;0;118.49;-4;-19.89;-6.30;728.1;12.40;75595;2835.765;-1759.726;1;132;-90;-95.2;44.6;44.9;9;8.6;26.7;0.0;
24/02/2025 06:46:14;100;0;123.53;-4;-19.53;-7.18;731.0;12.40;75590;2835.763;-1759.723;1;132;-90;-96.8;44.6;44.9;14;14.0;26.7;0.0;
24/02/2025 06:46:34;100;0;126.08;-4;-19.81;-4.35;733.9;12.40;75577;2835.761;-1759.720;1;132;-90;-96.8;44.6;44.9;14;14.4;26.7;0.0;
24/02/2025 06:46:54;100;0;126.90;-4;-19.83;-4.42;736.9;12.30;75574;2835.759;-1759.717;1;132;-90;-96.8;44.6;44.9;14;14.4;26.7;0.0;
24/02/2025 06:47:14;100;0;127.95;-4;-19.69;-4.30;739.9;12.30;75571;2835.757;-1759.714;1;132;-90;-96.8;44.6;44.9;14;14.4;26.7;0.0;
24/02/2025 06:47:34;100;0;129.15;-4;-20.25;-4.50;743.0;12.30;75566;2835.755;-1759.711;1;132;-90;-96.8;44.6;44.9;14;14.4;26.7;0.0;
24/02/2025 06:47:54;100;0;131.55;-4;-20.05;-4.25;746.0;12.30;75543;2835.753;-1759.708;1;132;-90;-95.2;44.6;44.9;14;14.4;26.7;0.0;
24/02/2025 06:48:14;100;0;131.24;-4;-20.41;-4.40;749.2;12.30;75552;2835.751;-1759.705;1;132;-90;-96.8;44.6;44.9;14;14.4;26.7;0.0;
24/02/2025 06:48:34;100;0;133.71;-4;-19.82;-4.38;752.3;12.20;75549;2835.748;-1759.703;1;132;-90;-96.8;44.6;44.9;14;14.4;26.7;0.0;
24/02/2025 06:48:54;100;0;137.07;-4;-20.13;-4.46;755.4;12.20;75544;2835.746;-1759.700;1;132;-90;-95.2;44.6;44.9;16;15.8;26.7;0.0;
24/02/2025 06:49:14;100;0;140.29;-4;-19.02;-3.29;758.6;12.20;75534;2835.743;-1759.698;1;132;-90;-95.2;44.6;44.9;16;16.2;26.7;0.0;
24/02/2025 06:49:34;100;0;142.26;-4;-20.78;-3.72;761.5;12.20;75535;2835.740;-1759.696;1;132;-90;-96.8;44.6;44.8;19;19.0;26.7;0.0;
24/02/2025 06:49:54;100;0;145.39;-4;-20.31;-1.78;764.6;12.20;75533;2835.737;-1759.693;1;132;-90;-96.8;44.6;44.9;23;23.0;26.7;0.0;
24/02/2025 06:50:14;100;0;140.50;-4;-21.26;0.26;767.7;12.10;75513;2835.735;-1759.691;1;132;-90;-96.8;44.6;44.9;18;18.1;26.7;0.0;
24/02/2025 06:50:34;100;0;135.62;-4;-20.55;-2.47;770.7;12.10;75507;2835.732;-1759.689;1;132;-90;-96.8;44.6;44.9;15;14.9;26.7;0.0;
24/02/2025 06:50:54;100;0;132.04;-4;-20.86;-4.26;773.9;12.10;75491;2835.730;-1759.686;1;132;-90;-96.8;44.6;44.8;15;14.9;26.7;0.0;
24/02/2025 06:51:14;100;0;132.59;-4;-20.70;-3.97;777.0;12.10;75480;2835.728;-1759.683;1;132;-90;-95.2;44.6;44.9;15;14.9;26.7;0.0;
24/02/2025 06:51:34;100;0;130.65;-4;-20.11;-4.31;780.2;12.00;75482;2835.726;-1759.680;1;132;-90;-96.8;44.6;44.9;15;14.4;26.7;0.0;
24/02/2025 06:51:54;100;0;127.53;-4;-20.45;-4.16;783.3;12.00;75473;2835.724;-1759.677;1;132;-90;-96.8;44.6;44.9;15;14.4;26.7;0.0;
24/02/2025 06:52:14;100;0;126.49;-4;-20.30;-4.23;786.4;12.00;75466;2835.721;-1759.674;1;132;-90;-96.8;44.6;44.9;15;14.9;26.7;0.0;
24/02/2025 06:52:34;100;0;124.73;-4;-20.38;-4.31;789.6;11.90;75459;2835.720;-1759.670;1;132;-90;-96.8;44.6;44.9;15;14.4;26.7;0.0;
24/02/2025 06:52:54;100;0;120.93;-4;-20.23;-4.14;792.9;11.90;75452;2835.718;-1759.667;1;132;-90;-96.8;44.6;44.9;12;11.7;26.7;0.0;
24/02/2025 06:53:14;100;0;122.24;-4;-19.86;-5.69;795.9;11.90;75451;2835.716;-1759.664;1;132;-90;-96.8;44.6;44.9;12;11.7;26.7;0.0;
24/02/2025 06:53:34;100;0;126.20;-4;-17.28;-5.35;799.1;11.90;75449;2835.714;-1759.660;1;132;-90;-95.2;45.4;45.7;14;14.0;26.7;0.0;
24/02/2025 06:53:54;100;0;125.08;-4;-22.82;-4.61;801.9;11.90;75449;2835.712;-1759.657;1;132;-90;-96.8;44.6;44.6;14;14.4;26.7;0.0;
24/02/2025 06:54:14;100;0;123.68;-4;-20.30;-3.78;804.9;11.80;75446;2835.710;-1759.654;1;132;-90;-96.8;44.6;44.5;14;14.4;26.7;0.0;
24/02/2025 06:54:34;100;0;125.91;-4;-19.77;-4.78;808.0;11.80;75438;2835.708;-1759.651;1;132;-90;-96.8;44.6;44.5;14;14.4;26.7;0.0;
24/02/2025 06:54:54;100;0;125.94;-4;-20.45;-4.00;811.1;11.80;75439;2835.706;-1759.648;1;132;-90;-95.2;44.6;44.5;14;14.4;26.7;0.0;
24/02/2025 06:55:14;100;0;126.77;-4;-18.94;-4.42;814.3;11.80;75432;2835.704;-1759.645;1;132;-90;-96.8;44.9;44.9;14;14.4;26.7;0.0;
24/02/2025 06:55:34;100;0;131.96;-4;-21.13;-4.45;817.4;11.70;75428;2835.702;-1759.642;1;132;-90;-98.4;44.9;45.2;14;14.4;26.7;0.0;
24/02/2025 06:55:54;100;0;131.41;-4;-20.51;-4.39;820.8;11.70;75415;2835.699;-1759.639;1;132;-90;-95.2;44.9;45.2;14;14.4;26.7;0.0;
24/02/2025 06:56:14;100;0;130.34;-4;-20.45;-4.42;824.2;11.70;75417;2835.697;-1759.635;1;132;-90;-98.4;44.9;45.1;14;14.4;26.7;0.0;
24/02/2025 06:56:34;100;0;130.76;-4;-20.19;-4.30;827.4;11.70;75410;2835.695;-1759.632;1;132;-90;-96.8;44.9;45.1;14;14.4;26.7;0.0;
24/02/2025 06:56:54;100;0;132.50;-4;-20.22;-4.41;830.8;11.60;75408;2835.692;-1759.629;1;132;-90;-95.2;44.9;45.1;14;14.4;26.7;0.0;
24/02/2025 06:57:14;100;0;135.73;-4;-20.09;-4.44;834.0;11.60;75403;2835.689;-1759.626;1;132;-90;-96.8;44.9;45.2;14;14.4;26.7;0.0;
24/02/2025 06:57:34;100;0;136.98;-4;-20.14;-4.41;837.1;11.60;75402;2835.687;-1759.624;1;132;-90;-96.8;44.9;45.2;16;15.8;26.7;0.0;
24/02/2025 06:57:54;100;0;136.53;-4;-20.54;-3.49;840.2;11.60;75399;2835.684;-1759.621;1;132;-90;-96.8;44.9;45.2;16;16.2;26.7;0.0;
24/02/2025 06:58:14;100;0;137.84;-4;-20.07;-3.53;843.3;11.60;75391;2835.682;-1759.619;1;132;-90;-98.4;44.9;45.2;16;15.8;26.7;0.0;
24/02/2025 06:58:34;100;0;138.67;-4;-19.71;-3.44;846.3;11.50;75384;2835.679;-1759.616;1;132;-90;-96.8;44.9;45.2;16;16.2;26.7;0.0;
24/02/2025 06:58:54;100;0;140.55;-4;-20.13;-3.72;849.2;11.50;75379;2835.677;-1759.614;1;132;-90;-95.2;44.9;45.2;18;18.1;26.7;0.0;
24/02/2025 06:59:14;100;0;142.36;-4;-20.24;-1.92;852.0;11.50;75367;2835.674;-1759.612;1;132;-90;-96.8;44.9;45.2;18;19.4;26.7;0.0;
24/02/2025 06:59:34;100;0;144.77;-4;-20.07;-1.97;855.0;11.50;75362;2835.672;-1759.610;1;132;-90;-96.8;44.9;45.2;22;22.1;26.7;0.0;
24/02/2025 06:59:54;100;0;144.22;-4;-20.87;-0.39;857.8;11.40;75358;2835.669;-1759.608;1;132;-90;-95.2;44.9;45.2;22;22.1;26.7;0.0;
24/02/2025 07:00:14;100;0;144.37;-4;-20.19;-0.52;860.7;11.40;75354;2835.666;-1759.607;1;132;-90;-96.8;44.9;45.2;22;22.1;26.7;0.0;
24/02/2025 07:00:34;100;0;142.91;-4;-20.04;-0.43;863.7;11.40;75342;2835.664;-1759.604;1;132;-90;-95.2;44.9;45.2;20;19.0;26.7;0.0;
24/02/2025 07:00:54;100;0;140.29;-4;-19.63;-1.49;866.4;11.40;75345;2835.661;-1759.602;1;132;-90;-96.8;44.9;45.2;18;17.6;26.7;0.0;
24/02/2025 07:01:14;100;0;140.40;-4;-21.20;-2.86;869.0;11.30;75343;2835.659;-1759.601;1;132;-90;-98.4;44.9;45.2;18;18.1;26.7;0.0;
24/02/2025 07:01:34;100;0;138.83;-4;-20.30;-2.47;871.8;11.30;75336;2835.657;-1759.598;1;132;-90;-96.8;44.9;45.2;18;18.1;26.7;0.0;
24/02/2025 07:01:54;100;0;138.47;-4;-20.31;-2.70;874.6;11.30;75343;2835.654;-1759.596;1;132;-90;-96.8;44.9;45.2;18;18.1;26.7;0.0;
24/02/2025 07:02:14;100;0;137.49;-4;-20.36;-2.71;877.3;11.30;75336;2835.652;-1759.594;1;132;-90;-96.8;44.9;45.2;16;15.8;26.7;0.0;
24/02/2025 07:02:34;100;0;137.04;-4;-20.39;-3.72;880.0;11.20;75326;2835.650;-1759.592;1;132;-90;-96.8;44.9;45.2;16;15.8;26.7;0.0;
24/02/2025 07:02:54;100;0;135.83;-4;-20.31;-3.80;882.7;11.20;75332;2835.648;-1759.589;1;132;-90;-96.8;44.9;45.2;16;15.8;26.7;0.0;
24/02/2025 07:03:15;100;0;133.87;-4;-20.08;-3.76;885.5;11.20;75316;2835.646;-1759.587;1;132;-90;-96.8;44.9;45.2;16;15.8;26.7;0.0;
24/02/2025 07:03:35;100;0;133.85;-4;-19.99;-3.84;888.1;11.20;75312;2835.644;-1759.585;1;132;-90;-96.8;44.9;45.2;16;15.8;26.7;0.0;
24/02/2025 07:03:55;100;0;133.45;-4;-20.11;-3.70;890.7;11.20;75308;2835.642;-1759.583;1;132;-90;-96.8;44.9;45.1;16;15.8;26.7;0.0;
24/02/2025 07:04:15;100;0;133.03;-4;-19.98;-3.65;893.3;11.10;75290;2835.640;-1759.580;1;132;-90;-96.8;44.9;45.2;16;15.8;26.7;0.0;
24/02/2025 07:04:35;100;0;134.40;-4;-20.27;-3.71;895.7;11.10;75302;2835.638;-1759.578;1;132;-90;-96.8;44.9;45.4;16;15.8;26.7;0.0;
24/02/2025 07:04:55;100;0;133.60;-4;-20.71;-3.71;898.2;11.10;75292;2835.636;-1759.576;1;132;-90;-96.8;44.9;45.2;16;15.8;26.7;0.0;
24/02/2025 07:05:15;100;0;132.71;-4;-20.30;-3.66;900.8;11.10;75290;2835.634;-1759.574;1;132;-90;-95.2;44.9;45.2;16;15.8;26.7;0.0;
24/02/2025 07:05:35;100;0;134.43;-4;-20.32;-3.59;903.4;11.10;75288;2835.632;-1759.572;1;132;-90;-96.8;44.9;45.1;16;15.8;26.7;0.0;
24/02/2025 07:05:55;100;0;132.89;-4;-19.86;-3.75;905.9;11.00;75281;2835.631;-1759.570;1;132;-90;-96.8;44.9;45.2;16;15.8;26.7;0.0;
24/02/2025 07:06:15;100;0;132.32;-4;-20.43;-3.72;908.3;11.00;75274;2835.629;-1759.567;1;132;-90;-96.8;44.9;45.2;16;15.8;26.7;0.0;
24/02/2025 07:06:35;100;0;132.26;-4;-20.19;-3.72;911.0;11.00;75259;2835.627;-1759.565;1;132;-90;-95.2;44.9;45.2;16;15.8;26.7;0.0;
24/02/2025 07:06:55;100;0;130.89;-4;-20.54;-3.84;913.6;11.00;75255;2835.625;-1759.563;1;132;-90;-96.8;44.9;45.2;16;15.8;26.7;0.0;
24/02/2025 07:07:15;100;0;129.79;-4;-20.35;-3.69;916.4;10.90;75256;2835.623;-1759.560;1;132;-90;-96.8;44.9;45.2;16;15.8;26.7;0.0;
24/02/2025 07:07:35;100;0;128.17;-4;-20.13;-3.73;919.3;10.90;75245;2835.621;-1759.557;1;132;-90;-96.8;44.9;45.2;16;15.8;26.7;0.0;
24/02/2025 07:07:55;100;0;128.63;-4;-20.04;-3.77;922.3;10.90;75248;2835.619;-1759.554;1;132;-90;-95.2;44.9;45.2;16;15.8;26.7;0.0;
24/02/2025 07:08:15;100;0;128.01;-4;-20.19;-3.80;925.1;10.90;75241;2835.617;-1759.552;1;132;-90;-95.2;44.9;45.2;16;15.8;26.7;0.0;
24/02/2025 07:08:35;100;0;127.65;-4;-20.09;-3.73;928.1;10.90;75238;2835.615;-1759.549;1;132;-90;-96.8;44.9;45.2;16;15.8;26.7;0.0;
24/02/2025 07:08:55;100;0;126.64;-4;-19.57;-3.76;931.1;10.80;75241;2835.613;-1759.546;1;132;-90;-100.0;44.9;45.2;16;15.8;26.7;0.0;
24/02/2025 07:09:15;100;0;125.90;-4;-19.98;-3.63;934.0;10.80;75235;2835.611;-1759.543;1;132;-90;-96.8;44.9;45.2;16;15.8;26.7;0.0;
24/02/2025 07:09:35;100;0;125.80;-4;-19.97;-3.76;937.0;10.80;75231;2835.610;-1759.540;1;132;-90;-95.2;44.9;45.2;16;15.8;26.7;0.0;
24/02/2025 07:09:55;100;0;125.61;-4;-19.79;-3.70;940.0;10.80;75234;2835.608;-1759.537;1;132;-90;-96.8;44.9;45.2;16;15.8;26.7;0.0;
24/02/2025 07:10:15;100;0;125.65;-4;-19.88;-3.69;943.0;10.80;75219;2835.606;-1759.534;1;132;-90;-96.8;44.9;45.2;16;15.8;26.7;0.0;
24/02/2025 07:10:35;100;0;127.10;-4;-20.29;-3.77;946.0;10.70;75225;2835.604;-1759.531;1;132;-90;-96.8;44.9;45.2;16;15.8;26.7;0.0;
24/02/2025 07:10:55;100;0;127.14;-4;-19.55;-3.65;949.2;10.70;75216;2835.602;-1759.527;1;132;-90;-96.8;44.9;45.2;16;15.8;26.7;0.0;
24/02/2025 07:11:15;100;0;128.29;-4;-19.95;-3.75;952.3;10.70;75209;2835.600;-1759.524;1;132;-90;-96.8;44.9;45.2;16;15.8;26.7;0.0;
24/02/2025 07:11:35;100;0;128.69;-4;-19.78;-3.73;955.4;10.70;75203;2835.597;-1759.521;1;132;-90;-95.2;44.9;45.1;16;15.8;26.7;0.0;
24/02/2025 07:11:55;100;0;127.68;-4;-19.53;-3.88;958.5;10.60;75198;2835.595;-1759.518;1;132;-90;-96.8;44.9;45.2;16;15.8;26.7;0.0;
24/02/2025 07:12:15;100;0;127.78;-4;-19.73;-3.73;961.7;10.60;75191;2835.593;-1759.515;1;132;-90;-95.2;44.9;45.2;16;15.8;26.7;0.0;
24/02/2025 07:12:35;100;0;128.64;-4;-19.68;-3.74;964.7;10.60;75189;2835.591;-1759.512;1;132;-90;-96.8;44.9;45.2;16;15.8;26.7;0.0;
24/02/2025 07:12:55;100;0;129.76;-4;-19.80;-3.75;967.8;10.60;75186;2835.589;-1759.509;1;132;-90;-96.8;44.9;45.2;16;15.8;26.7;0.0;
24/02/2025 07:13:15;100;0;128.93;-4;-20.09;-3.71;970.8;10.60;75193;2835.587;-1759.506;1;132;-90;-96.8;44.9;45.2;16;15.8;26.7;0.0;
24/02/2025 07:13:35;100;0;128.86;-4;-20.31;-3.68;973.8;10.50;75192;2835.585;-1759.503;1;132;-90;-96.8;44.9;45.2;16;15.8;26.7;0.0;
24/02/2025 07:13:55;100;0;130.43;-4;-20.84;-3.75;976.9;10.50;75184;2835.583;-1759.500;1;132;-90;-96.8;44.9;45.2;16;15.8;26.7;0.0;
24/02/2025 07:14:15;100;0;130.06;-4;-20.15;-3.68;980.1;10.50;75191;2835.580;-1759.497;1;132;-90;-96.8;44.9;45.2;16;15.8;26.7;0.0;
24/02/2025 07:14:35;100;0;128.67;-4;-20.32;-3.62;983.2;10.50;75173;2835.578;-1759.494;1;132;-90;-96.8;44.9;45.2;16;15.8;26.7;0.0;
24/02/2025 07:14:55;100;0;127.09;-4;-20.26;-3.87;986.3;10.50;75173;2835.576;-1759.491;1;132;-90;-98.4;44.9;45.2;16;15.8;26.7;0.0;
24/02/2025 07:15:15;100;0;126.27;-4;-19.99;-3.80;989.5;10.50;75176;2835.574;-1759.488;1;132;-90;-96.8;44.9;45.2;16;15.8;26.7;0.0;
24/02/2025 07:15:35;100;0;124.65;-4;-20.04;-3.79;992.7;10.40;75181;2835.572;-1759.485;1;132;-90;-96.8;44.9;45.2;14;14.0;26.7;0.0;
24/02/2025 07:15:55;100;0;124.26;-4;-19.32;-4.61;995.8;10.40;75176;2835.570;-1759.481;1;132;-90;-96.8;44.9;45.2;14;14.0;26.7;0.0;
24/02/2025 07:16:15;100;0;124.59;-4;-19.47;-4.77;998.7;10.40;75168;2835.568;-1759.478;1;132;-90;-96.8;44.9;45.1;14;14.0;26.7;0.0;
24/02/2025 07:16:18;118;0;124.64;-4;-19.50;-4.74;999.0;10.40;75164;2835.568;-1759.478;1;132;310;-91.9;25.4;25.2;7;6.8;26.7;0.0;
24/02/2025 07:16:28;118;0;107.66;-4;-6.00;-9.22;1000.1;10.40;75143;2835.568;-1759.476;1;132;310;35.5;25.4;25.0;7;6.8;25.4;-1.0;
24/02/2025 07:16:38;118;0;94.85;-4;17.02;-9.10;1000.5;10.40;74879;2835.568;-1759.476;1;132;310;161.3;25.4;25.3;7;6.3;25.3;-1.0;
24/02/2025 07:16:48;118;0;92.01;-4;23.13;-9.26;1000.0;10.40;74620;2835.568;-1759.475;1;132;310;283.9;25.4;25.5;7;6.8;25.5;-1.0;
24/02/2025 07:16:58;118;0;91.62;-4;21.76;-8.89;999.2;10.40;74373;2835.568;-1759.475;1;132;310;311.3;25.4;25.5;7;6.8;25.4;-1.0;
24/02/2025 07:17:08;118;0;122.28;-4;19.52;-8.83;998.2;10.40;74334;2835.567;-1759.474;1;132;310;311.3;25.4;25.5;7;6.8;26.7;-1.0;
24/02/2025 07:17:28;117;0;116.83;-4;19.09;-8.53;996.3;10.40;74330;2835.567;-1759.472;1;132;310;311.3;25.4;25.5;7;6.8;26.7;-1.0;
24/02/2025 07:17:48;117;0;113.22;-4;18.76;-8.55;994.4;10.40;74341;2835.566;-1759.469;1;132;310;312.9;25.0;24.7;42;42.0;26.7;-1.0;
24/02/2025 07:18:08;117;0;115.34;-4;21.83;10.03;992.2;10.40;74335;2835.565;-1759.467;1;132;310;312.9;25.0;24.7;39;38.8;26.7;-1.0;
24/02/2025 07:18:28;117;0;116.70;-4;21.89;8.44;989.7;10.50;74337;2835.564;-1759.465;1;132;310;311.3;25.0;24.7;37;36.1;26.7;-1.0;
24/02/2025 07:18:48;117;0;118.96;-4;21.67;7.55;987.7;10.40;74324;2835.563;-1759.463;1;132;310;312.9;25.0;24.7;34;33.8;26.7;-1.0;
24/02/2025 07:19:08;117;0;120.68;-4;21.97;5.73;985.7;10.40;74327;2835.563;-1759.461;1;132;310;312.9;25.0;24.7;32;32.0;26.7;-1.0;
24/02/2025 07:19:28;117;0;121.75;-4;21.90;4.70;983.8;10.40;74320;2835.562;-1759.459;1;132;310;312.9;25.0;24.7;32;32.0;26.7;-1.0;
24/02/2025 07:19:48;117;0;122.31;-4;22.24;4.63;981.8;10.40;74330;2835.561;-1759.458;1;132;310;311.3;25.7;25.8;32;32.0;26.7;-1.0;
24/02/2025 07:20:08;117;0;122.60;-4;20.65;4.69;980.1;10.40;74306;2835.560;-1759.456;1;132;310;312.9;25.7;25.8;32;32.0;26.7;-1.0;
24/02/2025 07:20:28;117;0;124.02;-4;20.28;4.58;978.3;10.40;74309;2835.559;-1759.454;1;132;310;311.3;25.7;25.8;30;29.8;26.7;-1.0;
24/02/2025 07:20:48;117;0;123.63;-4;19.57;3.40;976.7;10.30;74313;2835.558;-1759.453;1;132;310;312.9;25.7;25.8;30;29.8;26.7;-1.0;
24/02/2025 07:21:08;117;0;124.47;-4;20.28;3.42;975.3;10.30;74313;2835.558;-1759.452;1;132;330;332.3;25.7;25.9;30;29.8;26.7;-1.0;
24/02/2025 07:21:28;117;0;121.19;-4;20.29;3.44;973.7;10.30;74266;2835.557;-1759.450;1;132;350;353.2;25.7;25.8;32;32.0;26.7;-1.0;
24/02/2025 07:21:48;117;0;127.59;-4;19.74;5.04;972.1;10.30;74221;2835.556;-1759.449;1;132;370;372.6;25.7;25.9;29;28.9;26.7;-1.0;
24/02/2025 07:22:08;117;0;119.87;-4;18.68;2.89;970.3;10.30;74178;2835.555;-1759.447;1;132;390;393.5;25.3;24.9;33;33.4;26.7;-1.0;
24/02/2025 07:22:28;117;0;127.55;-4;19.30;5.54;968.6;10.30;74137;2835.554;-1759.445;1;132;410;411.3;25.3;24.7;29;28.9;26.7;-1.0;
24/02/2025 07:22:48;117;0;127.28;-4;19.04;3.08;966.7;10.30;74089;2835.553;-1759.444;1;132;430;433.9;25.3;24.7;29;28.4;26.7;-1.0;
24/02/2025 07:23:08;117;0;122.86;-4;18.40;3.04;964.7;10.30;74048;2835.552;-1759.441;1;132;450;453.2;24.8;24.7;31;31.1;26.7;-1.0;
24/02/2025 07:23:28;117;0;129.50;-4;17.68;4.50;962.6;10.30;74003;2835.550;-1759.439;1;132;450;453.2;24.1;24.0;29;28.9;26.7;-1.0;
24/02/2025 07:23:48;117;0;129.88;-4;18.74;3.09;960.4;10.30;73993;2835.549;-1759.437;1;132;450;453.2;23.7;23.4;29;28.4;26.7;-1.0;
24/02/2025 07:24:08;117;0;130.09;-4;20.13;3.06;957.9;10.30;73987;2835.547;-1759.435;1;132;450;453.2;23.7;23.1;29;28.4;26.7;-1.0;
24/02/2025 07:24:28;117;0;129.92;-4;20.46;2.93;955.3;10.30;73992;2835.545;-1759.433;1;132;450;451.6;23.7;23.1;29;28.4;26.7;-1.0;
24/02/2025 07:24:48;117;0;128.28;-4;20.92;2.98;952.5;10.20;73985;2835.543;-1759.430;1;132;450;453.2;23.7;23.1;29;28.4;26.7;-1.0;
24/02/2025 07:25:08;117;0;127.85;-4;20.64;3.01;949.5;10.20;73983;2835.541;-1759.427;1;132;450;453.2;23.7;23.0;29;28.4;26.7;-1.0;
24/02/2025 07:25:28;117;0;128.19;-4;20.36;3.02;946.4;10.20;73981;2835.539;-1759.424;1;132;450;451.6;23.7;23.1;29;28.4;26.7;-1.0;
24/02/2025 07:25:48;117;0;128.39;-4;20.28;2.99;943.5;10.20;73986;2835.537;-1759.421;1;132;450;453.2;23.7;23.0;29;28.4;26.7;-1.0;
24/02/2025 07:26:08;117;0;129.30;-4;20.37;3.04;940.5;10.20;73976;2835.535;-1759.419;1;132;450;453.2;23.7;23.1;29;28.4;26.7;-1.0;
24/02/2025 07:26:28;117;0;130.11;-4;20.43;3.00;937.6;10.20;73972;2835.533;-1759.416;1;132;450;453.2;23.7;23.0;29;28.9;26.7;-1.0;
24/02/2025 07:26:48;117;0;130.44;-4;20.34;3.01;934.8;10.20;73972;2835.531;-1759.413;1;132;450;453.2;23.7;23.1;29;28.4;26.7;-1.0;
24/02/2025 07:27:08;117;0;130.42;-4;20.26;3.09;932.0;10.20;73977;2835.529;-1759.410;1;132;450;453.2;23.7;23.0;29;28.4;26.7;-1.0;
24/02/2025 07:27:28;117;0;129.86;-4;20.63;2.95;929.2;10.20;73984;2835.527;-1759.408;1;132;450;453.2;23.7;23.0;29;28.4;26.7;-1.0;
24/02/2025 07:27:48;117;0;128.53;-4;20.31;3.03;926.4;10.10;73975;2835.526;-1759.405;1;132;450;453.2;23.7;23.0;29;28.4;26.7;-1.0;
24/02/2025 07:28:08;117;0;128.58;-4;20.32;3.02;923.5;10.10;73972;2835.524;-1759.402;1;132;450;451.6;23.7;23.1;29;28.4;26.7;-1.0;
24/02/2025 07:28:28;117;0;127.45;-4;20.04;3.24;920.6;10.10;73975;2835.522;-1759.400;1;132;450;451.6;23.7;23.1;29;28.4;26.7;-1.0;
24/02/2025 07:28:48;117;0;127.88;-4;20.68;2.94;917.6;10.10;73976;2835.520;-1759.397;1;132;450;451.6;23.7;23.1;29;28.4;26.7;-1.0;
24/02/2025 07:29:08;117;0;127.27;-4;20.65;2.92;914.6;10.10;73971;2835.518;-1759.394;1;132;450;453.2;23.7;23.0;29;28.4;26.7;-1.0;
24/02/2025 07:29:28;117;0;127.77;-4;20.68;3.02;911.4;10.10;73971;2835.516;-1759.391;1;132;450;454.8;23.7;23.1;29;28.4;26.7;-1.0;
24/02/2025 07:29:48;117;0;128.88;-4;20.37;2.95;908.1;10.10;73972;2835.513;-1759.388;1;132;450;453.2;23.7;23.0;29;28.4;26.7;-1.0;
24/02/2025 07:30:08;117;0;129.51;-4;20.47;3.13;904.7;10.10;73975;2835.511;-1759.384;1;132;450;453.2;23.7;23.1;29;28.4;26.7;-1.0;
24/02/2025 07:30:28;117;0;130.11;-4;20.51;2.99;901.5;10.10;73973;2835.509;-1759.381;1;132;450;453.2;23.7;23.0;29;28.4;26.7;-1.0;
24/02/2025 07:30:48;117;0;130.15;-4;20.37;3.02;898.2;10.10;73981;2835.506;-1759.378;1;132;450;451.6;23.7;23.1;29;28.4;26.7;-1.0;
24/02/2025 07:31:08;117;0;129.56;-4;20.13;3.05;894.9;10.10;73987;2835.504;-1759.375;1;132;450;451.6;23.7;23.1;29;28.4;26.7;-1.0;
24/02/2025 07:31:28;117;0;128.89;-4;20.20;3.03;891.8;10.10;73976;2835.502;-1759.372;1;132;450;453.2;23.7;23.1;29;28.4;26.7;-1.0;
24/02/2025 07:31:48;117;0;128.06;-4;20.25;2.84;888.7;10.00;73974;2835.500;-1759.369;1;132;450;453.2;23.7;23.1;29;28.4;26.7;-1.0;
24/02/2025 07:32:08;117;0;127.57;-4;20.20;2.97;885.5;10.00;73980;2835.498;-1759.366;1;132;450;453.2;23.7;23.1;29;28.4;26.7;-1.0;
24/02/2025 07:32:28;117;0;126.54;-4;20.40;3.02;882.2;10.00;73983;2835.495;-1759.362;1;132;450;451.6;23.7;23.3;29;28.4;26.7;-1.0;
24/02/2025 07:32:48;117;0;126.17;-4;20.18;2.92;879.0;10.00;73978;2835.493;-1759.359;1;132;450;453.2;23.7;23.1;29;28.4;26.7;-1.0;
24/02/2025 07:33:08;117;0;125.45;-4;20.20;3.06;875.7;10.00;73983;2835.491;-1759.356;1;132;450;453.2;23.7;23.1;29;28.4;26.7;-1.0;
24/02/2025 07:33:28;117;0;125.46;-4;20.05;3.01;872.5;10.00;73975;2835.489;-1759.352;1;132;450;453.2;23.7;23.1;29;28.4;26.7;-1.0;
24/02/2025 07:33:48;117;0;125.55;-4;20.13;3.09;869.1;10.00;73970;2835.487;-1759.349;1;132;450;453.2;23.7;23.1;29;28.4;26.7;-1.0;
24/02/2025 07:34:08;117;0;124.67;-4;20.13;3.02;865.9;10.00;73965;2835.485;-1759.345;1;132;450;453.2;23.7;23.9;31;31.1;26.7;-1.0;
24/02/2025 07:34:28;117;0;125.46;-4;19.64;4.86;862.7;10.00;73970;2835.483;-1759.342;1;132;450;453.2;23.7;23.9;31;31.6;26.7;-1.0;
24/02/2025 07:34:48;117;0;126.08;-4;19.43;4.75;859.6;10.00;73969;2835.481;-1759.339;1;132;450;451.6;23.7;23.9;31;31.6;26.7;-1.0;
24/02/2025 07:35:08;117;0;126.99;-4;19.42;4.76;856.5;10.00;73974;2835.479;-1759.335;1;132;450;454.8;23.7;23.9;31;31.6;26.7;-1.0;
24/02/2025 07:35:28;117;0;128.13;-4;19.57;4.76;853.3;10.00;73966;2835.477;-1759.332;1;132;450;453.2;23.7;23.9;31;31.6;26.7;-1.0;
24/02/2025 07:35:48;117;0;129.12;-4;19.50;4.78;850.3;10.00;73974;2835.474;-1759.329;1;132;450;453.2;23.7;23.9;31;31.6;26.7;-1.0;
24/02/2025 07:36:08;117;0;131.06;-4;19.55;4.70;847.2;10.00;73978;2835.472;-1759.326;1;132;450;453.2;23.7;23.9;31;31.6;26.7;-1.0;
24/02/2025 07:36:28;117;0;132.46;-4;19.52;4.73;843.9;10.00;73972;2835.470;-1759.323;1;132;450;453.2;23.7;23.9;31;31.6;26.7;-1.0;
24/02/2025 07:36:48;117;0;133.60;-4;19.40;4.73;840.9;10.00;73966;2835.467;-1759.321;1;132;450;453.2;23.7;23.9;31;31.6;26.7;-1.0;
24/02/2025 07:37:08;117;0;134.69;-4;18.98;4.79;837.8;10.00;73974;2835.465;-1759.318;1;132;450;453.2;23.4;23.4;31;31.6;26.7;-1.0;
24/02/2025 07:37:28;117;0;135.03;-4;19.10;4.86;835.0;10.00;73974;2835.462;-1759.315;1;132;450;451.6;23.4;23.3;29;28.9;26.7;-1.0;
24/02/2025 07:37:48;117;0;135.48;-4;19.25;3.03;832.0;10.00;73983;2835.460;-1759.313;1;132;450;453.2;23.4;23.4;29;28.4;26.7;-1.0;
24/02/2025 07:38:08;117;0;134.85;-4;19.06;3.11;829.1;10.00;73974;2835.457;-1759.310;1;132;450;453.2;23.4;23.4;29;28.4;26.7;-1.0;
24/02/2025 07:38:28;117;0;135.21;-4;19.36;2.96;826.3;10.00;73990;2835.455;-1759.307;1;132;450;453.2;23.4;23.4;29;28.4;26.7;-1.0;
24/02/2025 07:38:48;117;0;134.80;-4;19.53;3.02;823.5;10.00;73982;2835.453;-1759.305;1;132;450;453.2;23.4;23.4;29;28.4;26.7;-1.0;
24/02/2025 07:39:08;117;0;134.80;-4;19.00;3.03;820.7;10.00;73990;2835.451;-1759.303;1;132;450;450.0;23.4;23.4;29;28.4;26.7;-1.0;
