Timestamp;NavState;SecurityLevel;Heading;Declination;Pitch;Roll;Depth;Temperature;Pa;Lat;Lon;DeadReckoning;DesiredH;BallastCmd;BallastPos;LinCmd;LinPos;AngCmd;AngPos;Voltage;Altitude;
25/02/2025 17:10:57;119;0;25.43;-4;-49.93;-10.80;-0.1;17.00;75632;2837.891;-1801.664;0;138;500;504.8;100.0;100.6;0;-0.5;26.2;-1.0;
25/02/2025 17:11:06;116;0;18.10;-4;-61.50;-12.12;-0.1;17.00;75630;2837.893;-1801.669;0;138;500;504.8;100.0;100.4;0;-0.5;26.2;-1.0;
25/02/2025 17:11:32;116;0;341.38;-4;-53.61;-8.36;0.1;17.10;75656;2837.900;-1801.670;0;138;500;506.5;100.0;100.6;0;-0.5;26.2;-1.0;
25/02/2025 17:11:57;116;0;324.36;-4;-50.03;-14.11;0.0;17.20;75675;2837.901;-1801.671;0;138;500;506.5;100.0;100.6;0;-0.5;26.2;-1.0;
25/02/2025 17:12:17;116;0;326.30;-4;-53.37;-11.04;0.1;17.20;75688;2837.906;-1801.673;0;136;500;506.5;100.0;100.6;0;-0.5;26.2;-1.0;
25/02/2025 17:12:31;116;0;332.89;-4;-54.94;-18.58;0.0;17.30;75686;2837.910;-1801.676;0;136;500;506.5;100.0;100.6;0;-0.5;26.2;-1.0;
25/02/2025 17:13:34;116;0;321.57;-4;-55.98;-18.23;0.2;17.50;75712;2837.927;-1801.685;0;136;500;506.5;100.0;100.4;0;-0.5;26.2;-1.0;
25/02/2025 17:14:52;116;0;295.58;-4;-59.70;-24.15;-0.0;17.90;75756;2837.945;-1801.690;0;136;500;504.8;100.0;100.4;0;-0.5;26.2;-1.0;
25/02/2025 17:16:08;116;0;329.17;-4;-54.06;-7.91;0.1;18.20;75780;2837.963;-1801.698;0;136;500;506.5;100.0;100.6;0;-0.5;26.2;-1.0;
25/02/2025 17:16:19;116;0;328.14;-4;-59.30;-5.24;0.1;18.30;75795;2837.966;-1801.699;0;136;500;506.5;100.0;100.6;0;-0.9;26.2;-1.0;
25/02/2025 17:16:39;110;0;326.16;-4;-49.97;-9.54;-0.0;18.40;75797;2837.966;-1801.699;0;136;-90;383.9;100.0;100.6;-7;-7.2;26.2;-1.0;
25/02/2025 17:16:49;110;0;319.01;-4;-57.81;-17.31;0.3;18.40;76165;2837.966;-1801.700;1;136;-90;229.0;100.0;100.4;-7;-7.7;26.2;-1.0;
25/02/2025 17:16:59;110;0;328.70;-4;-66.04;-18.95;0.6;18.50;76415;2837.967;-1801.700;1;136;-90;72.6;100.0;100.6;-7;-7.7;26.2;-1.0;
25/02/2025 17:17:09;110;0;343.02;-4;-64.62;-18.63;0.6;18.50;76744;2837.967;-1801.700;1;136;-90;-85.5;100.0;100.6;-7;-7.7;26.2;-1.0;
25/02/2025 17:17:19;110;0;357.05;-4;-66.59;-21.12;1.0;18.60;77078;2837.968;-1801.700;1;136;-90;-88.7;42.6;42.6;-7;-7.7;26.2;-1.0;
25/02/2025 17:17:39;100;0;1.46;-4;-27.43;-15.88;4.4;18.60;77029;2837.972;-1801.701;1;136;-90;-87.1;42.6;42.3;-7;-7.7;26.2;-1.0;
25/02/2025 17:17:59;100;0;10.65;-4;-19.75;-15.50;7.2;18.70;77023;2837.976;-1801.700;1;136;-90;-82.3;42.6;42.7;-70;-69.9;26.2;-1.0;
25/02/2025 17:18:19;100;0;19.99;-4;-19.14;-45.72;9.9;18.80;77010;2837.980;-1801.700;1;136;-90;-80.6;42.6;42.7;-70;-69.9;26.2;-1.0;
25/02/2025 17:18:39;100;0;33.02;-4;-18.11;-45.82;12.3;18.80;77020;2837.984;-1801.698;1;136;-90;-82.3;43.1;43.2;-70;-69.9;26.2;-1.0;
25/02/2025 17:18:59;100;0;45.88;-4;-19.31;-45.71;14.8;18.90;77020;2837.987;-1801.696;1;136;-90;-82.3;43.1;43.4;-70;-69.9;26.2;0.0;
25/02/2025 17:19:19;100;0;58.93;-4;-20.50;-45.47;17.2;18.90;77021;2837.989;-1801.693;1;136;-90;-82.3;43.1;43.4;-70;-69.9;26.2;0.0;
25/02/2025 17:19:39;100;0;71.34;-4;-20.19;-45.42;19.7;18.90;77029;2837.991;-1801.690;1;136;-90;-80.6;43.1;43.4;-70;-69.9;26.2;0.0;
25/02/2025 17:19:59;100;0;82.83;-4;-20.50;-45.31;22.3;18.90;77025;2837.992;-1801.687;1;136;-90;-80.6;43.1;43.4;-55;-55.1;26.2;0.0;
25/02/2025 17:20:19;100;0;95.58;-4;-19.73;-37.66;24.9;19.00;77032;2837.993;-1801.684;1;136;-90;-80.6;43.1;43.6;-40;-40.2;26.2;0.0;
25/02/2025 17:20:39;100;0;107.03;-4;-20.20;-30.43;27.4;19.00;77032;2837.993;-1801.681;1;136;-90;-80.6;43.1;43.4;-25;-24.4;26.2;0.0;
25/02/2025 17:20:59;100;0;116.84;-4;-20.09;-22.61;29.8;19.00;77043;2837.992;-1801.678;1;136;-90;-82.3;43.1;43.6;-9;-9.0;26.2;0.0;
25/02/2025 17:21:19;100;0;123.67;-4;-20.92;-15.32;32.4;19.00;77043;2837.991;-1801.675;1;136;-90;-80.6;43.1;43.7;2;1.8;26.2;0.0;
25/02/2025 17:21:39;100;0;127.90;-4;-21.35;-10.42;34.9;19.00;77046;2837.990;-1801.673;1;136;-90;-82.3;43.1;43.7;8;8.6;26.2;0.0;
25/02/2025 17:21:59;100;0;130.47;-4;-22.09;-7.11;37.5;19.00;77060;2837.989;-1801.671;1;136;-90;-82.3;42.5;42.6;11;11.3;26.2;0.0;
25/02/2025 17:22:19;100;0;131.90;-4;-20.00;-5.86;40.1;19.00;77048;2837.987;-1801.668;1;136;-90;-82.3;42.5;42.3;11;11.3;26.2;0.0;
25/02/2025 17:22:39;100;0;132.10;-4;-20.09;-6.01;42.7;19.00;77054;2837.986;-1801.666;1;136;-90;-80.6;42.5;42.3;11;11.3;26.2;0.0;
25/02/2025 17:22:59;100;0;133.15;-4;-19.72;-5.93;45.2;19.00;77063;2837.984;-1801.664;1;136;-90;-82.3;42.5;42.3;13;13.5;26.2;0.0;
25/02/2025 17:23:19;100;0;134.14;-4;-19.69;-4.73;47.5;19.00;77070;2837.983;-1801.662;1;136;-90;-83.9;42.5;42.4;13;13.5;26.2;0.0;
25/02/2025 17:23:40;100;0;134.45;-4;-19.89;-4.72;50.1;19.00;77063;2837.981;-1801.659;1;136;-90;-82.3;42.5;42.3;13;13.5;26.2;0.0;
25/02/2025 17:24:00;100;0;135.27;-4;-19.93;-4.76;52.3;19.00;77070;2837.980;-1801.658;1;136;-90;-80.6;42.5;42.3;13;13.5;26.2;0.0;
25/02/2025 17:24:20;100;0;135.00;-4;-19.81;-4.80;54.7;19.00;77076;2837.979;-1801.656;1;136;-90;-82.3;42.5;42.3;13;13.5;26.2;0.0;
25/02/2025 17:24:40;100;0;135.71;-4;-19.99;-4.72;57.1;19.00;77076;2837.977;-1801.653;1;136;-90;-82.3;42.5;42.3;13;13.5;26.2;0.0;
25/02/2025 17:25:00;100;0;135.99;-4;-19.90;-4.77;59.5;19.00;77082;2837.976;-1801.651;1;136;-90;-80.6;42.5;42.3;13;13.5;26.2;0.0;
25/02/2025 17:25:20;100;0;136.15;-4;-19.88;-4.73;61.9;19.00;77101;2837.974;-1801.649;1;136;-90;-82.3;42.5;42.4;13;13.5;26.2;0.0;
25/02/2025 17:25:40;100;0;136.59;-4;-19.72;-4.75;64.3;19.00;77087;2837.973;-1801.647;1;136;-90;-82.3;42.5;42.3;13;13.5;26.2;0.0;
25/02/2025 17:26:00;100;0;137.06;-4;-19.82;-4.72;66.7;19.00;77093;2837.972;-1801.646;1;136;-90;-80.6;42.5;42.3;13;13.5;26.2;0.0;
25/02/2025 17:26:20;100;0;136.78;-4;-19.97;-4.75;69.0;19.00;77106;2837.970;-1801.644;1;136;-90;-82.3;42.5;42.3;13;13.5;26.2;0.0;
25/02/2025 17:26:40;100;0;137.34;-4;-19.91;-4.72;71.3;19.00;77106;2837.969;-1801.642;1;136;-90;-80.6;42.5;42.3;13;13.5;26.2;0.0;
25/02/2025 17:27:00;100;0;138.22;-4;-19.84;-4.67;73.6;19.00;77101;2837.967;-1801.640;1;136;-90;-82.3;42.5;42.4;13;13.5;26.2;0.0;
25/02/2025 17:27:20;100;0;140.47;-4;-19.80;-4.68;76.0;19.00;77119;2837.966;-1801.638;1;136;-90;-80.6;42.5;42.4;13;13.5;26.2;0.0;
25/02/2025 17:27:40;100;0;142.15;-4;-19.62;-4.70;78.2;19.00;77119;2837.964;-1801.637;1;136;-90;-80.6;42.5;42.3;13;13.5;26.2;0.0;
25/02/2025 17:28:00;100;0;143.58;-4;-19.84;-4.70;80.4;19.00;77119;2837.963;-1801.635;1;136;-90;-80.6;42.5;42.3;13;13.5;26.2;0.0;
25/02/2025 17:28:20;100;0;145.05;-4;-19.81;-4.77;82.7;19.00;77119;2837.961;-1801.634;1;136;-90;-80.6;42.5;42.3;15;14.9;26.2;0.0;
25/02/2025 17:28:40;100;0;143.15;-4;-19.27;-4.04;84.8;19.10;77124;2837.960;-1801.632;1;136;-90;-82.3;42.5;42.3;15;15.3;26.2;0.0;
25/02/2025 17:29:00;100;0;143.48;-4;-18.83;-4.13;86.7;19.00;77109;2837.959;-1801.631;1;136;-110;-109.7;42.9;42.9;15;14.9;26.2;0.0;
25/02/2025 17:29:20;100;0;145.00;-4;-19.43;-4.03;88.6;19.00;77159;2837.957;-1801.630;1;136;-130;-133.9;42.9;43.2;15;15.3;26.2;0.0;
25/02/2025 17:29:40;100;0;145.17;-4;-19.34;-3.89;90.7;19.10;77209;2837.956;-1801.628;1;136;-130;-132.3;42.9;43.2;15;15.3;26.2;0.0;
25/02/2025 17:30:00;100;0;145.75;-4;-19.77;-3.78;93.1;19.00;77203;2837.954;-1801.627;1;136;-130;-132.3;42.9;43.2;15;15.3;26.2;0.0;
25/02/2025 17:30:20;100;0;144.15;-4;-19.44;-3.77;95.4;19.00;77191;2837.952;-1801.625;1;136;-130;-132.3;42.9;43.2;15;15.3;26.2;0.0;
25/02/2025 17:30:40;100;0;140.71;-4;-19.11;-3.83;97.7;19.00;77161;2837.951;-1801.623;1;136;-130;-132.3;42.9;43.2;15;14.9;26.2;0.0;
25/02/2025 17:31:00;100;0;142.45;-4;-19.45;-3.81;100.2;19.00;77150;2837.949;-1801.622;1;136;-130;-132.3;42.9;43.2;15;15.3;26.2;0.0;
25/02/2025 17:31:20;100;0;143.63;-4;-19.89;-3.77;102.7;19.00;77128;2837.947;-1801.620;1;136;-130;-132.3;42.9;43.2;15;14.9;26.2;0.0;
25/02/2025 17:31:40;100;0;145.81;-4;-19.78;-3.77;105.2;19.00;77118;2837.945;-1801.618;1;136;-130;-132.3;42.9;43.2;15;15.3;26.2;0.0;
25/02/2025 17:32:00;100;0;147.17;-4;-19.91;-3.66;107.8;18.90;77111;2837.943;-1801.617;1;136;-130;-132.3;42.9;43.2;15;14.9;26.2;0.0;
25/02/2025 17:32:20;100;0;148.12;-4;-20.13;-3.71;110.5;18.90;77112;2837.941;-1801.615;1;136;-130;-132.3;42.9;43.2;15;15.3;26.2;0.0;
25/02/2025 17:32:40;100;0;146.94;-4;-19.76;-3.68;113.1;18.90;77107;2837.939;-1801.613;1;136;-130;-132.3;42.9;43.2;15;15.3;26.2;0.0;
25/02/2025 17:33:00;100;0;146.19;-4;-19.60;-3.78;115.7;18.90;77094;2837.937;-1801.612;1;136;-130;-132.3;42.9;43.2;15;15.3;26.2;0.0;
25/02/2025 17:33:20;100;0;145.53;-4;-19.58;-3.76;118.1;18.90;77086;2837.935;-1801.610;1;136;-130;-132.3;42.9;43.2;15;14.9;26.2;0.0;
25/02/2025 17:33:40;100;0;146.52;-4;-19.76;-3.66;120.6;18.80;77076;2837.933;-1801.609;1;136;-130;-132.3;42.9;43.2;15;15.3;26.2;0.0;
25/02/2025 17:34:00;100;0;148.76;-4;-19.87;-3.64;123.3;18.80;77079;2837.931;-1801.607;1;136;-130;-132.3;42.9;43.2;15;14.9;26.2;0.0;
25/02/2025 17:34:20;100;0;151.51;-4;-20.16;-3.82;126.0;18.80;77072;2837.929;-1801.605;1;136;-130;-132.3;42.9;43.2;19;19.0;26.2;0.0;
25/02/2025 17:34:40;100;0;152.43;-4;-20.23;-1.47;128.6;18.80;77078;2837.927;-1801.604;1;136;-130;-132.3;42.9;43.2;19;19.4;26.2;0.0;
25/02/2025 17:35:00;100;0;150.12;-4;-20.05;-1.47;131.3;18.80;77059;2837.925;-1801.603;1;136;-130;-132.3;42.9;43.3;19;19.4;26.2;0.0;
25/02/2025 17:35:20;100;0;146.99;-4;-19.78;-1.58;133.7;18.70;77061;2837.923;-1801.601;1;136;-130;-132.3;42.9;43.2;16;15.3;26.2;0.0;
25/02/2025 17:35:40;100;0;144.63;-4;-19.59;-3.86;136.1;18.70;77044;2837.921;-1801.600;1;136;-130;-132.3;42.9;43.2;16;14.9;26.2;0.0;
25/02/2025 17:36:00;100;0;144.74;-4;-19.63;-3.78;138.7;18.70;77045;2837.919;-1801.598;1;136;-130;-132.3;42.9;43.3;16;15.3;26.2;0.0;
25/02/2025 17:36:20;100;0;145.96;-4;-20.25;-3.77;141.3;18.70;77038;2837.917;-1801.596;1;136;-130;-133.9;42.9;43.2;16;15.3;26.2;0.0;
25/02/2025 17:36:40;100;0;147.01;-4;-19.82;-3.75;143.8;18.70;77036;2837.915;-1801.595;1;136;-130;-132.3;42.9;43.2;16;15.3;26.2;0.0;
25/02/2025 17:37:00;100;0;145.13;-4;-19.71;-3.75;146.2;18.60;77024;2837.913;-1801.593;1;136;-130;-132.3;42.9;43.2;16;15.3;26.2;0.0;
25/02/2025 17:37:20;100;0;142.87;-4;-19.86;-3.78;148.7;18.60;77024;2837.912;-1801.591;1;136;-130;-130.6;42.9;43.2;16;15.3;26.2;0.0;
25/02/2025 17:37:40;100;0;141.63;-4;-19.77;-3.75;151.2;18.60;77017;2837.910;-1801.589;1;136;-130;-133.9;42.9;43.2;16;15.3;26.2;0.0;
25/02/2025 17:38:00;100;0;143.88;-4;-19.50;-3.76;153.7;18.60;77020;2837.908;-1801.588;1;136;-130;-132.3;42.9;43.2;16;15.3;26.2;0.0;
25/02/2025 17:38:20;100;0;144.51;-4;-19.36;-3.86;156.0;18.50;76989;2837.906;-1801.586;1;136;-130;-137.1;42.9;43.2;16;15.3;26.2;0.0;
25/02/2025 17:38:40;100;0;146.06;-4;-19.22;-3.82;158.4;18.50;76986;2837.905;-1801.585;1;136;-130;-132.3;42.9;43.2;16;15.3;26.2;0.0;
25/02/2025 17:39:00;100;0;147.61;-4;-19.21;-3.85;160.5;18.50;76968;2837.903;-1801.583;1;136;-130;-132.3;42.9;43.2;16;15.3;26.2;0.0;
25/02/2025 17:39:20;100;0;145.81;-4;-19.18;-3.81;162.9;18.40;76957;2837.901;-1801.582;1;136;-130;-133.9;42.9;43.2;16;15.3;26.2;0.0;
25/02/2025 17:39:40;100;0;143.95;-4;-19.42;-3.83;165.1;18.40;76955;2837.900;-1801.580;1;136;-130;-132.3;42.9;43.2;16;15.3;26.2;0.0;
25/02/2025 17:40:00;100;0;141.26;-4;-19.45;-3.80;167.1;18.40;76934;2837.898;-1801.579;1;136;-130;-132.3;42.9;43.2;16;15.3;26.2;0.0;
25/02/2025 17:40:20;100;0;142.56;-4;-19.33;-3.81;169.5;18.40;76930;2837.897;-1801.577;1;136;-130;-132.3;42.9;43.2;16;15.3;26.2;0.0;
25/02/2025 17:40:40;100;0;142.38;-4;-19.02;-3.80;171.9;18.30;76923;2837.895;-1801.575;1;136;-130;-132.3;42.9;43.2;16;15.3;26.2;0.0;
25/02/2025 17:41:00;100;0;141.13;-4;-19.20;-3.85;174.0;18.30;76910;2837.893;-1801.574;1;136;-130;-135.5;42.9;43.3;16;15.3;26.2;0.0;
25/02/2025 17:41:20;100;0;139.48;-4;-19.07;-3.80;176.2;18.30;76902;2837.892;-1801.572;1;136;-130;-132.3;42.9;43.3;16;15.3;26.2;0.0;
25/02/2025 17:41:40;100;0;139.25;-4;-19.11;-3.88;178.4;18.20;76894;2837.890;-1801.570;1;136;-130;-132.3;42.9;43.2;16;15.3;26.2;0.0;
25/02/2025 17:42:00;100;0;137.88;-4;-19.47;-3.76;180.7;18.20;76881;2837.889;-1801.568;1;136;-130;-132.3;42.9;43.2;16;15.3;26.3;0.0;
25/02/2025 17:42:20;100;0;135.68;-4;-19.21;-3.82;182.9;18.20;76869;2837.888;-1801.566;1;136;-130;-132.3;42.9;43.2;16;15.3;26.2;0.0;
25/02/2025 17:42:40;100;0;134.34;-4;-19.15;-3.84;185.1;18.10;76878;2837.886;-1801.564;1;136;-130;-132.3;42.9;43.3;14;14.0;26.2;0.0;
25/02/2025 17:43:00;100;0;132.45;-4;-19.18;-4.64;187.2;18.10;76855;2837.885;-1801.562;1;136;-130;-133.9;42.9;43.3;12;12.2;26.2;0.0;
25/02/2025 17:43:20;100;0;132.91;-4;-19.22;-5.69;189.3;18.10;76850;2837.884;-1801.561;1;136;-130;-132.3;42.9;43.2;12;11.3;26.2;0.0;
25/02/2025 17:43:40;100;0;137.68;-4;-18.92;-5.60;191.6;18.00;76839;2837.883;-1801.559;1;136;-130;-132.3;43.2;43.2;15;14.9;26.2;0.0;
25/02/2025 17:44:00;100;0;141.11;-4;-19.29;-3.83;193.9;18.00;76826;2837.881;-1801.557;1;136;-130;-132.3;43.2;43.2;15;15.3;26.2;0.0;
25/02/2025 17:44:20;100;0;144.05;-4;-19.17;-3.82;196.4;18.00;76811;2837.879;-1801.555;1;136;-130;-133.9;43.2;43.2;15;15.3;26.2;0.0;
25/02/2025 17:44:40;100;0;144.56;-4;-19.41;-3.81;198.9;17.90;76810;2837.877;-1801.553;1;136;-130;-132.3;43.2;43.2;15;15.3;26.2;0.0;
25/02/2025 17:45:00;100;0;144.68;-4;-19.50;-3.76;201.4;17.90;76798;2837.875;-1801.552;1;136;-130;-132.3;43.2;43.2;15;15.3;26.2;0.0;
25/02/2025 17:45:20;100;0;142.06;-4;-19.28;-3.75;203.8;17.90;76793;2837.874;-1801.550;1;136;-130;-132.3;43.2;43.2;15;15.3;26.2;0.0;
25/02/2025 17:45:40;100;0;141.08;-4;-19.26;-3.81;206.4;17.80;76784;2837.872;-1801.548;1;136;-130;-132.3;43.2;43.2;15;14.9;26.2;0.0;
25/02/2025 17:46:00;100;0;142.10;-4;-19.17;-3.78;209.1;17.80;76785;2837.870;-1801.546;1;136;-130;-132.3;43.2;43.2;15;15.3;26.2;0.0;
25/02/2025 17:46:20;100;0;140.33;-4;-19.18;-3.80;211.5;17.80;76767;2837.868;-1801.544;1;136;-130;-132.3;43.2;43.2;15;15.3;26.2;0.0;
25/02/2025 17:46:40;100;0;139.26;-4;-19.07;-3.83;213.9;17.70;76767;2837.866;-1801.542;1;136;-130;-132.3;43.2;43.2;15;15.3;26.2;0.0;
25/02/2025 17:47:00;100;0;140.19;-4;-19.15;-3.83;216.3;17.70;76753;2837.865;-1801.540;1;136;-130;-130.6;43.2;43.2;15;15.3;26.2;0.0;
25/02/2025 17:47:20;100;0;141.22;-4;-19.13;-3.85;219.0;17.70;76746;2837.863;-1801.538;1;136;-130;-132.3;43.2;43.2;15;15.3;26.2;0.0;
25/02/2025 17:47:40;100;0;139.63;-4;-18.91;-3.82;221.4;17.60;76736;2837.861;-1801.536;1;136;-130;-132.3;43.5;43.6;15;15.3;26.2;0.0;
25/02/2025 17:48:00;100;0;138.65;-4;-19.86;-3.85;223.7;17.60;76735;2837.860;-1801.534;1;136;-130;-132.3;43.5;43.7;15;15.3;26.2;0.0;
25/02/2025 17:48:20;100;0;138.97;-4;-19.95;-3.81;226.3;17.50;76720;2837.858;-1801.532;1;136;-130;-132.3;43.5;43.7;15;15.3;26.2;0.0;
25/02/2025 17:48:40;100;0;139.36;-4;-20.13;-3.81;229.0;17.50;76721;2837.856;-1801.530;1;136;-130;-132.3;43.5;43.7;15;15.3;26.2;0.0;
25/02/2025 17:49:00;100;0;140.77;-4;-20.17;-3.85;231.6;17.50;76706;2837.854;-1801.528;1;136;-130;-137.1;43.5;43.7;15;15.3;26.2;0.0;
25/02/2025 17:49:20;100;0;143.29;-4;-20.30;-3.78;234.0;17.50;76705;2837.853;-1801.526;1;136;-130;-130.6;43.5;43.7;15;14.9;26.2;0.0;
25/02/2025 17:49:40;100;0;145.74;-4;-20.52;-3.76;236.6;17.40;76693;2837.851;-1801.525;1;136;-130;-132.3;43.5;43.7;15;15.3;26.2;0.0;
25/02/2025 17:50:00;100;0;149.79;-4;-20.10;-3.64;239.5;17.40;76678;2837.848;-1801.523;1;136;-130;-132.3;43.5;43.7;18;18.1;26.2;0.0;
25/02/2025 17:50:20;100;0;151.53;-4;-20.58;-2.16;241.9;17.30;76677;2837.846;-1801.522;1;136;-130;-132.3;43.5;43.7;18;18.5;26.2;0.0;
25/02/2025 17:50:40;100;0;150.94;-4;-20.75;-2.18;244.8;17.30;76667;2837.844;-1801.520;1;136;-130;-135.5;43.5;43.7;18;18.5;26.2;0.0;
25/02/2025 17:51:00;100;0;149.64;-4;-20.92;-2.06;247.3;17.30;76654;2837.842;-1801.519;1;136;-130;-132.3;43.5;43.7;18;18.5;26.2;0.0;
25/02/2025 17:51:20;100;0;148.40;-4;-20.77;-2.04;249.9;17.20;76656;2837.840;-1801.517;1;136;-130;-132.3;43.5;43.7;18;18.5;26.2;0.0;
25/02/2025 17:51:40;100;0;148.69;-4;-20.29;-2.12;252.6;17.20;76652;2837.838;-1801.516;1;136;-130;-132.3;43.5;43.7;18;18.5;26.2;0.0;
25/02/2025 17:52:00;100;0;147.30;-4;-20.13;-2.04;255.0;17.10;76635;2837.836;-1801.514;1;136;-130;-132.3;43.5;43.9;16;15.8;26.2;0.0;
25/02/2025 17:52:20;100;0;145.07;-4;-20.06;-3.82;257.3;17.10;76633;2837.835;-1801.513;1;136;-130;-132.3;43.5;43.7;16;15.3;26.2;0.0;
25/02/2025 17:52:40;100;0;142.75;-4;-20.20;-3.77;259.7;17.10;76625;2837.833;-1801.511;1;136;-130;-133.9;43.5;43.7;16;15.3;26.2;0.0;
25/02/2025 17:53:00;100;0;141.02;-4;-20.34;-3.78;262.1;17.10;76614;2837.831;-1801.509;1;136;-130;-132.3;43.5;43.7;16;15.3;26.2;0.0;
25/02/2025 17:53:20;100;0;142.72;-4;-20.16;-3.77;264.6;17.00;76602;2837.830;-1801.508;1;136;-130;-132.3;43.5;43.7;16;15.3;26.2;0.0;
25/02/2025 17:53:40;100;0;142.32;-4;-19.96;-3.86;266.9;17.00;76598;2837.828;-1801.506;1;136;-130;-132.3;43.5;43.7;16;15.3;26.2;0.0;
25/02/2025 17:54:00;100;0;141.69;-4;-19.76;-3.75;269.3;16.90;76588;2837.826;-1801.504;1;136;-130;-132.3;43.5;43.7;16;15.3;26.2;0.0;
25/02/2025 17:54:20;100;0;141.72;-4;-19.90;-3.83;271.6;16.90;76580;2837.825;-1801.503;1;136;-130;-133.9;43.5;43.7;16;15.3;26.2;0.0;
25/02/2025 17:54:40;100;0;139.84;-4;-20.27;-3.81;273.9;16.90;76575;2837.823;-1801.501;1;136;-130;-132.3;43.5;43.7;16;15.3;26.2;0.0;
25/02/2025 17:55:00;100;0;141.47;-4;-20.30;-3.79;276.3;16.80;76557;2837.822;-1801.499;1;136;-130;-132.3;43.5;43.7;16;15.3;26.2;0.0;
25/02/2025 17:55:20;100;0;142.92;-4;-20.26;-3.73;278.9;16.80;76557;2837.820;-1801.497;1;136;-130;-132.3;43.5;43.7;16;15.3;26.2;0.0;
25/02/2025 17:55:40;100;0;142.30;-4;-19.93;-3.78;281.4;16.80;76552;2837.818;-1801.495;1;136;-130;-132.3;43.5;43.7;16;15.3;26.2;0.0;
25/02/2025 17:56:00;100;0;140.63;-4;-20.04;-3.83;283.7;16.70;76539;2837.817;-1801.494;1;136;-130;-132.3;43.5;43.7;16;15.3;26.2;0.0;
25/02/2025 17:56:20;100;0;138.21;-4;-20.13;-3.76;286.1;16.70;76528;2837.815;-1801.492;1;136;-130;-132.3;43.5;43.7;16;15.3;26.2;0.0;
25/02/2025 17:56:40;100;0;137.04;-4;-20.10;-3.78;288.6;16.60;76516;2837.814;-1801.490;1;136;-130;-130.6;43.5;43.7;16;15.3;26.2;0.0;
25/02/2025 17:57:00;100;0;135.74;-4;-20.17;-3.76;290.9;16.60;76517;2837.812;-1801.488;1;136;-130;-132.3;43.5;43.7;16;15.3;26.2;0.0;
25/02/2025 17:57:20;100;0;132.38;-4;-20.38;-3.74;293.4;16.60;76505;2837.811;-1801.486;1;136;-130;-132.3;43.5;43.7;13;13.1;26.2;0.0;
25/02/2025 17:57:40;100;0;134.65;-4;-20.42;-5.08;295.9;16.50;76504;2837.809;-1801.483;1;136;-130;-132.3;43.5;43.7;13;12.6;26.2;0.0;
25/02/2025 17:58:00;100;0;140.23;-4;-20.20;-5.01;298.6;16.50;76487;2837.808;-1801.481;1;136;-130;-132.3;43.5;43.7;15;14.9;26.2;0.0;
25/02/2025 17:58:20;100;0;141.47;-4;-20.28;-3.53;301.1;16.50;76478;2837.806;-1801.480;1;136;-130;-132.3;43.5;43.7;15;15.3;26.2;0.0;
25/02/2025 17:58:40;100;0;141.25;-4;-20.37;-3.54;303.7;16.40;76466;2837.804;-1801.478;1;136;-130;-132.3;43.5;43.7;15;15.8;26.2;0.0;
25/02/2025 17:59:01;100;0;140.68;-4;-20.33;-3.61;306.4;16.40;76460;2837.802;-1801.476;1;136;-130;-132.3;43.5;43.7;15;15.3;26.2;0.0;
25/02/2025 17:59:21;100;0;143.45;-4;-20.23;-3.57;309.1;16.40;76461;2837.800;-1801.474;1;136;-130;-132.3;43.5;43.7;15;15.3;26.2;0.0;
25/02/2025 17:59:41;100;0;145.52;-4;-20.11;-3.49;311.9;16.30;76463;2837.798;-1801.472;1;136;-130;-132.3;43.5;43.7;15;15.3;26.2;0.0;
25/02/2025 18:00:01;100;0;147.28;-4;-20.13;-3.60;314.5;16.30;76447;2837.796;-1801.470;1;136;-130;-133.9;43.5;43.7;15;15.8;26.2;0.0;
25/02/2025 18:00:21;100;0;149.55;-4;-20.31;-3.62;317.2;16.30;76449;2837.794;-1801.469;1;136;-130;-132.3;43.5;43.7;18;18.1;26.2;0.0;
25/02/2025 18:00:41;100;0;150.22;-4;-20.72;-2.10;319.9;16.20;76430;2837.792;-1801.467;1;136;-130;-130.6;43.5;43.7;18;18.5;26.2;0.0;
25/02/2025 18:01:01;100;0;149.13;-4;-20.77;-2.10;322.9;16.20;76429;2837.789;-1801.465;1;136;-130;-130.6;43.5;43.7;18;18.5;26.2;0.0;
25/02/2025 18:01:21;100;0;144.08;-4;-20.28;-2.13;325.8;16.20;76425;2837.787;-1801.463;1;136;-130;-135.5;43.5;43.7;16;15.8;26.2;0.0;
25/02/2025 18:01:41;100;0;141.03;-4;-20.04;-3.58;328.6;16.10;76406;2837.785;-1801.461;1;136;-130;-132.3;43.5;43.7;16;15.8;26.2;0.0;
25/02/2025 18:02:01;100;0;138.26;-4;-19.88;-3.64;331.4;16.10;76393;2837.783;-1801.459;1;136;-130;-132.3;43.5;43.7;16;15.8;26.2;0.0;
25/02/2025 18:02:21;100;0;139.71;-4;-19.57;-3.54;334.2;16.10;76397;2837.781;-1801.457;1;136;-130;-132.3;43.5;43.7;16;15.8;26.2;0.0;
25/02/2025 18:02:41;100;0;140.02;-4;-19.68;-3.61;336.7;16.00;76388;2837.779;-1801.455;1;136;-130;-132.3;43.5;43.7;16;15.8;26.2;0.0;
25/02/2025 18:03:01;100;0;140.14;-4;-19.74;-3.62;339.5;16.00;76383;2837.777;-1801.453;1;136;-130;-132.3;43.5;43.7;16;15.8;26.2;0.0;
25/02/2025 18:03:21;100;0;140.55;-4;-19.84;-3.61;342.2;16.00;76377;2837.776;-1801.451;1;136;-130;-132.3;43.5;43.9;16;15.8;26.2;0.0;
25/02/2025 18:03:41;100;0;138.34;-4;-20.09;-3.53;345.2;15.90;76368;2837.773;-1801.448;1;136;-130;-132.3;43.5;43.7;16;15.8;26.2;0.0;
25/02/2025 18:04:01;100;0;135.92;-4;-20.01;-3.60;347.9;15.90;76367;2837.772;-1801.446;1;136;-130;-132.3;43.5;43.7;16;15.8;26.2;0.0;
25/02/2025 18:04:21;100;0;136.94;-4;-19.85;-3.54;350.7;15.90;76360;2837.770;-1801.443;1;136;-130;-132.3;43.5;43.7;16;15.8;26.2;0.0;
25/02/2025 18:04:41;100;0;138.60;-4;-19.97;-3.59;353.6;15.80;76356;2837.768;-1801.441;1;136;-130;-132.3;43.5;43.7;16;15.8;26.2;0.0;
25/02/2025 18:05:01;100;0;139.95;-4;-19.82;-3.62;356.4;15.80;76352;2837.766;-1801.439;1;136;-130;-135.5;43.5;43.7;16;15.8;26.2;0.0;
25/02/2025 18:05:21;100;0;140.20;-4;-19.98;-3.55;359.2;15.80;76348;2837.764;-1801.437;1;136;-130;-133.9;43.5;43.7;16;15.8;26.2;0.0;
25/02/2025 18:05:41;100;0;138.25;-4;-19.99;-3.58;362.1;15.70;76335;2837.762;-1801.434;1;136;-130;-132.3;43.5;43.9;16;15.3;26.2;0.0;
25/02/2025 18:06:01;100;0;136.66;-4;-20.08;-3.59;365.1;15.70;76326;2837.760;-1801.432;1;136;-130;-132.3;43.5;43.7;16;15.8;26.2;0.0;
25/02/2025 18:06:21;100;0;135.15;-4;-20.10;-3.60;367.9;15.70;76330;2837.758;-1801.429;1;136;-130;-132.3;43.5;43.7;16;15.8;26.2;0.0;
25/02/2025 18:06:41;100;0;132.20;-4;-20.19;-3.56;370.9;15.60;76334;2837.756;-1801.426;1;136;-130;-133.9;43.5;43.7;14;14.0;26.2;0.0;
25/02/2025 18:07:01;100;0;131.47;-4;-19.99;-4.55;373.8;15.60;76315;2837.755;-1801.424;1;136;-130;-132.3;43.5;43.7;14;13.5;26.2;0.0;
25/02/2025 18:07:21;100;0;132.79;-4;-19.83;-4.59;376.8;15.60;76307;2837.753;-1801.421;1;136;-130;-132.3;43.5;43.7;14;13.5;26.2;0.0;
25/02/2025 18:07:41;100;0;133.21;-4;-19.95;-4.54;379.8;15.50;76298;2837.751;-1801.418;1;136;-130;-132.3;43.5;43.7;14;13.5;26.2;0.0;
25/02/2025 18:08:01;100;0;131.94;-4;-20.08;-4.55;382.7;15.50;76299;2837.749;-1801.415;1;136;-130;-130.6;43.5;43.9;14;13.5;26.2;0.0;
25/02/2025 18:08:21;100;0;129.67;-4;-20.02;-4.58;385.7;15.50;76300;2837.748;-1801.413;1;136;-130;-132.3;43.5;43.7;12;11.7;26.2;0.0;
25/02/2025 18:08:41;100;0;127.86;-4;-19.93;-5.62;388.7;15.40;76279;2837.746;-1801.409;1;136;-130;-132.3;43.5;43.7;10;9.9;26.2;0.0;
25/02/2025 18:09:01;100;0;130.58;-4;-19.37;-6.54;391.6;15.40;76275;2837.744;-1801.407;1;136;-130;-132.3;43.5;43.7;12;12.2;26.2;0.0;
25/02/2025 18:09:21;100;0;132.65;-4;-19.27;-5.11;394.6;15.40;76271;2837.743;-1801.404;1;136;-130;-132.3;43.5;43.7;14;14.0;26.2;0.0;
25/02/2025 18:09:41;100;0;135.16;-4;-19.57;-4.34;397.4;15.30;76258;2837.741;-1801.401;1;136;-130;-132.3;43.5;43.7;14;14.4;26.2;0.0;
25/02/2025 18:10:01;100;0;135.98;-4;-20.26;-4.24;400.2;15.30;76255;2837.739;-1801.399;1;136;-130;-132.3;43.5;43.7;14;14.4;26.2;0.0;
25/02/2025 18:10:21;100;0;138.01;-4;-19.39;-4.28;403.2;15.30;76258;2837.737;-1801.396;1;136;-130;-133.9;43.5;43.7;14;14.4;26.2;0.0;
25/02/2025 18:10:41;100;0;138.99;-4;-19.32;-4.15;406.0;15.20;76252;2837.735;-1801.394;1;136;-130;-133.9;43.5;43.7;14;14.4;26.2;0.0;
25/02/2025 18:11:01;100;0;139.97;-4;-19.18;-4.24;408.9;15.20;76250;2837.733;-1801.392;1;136;-130;-132.3;43.5;43.9;14;14.4;26.2;0.0;
25/02/2025 18:11:21;100;0;140.47;-4;-19.37;-4.24;411.6;15.20;76240;2837.731;-1801.389;1;136;-130;-132.3;43.5;43.7;14;14.4;26.2;0.0;
25/02/2025 18:11:41;100;0;140.36;-4;-19.37;-4.22;414.4;15.20;76229;2837.728;-1801.387;1;136;-130;-132.3;43.5;43.7;14;14.4;26.2;0.0;
25/02/2025 18:12:01;100;0;140.43;-4;-19.33;-4.17;417.4;15.10;76229;2837.726;-1801.385;1;136;-130;-132.3;43.5;43.7;14;14.4;26.2;0.0;
25/02/2025 18:12:21;100;0;140.55;-4;-19.30;-4.31;420.2;15.10;76224;2837.724;-1801.382;1;136;-130;-132.3;43.5;43.7;14;14.4;26.2;0.0;
25/02/2025 18:12:41;100;0;140.77;-4;-19.53;-4.24;423.1;15.10;76225;2837.722;-1801.380;1;136;-130;-135.5;43.5;43.7;14;14.4;26.2;0.0;
25/02/2025 18:13:01;100;0;141.12;-4;-19.57;-4.16;425.9;15.00;76208;2837.720;-1801.378;1;136;-130;-133.9;43.5;43.7;14;14.4;26.2;0.0;
25/02/2025 18:13:21;100;0;139.72;-4;-19.55;-4.20;429.0;15.00;76204;2837.718;-1801.376;1;136;-130;-132.3;43.5;43.7;14;14.4;26.2;0.0;
25/02/2025 18:13:41;100;0;140.49;-4;-19.40;-4.16;431.9;15.00;76202;2837.716;-1801.373;1;136;-130;-132.3;43.5;43.9;14;14.4;26.2;0.0;
25/02/2025 18:14:01;100;0;140.61;-4;-19.35;-4.19;434.8;15.00;76195;2837.713;-1801.371;1;136;-130;-130.6;43.5;43.7;14;14.4;26.2;0.0;
25/02/2025 18:14:21;100;0;140.74;-4;-19.40;-4.17;437.8;14.90;76180;2837.711;-1801.368;1;136;-130;-132.3;43.5;43.7;14;14.4;26.2;0.0;
25/02/2025 18:14:41;100;0;139.55;-4;-19.50;-4.23;440.8;14.90;76178;2837.709;-1801.366;1;136;-130;-132.3;43.5;43.7;14;14.4;26.2;0.0;
25/02/2025 18:15:01;100;0;139.16;-4;-19.38;-4.21;443.8;14.90;76176;2837.707;-1801.363;1;136;-130;-130.6;43.5;43.7;14;14.4;26.2;0.0;
25/02/2025 18:15:21;100;0;138.55;-4;-19.40;-4.23;446.7;14.90;76175;2837.704;-1801.361;1;136;-130;-132.3;43.5;43.7;14;14.4;26.2;0.0;
25/02/2025 18:15:41;100;0;137.10;-4;-19.63;-4.20;449.7;14.80;76168;2837.702;-1801.358;1;136;-130;-132.3;43.5;43.7;14;14.4;26.2;0.0;
25/02/2025 18:16:01;100;0;134.97;-4;-19.62;-4.19;453.0;14.80;76161;2837.700;-1801.355;1;136;-130;-132.3;43.5;43.7;14;14.4;26.2;0.0;
25/02/2025 18:16:21;100;0;135.53;-4;-19.61;-4.15;456.2;14.80;76158;2837.698;-1801.352;1;136;-130;-132.3;43.5;43.7;14;14.4;26.2;0.0;
25/02/2025 18:16:41;100;0;135.78;-4;-19.70;-4.12;459.5;14.70;76158;2837.696;-1801.350;1;136;-130;-132.3;43.5;43.7;14;14.4;26.2;0.0;
25/02/2025 18:17:01;100;0;136.17;-4;-19.70;-4.12;462.7;14.70;76140;2837.694;-1801.347;1;136;-130;-132.3;43.5;43.7;14;14.4;26.2;0.0;
25/02/2025 18:17:21;100;0;134.15;-4;-19.87;-4.13;466.0;14.70;76145;2837.691;-1801.344;1;136;-130;-132.3;43.5;43.7;14;14.4;26.2;0.0;
25/02/2025 18:17:41;100;0;131.38;-4;-19.96;-4.08;469.4;14.60;76131;2837.689;-1801.340;1;136;-130;-133.9;43.5;43.7;14;14.4;26.2;0.0;
25/02/2025 18:18:01;100;0;129.34;-4;-19.57;-4.11;472.8;14.60;76129;2837.687;-1801.337;1;136;-130;-132.3;43.5;43.9;11;10.8;26.2;0.0;
25/02/2025 18:18:21;100;0;130.87;-4;-19.17;-6.28;476.0;14.60;76135;2837.685;-1801.334;1;136;-130;-132.3;43.5;43.7;11;10.4;26.2;0.0;
25/02/2025 18:18:41;100;0;131.86;-4;-19.28;-6.23;479.3;14.60;76128;2837.683;-1801.331;1;136;-130;-132.3;43.5;43.7;13;13.1;26.2;0.0;
25/02/2025 18:19:01;100;0;129.81;-4;-19.43;-4.85;482.6;14.50;76113;2837.681;-1801.327;1;136;-130;-132.3;43.5;43.7;11;10.8;26.2;0.0;
25/02/2025 18:19:21;100;0;132.31;-4;-19.34;-6.14;485.8;14.50;76115;2837.679;-1801.324;1;136;-130;-135.5;43.5;43.7;13;13.1;26.2;0.0;
25/02/2025 18:19:41;100;0;134.53;-4;-19.32;-4.72;489.0;14.50;76107;2837.677;-1801.321;1;136;-130;-132.3;43.5;43.7;13;13.5;26.2;0.0;
25/02/2025 18:20:01;100;0;135.17;-4;-19.40;-4.68;492.3;14.50;76100;2837.675;-1801.318;1;136;-130;-132.3;43.5;43.7;13;13.5;26.2;0.0;
25/02/2025 18:20:21;100;0;136.46;-4;-19.32;-4.69;495.4;14.40;76109;2837.672;-1801.315;1;136;-130;-132.3;43.5;43.7;13;13.5;26.2;0.0;
25/02/2025 18:20:41;100;0;139.37;-4;-19.35;-4.69;498.7;14.40;76100;2837.670;-1801.312;1;136;-130;-132.3;43.5;43.7;15;14.9;26.2;0.0;
25/02/2025 18:21:01;100;0;140.41;-4;-19.40;-3.69;501.9;14.40;76093;2837.667;-1801.310;1;136;-130;-133.9;43.5;43.9;15;15.3;26.2;0.0;
25/02/2025 18:21:21;100;0;141.48;-4;-19.41;-3.72;504.8;14.40;76099;2837.665;-1801.307;1;136;-130;-132.3;43.5;43.7;15;15.3;26.2;0.0;
25/02/2025 18:21:41;100;0;141.43;-4;-19.44;-3.72;508.0;14.40;76097;2837.663;-1801.305;1;136;-130;-132.3;43.5;43.9;15;15.3;26.2;0.0;
25/02/2025 18:22:01;100;0;142.01;-4;-19.61;-3.75;510.9;14.30;76091;2837.661;-1801.303;1;136;-130;-132.3;43.5;43.9;15;15.3;26.2;0.0;
25/02/2025 18:22:21;100;0;141.74;-4;-19.67;-3.71;513.8;14.30;76084;2837.658;-1801.300;1;136;-130;-130.6;43.5;43.9;15;15.3;26.2;0.0;
25/02/2025 18:22:41;100;0;145.03;-4;-19.29;-3.78;516.9;14.30;76079;2837.656;-1801.298;1;136;-130;-133.9;43.5;43.9;15;15.3;26.2;0.0;
25/02/2025 18:23:01;100;0;146.27;-4;-19.18;-3.74;519.6;14.30;76066;2837.654;-1801.296;1;136;-130;-132.3;43.5;43.7;15;15.3;26.2;0.0;
25/02/2025 18:23:21;100;0;146.88;-4;-19.20;-3.79;522.4;14.20;76075;2837.651;-1801.294;1;136;-130;-132.3;43.5;43.9;15;15.3;26.2;0.0;
25/02/2025 18:23:41;100;0;148.35;-4;-19.28;-3.75;525.1;14.20;76055;2837.649;-1801.293;1;136;-130;-133.9;43.5;43.7;17;17.1;26.2;0.0;
25/02/2025 18:24:01;100;0;150.31;-4;-19.38;-2.72;527.8;14.20;76056;2837.647;-1801.291;1;136;-130;-132.3;43.5;43.7;17;17.6;26.2;0.0;
25/02/2025 18:24:21;100;0;151.18;-4;-19.26;-2.63;530.4;14.20;76054;2837.644;-1801.290;1;136;-130;-132.3;43.5;43.7;19;19.0;26.2;0.0;
25/02/2025 18:24:41;100;0;150.59;-4;-19.40;-1.74;533.2;14.10;76044;2837.642;-1801.288;1;136;-130;-132.3;43.5;43.9;19;19.4;26.2;0.0;
25/02/2025 18:25:01;100;0;150.79;-4;-19.53;-1.75;535.7;14.10;76045;2837.640;-1801.287;1;136;-130;-132.3;43.5;43.7;19;19.4;26.2;0.0;
25/02/2025 18:25:21;100;0;151.30;-4;-19.32;-1.73;538.3;14.10;76038;2837.638;-1801.285;1;136;-130;-132.3;43.5;43.9;19;19.4;26.2;0.0;
25/02/2025 18:25:41;100;0;150.69;-4;-19.27;-1.77;540.8;14.10;76045;2837.636;-1801.284;1;136;-130;-132.3;43.5;43.7;19;19.4;26.2;0.0;
25/02/2025 18:26:01;100;0;150.50;-4;-19.31;-1.73;543.2;14.00;76038;2837.634;-1801.282;1;136;-130;-132.3;43.5;43.9;19;19.4;26.2;0.0;
25/02/2025 18:26:21;100;0;149.72;-4;-19.16;-1.77;545.8;14.00;76028;2837.631;-1801.281;1;136;-130;-132.3;43.5;43.7;19;19.4;26.2;0.0;
25/02/2025 18:26:41;100;0;147.75;-4;-19.24;-1.87;548.3;14.00;76021;2837.629;-1801.279;1;136;-130;-132.3;43.5;43.7;16;15.8;26.2;0.0;
25/02/2025 18:27:01;100;0;146.51;-4;-18.59;-3.50;550.7;14.00;76022;2837.627;-1801.278;1;136;-130;-132.3;43.9;43.9;16;15.8;26.2;0.0;
25/02/2025 18:27:21;100;0;146.47;-4;-18.55;-3.59;552.9;13.90;76010;2837.626;-1801.276;1;136;-130;-132.3;44.4;44.3;16;15.8;26.2;0.0;
25/02/2025 18:27:41;100;0;146.64;-4;-20.00;-3.62;555.5;13.90;76005;2837.624;-1801.275;1;136;-130;-132.3;44.4;44.5;16;15.8;26.2;0.0;
25/02/2025 18:28:01;100;0;143.99;-4;-20.08;-3.77;558.0;13.90;76013;2837.622;-1801.273;1;136;-130;-132.3;44.4;44.5;16;15.8;26.2;0.0;
25/02/2025 18:28:21;100;0;141.21;-4;-20.27;-3.66;560.4;13.90;76006;2837.620;-1801.271;1;136;-130;-132.3;44.4;44.5;16;15.8;26.2;0.0;
25/02/2025 18:28:41;100;0;140.93;-4;-20.62;-3.64;562.9;13.80;75992;2837.619;-1801.269;1;136;-130;-132.3;44.4;44.5;16;15.8;26.2;0.0;
25/02/2025 18:29:01;100;0;141.69;-4;-20.47;-3.63;565.4;13.80;75982;2837.617;-1801.268;1;136;-130;-132.3;44.4;44.5;16;15.8;26.2;0.0;
25/02/2025 18:29:21;100;0;143.17;-4;-20.47;-3.64;568.0;13.80;75991;2837.615;-1801.266;1;136;-130;-133.9;44.4;44.6;16;15.8;26.2;0.0;
25/02/2025 18:29:41;100;0;141.06;-4;-20.68;-3.59;570.6;13.80;75981;2837.613;-1801.264;1;136;-130;-132.3;44.4;44.5;16;15.8;26.2;0.0;
25/02/2025 18:30:01;100;0;139.29;-4;-20.52;-3.63;573.3;13.80;75978;2837.612;-1801.262;1;136;-130;-132.3;44.4;44.6;16;15.8;26.2;0.0;
25/02/2025 18:30:21;100;0;138.29;-4;-20.44;-3.68;575.9;13.70;75976;2837.610;-1801.260;1;136;-130;-132.3;44.4;44.5;16;15.8;26.2;0.0;
25/02/2025 18:30:41;100;0;137.29;-4;-20.50;-3.67;578.4;13.70;75969;2837.609;-1801.258;1;136;-130;-132.3;44.4;44.5;16;15.8;26.2;0.0;
25/02/2025 18:31:01;100;0;133.54;-4;-20.56;-3.63;581.0;13.70;75970;2837.607;-1801.256;1;136;-130;-132.3;44.4;44.5;14;14.0;26.2;0.0;
25/02/2025 18:31:21;100;0;132.15;-4;-20.46;-4.61;583.6;13.70;75959;2837.606;-1801.253;1;136;-130;-132.3;44.4;44.6;14;14.0;26.2;0.0;
25/02/2025 18:31:41;100;0;131.58;-4;-20.55;-4.60;586.1;13.60;75949;2837.604;-1801.251;1;136;-130;-132.3;44.4;44.5;12;12.2;26.2;0.0;
25/02/2025 18:32:01;100;0;131.84;-4;-20.51;-5.58;588.6;13.60;75959;2837.603;-1801.249;1;136;-130;-132.3;44.4;44.6;12;11.7;26.2;0.0;
25/02/2025 18:32:21;100;0;131.48;-4;-20.49;-5.61;591.2;13.60;75938;2837.602;-1801.246;1;136;-130;-132.3;44.4;44.5;12;11.7;26.2;0.0;
25/02/2025 18:32:41;100;0;132.01;-4;-20.65;-5.52;593.7;13.60;75949;2837.600;-1801.244;1;136;-130;-132.3;44.4;44.5;12;11.7;26.2;0.0;
25/02/2025 18:33:01;100;0;132.18;-4;-20.51;-5.59;596.3;13.60;75940;2837.599;-1801.242;1;136;-130;-132.3;44.4;44.6;12;11.7;26.2;0.0;
25/02/2025 18:33:21;100;0;132.40;-4;-20.56;-5.58;598.9;13.50;75939;2837.598;-1801.240;1;136;-130;-132.3;44.4;44.5;12;11.7;26.2;0.0;
25/02/2025 18:33:42;100;0;131.60;-4;-20.61;-5.57;601.5;13.50;75939;2837.596;-1801.237;1;136;-130;-132.3;44.4;44.5;12;11.7;26.2;0.0;
25/02/2025 18:34:02;100;0;131.08;-4;-20.54;-5.61;604.0;13.50;75919;2837.595;-1801.235;1;136;-130;-132.3;44.4;44.5;12;11.7;26.2;0.0;
25/02/2025 18:34:22;100;0;132.68;-4;-20.58;-5.55;606.6;13.50;75921;2837.594;-1801.233;1;136;-130;-133.9;44.4;44.6;12;11.7;26.2;0.0;
25/02/2025 18:34:42;100;0;134.70;-4;-20.26;-5.61;609.2;13.50;75912;2837.592;-1801.231;1;136;-130;-132.3;44.4;44.6;14;14.0;26.2;0.0;
25/02/2025 18:35:02;100;0;136.31;-4;-20.37;-4.39;612.0;13.40;75902;2837.590;-1801.228;1;136;-130;-132.3;44.4;44.5;14;14.0;26.2;0.0;
25/02/2025 18:35:22;100;0;139.52;-4;-20.48;-4.39;614.5;13.40;75919;2837.589;-1801.226;1;136;-130;-133.9;44.4;44.6;14;14.0;26.2;0.0;
25/02/2025 18:35:42;100;0;142.01;-4;-20.49;-4.37;617.0;13.40;75907;2837.587;-1801.224;1;136;-130;-132.3;44.4;44.6;14;14.0;26.2;0.0;
25/02/2025 18:36:02;100;0;141.60;-4;-20.56;-4.36;619.9;13.40;75891;2837.585;-1801.222;1;136;-130;-132.3;44.4;44.6;14;14.0;26.2;0.0;
25/02/2025 18:36:22;100;0;142.86;-4;-20.79;-4.30;622.6;13.30;75895;2837.583;-1801.221;1;136;-130;-132.3;44.4;44.6;14;14.0;26.2;0.0;
25/02/2025 18:36:42;100;0;147.06;-4;-20.56;-4.46;625.2;13.30;75888;2837.581;-1801.219;1;136;-130;-132.3;44.4;44.6;14;14.0;26.2;0.0;
25/02/2025 18:37:02;100;0;151.76;-4;-20.55;-4.33;628.0;13.30;75881;2837.579;-1801.218;1;136;-130;-132.3;44.4;44.6;20;19.9;26.2;0.0;
25/02/2025 18:37:22;100;0;152.81;-4;-20.80;-1.46;630.8;13.30;75891;2837.576;-1801.216;1;136;-130;-132.3;44.4;44.6;20;19.9;26.2;0.0;
25/02/2025 18:37:42;100;0;152.45;-4;-20.69;-1.44;633.5;13.30;75874;2837.574;-1801.215;1;136;-130;-132.3;44.4;44.6;20;19.9;26.2;0.0;
25/02/2025 18:38:02;100;0;152.55;-4;-20.77;-1.47;636.3;13.20;75870;2837.572;-1801.213;1;136;-130;-132.3;44.4;44.6;20;19.9;26.2;0.0;
25/02/2025 18:38:22;100;0;152.38;-4;-20.71;-1.44;639.1;13.20;75876;2837.570;-1801.212;1;136;-130;-132.3;44.4;44.6;20;19.9;26.2;0.0;
25/02/2025 18:38:42;100;0;151.17;-4;-20.58;-1.43;641.9;13.20;75858;2837.567;-1801.211;1;136;-130;-132.3;44.4;44.5;20;19.9;26.2;0.0;
25/02/2025 18:39:02;100;0;147.94;-4;-20.56;-1.48;644.7;13.20;75865;2837.565;-1801.209;1;136;-130;-132.3;44.4;44.6;17;17.1;26.2;0.0;
25/02/2025 18:39:22;100;0;147.56;-4;-20.37;-3.00;647.4;13.20;75861;2837.563;-1801.207;1;136;-130;-135.5;44.4;44.6;17;17.1;26.2;0.0;
25/02/2025 18:39:42;100;0;148.12;-4;-20.19;-2.97;650.2;13.10;75855;2837.561;-1801.206;1;136;-130;-132.3;44.4;44.6;17;16.7;26.2;0.0;
25/02/2025 18:40:02;100;0;145.35;-4;-20.15;-3.11;652.8;13.10;75847;2837.559;-1801.204;1;136;-130;-132.3;44.4;44.6;15;14.4;26.2;0.0;
25/02/2025 18:40:22;100;0;145.95;-4;-19.99;-4.35;655.6;13.10;75839;2837.557;-1801.202;1;136;-130;-132.3;44.4;44.6;15;14.4;26.2;0.0;
25/02/2025 18:40:42;100;0;145.39;-4;-20.42;-4.30;658.4;13.10;75831;2837.555;-1801.200;1;136;-130;-132.3;44.4;44.5;15;14.4;26.2;0.0;
25/02/2025 18:41:02;100;0;146.30;-4;-20.43;-4.26;661.2;13.10;75818;2837.552;-1801.198;1;136;-130;-130.6;44.4;44.6;15;14.4;26.2;0.0;
25/02/2025 18:41:22;100;0;147.67;-4;-20.49;-4.24;664.0;13.00;75825;2837.550;-1801.197;1;136;-130;-132.3;44.4;44.6;17;17.1;26.2;0.0;
25/02/2025 18:41:42;100;0;147.44;-4;-20.60;-2.62;667.1;13.00;75820;2837.548;-1801.195;1;136;-130;-132.3;44.4;44.6;17;17.6;26.2;0.0;
25/02/2025 18:42:02;100;0;147.09;-4;-20.56;-2.62;670.0;13.00;75808;2837.545;-1801.193;1;136;-130;-132.3;44.4;44.6;17;17.6;26.2;0.0;
25/02/2025 18:42:22;100;0;145.07;-4;-20.63;-2.64;672.9;13.00;75808;2837.543;-1801.191;1;136;-130;-132.3;44.4;44.6;17;17.6;26.2;0.0;
25/02/2025 18:42:42;100;0;143.59;-4;-20.71;-2.62;675.8;12.90;75796;2837.541;-1801.189;1;136;-130;-132.3;44.4;44.6;15;14.9;26.2;0.0;
25/02/2025 18:43:02;100;0;143.82;-4;-20.76;-4.17;679.0;12.90;75798;2837.539;-1801.187;1;136;-130;-132.3;44.4;44.6;15;14.9;26.2;0.0;
25/02/2025 18:43:22;100;0;143.01;-4;-20.51;-4.18;681.9;12.90;75796;2837.537;-1801.185;1;136;-130;-132.3;44.4;44.6;15;14.4;26.2;0.0;
25/02/2025 18:43:42;100;0;143.30;-4;-20.69;-4.16;685.0;12.90;75788;2837.534;-1801.182;1;136;-130;-132.3;44.4;44.6;15;14.9;26.2;0.0;
25/02/2025 18:44:02;100;0;143.08;-4;-20.42;-4.18;688.1;12.90;75785;2837.532;-1801.180;1;136;-130;-132.3;44.4;44.6;15;14.4;26.2;0.0;
25/02/2025 18:44:22;100;0;142.23;-4;-20.47;-4.24;691.2;12.80;75785;2837.530;-1801.178;1;136;-130;-132.3;44.4;44.6;15;14.4;26.2;0.0;
25/02/2025 18:44:42;100;0;139.78;-4;-20.28;-4.15;694.2;12.80;75793;2837.527;-1801.175;1;136;-130;-132.3;44.4;44.6;15;14.9;26.2;0.0;
25/02/2025 18:45:02;100;0;136.35;-4;-20.27;-4.19;697.2;12.80;75772;2837.525;-1801.173;1;136;-130;-132.3;44.4;44.6;15;14.4;26.2;0.0;
25/02/2025 18:45:22;100;0;133.79;-4;-20.35;-4.16;700.0;12.80;75773;2837.524;-1801.170;1;136;-130;-132.3;44.4;44.6;15;14.4;26.2;0.0;
25/02/2025 18:45:42;100;0;136.59;-4;-20.20;-4.16;703.1;12.70;75756;2837.522;-1801.168;1;136;-130;-133.9;44.4;44.6;15;14.4;26.2;0.0;
25/02/2025 18:46:02;100;0;137.90;-4;-19.78;-4.17;706.2;12.70;75748;2837.520;-1801.165;1;136;-130;-133.9;44.4;44.6;15;14.4;26.2;0.0;
25/02/2025 18:46:22;100;0;138.55;-4;-19.85;-4.21;709.0;12.70;75736;2837.518;-1801.163;1;136;-130;-130.6;44.4;44.5;15;14.4;26.2;0.0;
25/02/2025 18:46:42;100;0;139.24;-4;-19.72;-4.26;711.9;12.70;75727;2837.516;-1801.160;1;136;-130;-132.3;44.4;44.6;15;14.4;26.2;0.0;
25/02/2025 18:47:02;100;0;140.88;-4;-19.64;-4.25;714.7;12.70;75728;2837.514;-1801.158;1;136;-130;-132.3;44.4;44.6;15;14.9;26.2;0.0;
25/02/2025 18:47:22;100;0;142.20;-4;-19.76;-4.26;717.5;12.60;75723;2837.512;-1801.156;1;136;-130;-132.3;44.4;44.6;15;14.4;26.2;0.0;
25/02/2025 18:47:42;100;0;143.05;-4;-19.86;-4.22;720.3;12.60;75721;2837.510;-1801.154;1;136;-130;-132.3;44.4;44.6;15;14.4;26.2;0.0;
25/02/2025 18:48:02;100;0;144.91;-4;-19.82;-4.28;723.2;12.60;75715;2837.507;-1801.152;1;136;-130;-132.3;44.4;44.6;15;14.4;26.2;0.0;
25/02/2025 18:48:22;100;0;145.41;-4;-20.27;-4.21;726.1;12.60;75713;2837.505;-1801.150;1;136;-130;-133.9;44.4;44.6;15;14.4;26.2;0.0;
25/02/2025 18:48:42;100;0;145.96;-4;-20.13;-4.18;729.1;12.60;75710;2837.503;-1801.148;1;136;-130;-132.3;44.4;44.6;15;14.9;26.2;0.0;
25/02/2025 18:49:02;100;0;147.24;-4;-19.92;-4.15;732.0;12.50;75705;2837.500;-1801.146;1;136;-130;-133.9;44.4;44.6;17;17.1;26.2;0.0;
25/02/2025 18:49:22;100;0;148.20;-4;-20.15;-2.61;734.8;12.50;75702;2837.498;-1801.145;1;136;-130;-132.3;44.4;44.6;17;17.6;26.2;0.0;
25/02/2025 18:49:42;100;0;149.06;-4;-20.21;-2.56;737.9;12.50;75688;2837.495;-1801.143;1;136;-130;-132.3;44.4;44.5;17;17.6;26.2;0.0;
25/02/2025 18:50:02;100;0;150.50;-4;-20.08;-2.67;740.9;12.50;75693;2837.493;-1801.141;1;136;-130;-132.3;44.4;44.5;19;19.0;26.2;0.0;
25/02/2025 18:50:22;100;0;151.28;-4;-20.19;-1.75;743.9;12.40;75686;2837.490;-1801.139;1;136;-130;-133.9;44.4;44.6;19;19.4;26.2;0.0;
25/02/2025 18:50:42;100;0;151.14;-4;-20.10;-1.73;746.9;12.40;75688;2837.488;-1801.138;1;136;-130;-132.3;44.4;44.6;19;19.4;26.2;0.0;
25/02/2025 18:51:02;100;0;151.53;-4;-20.36;-1.73;749.9;12.40;75678;2837.485;-1801.136;1;136;-130;-132.3;44.4;44.6;19;19.4;26.2;0.0;
25/02/2025 18:51:22;100;0;150.71;-4;-20.72;-1.69;753.0;12.40;75676;2837.482;-1801.134;1;136;-130;-133.9;44.4;44.6;19;19.4;26.2;0.0;
25/02/2025 18:51:42;100;0;150.44;-4;-20.71;-1.65;756.5;12.40;75676;2837.479;-1801.132;1;136;-130;-132.3;44.4;44.5;19;19.4;26.2;0.0;
25/02/2025 18:52:02;100;0;144.85;-4;-20.62;-1.77;759.7;12.30;75660;2837.477;-1801.130;1;136;-130;-132.3;44.4;44.5;16;15.8;26.2;0.0;
25/02/2025 18:52:22;100;0;141.78;-4;-20.27;-3.78;763.0;12.30;75659;2837.474;-1801.128;1;136;-130;-132.3;44.4;44.6;16;15.3;26.2;0.0;
25/02/2025 18:52:42;100;0;142.80;-4;-20.18;-3.72;766.2;12.30;75649;2837.472;-1801.125;1;136;-130;-133.9;44.4;44.6;16;15.3;26.2;0.0;
25/02/2025 18:53:02;100;0;143.45;-4;-20.13;-3.79;769.5;12.30;75651;2837.469;-1801.123;1;136;-130;-132.3;44.4;44.6;16;15.3;26.2;0.0;
25/02/2025 18:53:22;100;0;142.92;-4;-20.28;-3.76;772.9;12.20;75644;2837.467;-1801.120;1;136;-130;-132.3;44.4;44.6;16;15.3;26.2;0.0;
25/02/2025 18:53:42;100;0;141.98;-4;-20.21;-3.77;776.2;12.20;75624;2837.464;-1801.118;1;136;-130;-132.3;44.4;44.6;16;15.3;26.2;0.0;
25/02/2025 18:54:02;100;0;140.35;-4;-20.00;-3.84;779.6;12.20;75624;2837.462;-1801.115;1;136;-130;-132.3;44.4;44.6;16;15.3;26.2;0.0;
25/02/2025 18:54:22;100;0;138.10;-4;-20.10;-3.76;782.9;12.20;75612;2837.459;-1801.112;1;136;-130;-132.3;44.4;44.6;16;15.3;26.2;0.0;
25/02/2025 18:54:42;100;0;137.07;-4;-19.77;-3.77;786.1;12.10;75596;2837.457;-1801.110;1;136;-130;-132.3;44.4;44.6;16;15.3;26.2;0.0;
25/02/2025 18:55:02;100;0;137.10;-4;-19.50;-3.83;789.3;12.10;75597;2837.455;-1801.107;1;136;-130;-133.9;44.4;44.6;16;15.3;26.2;0.0;
25/02/2025 18:55:22;100;0;137.73;-4;-19.57;-3.82;792.4;12.10;75587;2837.452;-1801.104;1;136;-130;-132.3;44.4;44.6;16;15.3;26.2;0.0;
25/02/2025 18:55:42;100;0;137.86;-4;-19.48;-3.86;795.5;12.10;75581;2837.450;-1801.101;1;136;-130;-132.3;44.4;44.6;16;15.3;26.2;0.0;
25/02/2025 18:56:02;100;0;138.82;-4;-19.70;-3.83;798.5;12.00;75579;2837.448;-1801.099;1;136;-130;-133.9;44.4;44.6;16;15.3;26.2;0.0;
25/02/2025 18:56:22;100;0;139.87;-4;-19.63;-3.86;801.6;12.00;75568;2837.446;-1801.096;1;136;-130;-132.3;44.4;44.6;16;15.3;26.2;0.0;
25/02/2025 18:56:42;100;0;139.82;-4;-19.58;-3.83;804.6;12.00;75565;2837.444;-1801.094;1;136;-130;-132.3;44.4;44.6;16;15.3;26.2;0.0;
25/02/2025 18:57:02;100;0;139.98;-4;-19.63;-3.80;807.8;12.00;75560;2837.441;-1801.091;1;136;-130;-135.5;44.4;44.6;16;15.3;26.2;0.0;
25/02/2025 18:57:22;100;0;139.38;-4;-19.74;-3.80;810.8;11.90;75546;2837.439;-1801.089;1;136;-130;-132.3;44.4;44.6;16;15.3;26.2;0.0;
25/02/2025 18:57:42;100;0;140.67;-4;-19.64;-3.78;814.0;11.90;75549;2837.437;-1801.087;1;136;-130;-132.3;44.4;44.6;16;15.3;26.2;0.0;
25/02/2025 18:58:02;100;0;144.71;-4;-19.49;-3.87;817.1;11.90;75548;2837.434;-1801.084;1;136;-130;-133.9;44.4;44.6;16;15.3;26.2;0.0;
25/02/2025 18:58:22;100;0;147.88;-4;-20.07;-3.79;820.1;11.90;75538;2837.432;-1801.082;1;136;-130;-132.3;44.4;44.6;16;15.3;26.2;0.0;
25/02/2025 18:58:42;100;0;148.72;-4;-19.96;-3.74;823.4;11.80;75533;2837.429;-1801.080;1;136;-130;-133.9;44.4;44.6;18;18.1;26.2;0.0;
25/02/2025 18:59:02;100;0;148.10;-4;-20.23;-2.22;826.6;11.80;75529;2837.426;-1801.078;1;136;-130;-132.3;44.4;44.6;18;18.5;26.2;0.0;
25/02/2025 18:59:22;100;0;145.99;-4;-19.29;-2.34;829.7;11.80;75522;2837.424;-1801.076;1;136;-130;-132.3;44.4;44.6;18;18.5;26.2;0.0;
25/02/2025 18:59:42;100;0;145.25;-4;-18.99;-2.36;832.5;11.80;75511;2837.421;-1801.074;1;136;-130;-130.6;44.7;44.6;16;15.8;26.2;0.0;
25/02/2025 19:00:02;100;0;146.87;-4;-19.24;-3.79;835.3;11.70;75503;2837.419;-1801.072;1;136;-130;-130.6;44.7;44.6;16;15.8;26.2;0.0;
25/02/2025 19:00:22;100;0;147.74;-4;-19.18;-3.78;838.1;11.70;75500;2837.417;-1801.070;1;136;-130;-133.9;44.7;44.6;16;15.3;26.2;0.0;
25/02/2025 19:00:42;100;0;148.33;-4;-19.01;-4.19;840.9;11.70;75492;2837.414;-1801.069;1;136;-130;-132.3;44.7;44.5;18;18.1;26.2;0.0;
25/02/2025 19:01:02;100;0;149.08;-4;-19.10;-1.97;843.6;11.70;75479;2837.412;-1801.067;1;136;-130;-132.3;44.7;44.6;18;18.5;26.2;0.0;
25/02/2025 19:01:22;100;0;147.76;-4;-19.44;-2.27;846.6;11.70;75480;2837.409;-1801.065;1;136;-130;-132.3;44.7;44.6;18;18.5;26.2;0.0;
25/02/2025 19:01:42;100;0;147.22;-4;-19.15;-2.32;849.3;11.60;75455;2837.407;-1801.063;1;136;-130;-132.3;44.7;44.5;18;18.5;26.2;0.0;
25/02/2025 19:02:02;100;0;146.14;-4;-19.31;-2.20;852.1;11.60;75462;2837.405;-1801.061;1;136;-130;-132.3;44.7;44.6;18;18.5;26.2;0.0;
25/02/2025 19:02:22;100;0;144.43;-4;-19.46;-2.23;854.9;11.60;75460;2837.402;-1801.059;1;136;-130;-132.3;44.7;44.6;16;15.8;26.2;0.0;
25/02/2025 19:02:42;100;0;141.88;-4;-19.79;-4.05;857.8;11.60;75446;2837.400;-1801.057;1;136;-130;-133.9;44.7;44.5;16;15.8;26.2;0.0;
25/02/2025 19:03:02;100;0;140.12;-4;-19.28;-3.94;860.6;11.50;75442;2837.398;-1801.055;1;136;-130;-132.3;44.7;44.6;16;15.8;26.2;0.0;
25/02/2025 19:03:22;100;0;141.90;-4;-18.99;-3.52;863.3;11.50;75436;2837.396;-1801.053;1;136;-130;-132.3;45.0;44.9;16;15.8;26.2;0.0;
25/02/2025 19:03:42;100;0;140.56;-4;-20.33;-3.61;866.0;11.50;75442;2837.394;-1801.051;1;136;-130;-132.3;45.0;45.1;16;15.8;26.2;0.0;
25/02/2025 19:04:02;100;0;142.00;-4;-21.13;-3.66;868.8;11.40;75430;2837.392;-1801.049;1;136;-130;-132.3;45.0;45.1;16;15.8;26.2;0.0;
25/02/2025 19:04:22;100;0;136.05;-4;-21.77;-3.81;871.8;11.40;75429;2837.391;-1801.046;1;136;-130;-132.3;45.0;45.1;16;15.8;26.2;0.0;
25/02/2025 19:04:42;100;0;136.70;-4;-20.64;-3.78;874.8;11.40;75430;2837.389;-1801.044;1;136;-130;-133.9;45.0;45.1;16;15.8;26.2;0.0;
25/02/2025 19:05:02;100;0;133.55;-4;-21.16;-3.68;877.9;11.40;75418;2837.387;-1801.041;1;136;-130;-132.3;45.0;45.1;16;15.8;26.2;0.0;
25/02/2025 19:05:22;100;0;135.72;-4;-21.07;-3.61;881.1;11.30;75423;2837.385;-1801.038;1;136;-130;-132.3;45.0;45.1;16;15.8;26.2;0.0;
25/02/2025 19:05:42;100;0;138.38;-4;-20.67;-3.65;884.3;11.30;75413;2837.383;-1801.036;1;136;-130;-132.3;45.0;45.1;16;15.8;26.2;0.0;
25/02/2025 19:06:02;100;0;138.18;-4;-20.71;-3.62;887.2;11.30;75399;2837.381;-1801.033;1;136;-130;-132.3;45.0;45.1;16;15.8;26.2;0.0;
25/02/2025 19:06:22;100;0;137.09;-4;-20.54;-3.81;890.3;11.30;75390;2837.379;-1801.031;1;136;-130;-132.3;45.0;45.1;16;15.8;26.2;0.0;
25/02/2025 19:06:42;100;0;136.17;-4;-20.32;-3.70;893.3;11.20;75390;2837.377;-1801.028;1;136;-130;-132.3;45.0;45.1;16;15.8;26.2;0.0;
25/02/2025 19:07:02;100;0;135.56;-4;-20.76;-3.68;896.3;11.20;75376;2837.375;-1801.026;1;136;-130;-132.3;45.0;45.1;16;15.8;26.2;0.0;
25/02/2025 19:07:22;100;0;132.72;-4;-19.63;-3.74;899.3;11.20;75374;2837.373;-1801.023;1;136;-130;-133.9;45.0;45.1;16;15.8;26.2;0.0;
25/02/2025 19:07:42;100;0;129.64;-4;-20.04;-3.78;902.1;11.20;75373;2837.372;-1801.020;1;136;-130;-133.9;45.0;45.1;12;12.2;26.2;0.0;
25/02/2025 19:08:03;100;0;131.37;-4;-19.88;-5.70;904.8;11.10;75365;2837.370;-1801.018;1;136;-130;-132.3;45.0;45.1;14;14.0;26.2;0.0;
25/02/2025 19:08:23;100;0;135.33;-4;-19.96;-4.33;907.4;11.10;75355;2837.368;-1801.016;1;136;-130;-132.3;45.0;45.1;14;14.4;26.2;0.0;
25/02/2025 19:08:43;100;0;139.17;-4;-20.45;-4.31;910.1;11.10;75346;2837.367;-1801.013;1;136;-130;-132.3;45.0;45.1;16;15.8;26.2;0.0;
25/02/2025 19:09:03;100;0;142.77;-4;-20.20;-3.43;913.0;11.10;75347;2837.364;-1801.011;1;136;-130;-132.3;45.0;45.1;16;16.2;26.2;0.0;
25/02/2025 19:09:23;100;0;142.71;-4;-20.60;-3.52;915.8;11.00;75335;2837.363;-1801.009;1;136;-130;-132.3;45.0;45.2;16;16.2;26.2;0.0;
25/02/2025 19:09:43;100;0;144.82;-4;-20.63;-3.59;918.7;11.00;75338;2837.360;-1801.007;1;136;-130;-133.9;45.0;45.2;16;16.2;26.2;0.0;
25/02/2025 19:10:03;100;0;145.77;-4;-20.66;-3.32;921.8;11.00;75334;2837.358;-1801.005;1;136;-130;-133.9;45.0;45.1;16;16.2;26.2;0.0;
25/02/2025 19:10:23;100;0;144.96;-4;-20.17;-3.46;924.7;11.00;75324;2837.356;-1801.003;1;136;-130;-132.3;45.0;45.2;16;16.2;26.2;0.0;
25/02/2025 19:10:43;100;0;142.98;-4;-20.08;-3.54;927.6;11.00;75335;2837.354;-1801.001;1;136;-130;-130.6;45.0;45.1;16;16.2;26.2;0.0;
25/02/2025 19:11:03;100;0;142.21;-4;-20.51;-3.45;930.5;10.90;75323;2837.351;-1800.999;1;136;-130;-132.3;45.0;45.1;16;16.2;26.2;0.0;
25/02/2025 19:11:23;100;0;141.44;-4;-20.26;-3.46;933.5;10.90;75328;2837.349;-1800.997;1;136;-130;-133.9;45.0;45.2;16;16.2;26.2;0.0;
25/02/2025 19:11:43;100;0;141.07;-4;-20.16;-3.49;936.5;10.90;75313;2837.347;-1800.995;1;136;-130;-130.6;45.0;45.1;16;16.2;26.2;0.0;
25/02/2025 19:12:03;100;0;141.75;-4;-20.35;-3.35;939.4;10.90;75308;2837.345;-1800.992;1;136;-130;-135.5;45.0;45.2;16;16.2;26.2;0.0;
25/02/2025 19:12:23;100;0;142.89;-4;-20.12;-3.41;942.4;10.80;75306;2837.343;-1800.990;1;136;-130;-132.3;45.0;45.1;16;16.2;26.2;0.0;
25/02/2025 19:12:43;100;0;143.83;-4;-20.85;-3.35;945.2;10.80;75303;2837.341;-1800.988;1;136;-130;-132.3;45.0;45.1;16;16.2;26.2;0.0;
25/02/2025 19:13:03;100;0;145.81;-4;-19.62;-3.37;948.3;10.80;75295;2837.338;-1800.986;1;136;-130;-132.3;45.0;45.1;16;16.2;26.2;0.0;
25/02/2025 19:13:23;100;0;143.55;-4;-19.73;-3.53;951.2;10.80;75302;2837.336;-1800.984;1;136;-130;-132.3;45.0;45.2;16;16.2;26.2;0.0;
25/02/2025 19:13:43;100;0;147.94;-4;-19.64;-3.63;954.0;10.80;75305;2837.334;-1800.982;1;136;-130;-132.3;45.0;45.1;18;18.1;26.2;0.0;
25/02/2025 19:14:03;100;0;149.63;-4;-20.56;-2.39;956.7;10.70;75297;2837.332;-1800.981;1;136;-130;-132.3;45.0;45.1;18;18.5;26.2;0.0;
25/02/2025 19:14:23;100;0;149.70;-4;-20.65;-2.19;959.5;10.70;75288;2837.329;-1800.979;1;136;-130;-132.3;45.0;45.2;18;18.5;26.2;0.0;
25/02/2025 19:14:43;100;0;152.55;-4;-20.33;-2.19;962.4;10.70;75281;2837.327;-1800.978;1;136;-130;-132.3;45.0;45.1;22;22.1;26.2;0.0;
25/02/2025 19:15:03;100;0;151.53;-4;-20.22;-0.30;965.0;10.70;75277;2837.325;-1800.976;1;136;-130;-132.3;45.0;45.1;22;22.6;26.2;0.0;
25/02/2025 19:15:23;100;0;147.76;-4;-20.20;-0.23;967.8;10.60;75275;2837.322;-1800.975;1;136;-130;-133.9;45.0;45.2;18;18.1;26.2;0.0;
25/02/2025 19:15:43;100;0;146.55;-4;-20.20;-2.55;970.7;10.60;75276;2837.320;-1800.973;1;136;-130;-132.3;45.0;45.2;18;18.1;26.2;0.0;
25/02/2025 19:16:03;100;0;146.12;-4;-20.31;-2.68;973.4;10.60;75271;2837.318;-1800.971;1;136;-130;-132.3;45.0;45.1;18;18.1;26.2;0.0;
25/02/2025 19:16:23;100;0;145.78;-4;-21.07;-2.62;976.2;10.60;75272;2837.316;-1800.969;1;136;-130;-132.3;45.0;45.2;18;18.1;26.2;0.0;
25/02/2025 19:16:43;100;0;144.98;-4;-20.28;-2.58;978.9;10.60;75267;2837.314;-1800.967;1;136;-130;-133.9;45.0;45.2;18;18.1;26.2;0.0;
25/02/2025 19:17:03;100;0;143.67;-4;-20.30;-2.62;981.8;10.50;75266;2837.312;-1800.965;1;136;-130;-133.9;45.0;45.2;18;18.1;26.2;0.0;
25/02/2025 19:17:23;100;0;144.52;-4;-20.23;-2.75;984.7;10.50;75252;2837.309;-1800.963;1;136;-130;-132.3;45.0;45.1;18;18.1;26.2;0.0;
25/02/2025 19:17:43;100;0;144.42;-4;-19.95;-2.67;987.4;10.50;75258;2837.307;-1800.961;1;136;-130;-132.3;45.0;45.1;18;18.1;26.2;0.0;
25/02/2025 19:18:03;100;0;145.65;-4;-20.15;-2.70;990.4;10.50;75258;2837.305;-1800.959;1;136;-130;-132.3;45.0;45.2;18;18.1;26.2;0.0;
25/02/2025 19:18:23;100;0;145.05;-4;-20.24;-2.64;993.2;10.50;75249;2837.303;-1800.957;1;136;-130;-132.3;45.0;45.1;18;18.1;26.2;0.0;
25/02/2025 19:18:43;100;0;147.35;-4;-18.81;-2.79;996.2;10.40;75252;2837.300;-1800.956;1;136;-130;-133.9;45.3;45.4;18;18.1;26.2;0.0;
25/02/2025 19:19:02;118;0;147.19;-4;-20.68;-2.47;998.8;10.40;75243;2837.298;-1800.954;1;136;450;-127.4;22.0;21.9;6;5.9;26.2;0.0;
25/02/2025 19:19:12;118;0;118.00;-4;-6.84;-9.67;999.9;10.40;75231;2837.298;-1800.952;1;136;450;-1.6;22.0;21.8;6;5.9;24.7;-1.0;
25/02/2025 19:19:22;118;0;100.50;-4;20.81;-9.46;1000.0;10.40;74960;2837.298;-1800.952;1;136;450;122.6;22.0;21.9;6;5.9;24.7;-1.0;
25/02/2025 19:19:32;118;0;95.40;-4;29.27;-9.79;999.1;10.40;74711;2837.298;-1800.952;1;136;450;246.8;22.0;22.1;6;5.4;24.7;-1.0;
25/02/2025 19:19:42;118;0;96.72;-4;27.55;-9.32;998.0;10.40;74458;2837.299;-1800.951;1;136;450;369.4;22.0;21.9;6;5.4;24.9;-1.0;
25/02/2025 19:19:52;118;0;95.39;-4;25.66;-8.97;996.6;10.40;74212;2837.299;-1800.949;1;136;450;451.6;22.0;22.1;6;5.4;24.8;-1.0;
25/02/2025 19:20:02;118;0;142.71;-4;23.26;-8.25;995.1;10.50;74043;2837.298;-1800.948;1;136;450;450.0;22.0;21.9;6;5.4;26.1;-1.0;
25/02/2025 19:20:12;118;0;138.06;-4;22.01;-8.32;993.4;10.40;74042;2837.297;-1800.947;1;136;450;451.6;22.0;21.9;6;5.9;26.2;-1.0;
25/02/2025 19:20:32;117;0;129.12;-4;20.03;-8.47;990.2;10.50;74038;2837.295;-1800.944;1;136;450;451.6;22.0;21.9;6;5.9;26.2;-1.0;
25/02/2025 19:20:52;117;0;120.57;-4;19.10;-8.38;986.8;10.50;74039;2837.294;-1800.940;1;136;450;453.2;22.0;22.1;45;45.1;26.2;-1.0;
25/02/2025 19:21:12;117;0;126.37;-4;21.12;11.86;983.6;10.60;74046;2837.292;-1800.937;1;136;450;451.6;22.0;22.1;36;36.1;26.2;-1.0;
25/02/2025 19:21:32;117;0;130.12;-4;22.47;7.18;980.2;10.60;74045;2837.290;-1800.934;1;136;450;451.6;22.7;22.8;32;32.0;26.2;-1.0;
25/02/2025 19:21:52;117;0;131.92;-4;21.27;5.07;976.8;10.50;74038;2837.288;-1800.930;1;136;450;453.2;22.7;22.8;32;32.0;26.2;-1.0;
25/02/2025 19:22:12;117;0;131.95;-4;20.51;5.17;973.5;10.60;74032;2837.286;-1800.927;1;136;450;453.2;22.7;22.8;32;32.0;26.2;-1.0;
25/02/2025 19:22:32;117;0;132.35;-4;20.29;5.02;970.4;10.50;74035;2837.284;-1800.925;1;136;450;453.2;22.7;22.8;30;29.8;26.2;-1.0;
25/02/2025 19:22:52;117;0;133.89;-4;20.60;4.14;967.5;10.50;74036;2837.283;-1800.922;1;136;450;451.6;22.7;22.8;30;29.8;26.2;-1.0;
25/02/2025 19:23:12;117;0;134.19;-4;20.78;3.96;964.4;10.50;74018;2837.281;-1800.919;1;136;450;451.6;22.7;22.8;30;29.8;26.2;-1.0;
25/02/2025 19:23:32;117;0;135.46;-4;20.48;3.72;961.2;10.50;74017;2837.279;-1800.916;1;136;450;451.6;22.7;22.8;30;29.3;26.2;-1.0;
25/02/2025 19:23:52;117;0;137.05;-4;20.35;3.77;958.1;10.50;74023;2837.276;-1800.914;1;136;450;451.6;22.7;22.8;30;29.8;26.2;-1.0;
25/02/2025 19:24:12;117;0;137.60;-4;20.36;3.80;955.2;10.40;74018;2837.275;-1800.911;1;136;450;451.6;22.7;22.8;30;29.8;26.2;-1.0;
25/02/2025 19:24:32;117;0;138.30;-4;20.48;3.68;952.1;10.40;74019;2837.272;-1800.909;1;136;450;450.0;22.7;22.8;30;29.3;26.2;-1.0;
25/02/2025 19:24:52;117;0;138.37;-4;20.67;3.83;949.2;10.40;74022;2837.271;-1800.907;1;136;450;451.6;22.7;22.8;30;29.8;26.2;-1.0;
25/02/2025 19:25:12;117;0;139.23;-4;20.88;3.71;946.2;10.40;74002;2837.268;-1800.904;1;136;450;451.6;22.7;22.8;30;29.8;26.2;-1.0;
25/02/2025 19:25:32;117;0;141.24;-4;19.82;3.70;943.0;10.40;74003;2837.266;-1800.902;1;136;450;453.2;22.7;22.8;30;29.8;26.2;-1.0;
25/02/2025 19:25:52;117;0;140.57;-4;20.28;3.78;940.1;10.40;73995;2837.264;-1800.899;1;136;450;451.6;22.7;22.8;30;29.8;26.2;-1.0;
25/02/2025 19:26:12;117;0;141.03;-4;20.53;3.94;936.9;10.30;73988;2837.262;-1800.897;1;136;450;453.2;22.7;22.8;30;29.8;26.2;-1.0;
25/02/2025 19:26:32;117;0;141.90;-4;20.89;3.81;933.7;10.30;73987;2837.259;-1800.895;1;136;450;451.6;22.7;22.8;30;29.8;26.2;-1.0;
25/02/2025 19:26:52;117;0;142.65;-4;20.68;3.75;930.2;10.30;73985;2837.257;-1800.892;1;136;450;453.2;22.7;22.8;30;29.8;26.2;-1.0;
25/02/2025 19:27:12;117;0;143.29;-4;20.25;3.71;926.9;10.30;73980;2837.254;-1800.890;1;136;450;451.6;22.7;22.8;30;29.8;26.2;-1.0;
25/02/2025 19:27:32;117;0;143.55;-4;20.53;3.77;923.5;10.30;73981;2837.251;-1800.887;1;136;450;453.2;22.7;22.8;30;29.3;26.2;-1.0;
25/02/2025 19:27:52;117;0;144.47;-4;20.74;3.80;920.1;10.30;73978;2837.249;-1800.885;1;136;450;451.6;22.7;22.8;30;29.3;26.2;-1.0;
25/02/2025 19:28:12;117;0;147.35;-4;19.93;3.72;916.4;10.20;73983;2837.246;-1800.883;1;136;450;451.6;22.7;22.8;27;26.6;26.2;-1.0;
25/02/2025 19:28:32;117;0;148.03;-4;20.64;2.22;913.0;10.20;73978;2837.243;-1800.880;1;136;450;453.2;22.7;22.8;27;26.6;26.2;-1.0;
25/02/2025 19:28:52;117;0;148.15;-4;20.04;2.07;909.4;10.20;73978;2837.240;-1800.878;1;136;450;451.6;22.7;22.8;27;26.6;26.2;-1.0;
25/02/2025 19:29:12;117;0;149.18;-4;20.41;2.33;906.1;10.20;73981;2837.237;-1800.876;1;136;450;453.2;22.7;22.8;27;26.6;26.2;-1.0;
25/02/2025 19:29:32;117;0;149.46;-4;20.20;2.21;902.4;10.20;73968;2837.234;-1800.874;1;136;450;451.6;22.7;22.8;25;24.8;26.2;-1.0;
25/02/2025 19:29:52;117;0;148.36;-4;19.59;1.32;899.2;10.20;73974;2837.231;-1800.872;1;136;450;453.2;22.7;23.0;27;27.1;26.2;-1.0;
25/02/2025 19:30:12;117;0;145.27;-4;20.05;3.00;895.8;10.20;73972;2837.228;-1800.869;1;136;450;450.0;22.7;22.8;27;27.5;26.2;-1.0;
25/02/2025 19:30:32;117;0;144.86;-4;20.18;2.86;892.6;10.20;73975;2837.225;-1800.867;1;136;450;453.2;22.7;22.8;27;27.5;26.2;-1.0;
25/02/2025 19:30:52;117;0;142.08;-4;19.93;2.89;889.2;10.20;73982;2837.223;-1800.864;1;136;450;450.0;22.7;22.8;29;28.9;26.2;-1.0;
25/02/2025 19:31:12;117;0;141.37;-4;20.39;3.67;885.8;10.10;73969;2837.220;-1800.862;1;136;450;453.2;22.7;22.8;29;28.9;26.2;-1.0;
25/02/2025 19:31:32;117;0;141.14;-4;20.17;3.69;882.4;10.10;73978;2837.218;-1800.859;1;136;450;451.6;22.7;22.8;29;29.3;26.2;-1.0;
25/02/2025 19:31:52;117;0;142.60;-4;20.07;3.70;879.1;10.20;73987;2837.215;-1800.857;1;136;450;453.2;22.7;22.8;29;29.3;26.2;-1.0;
25/02/2025 19:32:12;117;0;144.71;-4;20.15;3.65;875.6;10.10;73973;2837.212;-1800.854;1;136;450;453.2;22.7;22.8;29;29.3;26.2;-1.0;
25/02/2025 19:32:32;117;0;146.06;-4;20.32;3.75;872.2;10.10;73985;2837.209;-1800.852;1;136;450;451.6;22.7;22.8;29;29.3;26.2;-1.0;
25/02/2025 19:32:52;117;0;147.63;-4;20.23;3.65;868.9;10.10;73985;2837.206;-1800.850;1;136;450;453.2;22.7;22.8;27;27.1;26.2;-1.0;
25/02/2025 19:33:12;117;0;148.22;-4;20.32;2.44;865.4;10.10;73982;2837.203;-1800.847;1;136;450;453.2;22.7;22.8;27;27.1;26.2;-1.0;
25/02/2025 19:33:32;117;0;148.56;-4;20.11;2.61;862.1;10.10;73974;2837.201;-1800.845;1;136;450;450.0;22.7;22.8;27;27.1;26.2;-1.0;
25/02/2025 19:33:52;117;0;148.29;-4;20.31;2.43;859.0;10.10;73980;2837.198;-1800.843;1;136;450;453.2;22.7;22.8;27;27.1;26.2;-1.0;
25/02/2025 19:34:12;117;0;149.82;-4;20.21;2.41;855.6;10.10;73974;2837.195;-1800.841;1;136;450;453.2;22.7;22.8;25;24.8;26.2;-1.0;
25/02/2025 19:34:32;117;0;149.09;-4;20.16;1.18;852.5;10.10;73974;2837.192;-1800.839;1;136;450;453.2;22.7;22.8;25;24.4;26.2;-1.0;
25/02/2025 19:34:52;117;0;148.06;-4;19.69;1.11;849.1;10.10;73974;2837.190;-1800.837;1;136;450;453.2;22.7;22.8;27;27.1;26.2;-1.0;
25/02/2025 19:35:12;117;0;148.87;-4;19.95;2.83;846.0;10.10;73967;2837.187;-1800.835;1;136;450;453.2;22.7;22.8;27;27.5;26.2;-1.0;
25/02/2025 19:35:32;117;0;150.16;-4;20.14;2.61;842.8;10.10;73967;2837.184;-1800.833;1;136;450;453.2;22.7;22.8;25;24.4;26.2;-1.0;
25/02/2025 19:35:52;117;0;149.70;-4;19.84;1.42;839.6;10.00;73960;2837.181;-1800.831;1;136;450;453.2;22.7;22.8;25;24.4;26.2;-1.0;
25/02/2025 19:36:12;117;0;148.88;-4;19.85;1.12;836.4;10.00;73952;2837.179;-1800.829;1;136;450;453.2;22.7;22.8;25;24.4;26.2;-1.0;
25/02/2025 19:36:32;117;0;148.34;-4;19.86;1.18;833.3;10.00;73955;2837.176;-1800.828;1;136;450;453.2;22.7;22.8;25;24.4;26.2;-1.0;
25/02/2025 19:36:52;117;0;147.68;-4;19.76;1.20;830.2;10.00;73947;2837.173;-1800.826;1;136;450;451.6;22.7;22.8;27;27.1;26.2;-1.0;
25/02/2025 19:37:12;117;0;146.92;-4;19.73;2.59;827.0;10.00;73958;2837.171;-1800.823;1;136;450;451.6;22.7;22.8;27;27.5;26.2;-1.0;
25/02/2025 19:37:32;117;0;147.66;-4;19.86;2.70;823.9;10.00;73950;2837.168;-1800.821;1;136;450;451.6;22.7;22.8;27;27.5;26.2;-1.0;
25/02/2025 19:37:52;117;0;147.21;-4;19.67;2.87;820.8;10.00;73955;2837.166;-1800.819;1;136;450;451.6;22.7;22.8;27;27.5;26.2;-1.0;
25/02/2025 19:38:12;117;0;147.12;-4;19.79;2.64;817.7;10.00;73948;2837.163;-1800.817;1;136;450;453.2;22.7;23.0;27;27.5;26.2;-1.0;
25/02/2025 19:38:32;117;0;146.85;-4;19.60;2.91;814.8;10.00;73954;2837.161;-1800.816;1;136;450;453.2;22.7;22.8;27;27.5;26.2;-1.0;
25/02/2025 19:38:52;117;0;147.28;-4;19.87;2.68;811.7;10.00;73960;2837.158;-1800.814;1;136;450;453.2;22.7;22.8;27;27.5;26.2;-1.0;
25/02/2025 19:39:12;117;0;147.44;-4;19.86;2.71;808.7;10.00;73960;2837.156;-1800.812;1;136;450;453.2;22.7;23.0;27;27.1;26.2;-1.0;
25/02/2025 19:39:32;117;0;147.43;-4;19.85;2.73;805.7;10.00;73957;2837.153;-1800.810;1;136;450;453.2;22.7;22.8;27;27.5;26.2;-1.0;
25/02/2025 19:39:52;117;0;147.42;-4;19.95;2.71;802.7;10.00;73966;2837.151;-1800.808;1;136;450;451.6;22.7;22.8;27;27.5;26.2;-1.0;
25/02/2025 19:40:12;117;0;147.37;-4;19.74;2.77;799.7;10.00;73960;2837.148;-1800.806;1;136;450;453.2;22.7;22.8;27;27.5;26.2;-1.0;
25/02/2025 19:40:32;117;0;145.32;-4;19.74;2.86;796.7;10.00;73963;2837.146;-1800.804;1;136;450;453.2;22.7;23.0;27;27.5;26.2;-1.0;
25/02/2025 19:40:52;117;0;144.88;-4;19.85;2.73;793.8;10.00;73980;2837.144;-1800.802;1;136;450;453.2;22.7;23.0;27;27.5;26.2;-1.0;
25/02/2025 19:41:12;117;0;144.64;-4;19.85;2.79;790.7;10.00;73988;2837.141;-1800.800;1;136;450;453.2;22.7;22.8;27;27.5;26.2;-1.0;
25/02/2025 19:41:32;117;0;144.98;-4;19.87;2.67;787.6;10.00;73978;2837.139;-1800.797;1;136;450;451.6;22.7;22.8;27;27.5;26.2;-1.0;
25/02/2025 19:41:52;117;0;145.37;-4;19.83;2.73;784.5;10.00;73972;2837.136;-1800.795;1;136;450;453.2;22.7;22.8;27;27.5;26.2;-1.0;
25/02/2025 19:42:13;117;0;146.03;-4;20.05;2.82;781.3;10.00;73981;2837.134;-1800.793;1;136;450;453.2;22.7;22.8;27;27.5;26.2;-1.0;
25/02/2025 19:42:33;117;0;147.02;-4;20.06;2.83;778.1;10.00;73978;2837.131;-1800.791;1;136;450;450.0;22.7;22.8;27;27.5;26.2;-1.0;
25/02/2025 19:42:53;117;0;147.42;-4;19.88;2.79;774.8;10.00;73990;2837.128;-1800.789;1;136;450;453.2;22.7;22.8;27;27.5;26.2;-1.0;
