Timestamp;NavState;SecurityLevel;Heading;Declination;Pitch;Roll;Depth;Temperature;Pa;Lat;Lon;DeadReckoning;DesiredH;BallastCmd;BallastPos;LinCmd;LinPos;AngCmd;AngPos;Voltage;Altitude;
03/03/2025 04:25:52;119;0;17.04;-4;-53.54;-9.05;0.1;16.10;75440;2837.993;-1801.774;0;315;500;506.5;100.0;100.7;0;-0.5;25.2;-1.0;
03/03/2025 04:26:02;116;0;355.10;-4;-53.13;-7.18;0.2;16.10;75459;2837.991;-1801.772;0;315;500;506.5;100.0;100.7;0;-0.5;25.2;-1.0;
03/03/2025 04:26:33;116;0;1.93;-4;-60.77;-5.55;0.1;16.20;75454;2837.992;-1801.774;0;315;500;504.8;100.0;100.6;0;-0.5;25.2;-1.0;
03/03/2025 04:26:59;116;0;353.72;-4;-41.12;-8.69;0.3;16.30;75465;2837.991;-1801.774;0;315;500;506.5;100.0;100.7;0;-0.5;25.2;-1.0;
03/03/2025 04:27:19;116;0;1.87;-4;-49.38;-20.10;0.0;16.40;75492;2837.991;-1801.774;0;136;500;503.2;100.0;100.7;0;-0.5;25.2;-1.0;
03/03/2025 04:27:35;116;0;7.50;-4;-55.78;-11.97;0.0;16.50;75489;2837.991;-1801.776;0;136;500;504.8;100.0;100.9;0;0.0;25.2;-1.0;
03/03/2025 04:27:55;116;0;14.17;-4;-55.14;-9.59;0.1;16.50;75493;2837.993;-1801.779;0;136;500;506.5;100.0;100.7;0;-0.5;25.2;-1.0;
03/03/2025 04:29:00;116;0;339.75;-4;-52.48;-8.48;0.1;16.80;75534;2837.995;-1801.780;0;136;500;504.8;100.0;100.7;0;-0.5;25.2;-1.0;
03/03/2025 04:29:25;116;0;3.28;-4;-60.75;-2.72;0.1;16.90;75532;2837.996;-1801.780;0;136;500;506.5;100.0;100.7;0;-0.5;25.2;-1.0;
03/03/2025 04:30:27;116;0;355.47;-4;-46.96;-24.21;0.1;17.20;75561;2837.995;-1801.781;0;136;500;506.5;100.0;100.7;0;-0.5;25.2;-1.0;
03/03/2025 04:31:34;116;0;4.84;-4;-57.21;-16.12;0.3;17.50;75586;2837.996;-1801.781;0;136;500;504.8;100.0;100.7;0;-0.5;25.2;-1.0;
03/03/2025 04:31:54;110;0;18.23;-4;-65.31;-26.76;-0.1;17.60;75589;2837.996;-1801.781;0;136;-110;383.9;100.0;99.9;-7;-7.2;25.2;-1.0;
03/03/2025 04:32:04;110;0;349.75;-4;-61.49;-21.03;-0.2;17.70;75945;2836.750;-1800.824;1;136;-110;243.5;100.0;99.7;-7;-7.2;25.2;-1.0;
03/03/2025 04:32:14;110;0;356.22;-4;-59.50;-13.52;0.3;17.70;76186;2835.768;-1800.070;1;136;-110;91.9;100.0;99.7;-7;-7.2;25.2;-1.0;
03/03/2025 04:32:24;110;0;345.49;-4;-65.98;-12.63;0.6;17.80;76495;2834.524;-1759.114;1;136;-110;-59.7;100.0;99.9;-7;-7.7;25.2;-1.0;
03/03/2025 04:32:34;110;0;340.87;-4;-66.23;-6.01;0.8;17.80;76829;2833.280;-1758.159;1;136;-110;-109.7;43.0;53.8;-7;-7.2;25.2;-1.0;
03/03/2025 04:32:44;110;0;336.99;-4;-58.06;-10.60;1.8;17.80;76882;2832.037;-1757.204;1;136;-110;-111.3;43.0;43.0;-7;-7.2;25.2;-1.0;
03/03/2025 04:33:04;100;0;355.19;-4;-23.08;-14.68;4.8;17.90;76876;2829.552;-1755.295;1;136;-110;-106.5;43.0;42.7;-7;-7.2;25.2;-1.0;
03/03/2025 04:33:24;100;0;0.13;-4;-18.67;-15.07;7.7;18.00;76895;2826.799;-1753.180;1;136;-110;-103.2;43.4;43.6;-70;-69.9;25.2;-1.0;
03/03/2025 04:33:44;100;0;8.98;-4;-20.25;-44.92;10.2;18.00;76895;2824.313;-1751.271;1;136;-110;-101.6;43.4;43.6;-70;-69.9;25.2;-1.0;
03/03/2025 04:34:04;100;0;21.59;-4;-21.06;-44.66;12.8;18.10;76914;2821.802;-1749.343;1;136;-110;-101.6;43.4;43.6;-68;-67.7;25.2;0.0;
03/03/2025 04:34:24;100;0;32.11;-4;-21.19;-42.59;15.4;18.20;76912;2819.315;-1747.433;1;136;-110;-101.6;43.4;43.6;-55;-55.1;25.2;0.0;
03/03/2025 04:34:44;100;0;46.42;-4;-19.82;-37.40;17.9;18.20;76924;2816.816;-1745.515;1;136;-110;-101.6;43.4;43.6;-38;-37.9;25.2;0.0;
03/03/2025 04:35:04;100;0;55.66;-4;-21.73;-29.43;20.2;18.20;76931;2814.340;-1743.616;1;136;-110;-101.6;43.4;43.6;-26;-26.2;25.2;0.0;
03/03/2025 04:35:24;100;0;68.90;-4;-20.65;-23.11;22.7;18.20;76936;2811.849;-1741.706;1;136;-110;-103.2;43.4;43.6;-5;-5.0;25.2;0.0;
03/03/2025 04:35:44;100;0;76.76;-4;-21.46;-13.40;25.1;18.30;76945;2809.363;-1739.800;1;136;-110;-101.6;43.4;43.7;8;8.1;25.2;0.0;
03/03/2025 04:36:04;100;0;78.93;-4;-22.30;-7.11;27.6;18.30;76942;2806.874;-1737.893;1;136;-110;-101.6;42.7;42.7;11;10.8;25.2;0.0;
03/03/2025 04:36:24;100;0;80.28;-4;-20.71;-5.97;30.2;18.30;76952;2804.385;-1735.987;1;136;-110;-103.2;42.7;42.6;11;10.8;25.2;0.0;
03/03/2025 04:36:44;100;0;81.70;-4;-20.39;-5.88;32.6;18.30;76958;2801.896;-1734.081;1;136;-110;-103.2;42.7;42.4;13;13.1;25.2;0.0;
03/03/2025 04:37:04;100;0;84.26;-4;-20.16;-4.83;34.8;18.30;76960;2759.407;-1732.177;1;136;-110;-104.8;42.7;42.4;13;13.5;25.2;0.0;
03/03/2025 04:37:24;100;0;87.25;-4;-20.46;-4.86;37.2;18.30;76962;2756.916;-1730.271;1;136;-110;-101.6;42.7;42.4;15;14.9;25.2;0.0;
03/03/2025 04:37:44;100;0;87.64;-4;-21.35;-3.97;39.6;18.40;76973;2754.404;-1728.350;1;136;-110;-101.6;42.7;42.6;15;15.3;25.2;0.0;
03/03/2025 04:38:04;100;0;91.75;-4;-20.26;-3.61;41.9;18.40;76964;2751.939;-1726.467;1;136;-110;-101.6;42.7;42.4;15;15.3;25.2;0.0;
03/03/2025 04:38:24;100;0;97.73;-4;-20.67;-3.87;44.3;18.40;76959;2749.450;-1724.565;1;136;-110;-101.6;42.7;42.4;17;17.1;25.2;0.0;
03/03/2025 04:38:44;100;0;94.56;-4;-20.48;-2.77;46.6;18.40;76944;2746.960;-1722.664;1;136;-110;-101.6;42.7;42.4;17;17.6;25.2;0.0;
03/03/2025 04:39:04;100;0;89.28;-4;-20.29;-2.78;48.9;18.40;76940;2744.464;-1720.759;1;136;-110;-101.6;42.7;42.4;17;17.1;25.2;0.0;
03/03/2025 04:39:24;100;0;84.88;-4;-20.42;-2.74;51.1;18.40;76932;2741.982;-1718.864;1;136;-110;-101.6;42.7;42.4;15;14.9;25.2;0.0;
03/03/2025 04:39:44;100;0;82.40;-4;-20.38;-4.48;53.2;18.40;76928;2739.493;-1716.966;1;136;-110;-101.6;42.7;42.4;13;12.6;25.2;0.0;
03/03/2025 04:40:04;100;0;80.94;-4;-20.43;-5.41;55.3;18.40;76928;2737.004;-1715.068;1;136;-110;-101.6;42.7;42.6;13;12.2;25.2;0.0;
03/03/2025 04:40:24;100;0;79.57;-4;-19.98;-5.37;57.4;18.40;76920;2734.507;-1713.165;1;136;-110;-101.6;42.7;42.6;11;10.8;25.2;0.0;
03/03/2025 04:40:44;100;0;81.49;-4;-19.67;-6.46;59.4;18.40;76922;2731.989;-1711.247;1;136;-110;-101.6;42.7;42.4;13;13.1;25.2;0.0;
03/03/2025 04:41:04;100;0;87.48;-4;-19.75;-4.84;61.4;18.40;76898;2729.536;-1709.379;1;136;-130;-132.3;42.7;42.4;15;14.9;25.2;0.0;
03/03/2025 04:41:24;100;0;90.54;-4;-19.43;-3.97;63.5;18.40;76978;2727.047;-1707.484;1;136;-130;-135.5;42.7;42.6;15;15.3;25.2;0.0;
03/03/2025 04:41:44;100;0;90.26;-4;-19.47;-3.85;65.7;18.40;76961;2724.559;-1705.590;1;136;-130;-132.3;42.7;42.4;15;15.3;25.2;0.0;
03/03/2025 04:42:04;100;0;91.28;-4;-19.60;-3.88;68.3;18.40;76961;2722.071;-1703.697;1;136;-130;-132.3;42.7;42.4;15;14.9;25.2;0.0;
03/03/2025 04:42:24;100;0;92.95;-4;-20.25;-3.84;70.6;18.30;76942;2719.582;-1701.805;1;136;-130;-133.9;42.7;42.6;15;15.3;25.2;0.0;
03/03/2025 04:42:44;100;0;92.51;-4;-20.10;-3.74;73.4;18.30;76931;2717.093;-1659.911;1;136;-130;-133.9;42.7;42.6;15;14.9;25.2;0.0;
03/03/2025 04:43:04;100;0;93.84;-4;-19.64;-3.81;75.8;18.30;76923;2714.603;-1658.019;1;136;-130;-133.9;42.7;42.4;15;15.3;25.2;0.0;
03/03/2025 04:43:24;100;0;98.72;-4;-19.47;-3.91;78.4;18.30;76915;2712.089;-1656.110;1;136;-130;-130.6;42.7;42.4;17;17.1;25.2;0.0;
03/03/2025 04:43:44;100;0;99.83;-4;-19.18;-2.77;80.7;18.30;76895;2709.624;-1654.237;1;136;-130;-133.9;42.7;42.4;17;17.6;25.2;0.0;
03/03/2025 04:44:04;100;0;99.07;-4;-19.29;-2.76;82.9;18.30;76897;2707.134;-1652.348;1;136;-130;-132.3;42.7;42.4;17;17.6;25.2;0.0;
03/03/2025 04:44:24;100;0;100.77;-4;-19.45;-2.73;85.2;18.30;76877;2704.644;-1650.459;1;136;-130;-133.9;42.7;42.4;17;17.6;25.2;0.0;
03/03/2025 04:44:44;100;0;102.62;-4;-19.46;-2.73;87.7;18.20;76872;2702.154;-1648.570;1;136;-130;-137.1;42.7;42.4;20;19.9;25.2;0.0;
03/03/2025 04:45:04;100;0;100.77;-4;-19.91;-1.36;89.9;18.20;76867;2659.664;-1646.683;1;136;-130;-133.9;42.7;42.6;20;20.3;25.2;0.0;
03/03/2025 04:45:24;100;0;100.59;-4;-19.80;-1.29;92.6;18.20;76859;2657.174;-1644.796;1;136;-130;-133.9;42.7;42.4;18;17.6;25.2;0.0;
03/03/2025 04:45:44;100;0;100.93;-4;-20.08;-2.73;94.9;18.20;76849;2654.684;-1642.910;1;136;-130;-133.9;42.7;42.4;18;17.6;25.2;0.0;
03/03/2025 04:46:04;100;0;102.91;-4;-20.03;-2.68;97.5;18.20;76844;2652.187;-1641.019;1;136;-130;-135.5;42.7;42.4;21;21.2;25.2;0.0;
03/03/2025 04:46:24;100;0;103.06;-4;-20.18;-0.49;100.1;18.10;76842;2649.416;-1638.921;1;136;-130;-133.9;42.7;42.4;21;21.7;25.2;0.0;
03/03/2025 04:46:44;100;0;100.53;-4;-20.21;-0.45;102.6;18.10;76829;2647.214;-1637.254;1;136;-130;-133.9;42.7;42.4;19;19.0;25.2;0.0;
03/03/2025 04:47:04;100;0;97.59;-4;-20.06;-2.23;105.3;18.10;76813;2644.724;-1635.370;1;136;-130;-133.9;42.7;42.4;17;17.1;25.2;0.0;
03/03/2025 04:47:24;100;0;96.22;-4;-19.88;-3.16;107.6;18.10;76817;2642.234;-1633.488;1;136;-130;-135.5;42.7;42.4;17;16.7;25.2;0.0;
03/03/2025 04:47:44;100;0;94.04;-4;-19.62;-3.18;110.1;18.00;76812;2639.745;-1631.605;1;136;-130;-132.3;42.7;42.4;17;16.7;25.2;0.0;
03/03/2025 04:48:04;100;0;92.34;-4;-19.19;-3.10;112.6;18.00;76802;2637.252;-1629.721;1;136;-130;-132.3;42.7;42.4;17;16.7;25.2;0.0;
03/03/2025 04:48:24;100;0;90.89;-4;-18.81;-3.38;115.0;18.00;76792;2634.766;-1627.843;1;136;-130;-133.9;43.0;43.0;17;16.7;25.2;0.0;
03/03/2025 04:48:44;100;0;88.22;-4;-19.50;-3.59;117.3;18.00;76788;2632.277;-1625.963;1;136;-130;-133.9;43.0;43.3;17;16.7;25.2;0.0;
03/03/2025 04:49:04;100;0;87.94;-4;-19.29;-3.31;119.6;17.90;76786;2629.768;-1624.069;1;136;-130;-132.3;43.0;43.3;17;16.7;25.2;0.0;
03/03/2025 04:49:24;100;0;89.95;-4;-20.08;-3.24;121.6;17.90;76773;2627.298;-1622.205;1;136;-130;-133.9;43.0;43.3;17;16.7;25.2;0.0;
03/03/2025 04:49:44;100;0;91.19;-4;-20.38;-3.22;124.1;17.90;76763;2624.809;-1620.327;1;136;-130;-133.9;43.0;43.4;17;16.7;25.2;0.0;
03/03/2025 04:50:04;100;0;91.87;-4;-19.95;-3.26;126.6;17.80;76747;2622.319;-1618.449;1;136;-130;-133.9;43.0;43.3;17;16.7;25.2;0.0;
03/03/2025 04:50:24;100;0;91.34;-4;-19.95;-3.24;129.2;17.80;76748;2619.830;-1616.572;1;136;-130;-133.9;43.0;43.3;17;16.7;25.2;0.0;
03/03/2025 04:50:44;100;0;91.06;-4;-20.18;-3.23;131.5;17.80;76743;2617.337;-1614.694;1;136;-130;-133.9;43.0;43.3;17;16.7;25.2;0.0;
03/03/2025 04:51:04;100;0;90.73;-4;-20.50;-3.14;134.2;17.80;76736;2614.848;-1612.819;1;136;-130;-133.9;43.0;43.3;17;16.7;25.2;0.0;
03/03/2025 04:51:24;100;0;89.32;-4;-20.77;-3.13;137.0;17.70;76724;2612.362;-1610.945;1;136;-130;-133.9;43.0;43.3;17;16.7;25.2;0.0;
03/03/2025 04:51:44;100;0;86.39;-4;-20.79;-3.15;139.9;17.70;76717;2609.870;-1609.069;1;136;-130;-137.1;43.0;43.3;15;14.9;25.2;0.0;
03/03/2025 04:52:04;100;0;87.28;-4;-19.96;-4.33;142.8;17.70;76702;2607.351;-1607.172;1;136;-130;-135.5;43.0;43.3;15;14.4;25.2;0.0;
03/03/2025 04:52:24;100;0;86.53;-4;-19.73;-4.35;145.3;17.60;76686;2604.894;-1605.324;1;136;-130;-133.9;43.0;43.3;15;14.4;25.2;0.0;
03/03/2025 04:52:44;100;0;87.89;-4;-19.77;-4.38;147.9;17.60;76685;2602.405;-1603.451;1;136;-130;-133.9;43.0;43.3;15;14.0;25.2;0.0;
03/03/2025 04:53:04;100;0;87.56;-4;-19.82;-4.33;150.6;17.60;76675;2559.916;-1601.580;1;136;-130;-132.3;43.0;43.3;15;14.4;25.2;0.0;
03/03/2025 04:53:24;100;0;86.07;-4;-19.82;-4.34;153.0;17.60;76671;2557.427;-1559.709;1;136;-130;-135.5;43.0;43.4;15;14.0;25.2;0.0;
03/03/2025 04:53:44;100;0;87.98;-4;-19.98;-4.38;155.8;17.50;76674;2554.937;-1557.838;1;136;-130;-133.9;43.0;43.3;15;14.0;25.2;0.0;
03/03/2025 04:54:04;100;0;89.32;-4;-19.74;-4.36;158.4;17.50;76662;2552.448;-1555.968;1;136;-130;-133.9;43.0;43.4;15;14.4;25.2;0.0;
03/03/2025 04:54:24;100;0;89.05;-4;-20.44;-4.35;161.1;17.50;76661;2549.959;-1554.099;1;136;-130;-133.9;43.0;43.3;15;14.4;25.2;0.0;
03/03/2025 04:54:44;100;0;85.93;-4;-20.13;-4.32;164.0;17.40;76646;2547.454;-1552.219;1;136;-130;-133.9;43.0;43.3;15;14.0;25.2;0.0;
03/03/2025 04:55:04;100;0;85.28;-4;-20.18;-4.34;166.9;17.40;76633;2544.982;-1550.363;1;136;-130;-133.9;43.0;43.3;15;14.4;25.2;0.0;
03/03/2025 04:55:24;100;0;84.40;-4;-20.48;-4.27;169.7;17.40;76627;2542.492;-1548.495;1;136;-130;-133.9;43.0;43.4;15;14.4;25.2;0.0;
03/03/2025 04:55:44;100;0;85.86;-4;-20.30;-4.25;172.9;17.30;76626;2540.006;-1546.630;1;136;-130;-133.9;43.0;43.3;15;14.4;25.2;0.0;
03/03/2025 04:56:04;100;0;86.58;-4;-20.04;-4.32;175.8;17.30;76627;2537.517;-1544.764;1;136;-130;-133.9;43.0;43.3;15;14.0;25.2;0.0;
03/03/2025 04:56:24;100;0;87.73;-4;-20.28;-4.29;178.8;17.30;76610;2535.028;-1542.899;1;136;-130;-133.9;43.0;43.3;15;14.0;25.2;0.0;
03/03/2025 04:56:44;100;0;87.36;-4;-20.34;-4.35;181.9;17.20;76602;2532.539;-1541.033;1;136;-130;-133.9;43.0;43.4;15;14.0;25.2;0.0;
03/03/2025 04:57:04;100;0;91.63;-4;-20.19;-4.29;185.1;17.20;76592;2530.049;-1539.169;1;136;-130;-132.3;43.0;43.3;15;14.4;25.2;0.0;
03/03/2025 04:57:24;100;0;94.58;-4;-20.26;-4.39;188.3;17.20;76586;2527.556;-1537.302;1;136;-130;-133.9;43.0;43.3;15;14.0;25.2;0.0;
03/03/2025 04:57:44;100;0;98.13;-4;-19.72;-4.34;191.7;17.10;76566;2525.037;-1535.416;1;136;-130;-133.9;43.0;43.3;17;17.1;25.2;0.0;
03/03/2025 04:58:04;100;0;100.42;-4;-20.16;-2.77;194.8;17.10;76556;2522.580;-1533.578;1;136;-130;-133.9;43.0;43.3;17;17.6;25.2;0.0;
03/03/2025 04:58:24;100;0;99.38;-4;-20.18;-2.64;198.1;17.10;76549;2520.090;-1531.716;1;136;-130;-132.3;43.0;43.3;17;17.6;25.2;0.0;
03/03/2025 04:58:44;100;0;97.58;-4;-20.16;-2.66;201.3;17.00;76545;2517.600;-1529.854;1;136;-130;-133.9;43.0;43.4;17;17.6;25.2;0.0;
03/03/2025 04:59:04;100;0;95.28;-4;-20.15;-2.64;204.8;17.00;76541;2515.110;-1527.993;1;136;-130;-133.9;43.0;43.3;17;17.6;25.2;0.0;
03/03/2025 04:59:24;100;0;93.16;-4;-20.20;-2.73;208.2;17.00;76531;2512.620;-1526.133;1;136;-130;-133.9;43.0;43.3;17;17.6;25.2;0.0;
03/03/2025 04:59:44;100;0;90.69;-4;-20.36;-2.72;211.5;16.90;76522;2510.131;-1524.273;1;136;-130;-133.9;43.0;43.3;17;17.6;25.2;0.0;
03/03/2025 05:00:04;100;0;88.82;-4;-20.00;-2.58;214.8;16.90;76510;2507.642;-1522.414;1;136;-130;-133.9;43.0;43.3;17;17.6;25.2;0.0;
03/03/2025 05:00:24;100;0;85.90;-4;-20.12;-2.66;218.2;16.80;76509;2505.135;-1520.542;1;136;-130;-133.9;43.0;43.3;15;14.9;25.2;0.0;
03/03/2025 05:00:44;100;0;83.86;-4;-20.17;-4.29;221.6;16.80;76515;2502.664;-1518.697;1;136;-130;-133.9;43.0;43.3;15;14.4;25.2;0.0;
03/03/2025 05:01:04;100;0;82.47;-4;-19.74;-4.31;224.9;16.80;76509;2500.175;-1516.840;1;136;-130;-133.9;43.0;43.3;15;14.4;25.2;0.0;
03/03/2025 05:01:24;100;0;81.66;-4;-20.01;-4.25;228.3;16.80;76507;2457.686;-1514.983;1;136;-130;-132.3;43.0;43.4;13;12.6;25.2;0.0;
03/03/2025 05:01:44;100;0;81.60;-4;-20.18;-5.20;231.7;16.70;76511;2455.196;-1513.126;1;136;-130;-133.9;43.0;43.3;13;12.6;25.2;0.0;
03/03/2025 05:02:04;100;0;80.20;-4;-20.05;-5.19;235.3;16.70;76497;2452.709;-1511.272;1;136;-130;-133.9;43.0;43.3;13;12.6;25.2;0.0;
03/03/2025 05:02:24;100;0;78.89;-4;-20.01;-5.15;238.8;16.70;76494;2450.220;-1509.417;1;136;-130;-133.9;43.0;43.4;10;9.9;25.2;0.0;
03/03/2025 05:02:44;100;0;78.83;-4;-19.96;-6.56;242.7;16.60;76485;2447.732;-1507.562;1;136;-130;-132.3;43.0;43.3;10;9.5;25.2;0.0;
03/03/2025 05:03:04;100;0;77.84;-4;-19.75;-6.75;245.9;16.60;76497;2445.241;-1505.707;1;136;-130;-132.3;43.0;43.3;10;9.5;25.2;0.0;
03/03/2025 05:03:24;100;0;78.92;-4;-19.44;-6.57;249.6;16.60;76487;2442.724;-1503.831;1;136;-130;-133.9;43.0;43.3;10;9.5;25.2;0.0;
03/03/2025 05:03:44;100;0;76.69;-4;-19.67;-6.83;253.5;16.50;76486;2440.263;-1501.999;1;136;-130;-133.9;43.0;43.3;7;7.2;25.2;0.0;
03/03/2025 05:04:04;100;0;74.77;-4;-19.49;-8.01;257.0;16.50;76490;2437.779;-1500.150;1;136;-130;-133.9;43.0;43.4;5;5.0;25.2;0.0;
03/03/2025 05:04:25;100;0;73.76;-4;-19.04;-9.15;260.5;16.50;76480;2435.290;-1458.298;1;136;-130;-133.9;43.0;43.3;3;3.2;25.2;0.0;
03/03/2025 05:04:45;100;0;80.77;-4;-18.63;-10.07;264.1;16.50;76472;2432.802;-1456.448;1;136;-130;-135.5;43.4;43.7;12;12.2;25.2;0.0;
03/03/2025 05:05:05;100;0;79.78;-4;-19.94;-5.10;267.5;16.40;76462;2430.314;-1454.598;1;136;-130;-133.9;43.4;43.7;12;12.6;25.2;0.0;
03/03/2025 05:05:25;100;0;78.91;-4;-20.14;-5.17;271.1;16.40;76443;2427.825;-1452.748;1;136;-130;-133.9;43.4;43.7;10;9.9;25.2;0.0;
03/03/2025 05:05:45;100;0;85.26;-4;-18.68;-6.45;274.8;16.40;76432;2425.334;-1450.897;1;136;-130;-133.9;43.8;44.2;14;14.0;25.2;0.0;
03/03/2025 05:06:05;100;0;86.86;-4;-20.66;-3.99;278.1;16.30;76417;2422.831;-1449.039;1;136;-130;-133.9;43.8;44.0;14;14.4;25.2;0.0;
03/03/2025 05:06:25;100;0;91.60;-4;-20.39;-4.46;281.7;16.30;76413;2420.354;-1447.201;1;136;-130;-133.9;43.8;44.0;14;14.4;25.2;0.0;
03/03/2025 05:06:45;100;0;94.61;-4;-20.87;-4.23;285.0;16.30;76403;2417.868;-1445.357;1;136;-130;-133.9;43.8;44.0;14;14.4;25.2;0.0;
03/03/2025 05:07:05;100;0;95.43;-4;-20.63;-4.35;288.7;16.20;76402;2415.378;-1443.510;1;136;-130;-135.5;43.8;44.2;14;14.4;25.2;0.0;
03/03/2025 05:07:25;100;0;94.10;-4;-20.83;-4.35;291.7;16.20;76387;2412.890;-1441.666;1;136;-130;-133.9;43.8;44.0;14;14.4;25.2;0.0;
03/03/2025 05:07:45;100;0;92.38;-4;-20.81;-4.24;295.0;16.20;76385;2410.402;-1439.822;1;136;-130;-133.9;43.8;44.0;14;14.4;25.2;0.0;
03/03/2025 05:08:05;100;0;88.93;-4;-20.72;-4.30;298.5;16.10;76379;2407.912;-1437.978;1;136;-130;-133.9;43.8;44.0;14;14.4;25.2;0.0;
03/03/2025 05:08:25;100;0;86.84;-4;-20.81;-4.29;301.8;16.10;76365;2405.423;-1436.134;1;136;-130;-133.9;43.8;44.0;14;14.4;25.2;0.0;
03/03/2025 05:08:45;100;0;85.78;-4;-20.89;-4.27;305.2;16.10;76352;2402.931;-1434.288;1;136;-130;-132.3;43.8;44.0;14;14.4;25.2;0.0;
03/03/2025 05:09:05;100;0;83.53;-4;-21.06;-4.29;308.5;16.00;76345;2400.412;-1432.424;1;136;-130;-133.9;43.8;44.2;14;14.0;25.2;0.0;
03/03/2025 05:09:25;100;0;81.11;-4;-21.36;-4.27;312.1;16.00;76336;2357.957;-1430.607;1;136;-130;-132.3;43.8;44.0;12;12.2;25.2;0.0;
03/03/2025 05:09:45;100;0;82.00;-4;-22.01;-5.71;315.6;16.00;76337;2355.468;-1428.765;1;136;-130;-133.9;43.2;43.3;12;11.7;25.2;0.0;
03/03/2025 05:10:05;100;0;80.72;-4;-20.87;-5.29;319.3;15.90;76311;2352.979;-1426.924;1;136;-130;-133.9;43.2;43.2;12;11.7;25.2;0.0;
03/03/2025 05:10:25;100;0;79.74;-4;-20.66;-5.84;322.8;15.90;76309;2350.491;-1425.084;1;136;-130;-133.9;43.2;43.2;12;11.7;25.2;0.0;
03/03/2025 05:10:45;100;0;78.23;-4;-20.71;-5.45;326.4;15.80;76304;2348.002;-1423.244;1;136;-130;-133.9;43.2;43.2;9;8.6;25.2;0.0;
03/03/2025 05:11:05;100;0;77.82;-4;-20.42;-7.27;329.7;15.80;76280;2345.514;-1421.405;1;136;-130;-133.9;43.2;43.2;9;8.6;25.2;0.0;
03/03/2025 05:11:25;100;0;78.96;-4;-19.42;-7.15;333.1;15.80;76274;2343.023;-1419.565;1;136;-130;-133.9;43.2;43.2;9;8.6;25.2;0.0;
03/03/2025 05:11:45;100;0;80.31;-4;-19.61;-7.23;336.3;15.70;76261;2340.517;-1417.714;1;136;-130;-133.9;43.2;43.2;11;10.8;25.2;0.0;
03/03/2025 05:12:05;100;0;80.51;-4;-19.50;-5.86;339.3;15.70;76252;2338.048;-1415.892;1;136;-130;-133.9;43.2;43.2;11;11.3;25.2;0.0;
03/03/2025 05:12:25;100;0;82.84;-4;-19.55;-5.87;342.4;15.70;76262;2335.559;-1414.056;1;136;-130;-133.9;43.2;43.2;13;13.1;25.2;0.0;
03/03/2025 05:12:45;100;0;82.74;-4;-19.54;-4.79;345.1;15.60;76243;2333.070;-1412.220;1;136;-130;-133.9;43.2;43.2;13;13.5;25.2;0.0;
03/03/2025 05:13:05;100;0;83.57;-4;-19.65;-4.71;348.2;15.60;76237;2330.580;-1410.384;1;136;-130;-133.9;43.2;43.2;13;13.1;25.2;0.0;
03/03/2025 05:13:25;100;0;83.82;-4;-19.92;-4.78;351.3;15.50;76233;2328.093;-1408.551;1;136;-130;-133.9;43.2;43.2;13;13.5;25.2;0.0;
03/03/2025 05:13:45;100;0;83.57;-4;-19.73;-4.72;354.1;15.50;76224;2325.604;-1406.717;1;136;-130;-133.9;43.2;43.2;13;13.5;25.2;0.0;
03/03/2025 05:14:05;100;0;84.11;-4;-19.96;-4.80;357.2;15.50;76225;2323.115;-1404.883;1;136;-130;-132.3;43.2;43.2;13;13.1;25.2;0.0;
03/03/2025 05:14:25;100;0;84.30;-4;-19.82;-4.75;360.2;15.40;76215;2320.620;-1403.046;1;136;-130;-133.9;43.2;43.2;13;13.1;25.2;0.0;
03/03/2025 05:14:45;100;0;83.83;-4;-19.94;-4.77;363.1;15.40;76209;2318.102;-1401.193;1;136;-130;-133.9;43.2;43.2;13;13.5;25.2;0.0;
03/03/2025 05:15:05;100;0;83.95;-4;-19.42;-4.81;366.1;15.40;76207;2315.648;-1359.387;1;136;-130;-133.9;43.2;43.3;13;13.5;25.2;0.0;
03/03/2025 05:15:25;100;0;83.83;-4;-19.35;-4.79;369.0;15.30;76202;2313.158;-1357.555;1;136;-130;-137.1;43.2;43.2;13;13.5;25.2;0.0;
03/03/2025 05:15:45;100;0;81.75;-4;-19.44;-4.75;371.8;15.30;76194;2310.667;-1355.722;1;136;-130;-132.3;43.2;43.2;13;13.5;25.2;0.0;
03/03/2025 05:16:05;100;0;80.44;-4;-19.94;-4.81;374.6;15.30;76184;2308.182;-1353.896;1;136;-130;-133.9;43.2;43.2;11;10.8;25.2;0.0;
03/03/2025 05:16:25;100;0;80.27;-4;-19.49;-6.20;377.6;15.20;76184;2305.693;-1352.066;1;136;-130;-133.9;43.2;43.2;11;10.4;25.2;0.0;
03/03/2025 05:16:45;100;0;82.08;-4;-19.14;-6.18;380.4;15.20;76177;2303.204;-1350.237;1;136;-130;-133.9;43.2;43.2;11;10.8;25.2;0.0;
03/03/2025 05:17:05;100;0;84.83;-4;-19.00;-6.09;383.1;15.20;76162;2300.715;-1348.409;1;136;-130;-133.9;43.5;43.7;13;13.1;25.2;0.0;
03/03/2025 05:17:25;100;0;86.52;-4;-20.05;-4.69;385.8;15.10;76155;2258.204;-1346.566;1;136;-130;-133.9;43.5;43.9;13;13.5;25.2;0.0;
03/03/2025 05:17:45;100;0;89.25;-4;-20.22;-4.79;388.7;15.10;76153;2255.737;-1344.755;1;136;-130;-133.9;43.5;43.9;13;13.1;25.2;0.0;
03/03/2025 05:18:05;100;0;91.21;-4;-20.51;-4.77;391.7;15.10;76147;2253.247;-1342.929;1;136;-130;-135.5;43.5;43.9;13;13.1;25.2;0.0;
03/03/2025 05:18:25;100;0;94.23;-4;-20.18;-4.85;394.8;15.00;76143;2250.758;-1341.102;1;136;-130;-133.9;43.5;43.7;13;13.5;25.2;0.0;
03/03/2025 05:18:45;100;0;95.86;-4;-20.61;-4.79;397.7;15.00;76134;2248.268;-1339.277;1;136;-130;-133.9;43.5;43.9;15;15.3;25.2;0.0;
03/03/2025 05:19:05;100;0;96.57;-4;-20.02;-3.69;400.7;15.00;76136;2245.779;-1337.453;1;136;-130;-133.9;43.5;43.9;15;15.3;25.2;0.0;
03/03/2025 05:19:25;100;0;96.27;-4;-20.18;-3.69;403.6;15.00;76134;2243.291;-1335.630;1;136;-130;-132.3;43.5;43.9;15;15.3;25.2;0.0;
03/03/2025 05:19:45;100;0;97.15;-4;-20.12;-3.69;406.7;14.90;76128;2240.802;-1333.807;1;136;-130;-133.9;43.5;43.9;15;15.3;25.2;0.0;
03/03/2025 05:20:05;100;0;95.64;-4;-20.12;-3.73;409.8;14.90;76121;2238.301;-1331.975;1;136;-130;-133.9;43.5;43.9;15;15.3;25.2;0.0;
03/03/2025 05:20:25;100;0;93.43;-4;-20.07;-3.72;412.9;14.90;76124;2235.823;-1330.161;1;136;-130;-137.1;43.5;43.9;15;15.8;25.2;0.0;
03/03/2025 05:20:45;100;0;93.12;-4;-20.17;-3.69;415.9;14.80;76105;2233.334;-1328.338;1;136;-130;-133.9;43.5;43.9;15;15.3;25.2;0.0;
03/03/2025 05:21:05;100;0;95.19;-4;-20.12;-3.69;419.0;14.80;76094;2230.844;-1326.517;1;136;-130;-133.9;43.5;43.9;15;15.3;25.2;0.0;
03/03/2025 05:21:25;100;0;97.48;-4;-20.56;-3.63;422.1;14.80;76093;2228.354;-1324.696;1;136;-130;-133.9;43.5;43.9;15;15.3;25.2;0.0;
03/03/2025 05:21:45;100;0;98.92;-4;-20.58;-3.63;425.3;14.70;76078;2225.864;-1322.875;1;136;-130;-133.9;43.5;43.9;15;15.3;25.2;0.0;
03/03/2025 05:22:05;100;0;100.49;-4;-20.54;-3.66;428.4;14.70;76074;2223.374;-1321.055;1;136;-130;-133.9;43.5;43.9;17;17.1;25.2;0.0;
03/03/2025 05:22:25;100;0;102.31;-4;-20.72;-2.71;431.7;14.70;76067;2220.884;-1319.235;1;136;-130;-133.9;43.5;43.9;19;19.0;25.2;0.0;
03/03/2025 05:22:45;100;0;101.43;-4;-20.80;-1.71;435.0;14.60;76068;2218.390;-1317.414;1;136;-130;-133.9;43.5;43.9;19;19.4;25.2;0.0;
03/03/2025 05:23:05;100;0;100.55;-4;-20.51;-1.71;438.2;14.60;76054;2215.876;-1315.578;1;136;-130;-133.9;43.5;43.7;17;17.1;25.2;0.0;
03/03/2025 05:23:25;100;0;99.47;-4;-20.48;-3.03;441.3;14.60;76055;2213.414;-1313.780;1;136;-130;-133.9;43.5;43.9;17;16.7;25.2;0.0;
03/03/2025 05:23:45;100;0;99.62;-4;-20.79;-3.04;444.5;14.50;76051;2210.924;-1311.963;1;136;-130;-133.9;43.5;43.9;17;17.1;25.2;0.0;
03/03/2025 05:24:05;100;0;101.19;-4;-20.69;-2.92;447.7;14.50;76047;2208.434;-1310.146;1;136;-130;-133.9;43.5;43.7;17;17.1;25.2;0.0;
03/03/2025 05:24:25;100;0;99.18;-4;-20.43;-3.05;450.8;14.50;76043;2205.944;-1308.329;1;136;-130;-132.3;43.5;43.9;17;17.1;25.2;0.0;
03/03/2025 05:24:45;100;0;95.78;-4;-20.11;-3.04;453.9;14.40;76039;2203.454;-1306.514;1;136;-130;-133.9;43.5;43.9;15;14.9;25.2;0.0;
03/03/2025 05:25:05;100;0;94.76;-4;-19.85;-4.28;457.0;14.40;76023;2200.964;-1304.698;1;136;-130;-132.3;43.5;43.7;15;14.4;25.2;0.0;
03/03/2025 05:25:25;100;0;93.53;-4;-19.97;-4.23;459.8;14.40;76016;2158.475;-1302.884;1;136;-130;-133.9;43.5;43.9;15;14.4;25.2;0.0;
03/03/2025 05:25:45;100;0;91.20;-4;-19.66;-4.37;462.6;14.40;76021;2155.971;-1301.060;1;136;-130;-137.1;43.5;43.9;15;14.4;25.2;0.0;
03/03/2025 05:26:05;100;0;89.01;-4;-19.79;-4.29;465.4;14.30;76011;2153.496;-1259.257;1;136;-130;-137.1;43.5;43.9;15;14.4;25.2;0.0;
03/03/2025 05:26:25;100;0;88.84;-4;-19.77;-4.31;468.3;14.30;76005;2151.002;-1257.440;1;136;-130;-133.9;43.5;43.9;15;14.4;25.2;0.0;
03/03/2025 05:26:45;100;0;88.57;-4;-19.70;-4.29;471.1;14.30;76003;2148.515;-1255.630;1;136;-130;-135.5;43.5;43.9;15;14.4;25.2;0.0;
03/03/2025 05:27:05;100;0;86.25;-4;-19.70;-4.27;473.8;14.20;75997;2146.028;-1253.820;1;136;-130;-132.3;43.5;43.9;15;14.4;25.2;0.0;
03/03/2025 05:27:25;100;0;83.53;-4;-20.04;-4.27;476.7;14.20;75982;2143.540;-1252.009;1;136;-130;-132.3;43.5;43.7;13;13.1;25.2;0.0;
03/03/2025 05:27:45;100;0;82.90;-4;-19.98;-5.17;479.7;14.20;75986;2141.051;-1250.198;1;136;-130;-133.9;43.5;43.9;13;12.6;25.2;0.0;
03/03/2025 05:28:05;100;0;82.89;-4;-19.70;-5.21;482.4;14.20;75982;2138.562;-1248.388;1;136;-130;-133.9;43.5;43.9;13;12.6;25.2;0.0;
03/03/2025 05:28:25;100;0;82.41;-4;-19.70;-5.18;485.3;14.10;75970;2136.071;-1246.577;1;136;-130;-133.9;43.5;43.7;13;12.6;25.2;0.0;
03/03/2025 05:28:45;100;0;81.11;-4;-19.84;-5.19;488.1;14.10;75968;2133.553;-1244.746;1;136;-130;-133.9;43.5;43.9;13;12.6;25.2;0.0;
03/03/2025 05:29:05;100;0;80.30;-4;-19.92;-5.26;490.9;14.10;75969;2131.096;-1242.961;1;136;-130;-132.3;43.5;43.9;11;10.8;25.2;0.0;
03/03/2025 05:29:25;100;0;80.35;-4;-19.66;-6.17;494.0;14.00;75958;2128.607;-1241.152;1;136;-130;-133.9;43.5;43.9;11;10.4;25.2;0.0;
03/03/2025 05:29:45;100;0;80.38;-4;-19.63;-6.23;496.7;14.00;75951;2126.117;-1239.344;1;136;-130;-132.3;43.5;43.9;11;10.8;25.2;0.0;
03/03/2025 05:30:05;100;0;79.94;-4;-19.59;-6.19;499.6;14.00;75943;2123.631;-1237.538;1;136;-130;-133.9;43.5;43.9;11;10.8;25.2;0.0;
03/03/2025 05:30:25;100;0;76.37;-4;-19.04;-6.26;502.2;14.00;75956;2121.141;-1235.731;1;136;-130;-133.9;43.5;43.9;6;5.9;25.2;0.0;
03/03/2025 05:30:45;100;0;80.83;-4;-19.25;-8.74;505.2;13.90;75932;2118.656;-1233.928;1;136;-130;-133.9;43.5;43.9;11;10.8;25.2;0.0;
03/03/2025 05:31:05;100;0;83.00;-4;-19.54;-5.86;508.0;13.90;75922;2116.167;-1232.122;1;136;-130;-133.9;43.5;43.9;13;13.1;25.2;0.0;
03/03/2025 05:31:25;100;0;83.59;-4;-19.53;-4.75;510.7;13.90;75924;2113.656;-1230.301;1;136;-130;-132.3;43.5;43.9;13;13.5;25.2;0.0;
03/03/2025 05:31:45;100;0;83.37;-4;-19.53;-4.78;513.7;13.90;75919;2111.189;-1228.512;1;136;-130;-132.3;43.5;43.7;13;13.5;25.2;0.0;
03/03/2025 05:32:05;100;0;85.17;-4;-19.52;-4.80;516.4;13.80;75914;2108.700;-1226.709;1;136;-130;-133.9;43.5;43.9;13;13.5;25.2;0.0;
03/03/2025 05:32:25;100;0;87.15;-4;-19.67;-4.76;519.2;13.80;75907;2106.211;-1224.905;1;136;-130;-133.9;43.5;43.9;13;13.5;25.2;0.0;
03/03/2025 05:32:45;100;0;90.13;-4;-19.60;-4.75;522.0;13.80;75901;2103.722;-1223.102;1;136;-130;-133.9;43.5;43.9;13;13.5;25.2;0.0;
03/03/2025 05:33:05;100;0;94.62;-4;-19.70;-4.74;524.9;13.80;75901;2101.232;-1221.299;1;136;-130;-133.9;43.5;43.9;13;13.1;25.2;0.0;
03/03/2025 05:33:25;100;0;97.05;-4;-19.50;-4.82;527.7;13.70;75892;2058.742;-1219.497;1;136;-130;-133.9;43.5;43.9;15;14.9;25.2;0.0;
03/03/2025 05:33:45;100;0;98.31;-4;-19.63;-3.95;530.6;13.70;75884;2056.249;-1217.693;1;136;-130;-133.9;43.5;43.7;15;15.3;25.2;0.0;
03/03/2025 05:34:05;100;0;97.13;-4;-19.75;-3.90;533.3;13.70;75876;2053.752;-1215.887;1;136;-130;-133.9;43.5;43.7;15;15.3;25.2;0.0;
03/03/2025 05:34:25;100;0;98.26;-4;-19.73;-3.97;536.3;13.60;75872;2051.273;-1214.094;1;136;-130;-132.3;43.5;43.9;15;15.3;25.2;0.0;
03/03/2025 05:34:45;100;0;98.78;-4;-19.70;-3.91;539.2;13.60;75865;2048.783;-1212.294;1;136;-130;-133.9;43.5;43.9;15;15.3;25.2;0.0;
03/03/2025 05:35:05;100;0;98.07;-4;-19.61;-3.85;542.1;13.60;75865;2046.293;-1210.494;1;136;-130;-133.9;43.5;43.9;15;15.3;25.2;0.0;
03/03/2025 05:35:25;100;0;93.58;-4;-19.57;-3.91;544.9;13.50;75868;2043.804;-1208.696;1;136;-130;-133.9;43.5;43.7;15;15.3;25.2;0.0;
03/03/2025 05:35:45;100;0;91.17;-4;-19.46;-3.86;547.6;13.50;75855;2041.314;-1206.897;1;136;-130;-133.9;43.5;43.9;15;15.3;25.2;0.0;
03/03/2025 05:36:05;100;0;88.96;-4;-19.72;-4.08;550.4;13.50;75854;2038.825;-1205.099;1;136;-130;-135.5;43.5;43.9;15;15.3;25.2;0.0;
03/03/2025 05:36:25;100;0;87.63;-4;-19.36;-3.82;553.0;13.50;75852;2036.336;-1203.301;1;136;-130;-133.9;43.5;43.9;15;15.3;25.2;0.0;
03/03/2025 05:36:45;100;0;84.96;-4;-19.67;-3.85;555.7;13.40;75842;2033.847;-1201.505;1;136;-130;-133.9;43.5;43.9;15;15.3;25.2;0.0;
03/03/2025 05:37:05;100;0;82.76;-4;-19.24;-3.90;558.3;13.40;75838;2031.329;-1159.687;1;136;-130;-133.9;43.5;43.9;12;12.2;25.2;0.0;
03/03/2025 05:37:25;100;0;84.59;-4;-19.24;-5.48;560.9;13.40;75812;2028.869;-1157.912;1;136;-130;-132.3;43.5;43.9;12;12.2;25.2;0.0;
03/03/2025 05:37:45;100;0;88.91;-4;-19.25;-5.46;563.5;13.40;75808;2026.380;-1156.117;1;136;-130;-133.9;43.5;43.9;14;14.0;25.2;0.0;
03/03/2025 05:38:05;100;0;89.94;-4;-19.64;-4.27;566.2;13.30;75811;2023.890;-1154.322;1;136;-130;-132.3;43.5;43.9;14;14.4;25.2;0.0;
03/03/2025 05:38:25;100;0;89.59;-4;-19.25;-4.32;569.0;13.30;75791;2021.401;-1152.527;1;136;-130;-132.3;43.5;43.9;14;14.4;25.2;0.0;
03/03/2025 05:38:45;100;0;88.74;-4;-19.12;-4.41;571.5;13.30;75794;2018.912;-1150.733;1;136;-130;-132.3;43.5;43.9;14;14.4;25.2;0.0;
03/03/2025 05:39:05;100;0;88.26;-4;-19.25;-4.39;574.1;13.30;75787;2016.423;-1148.940;1;136;-130;-133.9;43.5;43.7;14;14.4;25.2;0.0;
03/03/2025 05:39:26;100;0;86.80;-4;-19.28;-4.29;576.7;13.20;75778;2013.924;-1147.140;1;136;-130;-133.9;43.5;43.9;14;14.4;25.2;0.0;
03/03/2025 05:39:46;100;0;87.11;-4;-19.36;-4.30;579.4;13.20;75763;2011.427;-1145.341;1;136;-130;-135.5;43.5;43.9;14;14.4;25.2;0.0;
03/03/2025 05:40:06;100;0;87.01;-4;-19.27;-4.32;582.2;13.20;75766;2008.955;-1143.561;1;136;-130;-130.6;43.5;43.9;14;14.4;25.2;0.0;
03/03/2025 05:40:26;100;0;88.51;-4;-19.26;-4.35;585.0;13.10;75755;2006.467;-1141.771;1;136;-130;-133.9;43.5;43.9;14;14.4;25.2;0.0;
03/03/2025 05:40:46;100;0;89.96;-4;-19.19;-4.34;587.8;13.10;75748;2003.976;-1139.977;1;136;-130;-133.9;43.5;44.0;14;14.4;25.2;0.0;
03/03/2025 05:41:06;100;0;90.40;-4;-19.14;-4.33;590.5;13.10;75747;2001.489;-1138.188;1;136;-130;-135.5;43.5;43.9;14;14.4;25.2;0.0;
03/03/2025 05:41:26;100;0;92.56;-4;-19.13;-4.33;593.4;13.10;75739;1958.999;-1136.398;1;136;-130;-132.3;43.5;43.9;14;14.4;25.2;0.0;
03/03/2025 05:41:46;100;0;94.81;-4;-19.09;-4.34;596.0;13.00;75738;1956.510;-1134.608;1;136;-130;-133.9;43.5;43.9;14;14.4;25.2;0.0;
03/03/2025 05:42:06;100;0;96.58;-4;-19.09;-4.31;598.9;13.00;75736;1954.020;-1132.818;1;136;-130;-133.9;43.5;43.9;14;14.4;25.2;0.0;
03/03/2025 05:42:26;100;0;98.25;-4;-19.09;-4.31;601.7;13.00;75720;1951.523;-1131.024;1;136;-130;-133.9;43.5;43.9;14;14.4;25.2;0.0;
03/03/2025 05:42:46;100;0;100.02;-4;-19.22;-4.33;604.4;13.00;75718;1948.751;-1129.034;1;136;-130;-133.9;43.5;43.9;17;17.1;25.2;0.0;
03/03/2025 05:43:06;100;0;100.19;-4;-19.28;-2.86;607.1;12.90;75720;1946.550;-1127.453;1;136;-130;-133.9;43.5;43.9;17;17.1;25.2;0.0;
03/03/2025 05:43:26;100;0;98.93;-4;-19.35;-2.85;609.7;12.90;75715;1944.060;-1125.666;1;136;-130;-132.3;43.5;43.9;17;17.6;25.2;0.0;
03/03/2025 05:43:46;100;0;95.16;-4;-19.39;-2.76;612.4;12.90;75705;1941.571;-1123.879;1;136;-130;-133.9;43.5;43.9;15;14.4;25.2;0.0;
03/03/2025 05:44:06;100;0;91.42;-4;-19.42;-4.25;615.1;12.90;75700;1939.081;-1122.092;1;136;-130;-133.9;43.5;43.7;15;14.4;25.2;0.0;
03/03/2025 05:44:26;100;0;89.85;-4;-19.24;-4.28;617.8;12.80;75688;1936.592;-1120.306;1;136;-130;-133.9;43.5;43.9;15;14.4;25.2;0.0;
03/03/2025 05:44:46;100;0;88.12;-4;-18.88;-4.40;620.4;12.80;75683;1934.103;-1118.520;1;136;-130;-133.9;43.9;43.9;15;14.4;25.2;0.0;
03/03/2025 05:45:06;100;0;87.44;-4;-19.34;-4.29;623.0;12.80;75681;1931.597;-1116.723;1;136;-130;-132.3;43.9;43.9;15;14.4;25.2;0.0;
03/03/2025 05:45:26;100;0;86.83;-4;-19.01;-4.17;625.6;12.70;75678;1929.100;-1114.933;1;136;-130;-133.9;43.9;43.9;15;14.4;25.2;0.0;
03/03/2025 05:45:46;100;0;87.19;-4;-19.28;-4.24;628.3;12.70;75670;1926.635;-1113.166;1;136;-130;-132.3;43.9;43.9;15;14.4;25.2;0.0;
03/03/2025 05:46:06;100;0;87.71;-4;-19.41;-4.57;630.9;12.70;75668;1924.146;-1111.382;1;136;-130;-133.9;43.9;43.7;15;14.4;25.2;0.0;
03/03/2025 05:46:26;100;0;86.32;-4;-18.84;-4.31;633.6;12.70;75665;1921.657;-1109.599;1;136;-130;-133.9;44.2;44.2;15;14.4;25.2;0.0;
03/03/2025 05:46:46;100;0;83.89;-4;-19.77;-4.45;636.2;12.60;75664;1919.167;-1107.816;1;136;-130;-133.9;44.2;44.3;13;13.1;25.2;0.0;
03/03/2025 05:47:06;100;0;82.92;-4;-20.96;-5.18;639.3;12.60;75653;1916.677;-1106.032;1;136;-130;-133.9;44.2;44.5;13;12.6;25.2;0.0;
03/03/2025 05:47:26;100;0;83.64;-4;-20.76;-5.05;642.4;12.60;75647;1914.190;-1104.251;1;136;-130;-133.9;44.2;44.3;13;12.6;25.2;0.0;
03/03/2025 05:47:46;100;0;83.19;-4;-20.45;-5.11;645.6;12.60;75634;1911.699;-1102.468;1;136;-130;-132.3;44.2;44.3;13;12.6;25.2;0.0;
03/03/2025 05:48:06;100;0;82.64;-4;-20.35;-5.16;648.5;12.60;75633;1909.201;-1100.680;1;136;-130;-133.9;44.2;44.3;13;12.6;25.2;0.0;
03/03/2025 05:48:26;100;0;82.17;-4;-20.06;-5.23;651.4;12.50;75626;1906.724;-1058.907;1;136;-130;-133.9;44.2;44.3;13;12.6;25.2;0.0;
03/03/2025 05:48:46;100;0;82.53;-4;-20.12;-5.26;654.2;12.50;75630;1904.235;-1057.127;1;136;-130;-135.5;44.2;44.3;13;12.6;25.2;0.0;
03/03/2025 05:49:06;100;0;83.91;-4;-20.15;-5.19;657.0;12.50;75615;1901.746;-1055.347;1;136;-130;-132.3;44.2;44.3;13;12.6;25.2;0.0;
03/03/2025 05:49:26;100;0;84.25;-4;-20.20;-5.22;659.9;12.40;75610;1859.257;-1053.568;1;136;-130;-132.3;44.2;44.3;13;12.6;25.2;0.0;
03/03/2025 05:49:46;100;0;88.10;-4;-20.00;-5.21;662.9;12.40;75598;1856.768;-1051.789;1;136;-130;-132.3;44.2;44.6;13;12.6;25.2;0.0;
03/03/2025 05:50:06;100;0;88.74;-4;-19.78;-5.28;665.6;12.40;75602;1854.280;-1050.011;1;136;-130;-133.9;44.2;44.5;13;12.6;25.2;0.0;
03/03/2025 05:50:26;100;0;90.72;-4;-19.93;-5.17;668.3;12.40;75603;1851.792;-1048.234;1;136;-130;-133.9;44.2;44.3;13;12.6;25.2;0.0;
03/03/2025 05:50:46;100;0;92.06;-4;-19.99;-5.30;671.2;12.30;75590;1849.278;-1046.439;1;136;-130;-133.9;44.2;44.3;13;12.6;25.2;0.0;
03/03/2025 05:51:06;100;0;93.78;-4;-20.06;-5.26;674.0;12.30;75586;1846.780;-1044.656;1;136;-130;-133.9;44.2;44.3;13;12.6;25.2;0.0;
03/03/2025 05:51:26;100;0;94.56;-4;-19.82;-5.27;676.8;12.30;75574;1844.325;-1042.903;1;136;-130;-133.9;44.2;44.5;13;12.6;25.2;0.0;
03/03/2025 05:51:46;100;0;94.88;-4;-19.75;-5.28;679.5;12.30;75585;1841.835;-1041.127;1;136;-130;-133.9;44.2;44.3;13;12.6;25.2;0.0;
03/03/2025 05:52:06;100;0;96.10;-4;-19.92;-5.27;682.2;12.30;75573;1839.345;-1039.352;1;136;-130;-133.9;44.2;44.3;13;12.6;25.2;0.0;
03/03/2025 05:52:26;100;0;98.21;-4;-19.96;-5.22;685.0;12.20;75564;1836.856;-1037.576;1;136;-130;-133.9;44.2;44.3;15;14.9;25.2;0.0;
03/03/2025 05:52:46;100;0;99.44;-4;-20.00;-3.95;687.7;12.20;75565;1834.366;-1035.801;1;136;-130;-132.3;44.2;44.3;15;15.3;25.2;0.0;
03/03/2025 05:53:06;100;0;101.80;-4;-19.91;-3.98;690.4;12.20;75555;1831.873;-1034.025;1;136;-130;-133.9;44.2;44.3;18;18.5;25.2;0.0;
03/03/2025 05:53:26;100;0;101.64;-4;-19.94;-2.33;693.2;12.10;75549;1829.386;-1032.253;1;136;-130;-133.9;44.2;44.5;18;18.5;25.2;0.0;
03/03/2025 05:53:46;100;0;100.52;-4;-19.87;-2.25;695.9;12.10;75541;1826.873;-1030.463;1;136;-130;-133.9;44.2;44.3;18;18.5;25.2;0.0;
03/03/2025 05:54:06;100;0;99.42;-4;-20.16;-2.24;698.6;12.10;75532;1824.406;-1028.706;1;136;-130;-133.9;44.2;44.5;16;15.8;25.2;0.0;
03/03/2025 05:54:26;100;0;98.19;-4;-19.98;-3.82;701.2;12.10;75524;1821.916;-1026.934;1;136;-130;-133.9;44.2;44.3;16;15.8;25.2;0.0;
03/03/2025 05:54:46;100;0;96.62;-4;-19.66;-3.80;703.9;12.00;75524;1819.426;-1025.162;1;136;-130;-133.9;44.2;44.3;16;15.8;25.2;0.0;
03/03/2025 05:55:06;100;0;95.49;-4;-19.78;-3.78;706.5;12.00;75509;1816.937;-1023.390;1;136;-130;-132.3;44.2;44.3;16;15.8;25.2;0.0;
03/03/2025 05:55:26;100;0;93.08;-4;-19.59;-3.76;709.1;12.00;75510;1814.447;-1021.618;1;136;-130;-133.9;44.2;44.3;14;14.0;25.2;0.0;
03/03/2025 05:55:46;100;0;91.49;-4;-19.69;-4.77;711.8;12.00;75507;1811.958;-1019.848;1;136;-130;-133.9;44.2;44.5;14;14.0;25.2;0.0;
03/03/2025 05:56:06;100;0;90.70;-4;-19.79;-4.58;714.4;11.90;75489;1809.469;-1018.077;1;136;-130;-133.9;44.2;44.5;14;14.0;25.2;0.0;
03/03/2025 05:56:26;100;0;90.14;-4;-19.62;-4.74;716.9;11.90;75485;1806.945;-1016.283;1;136;-130;-133.9;44.2;44.5;14;14.0;25.2;0.0;
03/03/2025 05:56:46;100;0;91.70;-4;-20.13;-4.72;719.4;11.90;75486;1804.490;-1014.538;1;136;-130;-132.3;44.2;44.5;14;13.5;25.2;0.0;
03/03/2025 05:57:06;100;0;93.03;-4;-20.25;-4.67;722.2;11.90;75482;1802.000;-1012.768;1;136;-130;-133.9;44.2;44.3;14;14.0;25.2;0.0;
03/03/2025 05:57:26;100;0;94.10;-4;-19.73;-4.58;725.1;11.80;75468;1759.511;-1010.999;1;136;-130;-133.9;44.2;44.3;14;14.0;25.2;0.0;
03/03/2025 05:57:46;100;0;96.84;-4;-19.87;-4.46;727.6;11.80;75474;1757.021;-1009.231;1;136;-130;-133.9;44.2;44.3;14;14.0;25.2;0.0;
03/03/2025 05:58:06;100;0;97.29;-4;-20.20;-4.63;730.3;11.80;75462;1754.531;-1007.463;1;136;-130;-133.9;44.2;44.5;14;14.0;25.2;0.0;
03/03/2025 05:58:26;100;0;97.26;-4;-20.27;-4.88;732.9;11.80;75452;1752.042;-1005.695;1;136;-130;-133.9;44.2;44.5;14;14.0;25.2;0.0;
03/03/2025 05:58:46;100;0;97.11;-4;-19.88;-4.71;735.4;11.70;75455;1749.552;-1003.928;1;136;-130;-133.9;44.2;44.3;14;14.0;25.2;0.0;
03/03/2025 05:59:06;100;0;98.58;-4;-20.38;-4.57;738.0;11.70;75453;1747.060;-1002.160;1;136;-130;-133.9;44.2;44.3;16;15.8;25.2;0.0;
03/03/2025 05:59:26;100;0;98.00;-4;-20.09;-3.48;740.7;11.70;75448;1744.542;-1000.373;1;136;-130;-133.9;44.2;44.5;16;15.8;25.2;0.0;
03/03/2025 05:59:46;100;0;98.55;-4;-20.25;-3.62;743.2;11.70;75443;1742.085;-958.631;1;136;-130;-133.9;44.2;44.3;16;15.8;25.2;0.0;
03/03/2025 06:00:06;100;0;100.37;-4;-20.79;-3.61;745.7;11.70;75446;1739.597;-956.867;1;136;-130;-133.9;44.2;44.3;16;15.8;25.2;0.0;
03/03/2025 06:00:26;100;0;99.03;-4;-20.28;-3.51;748.4;11.60;75440;1737.107;-955.102;1;136;-130;-133.9;44.2;44.5;16;15.8;25.2;0.0;
03/03/2025 06:00:46;100;0;98.93;-4;-20.14;-3.62;751.1;11.60;75431;1734.617;-953.337;1;136;-130;-133.9;44.2;44.3;16;15.8;25.2;0.0;
03/03/2025 06:01:06;100;0;99.11;-4;-20.29;-3.59;753.7;11.60;75433;1732.125;-951.571;1;136;-130;-133.9;44.2;44.3;16;15.8;25.2;0.0;
03/03/2025 06:01:26;100;0;97.81;-4;-20.28;-3.65;756.5;11.60;75441;1729.637;-949.809;1;136;-130;-132.3;44.2;44.3;16;15.8;25.2;0.0;
03/03/2025 06:01:46;100;0;96.31;-4;-19.83;-3.63;759.0;11.60;75432;1727.148;-948.045;1;136;-130;-133.9;44.2;44.3;16;15.8;25.2;0.0;
03/03/2025 06:02:06;100;0;95.51;-4;-20.53;-3.35;761.6;11.50;75433;1724.610;-946.249;1;136;-130;-133.9;44.2;44.3;16;15.8;25.2;0.0;
03/03/2025 06:02:26;100;0;95.20;-4;-20.20;-3.62;764.1;11.50;75434;1722.168;-944.520;1;136;-130;-133.9;44.2;44.3;16;15.8;25.2;0.0;
03/03/2025 06:02:46;100;0;92.89;-4;-19.26;-3.47;766.7;11.50;75427;1719.679;-942.757;1;136;-130;-133.9;44.2;44.5;16;15.8;25.2;0.0;
03/03/2025 06:03:06;100;0;91.23;-4;-20.23;-3.26;769.2;11.50;75430;1717.190;-940.996;1;136;-130;-133.9;44.2;44.3;16;16.2;25.2;0.0;
03/03/2025 06:03:26;100;0;87.59;-4;-20.28;-3.70;771.6;11.50;75432;1714.700;-939.234;1;136;-130;-133.9;44.2;44.3;16;15.8;25.2;0.0;
03/03/2025 06:03:46;100;0;91.73;-4;-19.64;-3.77;774.2;11.40;75428;1712.211;-937.473;1;136;-130;-133.9;44.2;44.5;16;15.8;25.2;0.0;
03/03/2025 06:04:06;100;0;90.03;-4;-20.44;-3.56;776.8;11.40;75417;1709.722;-935.713;1;136;-130;-133.9;44.2;44.5;16;15.8;25.2;0.0;
03/03/2025 06:04:26;100;0;89.73;-4;-20.35;-3.66;779.1;11.40;75421;1707.233;-933.953;1;136;-130;-133.9;44.2;44.5;16;15.8;25.2;0.0;
03/03/2025 06:04:46;100;0;88.26;-4;-20.26;-3.46;781.9;11.40;75416;1704.728;-932.182;1;136;-130;-133.9;44.2;44.3;16;15.8;25.2;0.0;
03/03/2025 06:05:06;100;0;87.42;-4;-20.86;-3.46;784.7;11.40;75425;1702.254;-930.433;1;136;-130;-133.9;44.2;44.3;16;15.8;25.2;0.0;
03/03/2025 06:05:26;100;0;87.87;-4;-20.29;-3.76;787.4;11.40;75415;1659.764;-928.673;1;136;-130;-133.9;44.2;44.3;16;15.8;25.2;0.0;
03/03/2025 06:05:46;100;0;84.51;-4;-19.91;-3.57;790.1;11.30;75416;1657.275;-926.914;1;136;-130;-133.9;44.2;44.3;14;14.0;25.2;0.0;
03/03/2025 06:06:06;100;0;84.98;-4;-20.25;-4.54;792.8;11.30;75425;1654.787;-925.156;1;136;-130;-132.3;44.2;44.3;14;14.0;25.2;0.0;
03/03/2025 06:06:26;100;0;84.25;-4;-20.19;-4.69;795.4;11.30;75413;1652.298;-923.398;1;136;-130;-133.9;44.2;44.3;14;14.0;25.2;0.0;
03/03/2025 06:06:46;100;0;83.39;-4;-20.38;-4.65;797.9;11.30;75403;1649.809;-921.641;1;136;-130;-133.9;44.2;44.3;14;14.0;25.2;0.0;
03/03/2025 06:07:06;100;0;83.28;-4;-19.74;-4.59;800.3;11.30;75417;1647.320;-919.884;1;136;-130;-133.9;44.2;44.3;14;14.0;25.2;0.0;
03/03/2025 06:07:26;100;0;82.53;-4;-20.60;-4.61;802.7;11.20;75409;1644.827;-918.124;1;136;-130;-133.9;44.2;44.5;14;14.0;25.2;0.0;
03/03/2025 06:07:46;100;0;80.27;-4;-20.61;-4.59;805.2;11.20;75409;1642.285;-916.331;1;136;-130;-132.3;44.2;44.3;11;10.8;25.2;0.0;
03/03/2025 06:08:06;100;0;80.41;-4;-18.73;-6.21;807.6;11.20;75398;1639.854;-914.616;1;136;-130;-133.9;44.6;44.8;11;10.8;25.2;0.0;
03/03/2025 06:08:26;100;0;80.92;-4;-20.87;-6.22;809.8;11.20;75393;1637.366;-912.862;1;136;-130;-133.9;44.6;44.9;11;10.8;25.2;0.0;
03/03/2025 06:08:46;100;0;82.67;-4;-20.45;-6.25;812.0;11.20;75394;1634.879;-911.108;1;136;-130;-133.9;44.6;44.9;11;10.8;25.2;0.0;
03/03/2025 06:09:06;100;0;83.21;-4;-19.95;-6.27;814.1;11.20;75381;1632.390;-909.353;1;136;-130;-133.9;44.6;44.9;13;13.1;25.2;0.0;
03/03/2025 06:09:26;100;0;86.40;-4;-20.04;-5.01;816.0;11.20;75384;1629.900;-907.600;1;136;-150;-151.6;44.6;44.9;13;13.1;25.2;0.0;
03/03/2025 06:09:46;100;0;87.26;-4;-20.35;-4.57;818.3;11.10;75402;1627.411;-905.846;1;136;-150;-153.2;44.6;44.9;13;13.1;25.2;0.0;
03/03/2025 06:10:06;100;0;91.42;-4;-19.94;-5.22;820.3;11.10;75395;1624.922;-904.093;1;136;-150;-151.6;44.6;44.9;13;13.1;25.2;0.0;
03/03/2025 06:10:26;100;0;91.79;-4;-20.52;-4.85;822.6;11.10;75390;1622.405;-902.321;1;136;-150;-153.2;44.6;44.9;13;13.1;25.2;0.0;
03/03/2025 06:10:46;100;0;94.49;-4;-20.75;-4.76;824.8;11.10;75386;1619.943;-900.588;1;136;-150;-151.6;44.6;44.9;13;13.5;25.2;0.0;
03/03/2025 06:11:06;100;0;95.71;-4;-21.55;-4.79;827.3;11.10;75378;1617.453;-858.836;1;136;-150;-153.2;44.6;44.9;15;14.9;25.2;0.0;
03/03/2025 06:11:26;100;0;95.57;-4;-21.56;-3.89;829.9;11.00;75377;1614.964;-857.084;1;136;-150;-151.6;44.6;44.9;15;15.3;25.2;0.0;
03/03/2025 06:11:46;100;0;98.96;-4;-20.55;-4.16;832.3;11.00;75380;1612.474;-855.332;1;136;-150;-151.6;44.6;44.9;15;15.3;25.2;0.0;
03/03/2025 06:12:06;100;0;99.19;-4;-20.14;-3.66;834.9;11.00;75375;1609.984;-853.581;1;136;-150;-151.6;44.6;44.9;15;15.3;25.2;0.0;
03/03/2025 06:12:26;100;0;100.16;-4;-20.28;-3.94;837.0;11.00;75361;1607.495;-851.830;1;136;-150;-151.6;44.6;44.8;17;17.1;25.2;0.0;
03/03/2025 06:12:46;100;0;94.87;-4;-21.64;-3.12;839.2;10.90;75365;1605.005;-850.080;1;136;-150;-153.2;44.6;44.9;15;14.9;25.2;0.0;
03/03/2025 06:13:06;100;0;98.33;-4;-20.18;-4.44;841.7;10.90;75359;1602.498;-848.317;1;136;-150;-151.6;44.6;44.9;15;14.4;25.2;0.0;
03/03/2025 06:13:26;100;0;100.92;-4;-21.59;-4.38;844.0;10.90;75351;1600.025;-846.580;1;136;-150;-153.2;44.6;44.9;18;18.1;25.2;0.0;
03/03/2025 06:13:46;100;0;100.30;-4;-19.85;-2.42;846.7;10.90;75346;1557.536;-844.830;1;136;-150;-153.2;44.6;44.9;18;18.1;25.2;0.0;
03/03/2025 06:14:06;100;0;100.22;-4;-20.27;-2.38;849.1;10.90;75343;1555.045;-843.081;1;136;-150;-153.2;44.6;44.9;18;18.1;25.2;0.0;
03/03/2025 06:14:27;100;0;98.39;-4;-20.72;-2.37;851.5;10.90;75341;1552.551;-841.329;1;136;-150;-153.2;44.6;44.9;16;15.8;25.2;0.0;
03/03/2025 06:14:47;100;0;94.75;-4;-20.04;-3.85;854.1;10.90;75342;1550.066;-839.584;1;136;-150;-153.2;44.6;45.1;16;15.3;25.2;0.0;
03/03/2025 06:15:07;100;0;93.26;-4;-20.74;-3.80;856.7;10.80;75341;1547.577;-837.836;1;136;-150;-153.2;44.6;44.9;16;15.3;25.2;0.0;
03/03/2025 06:15:27;100;0;93.11;-4;-20.28;-3.62;859.1;10.80;75325;1545.088;-836.088;1;136;-150;-153.2;44.6;44.9;16;15.3;25.2;0.0;
03/03/2025 06:15:47;100;0;92.46;-4;-20.79;-3.84;861.7;10.80;75331;1542.339;-834.159;1;136;-150;-153.2;44.6;44.9;16;15.3;25.2;0.0;
03/03/2025 06:16:07;100;0;89.02;-4;-21.10;-3.91;864.6;10.80;75326;1540.072;-832.567;1;136;-150;-153.2;44.6;44.9;16;15.3;25.2;0.0;
03/03/2025 06:16:27;100;0;88.67;-4;-20.74;-3.79;867.3;10.80;75330;1537.617;-830.845;1;136;-150;-151.6;44.6;44.9;16;15.3;25.2;0.0;
03/03/2025 06:16:47;100;0;88.45;-4;-20.67;-3.82;870.3;10.70;75325;1535.131;-829.100;1;136;-150;-153.2;44.6;44.9;16;15.3;25.2;0.0;
03/03/2025 06:17:07;100;0;86.00;-4;-19.21;-4.14;873.2;10.70;75323;1532.643;-827.354;1;136;-150;-151.6;44.6;44.9;14;14.0;25.2;0.0;
03/03/2025 06:17:27;100;0;83.44;-4;-20.59;-4.48;875.7;10.70;75303;1530.155;-825.609;1;136;-150;-151.6;44.6;44.9;14;14.0;25.2;0.0;
03/03/2025 06:17:47;100;0;81.87;-4;-19.67;-4.56;878.4;10.70;75312;1527.666;-823.864;1;136;-150;-153.2;44.6;44.9;12;12.2;25.2;0.0;
03/03/2025 06:18:07;100;0;82.56;-4;-20.41;-5.34;880.9;10.70;75303;1525.177;-822.119;1;136;-150;-153.2;44.6;44.9;12;11.7;25.2;0.0;
03/03/2025 06:18:27;100;0;83.74;-4;-20.09;-5.63;883.4;10.60;75301;1522.688;-820.374;1;136;-150;-153.2;44.6;44.9;12;11.7;25.2;0.0;
03/03/2025 06:18:47;100;0;85.22;-4;-20.91;-5.62;886.1;10.60;75301;1520.170;-818.609;1;136;-150;-151.6;44.6;44.9;14;14.0;25.2;0.0;
03/03/2025 06:19:07;100;0;84.47;-4;-20.03;-4.26;888.7;10.60;75296;1517.711;-816.886;1;136;-150;-153.2;44.6;44.9;14;14.0;25.2;0.0;
03/03/2025 06:19:27;100;0;82.83;-4;-20.90;-4.61;891.3;10.60;75294;1515.222;-815.142;1;136;-150;-153.2;44.6;44.9;14;14.0;25.2;0.0;
03/03/2025 06:19:47;100;0;86.94;-4;-20.62;-4.49;894.1;10.60;75292;1512.733;-813.398;1;136;-150;-151.6;44.6;44.9;14;14.0;25.2;0.0;
03/03/2025 06:20:07;100;0;86.09;-4;-19.84;-4.37;897.0;10.60;75285;1510.244;-811.655;1;136;-150;-153.2;44.6;44.9;14;14.0;25.2;0.0;
03/03/2025 06:20:27;100;0;87.90;-4;-19.44;-4.42;899.7;10.50;75291;1507.754;-809.912;1;136;-150;-153.2;44.6;45.1;14;14.0;25.2;0.0;
03/03/2025 06:20:47;100;0;86.47;-4;-21.92;-4.62;902.0;10.50;75289;1505.265;-808.170;1;136;-150;-151.6;44.6;44.9;14;14.0;25.2;0.0;
03/03/2025 06:21:07;100;0;88.14;-4;-20.12;-4.21;904.9;10.50;75288;1502.776;-806.428;1;136;-150;-153.2;44.6;44.9;14;14.0;25.2;0.0;
03/03/2025 06:21:27;100;0;91.91;-4;-19.79;-4.32;907.7;10.50;75270;1500.269;-804.673;1;136;-150;-151.6;44.6;44.9;14;14.0;25.2;0.0;
03/03/2025 06:21:47;100;0;86.66;-4;-21.52;-4.59;910.5;10.50;75281;1457.798;-802.945;1;136;-150;-154.8;44.6;44.9;14;14.0;25.2;0.0;
03/03/2025 06:22:07;100;0;85.81;-4;-21.12;-3.93;913.4;10.40;75277;1455.307;-801.203;1;136;-150;-153.2;44.6;44.9;14;14.0;25.2;0.0;
03/03/2025 06:22:27;100;0;82.65;-4;-18.13;-4.14;916.7;10.40;75274;1452.820;-759.461;1;136;-150;-151.6;45.2;45.4;12;12.2;25.2;0.0;
03/03/2025 06:22:47;100;0;80.79;-4;-22.53;-6.14;919.0;10.40;75277;1450.330;-757.721;1;136;-150;-153.2;44.4;44.5;12;11.7;25.2;0.0;
03/03/2025 06:23:07;100;0;76.16;-4;-21.60;-5.79;922.0;10.40;75260;1447.841;-755.981;1;136;-150;-153.2;44.4;44.3;6;5.9;25.2;0.0;
03/03/2025 06:23:27;100;0;77.90;-4;-19.76;-8.44;924.8;10.40;75258;1445.354;-754.242;1;136;-150;-151.6;44.4;44.2;8;8.1;25.2;0.0;
03/03/2025 06:23:47;100;0;79.26;-4;-17.80;-7.09;927.8;10.40;75261;1442.864;-752.501;1;136;-150;-156.5;45.1;45.1;8;8.6;25.2;0.0;
03/03/2025 06:24:07;100;0;79.00;-4;-19.67;-7.23;930.6;10.30;75260;1440.369;-750.757;1;136;-150;-151.6;45.1;45.2;8;8.6;25.2;0.0;
03/03/2025 06:24:27;100;0;82.34;-4;-19.63;-7.10;933.2;10.30;75258;1437.888;-749.024;1;136;-150;-153.2;45.1;45.2;12;12.2;25.2;0.0;
03/03/2025 06:24:47;100;0;82.92;-4;-20.71;-5.46;936.2;10.30;75254;1435.399;-747.285;1;136;-150;-153.2;45.1;45.2;12;12.2;25.2;0.0;
03/03/2025 06:25:07;100;0;84.29;-4;-20.01;-5.25;939.0;10.30;75257;1432.910;-745.547;1;136;-150;-151.6;45.1;45.2;12;12.2;25.2;0.0;
03/03/2025 06:25:27;100;0;84.03;-4;-20.15;-5.20;941.8;10.30;75252;1430.423;-743.810;1;136;-150;-153.2;45.1;45.2;12;12.2;25.2;0.0;
03/03/2025 06:25:47;100;0;85.54;-4;-21.16;-5.38;944.4;10.30;75250;1427.935;-742.073;1;136;-150;-151.6;45.1;45.2;12;12.2;25.2;0.0;
03/03/2025 06:26:07;100;0;88.23;-4;-21.00;-5.35;947.4;10.30;75256;1425.447;-740.337;1;136;-150;-151.6;45.1;45.2;14;14.0;25.2;0.0;
03/03/2025 06:26:27;100;0;87.94;-4;-20.80;-4.31;950.1;10.20;75244;1422.958;-738.600;1;136;-150;-153.2;45.1;45.2;14;14.4;25.2;0.0;
03/03/2025 06:26:47;100;0;88.26;-4;-21.13;-4.37;953.0;10.20;75236;1420.468;-736.863;1;136;-150;-153.2;45.1;45.2;14;14.4;25.2;0.0;
03/03/2025 06:27:07;100;0;89.25;-4;-20.28;-4.14;956.0;10.20;75250;1417.948;-735.105;1;136;-150;-153.2;45.1;45.2;14;14.4;25.2;0.0;
03/03/2025 06:27:27;100;0;90.52;-4;-20.24;-4.20;958.7;10.20;75235;1415.490;-733.391;1;136;-150;-154.8;45.1;45.4;14;14.4;25.2;0.0;
03/03/2025 06:27:47;100;0;91.01;-4;-21.68;-4.19;961.5;10.20;75244;1413.001;-731.656;1;136;-150;-153.2;45.1;45.2;14;14.4;25.2;0.0;
03/03/2025 06:28:07;100;0;90.05;-4;-20.39;-4.29;964.2;10.20;75244;1410.512;-729.920;1;136;-150;-153.2;45.1;45.4;14;14.4;25.2;0.0;
03/03/2025 06:28:27;100;0;91.87;-4;-21.08;-4.18;967.0;10.20;75239;1408.020;-728.184;1;136;-150;-154.8;45.1;45.2;14;14.4;25.2;0.0;
03/03/2025 06:28:47;100;0;92.23;-4;-20.94;-4.09;969.8;10.10;75223;1405.533;-726.451;1;136;-150;-151.6;45.1;45.2;14;14.4;25.2;0.0;
03/03/2025 06:29:07;100;0;91.77;-4;-20.88;-4.37;972.5;10.10;75244;1403.043;-724.717;1;136;-150;-153.2;45.1;45.2;14;14.4;25.2;0.0;
03/03/2025 06:29:27;100;0;90.98;-4;-19.79;-3.87;975.3;10.10;75223;1400.538;-722.971;1;136;-150;-153.2;45.1;45.2;14;14.4;25.2;0.0;
03/03/2025 06:29:47;100;0;90.47;-4;-19.81;-4.34;977.8;10.10;75218;1357.791;-721.059;1;136;-150;-151.6;45.1;45.4;14;14.4;25.2;0.0;
03/03/2025 06:30:07;100;0;87.79;-4;-20.84;-4.11;980.2;10.10;75230;1355.576;-719.516;1;136;-150;-153.2;45.1;45.4;14;14.4;25.2;0.0;
03/03/2025 06:30:27;100;0;92.24;-4;-21.47;-4.37;982.4;10.10;75217;1353.086;-717.784;1;136;-150;-153.2;45.1;45.2;14;14.4;25.2;0.0;
03/03/2025 06:30:47;100;0;100.38;-4;-20.82;-3.82;984.9;10.10;75218;1350.596;-716.051;1;136;-150;-153.2;45.1;45.2;16;15.8;25.2;0.0;
03/03/2025 06:31:07;100;0;98.15;-4;-21.43;-3.69;987.5;10.10;75212;1348.105;-714.319;1;136;-150;-153.2;45.1;45.4;16;15.8;25.2;0.0;
03/03/2025 06:31:27;100;0;94.05;-4;-21.74;-3.12;990.2;10.00;75216;1345.617;-712.587;1;136;-150;-153.2;45.1;45.4;14;14.0;25.2;0.0;
03/03/2025 06:31:47;100;0;94.21;-4;-18.54;-4.14;993.0;10.00;75214;1343.128;-710.855;1;136;-150;-153.2;45.5;45.7;14;13.5;25.2;0.0;
03/03/2025 06:32:07;100;0;97.16;-4;-21.55;-4.45;995.3;10.00;75211;1340.638;-709.125;1;136;-150;-153.2;45.5;45.8;14;13.5;25.2;0.0;
03/03/2025 06:32:27;100;0;101.23;-4;-20.91;-4.40;998.1;10.00;75199;1338.135;-707.384;1;136;-150;-153.2;45.5;45.8;17;17.1;25.2;0.0;
03/03/2025 06:32:34;118;0;101.29;-4;-21.38;-2.88;998.7;10.00;75199;1337.276;-706.788;1;136;450;-151.6;21.1;21.1;8;8.1;25.2;0.0;
03/03/2025 06:32:44;118;0;99.83;-4;-8.90;-7.79;999.7;10.00;75191;1336.318;-706.121;1;136;450;-22.6;21.1;20.8;8;7.7;23.7;-1.0;
03/03/2025 06:32:54;118;0;87.17;-4;17.42;-8.14;999.5;10.00;74919;1335.074;-705.258;1;136;450;103.2;21.1;20.5;8;7.7;23.6;-1.0;
03/03/2025 06:33:04;118;0;80.73;-4;29.41;-8.40;998.5;10.00;74658;1333.831;-704.394;1;136;450;227.4;21.1;21.1;8;7.7;23.8;-1.0;
03/03/2025 06:33:14;118;0;80.04;-4;32.36;-8.32;997.0;10.00;74420;1332.587;-703.530;1;136;450;350.0;21.1;21.4;8;7.7;23.6;-1.0;
03/03/2025 06:33:24;118;0;81.43;-4;28.38;-8.10;995.0;10.00;74178;1331.331;-702.656;1;136;450;451.6;21.1;21.2;8;7.7;23.6;-1.0;
03/03/2025 06:33:34;118;0;105.00;-4;25.15;-6.87;993.1;10.00;73971;1330.071;-701.780;1;136;450;451.6;21.1;21.4;8;7.7;25.1;-1.0;
03/03/2025 06:33:44;118;0;101.24;-4;23.92;-7.05;990.9;10.10;73978;1328.786;-700.887;1;136;450;451.6;21.1;21.4;8;7.7;25.2;-1.0;
03/03/2025 06:34:04;117;0;89.80;-4;21.22;-6.90;986.7;10.10;73968;1326.354;-659.195;1;136;450;450.0;21.1;21.2;8;7.7;25.2;-1.0;
03/03/2025 06:34:24;117;0;79.84;-4;19.65;-7.71;982.6;10.20;73980;1323.606;-657.284;1;136;450;451.6;21.1;21.4;33;32.9;25.2;-1.0;
03/03/2025 06:34:44;117;0;81.41;-4;19.82;6.05;978.8;10.20;73970;1321.118;-655.554;1;136;450;451.6;21.1;21.4;33;33.4;25.2;-1.0;
03/03/2025 06:35:04;117;0;83.13;-4;23.25;6.00;975.1;10.20;73961;1318.629;-653.824;1;136;450;451.6;22.0;22.1;31;31.1;25.2;-1.0;
03/03/2025 06:35:24;117;0;81.48;-4;23.56;5.11;970.6;10.20;73967;1316.141;-652.094;1;136;450;450.0;23.1;23.1;31;31.1;25.2;-1.0;
03/03/2025 06:35:44;117;0;83.20;-4;19.94;4.93;966.2;10.20;73961;1313.652;-650.364;1;136;450;451.6;23.1;23.3;31;31.1;25.2;-1.0;
03/03/2025 06:36:04;117;0;82.72;-4;18.55;3.61;962.9;10.20;73952;1311.163;-648.635;1;136;450;451.6;22.7;22.5;31;31.1;25.2;-1.0;
03/03/2025 06:36:24;117;0;87.22;-4;19.79;3.66;959.5;10.20;73948;1308.657;-646.894;1;136;450;451.6;22.7;22.7;29;28.9;25.2;-1.0;
03/03/2025 06:36:44;117;0;89.17;-4;18.47;3.35;956.8;10.20;73951;1306.187;-645.180;1;136;450;451.6;22.2;22.2;29;28.9;25.2;-1.0;
03/03/2025 06:37:04;117;0;87.75;-4;22.49;3.51;954.1;10.20;73957;1303.698;-643.453;1;136;450;451.6;23.0;23.0;29;28.9;25.2;-1.0;
03/03/2025 06:37:24;117;0;87.19;-4;21.18;3.71;950.3;10.20;73947;1301.209;-641.725;1;136;450;451.6;23.0;23.1;29;28.4;25.2;-1.0;
03/03/2025 06:37:44;117;0;89.63;-4;20.11;3.44;946.6;10.20;73949;1258.720;-639.997;1;136;450;453.2;23.0;23.1;29;28.4;25.2;-1.0;
03/03/2025 06:38:04;117;0;89.65;-4;22.28;3.88;942.8;10.20;73941;1256.231;-638.270;1;136;450;450.0;23.7;23.7;29;28.4;25.2;-1.0;
03/03/2025 06:38:24;117;0;88.99;-4;16.15;3.64;939.0;10.10;73940;1253.739;-636.540;1;136;450;453.2;22.5;22.5;29;28.4;25.2;-1.0;
03/03/2025 06:38:44;117;0;88.10;-4;19.43;3.17;936.1;10.10;73939;1251.252;-634.816;1;136;450;451.6;22.5;22.5;29;28.9;25.2;-1.0;
03/03/2025 06:39:04;117;0;88.88;-4;20.56;3.65;932.3;10.10;73928;1248.753;-633.082;1;136;450;451.6;22.5;21.9;29;28.9;25.2;-1.0;
03/03/2025 06:39:24;117;0;88.07;-4;20.67;2.90;928.4;10.10;73923;1246.274;-631.363;1;136;450;451.6;22.5;21.9;29;28.4;25.2;-1.0;
03/03/2025 06:39:44;117;0;90.62;-4;21.05;3.62;924.7;10.10;73920;1243.785;-629.637;1;136;450;451.6;22.5;21.9;29;28.4;25.2;-1.0;
03/03/2025 06:40:04;117;0;90.57;-4;20.63;2.76;921.0;10.10;73921;1241.296;-627.911;1;136;450;451.6;22.5;21.9;29;28.9;25.2;-1.0;
03/03/2025 06:40:24;117;0;88.69;-4;21.14;3.42;917.3;10.10;73919;1238.806;-626.185;1;136;450;451.6;22.5;21.9;29;28.9;25.2;-1.0;
03/03/2025 06:40:44;117;0;88.05;-4;20.21;3.40;913.6;10.00;73914;1236.317;-624.460;1;136;450;451.6;22.5;21.9;29;28.4;25.2;-1.0;
03/03/2025 06:41:04;117;0;89.58;-4;20.66;3.62;910.2;10.00;73918;1233.828;-622.736;1;136;450;451.6;22.5;21.9;29;28.9;25.2;-1.0;
03/03/2025 06:41:24;117;0;87.94;-4;20.32;3.68;906.8;10.00;73919;1231.339;-621.011;1;136;450;451.6;22.5;21.9;29;28.9;25.2;-1.0;
03/03/2025 06:41:44;117;0;87.95;-4;20.66;3.48;903.3;10.00;73906;1228.850;-619.287;1;136;450;451.6;22.5;21.9;29;28.4;25.2;-1.0;
03/03/2025 06:42:04;117;0;87.70;-4;20.67;3.59;900.0;10.00;73901;1226.331;-617.543;1;136;450;451.6;22.5;21.9;29;28.9;25.2;-1.0;
03/03/2025 06:42:24;117;0;87.85;-4;21.04;3.53;896.6;10.00;73901;1223.872;-615.841;1;136;450;451.6;22.5;21.9;29;28.4;25.2;-1.0;
03/03/2025 06:42:44;117;0;87.92;-4;20.57;3.90;893.4;10.00;73907;1221.383;-614.118;1;136;450;451.6;22.5;21.9;29;28.9;25.2;-1.0;
03/03/2025 06:43:04;117;0;90.19;-4;20.73;3.25;890.0;10.00;73907;1218.893;-612.395;1;136;450;453.2;22.5;21.9;29;28.9;25.2;-1.0;
03/03/2025 06:43:24;117;0;89.53;-4;20.09;3.45;886.7;9.90;73900;1216.404;-610.672;1;136;450;451.6;22.5;21.9;29;28.4;25.2;-1.0;
03/03/2025 06:43:44;117;0;88.44;-4;20.84;3.60;883.6;9.90;73898;1213.915;-608.950;1;136;450;451.6;22.5;21.9;29;28.4;25.2;-1.0;
03/03/2025 06:44:04;117;0;89.63;-4;20.85;3.55;880.3;9.90;73892;1211.426;-607.229;1;136;450;451.6;22.5;21.9;29;28.4;25.2;-1.0;
03/03/2025 06:44:24;117;0;89.05;-4;20.45;3.40;876.8;9.90;73893;1208.938;-605.507;1;136;450;451.6;22.5;21.9;29;28.4;25.2;-1.0;
03/03/2025 06:44:44;117;0;89.66;-4;21.36;3.32;873.5;9.90;73900;1206.176;-603.598;1;136;450;451.6;22.5;21.9;29;28.4;25.2;-1.0;
03/03/2025 06:45:04;117;0;89.98;-4;20.91;3.56;870.0;9.90;73894;1203.960;-602.066;1;136;450;451.6;22.5;21.9;29;28.4;25.2;-1.0;
03/03/2025 06:45:24;117;0;89.08;-4;20.75;3.56;866.6;9.90;73887;1201.471;-600.345;1;136;450;451.6;22.5;21.9;29;28.4;25.2;-1.0;
03/03/2025 06:45:44;117;0;88.82;-4;20.23;3.35;863.5;9.90;73885;1158.978;-558.622;1;136;450;451.6;22.5;21.9;29;28.4;25.2;-1.0;
03/03/2025 06:46:04;117;0;88.85;-4;20.85;3.23;860.5;9.90;73880;1156.493;-556.904;1;136;450;451.6;22.5;21.9;29;28.4;25.2;-1.0;
03/03/2025 06:46:24;117;0;88.83;-4;20.49;3.34;857.3;9.90;73886;1154.004;-555.184;1;136;450;451.6;22.5;21.9;29;28.4;25.2;-1.0;
03/03/2025 06:46:44;117;0;89.02;-4;20.87;3.59;854.4;9.80;73870;1151.515;-553.465;1;136;450;451.6;22.5;21.9;29;28.4;25.2;-1.0;
03/03/2025 06:47:04;117;0;89.56;-4;20.59;3.38;851.2;9.80;73881;1149.020;-551.742;1;136;450;451.6;22.5;21.9;29;28.4;25.2;-1.0;
03/03/2025 06:47:24;117;0;89.57;-4;20.92;3.66;848.1;9.80;73884;1146.524;-550.019;1;136;450;453.2;22.5;21.9;29;28.4;25.2;-1.0;
03/03/2025 06:47:44;117;0;89.65;-4;20.75;3.22;844.8;9.80;73874;1144.047;-548.308;1;136;450;451.6;22.5;21.9;29;28.9;25.2;-1.0;
03/03/2025 06:48:05;117;0;90.18;-4;20.54;3.48;841.5;9.80;73887;1141.558;-546.589;1;136;450;451.6;22.5;21.8;29;28.9;25.2;-1.0;
03/03/2025 06:48:25;117;0;90.41;-4;18.54;2.23;838.3;9.80;73872;1139.068;-544.871;1;136;450;451.6;22.1;22.1;29;28.9;25.2;-1.0;
03/03/2025 06:48:45;117;0;90.83;-4;20.28;3.03;835.5;9.80;73873;1136.579;-543.153;1;136;450;451.6;22.1;22.2;29;28.4;25.2;-1.0;
03/03/2025 06:49:05;117;0;89.06;-4;19.20;3.68;832.7;9.80;73870;1134.090;-541.435;1;136;450;451.6;22.1;22.2;29;28.9;25.2;-1.0;
03/03/2025 06:49:25;117;0;91.07;-4;21.15;3.17;829.6;9.80;73870;1131.600;-539.718;1;136;450;453.2;22.1;22.2;29;28.4;25.2;-1.0;
03/03/2025 06:49:45;117;0;88.48;-4;20.33;3.57;826.4;9.80;73876;1129.111;-538.000;1;136;450;451.6;22.1;22.2;29;28.4;25.2;-1.0;
03/03/2025 06:50:05;117;0;86.71;-4;21.19;3.56;822.7;9.80;73890;1126.621;-536.281;1;136;450;451.6;22.1;22.2;29;28.4;25.2;-1.0;
03/03/2025 06:50:25;117;0;85.92;-4;20.43;3.63;818.8;9.80;73888;1123.750;-534.301;1;136;450;451.6;22.1;22.2;29;28.4;25.2;-1.0;
03/03/2025 06:50:45;117;0;83.23;-4;19.94;3.67;815.0;9.80;73895;1121.517;-532.759;1;136;450;450.0;22.1;22.2;31;31.1;25.2;-1.0;
03/03/2025 06:51:05;117;0;83.08;-4;19.34;4.94;811.5;9.80;73888;1119.156;-531.130;1;136;450;451.6;22.1;22.2;31;31.6;25.2;-1.0;
03/03/2025 06:51:25;117;0;83.12;-4;20.58;5.03;808.1;9.80;73898;1116.667;-529.414;1;136;450;451.6;22.1;22.2;31;31.6;25.2;-1.0;
03/03/2025 06:51:45;117;0;81.59;-4;20.43;4.76;804.7;9.80;73899;1114.179;-527.698;1;136;450;450.0;22.1;22.2;31;31.6;25.2;-1.0;
03/03/2025 06:52:05;117;0;80.20;-4;19.84;5.09;801.3;9.80;73914;1111.690;-525.982;1;136;450;451.6;22.1;22.2;34;33.8;25.2;-1.0;
03/03/2025 06:52:25;117;0;84.81;-4;20.56;6.00;797.7;9.80;73918;1109.199;-524.264;1;136;450;451.6;22.1;22.2;31;31.1;25.2;-1.0;
03/03/2025 06:52:45;117;0;85.21;-4;20.52;4.44;794.0;9.80;73923;1106.697;-522.540;1;136;450;451.6;22.1;22.1;31;30.7;25.2;-1.0;
03/03/2025 06:53:05;117;0;87.46;-4;20.84;4.73;790.2;9.80;73918;1104.202;-520.820;1;136;450;451.6;22.1;22.2;31;30.7;25.2;-1.0;
03/03/2025 06:53:25;117;0;82.71;-4;20.27;5.26;785.9;9.80;73915;1101.737;-519.120;1;136;450;451.6;22.1;22.2;31;30.7;25.2;-1.0;
03/03/2025 06:53:45;117;0;81.33;-4;20.17;4.85;782.0;9.80;73919;1059.249;-517.405;1;136;450;451.6;22.1;22.2;33;32.9;25.2;-1.0;
03/03/2025 06:54:05;117;0;85.31;-4;19.86;5.38;777.9;9.80;73921;1056.760;-515.690;1;136;450;450.0;22.1;22.2;31;31.1;25.2;-1.0;
03/03/2025 06:54:25;117;0;89.13;-4;20.31;5.04;774.0;9.80;73904;1054.271;-513.975;1;136;450;451.6;22.1;22.2;31;31.1;25.2;-1.0;
03/03/2025 06:54:45;117;0;91.04;-4;21.33;4.61;770.0;9.80;73911;1051.782;-512.260;1;136;450;453.2;22.1;22.2;31;30.7;25.2;-1.0;
03/03/2025 06:55:05;117;0;90.54;-4;20.76;5.12;766.4;9.80;73914;1049.292;-510.546;1;136;450;453.2;22.1;22.2;31;31.1;25.2;-1.0;
03/03/2025 06:55:25;117;0;91.51;-4;21.07;4.72;762.3;9.80;73908;1046.803;-508.832;1;136;450;453.2;22.1;22.2;31;31.1;25.2;-1.0;
03/03/2025 06:55:45;117;0;92.02;-4;20.38;4.68;758.6;9.80;73919;1044.299;-507.108;1;136;450;451.6;22.1;22.2;31;31.1;25.2;-1.0;
03/03/2025 06:56:05;117;0;94.45;-4;20.12;4.78;754.6;9.80;73910;1041.823;-505.403;1;136;450;451.6;22.1;22.2;31;31.1;25.2;-1.0;
03/03/2025 06:56:25;117;0;94.47;-4;20.16;4.45;751.0;9.80;73918;1039.334;-503.691;1;136;450;451.6;22.1;22.2;31;31.1;25.2;-1.0;
03/03/2025 06:56:45;117;0;93.99;-4;19.85;4.78;747.5;9.80;73915;1036.845;-501.979;1;136;450;451.6;22.1;22.2;31;31.1;25.2;-1.0;
03/03/2025 06:57:05;117;0;98.35;-4;20.51;4.62;743.8;9.80;73913;1034.355;-500.266;1;136;450;453.2;22.1;22.2;29;28.9;25.2;-1.0;
03/03/2025 06:57:25;117;0;97.66;-4;20.28;3.89;740.2;9.80;73924;1031.865;-458.554;1;136;450;451.6;22.1;22.2;29;28.9;25.2;-1.0;
03/03/2025 06:57:45;117;0;99.35;-4;20.34;3.56;736.5;9.80;73927;1029.372;-456.840;1;136;450;453.2;22.1;22.2;29;28.9;25.2;-1.0;
03/03/2025 06:58:05;117;0;100.28;-4;20.14;3.35;733.0;9.80;73926;1026.885;-455.130;1;136;450;451.6;22.1;22.2;27;27.1;25.2;-1.0;
03/03/2025 06:58:25;117;0;101.29;-4;19.80;2.46;729.6;9.80;73932;1024.367;-453.399;1;136;450;453.2;22.1;22.2;27;26.6;25.2;-1.0;
03/03/2025 06:58:45;117;0;97.93;-4;19.35;2.52;726.7;9.90;73939;1021.871;-451.684;1;136;450;453.2;22.1;22.4;29;28.9;25.2;-1.0;
03/03/2025 06:59:05;117;0;95.21;-4;19.69;3.90;723.7;9.90;73928;1019.415;-449.997;1;136;450;453.2;22.1;22.2;29;29.3;25.2;-1.0;
