Timestamp;NavState;SecurityLevel;Heading;Declination;Pitch;Roll;Depth;Temperature;Pa;Lat;Lon;DeadReckoning;DesiredH;BallastCmd;BallastPos;LinCmd;LinPos;AngCmd;AngPos;Voltage;Altitude;
16/02/2025 19:46:42;119;0;9.64;-4;-66.96;-20.40;-0.3;19.60;76546;2837.811;-1801.314;0;186;500;508.1;100.0;100.6;0;-0.9;28.4;-1.0;
16/02/2025 19:46:52;116;0;347.34;-4;-53.81;-9.05;-0.1;19.70;76559;2837.814;-1801.315;0;184;500;508.1;100.0;100.6;0;-0.5;28.3;-1.0;
16/02/2025 19:47:17;116;0;332.92;-4;-61.07;-5.36;-0.1;19.70;76562;2837.815;-1801.317;0;184;500;508.1;100.0;100.6;0;-0.9;28.4;-1.0;
16/02/2025 19:47:39;116;0;335.14;-4;-55.50;-19.71;0.0;19.70;76572;2837.814;-1801.317;0;184;500;509.7;100.0;100.6;0;-0.5;28.3;-1.0;
16/02/2025 19:48:01;116;0;334.25;-4;-60.53;-18.48;0.1;19.80;76565;2837.815;-1801.318;0;184;500;508.1;100.0;100.6;0;-0.9;28.4;-1.0;
16/02/2025 19:48:21;116;0;331.53;-4;-54.52;-17.39;0.1;19.80;76578;2837.812;-1801.320;0;184;500;509.7;100.0;100.4;0;-0.5;28.4;-1.0;
16/02/2025 19:49:07;116;0;345.44;-4;-50.90;-18.46;0.2;19.90;76593;2837.813;-1801.323;0;183;500;509.7;100.0;100.6;0;-0.5;28.4;-1.0;
16/02/2025 19:49:59;116;0;338.97;-4;-57.68;-11.71;0.1;20.00;76604;2837.815;-1801.325;0;183;500;506.5;100.0;100.6;0;-0.9;28.3;-1.0;
16/02/2025 19:50:10;116;0;344.54;-4;-49.42;-11.40;0.0;20.10;76605;2837.815;-1801.326;0;182;500;509.7;100.0;100.6;0;-0.5;28.4;-1.0;
16/02/2025 19:50:30;110;0;337.45;-4;-51.81;-17.56;0.0;20.10;76593;2837.815;-1801.326;0;182;-50;396.8;100.0;100.6;-14;-14.0;28.3;-1.0;
16/02/2025 19:50:40;110;0;340.40;-4;-52.52;-18.39;0.2;20.10;76953;2837.816;-1801.326;1;182;-50;245.2;100.0;100.6;-14;-14.4;28.3;-1.0;
16/02/2025 19:50:50;110;0;346.45;-4;-59.59;-25.45;0.6;20.20;77206;2837.816;-1801.326;1;182;-50;83.9;100.0;100.6;-14;-14.4;28.3;-1.0;
16/02/2025 19:51:00;110;0;4.62;-4;-72.54;-29.30;0.8;20.20;77536;2837.817;-1801.326;1;182;-50;-50.0;100.0;100.7;-14;-14.4;28.3;-1.0;
16/02/2025 19:51:10;110;0;18.02;-4;-64.76;-20.12;1.3;20.20;77813;2837.817;-1801.325;1;182;-50;-50.0;47.8;47.9;-14;-14.4;28.3;-1.0;
16/02/2025 19:51:30;100;0;36.71;-4;-35.14;-19.17;4.7;20.30;77790;2837.820;-1801.323;1;183;-50;-48.4;47.8;47.6;-14;-14.4;28.4;-1.0;
16/02/2025 19:51:50;100;0;42.03;-4;-28.74;-18.99;8.4;20.30;77775;2837.823;-1801.320;1;183;-50;-46.8;48.2;48.5;-70;-69.9;28.4;-1.0;
16/02/2025 19:52:10;100;0;51.92;-4;-31.59;-45.09;12.3;20.40;77771;2837.826;-1801.317;1;184;-50;-45.2;48.2;48.5;-70;-70.4;28.4;-1.0;
16/02/2025 19:52:30;100;0;63.42;-4;-30.98;-45.33;16.6;20.40;77774;2837.828;-1801.312;1;185;-50;-45.2;48.2;48.5;-70;-70.4;28.4;0.0;
16/02/2025 19:52:50;100;0;69.75;-4;-30.91;-45.00;20.6;20.40;77773;2837.830;-1801.308;1;185;-50;-46.8;48.2;48.5;-70;-70.4;28.4;0.0;
16/02/2025 19:53:10;100;0;82.51;-4;-30.52;-45.13;24.7;20.40;77778;2837.831;-1801.304;1;186;-50;-46.8;48.2;48.5;-70;-70.4;28.3;0.0;
16/02/2025 19:53:30;100;0;91.84;-4;-30.82;-45.22;28.8;20.50;77777;2837.831;-1801.299;1;187;-50;-46.8;48.2;48.5;-70;-70.4;28.4;0.0;
16/02/2025 19:53:50;100;0;102.43;-4;-30.32;-45.42;32.8;20.50;77790;2837.831;-1801.295;1;187;-50;-45.2;48.2;48.5;-70;-70.4;28.4;0.0;
16/02/2025 19:54:10;100;0;113.69;-4;-29.95;-45.12;36.8;20.50;77776;2837.830;-1801.291;1;188;-50;-45.2;48.2;48.6;-70;-70.4;28.4;0.0;
16/02/2025 19:54:30;100;0;122.28;-4;-30.93;-45.18;40.7;20.50;77789;2837.829;-1801.287;1;189;-50;-45.2;48.2;48.5;-70;-70.4;28.4;0.0;
16/02/2025 19:54:50;100;0;133.20;-4;-30.57;-45.09;44.7;20.50;77783;2837.827;-1801.284;1;190;-50;-46.8;48.2;48.5;-65;-64.5;28.4;0.0;
16/02/2025 19:55:10;100;0;144.67;-4;-29.44;-42.07;48.6;20.50;77784;2837.825;-1801.281;1;190;-50;-45.2;48.2;48.5;-51;-50.5;28.4;0.0;
16/02/2025 19:55:30;100;0;153.68;-4;-29.51;-35.32;52.3;20.50;77791;2837.823;-1801.279;1;191;-50;-48.4;48.2;48.5;-41;-41.1;28.4;0.0;
16/02/2025 19:55:50;100;0;159.43;-4;-29.62;-30.41;56.2;20.50;77786;2837.820;-1801.277;1;191;-50;-46.8;48.2;48.5;-34;-33.4;28.4;0.0;
16/02/2025 19:56:10;100;0;167.47;-4;-28.77;-26.97;59.9;20.50;77783;2837.817;-1801.276;1;191;-50;-45.2;48.6;48.5;-22;-22.1;28.3;0.0;
16/02/2025 19:56:30;100;0;174.25;-4;-29.79;-21.34;63.7;20.50;77783;2837.814;-1801.275;1;192;-50;-46.8;48.6;48.5;-12;-11.7;28.3;0.0;
16/02/2025 19:56:50;100;0;179.69;-4;-30.00;-16.63;67.6;20.50;77792;2837.812;-1801.275;1;192;-50;-46.8;48.6;48.7;-3;-3.2;28.4;0.0;
16/02/2025 19:57:10;100;0;183.10;-4;-30.22;-12.51;71.4;20.50;77787;2837.809;-1801.274;1;192;-50;-45.2;48.6;48.6;2;1.8;28.4;0.0;
16/02/2025 19:57:31;100;0;184.73;-4;-30.41;-10.27;75.3;20.50;77788;2837.806;-1801.274;1;192;-50;-45.2;48.6;48.6;4;4.5;28.4;0.0;
16/02/2025 19:57:51;100;0;184.65;-4;-30.62;-9.25;79.2;20.50;77785;2837.803;-1801.274;1;192;-50;-46.8;48.6;48.6;4;5.0;28.4;0.0;
16/02/2025 19:58:11;100;0;183.46;-4;-30.76;-9.22;83.1;20.50;77777;2837.801;-1801.274;1;192;-50;-45.2;48.6;48.6;2;1.8;28.4;0.0;
16/02/2025 19:58:31;100;0;183.73;-4;-30.27;-10.61;86.9;20.50;77799;2837.798;-1801.274;1;193;-50;-48.4;48.6;48.6;2;1.8;28.4;0.0;
16/02/2025 19:58:51;100;0;183.01;-4;-30.44;-10.82;90.8;20.50;77788;2837.795;-1801.273;1;193;-50;-45.2;48.6;48.6;2;1.8;28.4;0.0;
16/02/2025 19:59:11;100;0;186.15;-4;-30.40;-10.80;94.6;20.40;77789;2837.792;-1801.273;1;193;-50;-45.2;48.6;48.6;5;5.0;28.3;0.0;
16/02/2025 19:59:31;100;0;185.70;-4;-30.50;-8.94;98.6;20.40;77786;2837.790;-1801.273;1;193;-50;-45.2;48.6;48.6;5;5.4;28.3;0.0;
16/02/2025 19:59:51;100;0;182.36;-4;-30.26;-8.97;102.3;20.40;77786;2837.787;-1801.273;1;193;-50;-45.2;48.6;48.6;0;-0.5;28.3;0.0;
16/02/2025 20:00:11;100;0;182.70;-4;-29.57;-11.87;106.0;20.40;77784;2837.784;-1801.273;1;193;-50;-46.8;48.6;48.6;0;-0.9;28.4;0.0;
16/02/2025 20:00:31;100;0;180.28;-4;-30.29;-11.90;109.8;20.40;77773;2837.781;-1801.272;1;194;-50;-45.2;48.6;48.6;-4;-4.1;28.3;0.0;
16/02/2025 20:00:51;100;0;179.32;-4;-29.76;-13.87;113.6;20.40;77752;2837.779;-1801.272;1;194;-50;-45.2;48.6;48.6;-6;-5.9;28.3;0.0;
16/02/2025 20:01:11;100;0;182.18;-4;-29.62;-14.89;117.2;20.40;77738;2837.776;-1801.271;1;194;-50;-45.2;48.6;48.6;-1;-0.9;28.4;0.0;
16/02/2025 20:01:31;100;0;190.92;-4;-30.96;-12.07;121.0;20.40;77711;2837.773;-1801.272;1;194;-50;-46.8;48.6;48.6;7;7.2;28.4;0.0;
16/02/2025 20:01:51;100;0;195.01;-4;-30.68;-7.70;124.9;20.30;77690;2837.771;-1801.272;1;194;-50;-46.8;48.6;48.6;7;7.7;28.4;0.0;
16/02/2025 20:02:11;100;0;200.94;-4;-31.37;-7.91;128.8;20.30;77681;2837.768;-1801.273;1;194;-50;-45.2;48.6;48.6;9;9.0;28.3;0.0;
16/02/2025 20:02:31;100;0;202.53;-4;-30.20;-6.97;132.7;20.30;77657;2837.766;-1801.274;1;194;-50;-46.8;48.6;48.6;9;9.0;28.4;0.0;
16/02/2025 20:02:51;100;0;209.40;-4;-29.55;-7.03;136.2;20.30;77630;2837.764;-1801.275;1;194;-50;-45.2;48.6;48.6;12;12.2;28.4;0.0;
16/02/2025 20:03:11;100;0;204.87;-4;-29.82;-5.46;139.8;20.20;77616;2837.761;-1801.276;1;194;-50;-46.8;48.6;48.6;10;9.9;28.3;0.0;
16/02/2025 20:03:31;100;0;196.94;-4;-29.82;-7.04;143.3;20.20;77599;2837.759;-1801.277;1;194;-50;-46.8;48.6;48.6;10;9.5;28.4;0.0;
16/02/2025 20:03:51;100;0;192.56;-4;-29.81;-7.06;146.8;20.20;77578;2837.757;-1801.277;1;194;-50;-45.2;48.6;48.6;8;8.1;28.3;0.0;
16/02/2025 20:04:11;100;0;195.55;-4;-29.76;-7.83;150.4;20.10;77551;2837.754;-1801.278;1;194;-50;-45.2;48.6;48.6;8;7.7;28.4;0.0;
16/02/2025 20:04:31;100;0;199.16;-4;-29.76;-7.81;154.0;20.10;77530;2837.752;-1801.278;1;194;-50;-45.2;48.6;48.6;8;8.1;28.4;0.0;
16/02/2025 20:04:51;100;0;203.83;-4;-30.08;-7.85;157.6;20.10;77510;2837.749;-1801.279;1;194;-50;-48.4;48.6;48.6;8;7.7;28.4;0.0;
16/02/2025 20:05:11;100;0;207.71;-4;-29.79;-7.87;161.4;20.00;77509;2837.747;-1801.281;1;194;-50;-45.2;48.6;48.6;12;12.2;28.3;0.0;
16/02/2025 20:05:31;100;0;206.24;-4;-31.17;-5.50;165.3;20.00;77497;2837.745;-1801.282;1;194;-50;-46.8;48.6;48.6;12;12.2;28.4;0.0;
16/02/2025 20:05:51;100;0;203.88;-4;-30.48;-5.55;169.4;19.90;77476;2837.742;-1801.283;1;194;-50;-46.8;48.6;48.6;9;8.6;28.3;0.0;
16/02/2025 20:06:11;100;0;201.70;-4;-29.61;-7.39;173.3;19.90;77460;2837.739;-1801.284;1;194;-50;-46.8;48.6;48.6;9;8.6;28.3;0.0;
16/02/2025 20:06:31;100;0;202.34;-4;-29.34;-7.46;176.9;19.90;77434;2837.737;-1801.285;1;194;-50;-46.8;48.6;48.6;9;8.6;28.4;0.0;
16/02/2025 20:06:51;100;0;202.33;-4;-29.34;-7.40;180.7;19.80;77425;2837.734;-1801.286;1;193;-50;-45.2;48.6;48.6;9;8.6;28.4;0.0;
16/02/2025 20:07:11;100;0;204.64;-4;-29.71;-7.39;184.4;19.80;77401;2837.732;-1801.287;1;193;-50;-46.8;48.6;48.6;9;8.6;28.4;0.0;
16/02/2025 20:07:31;100;0;206.38;-4;-29.40;-7.40;188.1;19.70;77393;2837.729;-1801.289;1;193;-50;-46.8;48.6;48.7;11;10.8;28.3;0.0;
16/02/2025 20:07:51;100;0;208.88;-4;-29.72;-5.93;191.9;19.70;77380;2837.727;-1801.290;1;193;-50;-45.2;48.6;48.6;14;14.0;28.4;0.0;
16/02/2025 20:08:11;100;0;206.52;-4;-29.86;-4.72;195.6;19.60;77357;2837.725;-1801.291;1;193;-50;-45.2;48.6;48.6;11;10.8;28.3;0.0;
16/02/2025 20:08:29;118;0;206.23;-4;-30.20;-6.41;199.0;19.60;77356;2837.723;-1801.292;1;193;210;-41.9;21.7;21.8;14;14.4;28.3;0.0;
16/02/2025 20:08:39;118;0;178.57;-4;-16.98;-5.18;200.5;19.60;77326;2837.721;-1801.292;1;193;210;87.1;21.7;21.5;14;14.4;27.9;-1.0;
16/02/2025 20:08:49;118;0;174.07;-4;10.18;-4.97;201.0;19.60;77052;2837.720;-1801.292;1;193;210;212.9;21.7;21.2;14;14.4;28.0;-1.0;
16/02/2025 20:08:59;118;0;193.63;-4;23.80;-5.20;200.4;19.50;76791;2837.720;-1801.292;1;193;210;211.3;21.7;21.8;14;14.4;28.3;-1.0;
16/02/2025 20:09:09;118;0;204.75;-4;27.13;-5.04;199.3;19.50;76795;2837.719;-1801.292;1;193;210;212.9;21.7;21.9;14;14.4;28.4;-1.0;
16/02/2025 20:09:29;117;0;200.81;-4;28.25;-5.12;197.1;19.50;76794;2837.718;-1801.292;1;193;210;214.5;21.7;22.1;14;14.4;28.3;-1.0;
16/02/2025 20:09:49;117;0;197.10;-4;28.54;-5.10;194.5;19.40;76782;2837.716;-1801.293;1;193;210;212.9;21.3;21.1;38;37.9;28.3;-1.0;
16/02/2025 20:10:09;117;0;197.51;-4;31.35;7.85;191.9;19.40;76782;2837.715;-1801.293;1;193;210;214.5;21.3;21.1;38;38.4;28.3;-1.0;
16/02/2025 20:10:29;117;0;194.63;-4;31.73;7.88;189.1;19.40;76780;2837.713;-1801.293;1;193;210;214.5;21.3;21.2;38;38.4;28.4;-1.0;
16/02/2025 20:10:49;117;0;193.00;-4;31.88;7.84;186.3;19.30;76783;2837.711;-1801.293;1;193;210;216.1;21.3;21.2;38;38.4;28.3;-1.0;
16/02/2025 20:11:09;117;0;190.33;-4;31.94;7.91;183.4;19.30;76774;2837.710;-1801.293;1;193;210;212.9;21.3;21.1;40;40.2;28.3;-1.0;
16/02/2025 20:11:29;117;0;189.60;-4;32.25;9.04;180.5;19.20;76766;2837.708;-1801.293;1;193;210;214.5;22.0;21.9;40;40.6;28.3;-1.0;
16/02/2025 20:11:49;117;0;188.26;-4;31.02;9.12;177.6;19.20;76770;2837.706;-1801.293;1;194;210;214.5;22.0;22.1;43;42.9;28.3;-1.0;
16/02/2025 20:12:09;117;0;188.48;-4;30.92;10.71;174.8;19.10;76771;2837.704;-1801.293;1;194;210;212.9;22.0;22.2;43;43.3;28.3;-1.0;
16/02/2025 20:12:29;117;0;190.16;-4;30.48;10.65;172.2;19.10;76782;2837.703;-1801.293;1;194;210;214.5;22.0;22.1;41;41.1;28.3;-1.0;
16/02/2025 20:12:49;117;0;192.85;-4;29.82;9.00;169.7;19.10;76789;2837.701;-1801.293;1;194;210;214.5;22.0;22.1;39;38.8;28.4;-1.0;
16/02/2025 20:13:09;117;0;194.42;-4;29.79;7.47;167.3;19.10;76792;2837.700;-1801.293;1;194;210;212.9;22.0;22.2;39;37.9;28.4;-1.0;
16/02/2025 20:13:29;117;0;192.60;-4;30.09;7.60;164.9;19.00;76797;2837.698;-1801.293;1;194;210;211.3;22.0;22.1;39;37.9;28.3;-1.0;
16/02/2025 20:13:49;117;0;190.18;-4;30.42;7.49;162.5;19.00;76798;2837.697;-1801.293;1;194;210;214.5;22.0;22.1;42;42.4;28.3;-1.0;
16/02/2025 20:14:09;117;0;187.66;-4;30.48;10.03;159.9;19.00;76802;2837.695;-1801.293;1;195;210;214.5;22.0;22.1;45;45.1;28.3;-1.0;
16/02/2025 20:14:29;117;0;185.73;-4;30.40;11.73;157.3;19.00;76803;2837.693;-1801.293;1;195;210;214.5;22.0;22.1;47;47.4;28.3;-1.0;
16/02/2025 20:14:49;117;0;186.57;-4;30.83;12.94;154.7;19.00;76813;2837.692;-1801.293;1;195;210;216.1;22.0;22.2;47;47.4;28.4;-1.0;
16/02/2025 20:15:09;117;0;191.67;-4;30.39;12.91;152.1;18.90;76820;2837.690;-1801.293;1;195;210;214.5;22.0;22.1;41;41.1;28.4;-1.0;
16/02/2025 20:15:29;117;0;196.89;-4;29.97;8.98;149.5;18.90;76822;2837.689;-1801.293;1;195;210;212.9;22.0;22.2;39;38.4;28.4;-1.0;
16/02/2025 20:15:49;117;0;202.06;-4;29.95;7.53;146.8;18.90;76838;2837.687;-1801.294;1;195;210;216.1;22.0;22.1;39;37.9;28.4;-1.0;
16/02/2025 20:16:09;117;0;199.47;-4;29.77;7.56;144.3;18.90;76839;2837.685;-1801.294;1;195;210;212.9;22.0;22.1;39;37.9;28.3;-1.0;
16/02/2025 20:16:29;117;0;194.10;-4;30.61;7.51;141.6;18.90;76852;2837.684;-1801.294;1;195;210;214.5;22.0;22.2;39;37.9;28.3;-1.0;
16/02/2025 20:16:49;117;0;187.71;-4;29.28;7.46;139.0;18.90;76870;2837.682;-1801.294;1;196;210;214.5;22.0;22.2;45;45.1;28.3;-1.0;
16/02/2025 20:17:09;117;0;189.91;-4;29.54;11.73;136.6;18.90;76889;2837.681;-1801.294;1;196;210;214.5;22.0;22.1;45;45.6;28.3;-1.0;
16/02/2025 20:17:29;117;0;189.80;-4;29.84;11.65;134.4;18.90;76896;2837.679;-1801.294;1;196;210;214.5;22.0;22.1;45;45.6;28.3;-1.0;
16/02/2025 20:17:49;117;0;189.71;-4;28.94;11.78;132.1;18.90;76909;2837.678;-1801.294;1;196;210;214.5;21.7;21.5;45;45.6;28.3;-1.0;
16/02/2025 20:18:09;117;0;188.66;-4;30.47;11.64;129.9;18.90;76915;2837.676;-1801.294;1;196;210;214.5;21.7;21.5;45;45.6;28.3;-1.0;
16/02/2025 20:18:29;117;0;187.93;-4;30.84;11.69;127.8;18.90;76915;2837.675;-1801.294;1;196;210;214.5;21.7;21.4;47;47.4;28.3;-1.0;
16/02/2025 20:18:49;117;0;187.24;-4;31.66;12.94;125.7;18.90;76941;2837.674;-1801.294;1;197;210;216.1;21.7;21.4;50;50.1;28.3;-1.0;
16/02/2025 20:19:09;117;0;192.72;-4;32.05;14.44;123.2;18.90;76941;2837.673;-1801.294;1;197;210;214.5;22.3;22.4;42;42.0;28.4;-1.0;
16/02/2025 20:19:29;117;0;197.11;-4;29.63;9.29;120.7;18.90;76974;2837.671;-1801.294;1;197;210;214.5;22.3;22.2;39;38.8;28.3;-1.0;
16/02/2025 20:19:49;117;0;198.82;-4;28.67;7.54;118.4;18.90;76988;2837.670;-1801.294;1;197;210;214.5;21.9;21.9;39;38.4;28.3;-1.0;
16/02/2025 20:20:09;117;0;202.59;-4;29.59;7.55;116.1;18.90;77005;2837.669;-1801.295;1;197;210;214.5;21.9;21.8;39;37.9;28.3;-1.0;
16/02/2025 20:20:29;117;0;202.97;-4;29.60;7.44;113.7;19.00;77022;2837.667;-1801.295;1;197;210;214.5;21.9;21.8;39;37.9;28.4;-1.0;
16/02/2025 20:20:49;117;0;208.47;-4;29.68;7.69;111.2;19.00;77033;2837.666;-1801.296;1;197;210;214.5;21.9;21.8;39;38.4;28.4;-1.0;
16/02/2025 20:21:09;117;0;212.67;-4;29.49;7.47;108.9;19.00;77043;2837.665;-1801.297;1;197;210;214.5;21.9;21.6;36;36.1;28.3;-1.0;
16/02/2025 20:21:29;117;0;213.51;-4;29.24;6.12;106.4;19.00;77056;2837.663;-1801.298;1;197;210;214.5;21.9;21.8;34;33.8;28.4;-1.0;
16/02/2025 20:21:49;117;0;212.62;-4;29.16;4.82;104.1;19.00;77070;2837.662;-1801.299;1;196;210;214.5;21.9;21.6;34;32.9;28.4;-1.0;
16/02/2025 20:22:09;117;0;211.68;-4;29.28;4.79;101.7;19.00;77074;2837.661;-1801.299;1;196;210;214.5;21.9;21.8;36;36.1;28.4;-1.0;
16/02/2025 20:22:29;117;0;210.63;-4;29.28;6.80;99.3;19.10;77079;2837.660;-1801.300;1;196;210;216.1;21.9;21.8;36;36.6;28.3;-1.0;
16/02/2025 20:22:49;117;0;210.11;-4;29.36;6.75;96.9;19.10;77084;2837.658;-1801.301;1;196;210;214.5;21.9;21.8;36;36.6;28.4;-1.0;
16/02/2025 20:23:09;117;0;209.63;-4;29.50;6.80;94.4;19.10;77089;2837.657;-1801.302;1;196;210;216.1;21.9;21.8;36;36.6;28.3;-1.0;
16/02/2025 20:23:29;117;0;210.10;-4;29.34;6.69;91.9;19.10;77085;2837.656;-1801.303;1;196;210;214.5;21.9;21.8;36;36.6;28.3;-1.0;
16/02/2025 20:23:49;117;0;210.42;-4;29.29;6.78;89.5;19.10;77088;2837.654;-1801.303;1;195;210;214.5;21.9;21.8;36;36.6;28.3;-1.0;
16/02/2025 20:24:09;117;0;210.16;-4;29.41;6.78;87.0;19.10;77098;2837.653;-1801.304;1;195;210;214.5;21.9;21.9;36;36.6;28.3;-1.0;
16/02/2025 20:24:29;117;0;209.83;-4;29.41;6.80;84.6;19.20;77102;2837.652;-1801.305;1;195;210;214.5;21.9;21.8;36;36.6;28.4;-1.0;
16/02/2025 20:24:49;117;0;210.03;-4;29.46;6.75;82.0;19.20;77099;2837.650;-1801.306;1;195;210;214.5;21.9;21.8;36;36.6;28.4;-1.0;
16/02/2025 20:25:09;117;0;210.01;-4;29.35;6.80;79.5;19.20;77101;2837.649;-1801.307;1;195;210;212.9;21.9;21.8;36;36.6;28.4;-1.0;
16/02/2025 20:25:29;117;0;209.61;-4;29.32;6.77;76.9;19.20;77106;2837.647;-1801.308;1;194;210;214.5;21.9;21.8;36;36.6;28.3;-1.0;
16/02/2025 20:25:49;117;0;210.36;-4;29.54;6.79;74.4;19.20;77105;2837.646;-1801.309;1;194;210;216.1;21.9;21.8;36;36.6;28.3;-1.0;
16/02/2025 20:26:09;117;0;210.40;-4;29.48;6.73;71.8;19.30;77118;2837.644;-1801.309;1;194;210;214.5;21.9;21.8;34;33.8;28.3;-1.0;
16/02/2025 20:26:29;117;0;209.68;-4;29.30;4.74;69.1;19.30;77119;2837.643;-1801.310;1;194;210;212.9;21.9;21.8;34;32.9;28.3;-1.0;
16/02/2025 20:26:49;117;0;208.28;-4;29.18;4.69;66.5;19.30;77114;2837.641;-1801.311;1;194;210;212.9;21.9;21.8;36;36.1;28.3;-1.0;
16/02/2025 20:27:09;117;0;207.95;-4;28.96;6.87;64.0;19.30;77111;2837.640;-1801.312;1;193;210;216.1;21.6;21.5;36;36.6;28.3;-1.0;
16/02/2025 20:27:29;117;0;208.54;-4;30.12;6.86;61.4;19.30;77126;2837.639;-1801.313;1;193;210;214.5;21.6;21.4;36;36.6;28.4;-1.0;
16/02/2025 20:27:49;117;0;210.61;-4;30.31;6.71;58.8;19.30;77128;2837.637;-1801.314;1;193;210;214.5;21.6;21.2;33;32.5;28.3;-1.0;
16/02/2025 20:28:09;117;0;211.00;-4;30.00;4.24;56.2;19.40;77135;2837.636;-1801.315;1;193;210;214.5;21.6;21.4;33;32.0;28.4;-1.0;
16/02/2025 20:28:29;117;0;211.34;-4;29.91;4.16;53.4;19.40;77131;2837.634;-1801.316;1;192;210;214.5;21.6;21.4;31;30.7;28.3;-1.0;
16/02/2025 20:28:49;117;0;213.96;-4;30.02;3.16;50.7;19.40;77131;2837.633;-1801.317;1;192;210;214.5;21.6;21.2;29;28.9;28.3;-1.0;
16/02/2025 20:29:09;117;0;212.80;-4;29.48;2.30;48.0;19.40;77136;2837.631;-1801.318;1;192;210;214.5;21.6;21.4;29;28.9;28.4;-1.0;
16/02/2025 20:29:29;117;0;212.09;-4;29.68;2.34;45.4;19.40;77147;2837.630;-1801.319;1;191;210;214.5;21.6;21.4;29;28.4;28.4;-1.0;
16/02/2025 20:29:49;117;0;211.49;-4;29.89;2.16;42.7;19.40;77143;2837.629;-1801.320;1;191;210;214.5;21.6;21.2;31;31.1;28.4;-1.0;
16/02/2025 20:30:09;117;0;210.51;-4;30.14;3.87;40.1;19.40;77140;2837.627;-1801.320;1;190;210;214.5;21.6;21.4;31;31.6;28.4;-1.0;
16/02/2025 20:30:29;117;0;208.90;-4;30.37;3.82;37.4;19.50;77148;2837.626;-1801.321;1;190;210;214.5;21.6;21.2;33;32.9;28.4;-1.0;
16/02/2025 20:30:49;117;0;207.77;-4;29.93;4.95;34.7;19.50;77150;2837.624;-1801.322;1;190;210;216.1;21.6;21.4;33;33.4;28.4;-1.0;
16/02/2025 20:31:09;117;0;206.27;-4;30.23;5.05;32.0;19.50;77149;2837.623;-1801.323;1;190;210;216.1;21.6;21.4;35;35.2;28.3;-1.0;
16/02/2025 20:31:29;117;0;204.27;-4;29.88;6.39;29.1;19.50;77154;2837.621;-1801.324;1;189;210;214.5;21.6;21.4;35;35.6;28.4;-1.0;
16/02/2025 20:31:49;117;0;206.39;-4;30.75;6.28;26.2;19.50;77153;2837.619;-1801.324;1;189;210;214.5;21.6;21.4;35;35.6;28.3;-1.0;
16/02/2025 20:32:10;117;0;208.27;-4;30.25;6.21;23.3;19.50;77152;2837.618;-1801.325;1;189;210;214.5;21.6;21.4;32;31.6;28.3;-1.0;
16/02/2025 20:32:30;117;0;206.83;-4;30.16;4.32;20.3;19.50;77158;2837.616;-1801.326;1;188;210;216.1;21.6;21.4;32;32.0;28.4;-1.0;
16/02/2025 20:32:50;117;0;204.63;-4;28.04;3.99;17.5;19.50;77146;2837.614;-1801.327;1;188;210;214.5;21.0;20.6;35;35.2;28.3;-1.0;
16/02/2025 20:33:10;117;0;204.64;-4;30.16;6.48;14.9;19.60;77165;2837.613;-1801.328;1;188;210;214.5;21.0;20.8;35;35.6;28.3;-1.0;
16/02/2025 20:33:30;117;0;204.47;-4;32.02;6.16;12.1;19.60;77162;2837.611;-1801.328;1;187;210;214.5;21.6;21.6;35;35.6;28.3;-1.0;
16/02/2025 20:33:50;117;0;199.50;-4;29.56;6.37;9.1;19.60;77165;2837.609;-1801.329;1;187;210;214.5;21.6;21.6;37;37.5;28.4;-1.0;
16/02/2025 20:34:10;117;0;203.53;-4;27.88;7.16;6.4;19.60;77168;2837.607;-1801.330;1;187;210;216.1;21.0;20.8;34;33.4;28.3;-1.0;
16/02/2025 20:34:30;117;0;204.04;-4;31.82;4.96;3.8;19.60;77181;2837.606;-1801.330;1;186;210;214.5;21.0;20.6;34;32.9;28.4;-1.0;
16/02/2025 20:34:35;115;0;202.75;-4;29.28;4.25;3.1;19.60;77173;2837.606;-1801.330;1;186;500;222.6;100.0;64.2;0;0.0;28.3;-1.0;
16/02/2025 20:34:45;115;0;185.71;-4;10.78;-11.42;2.1;19.60;77147;2837.604;-1801.330;1;186;500;341.9;100.0;100.0;0;-0.5;28.1;-1.0;
16/02/2025 20:34:55;115;0;174.86;-4;-64.75;-12.62;2.5;19.60;76878;2837.605;-1801.330;1;187;500;456.5;100.0;100.6;0;0.0;28.1;-1.0;
16/02/2025 20:35:05;115;0;128.81;-4;-69.97;-3.35;1.8;19.70;76629;2837.605;-1801.329;1;187;500;506.5;100.0;100.7;0;0.0;28.2;-1.0;
16/02/2025 20:35:15;115;0;132.95;-4;-28.67;-9.82;-0.6;19.70;76545;2837.603;-1801.327;1;189;500;506.5;100.0;100.6;0;0.0;28.3;-1.0;
16/02/2025 20:35:35;119;0;148.17;-4;-53.76;-16.57;-0.1;19.70;76564;2837.603;-1801.327;1;189;500;508.1;100.0;100.9;0;0.0;28.3;-1.0;
16/02/2025 20:35:45;119;0;159.81;-4;-47.28;-8.44;-0.3;19.70;76558;2837.599;-1801.416;0;189;500;508.1;100.0;100.7;0;0.0;28.3;-1.0;
