Timestamp;NavState;SecurityLevel;Heading;Declination;Pitch;Roll;Depth;Temperature;Pa;Lat;Lon;DeadReckoning;DesiredH;BallastCmd;BallastPos;LinCmd;LinPos;AngCmd;AngPos;Voltage;Altitude;
25/02/2025 21:07:06;119;0;147.01;-4;-51.93;-17.01;0.0;16.90;75648;2836.830;-1800.072;0;136;500;504.8;100.0;100.4;0;-0.5;26.2;-1.0;
25/02/2025 21:07:16;116;0;133.91;-4;-55.84;-6.69;0.2;17.00;75643;2836.824;-1800.100;0;136;500;504.8;100.0;100.6;0;-0.5;26.2;-1.0;
25/02/2025 21:07:41;116;0;157.12;-4;-48.85;-15.17;0.1;17.10;75668;2836.827;-1800.101;0;136;500;504.8;100.0;100.6;0;-0.5;26.2;-1.0;
25/02/2025 21:08:01;116;0;168.67;-4;-57.28;-23.26;-0.2;17.10;75670;2836.828;-1800.102;0;136;500;504.8;100.0;100.6;0;-0.5;26.2;-1.0;
25/02/2025 21:08:21;116;0;167.54;-4;-53.51;-17.15;-0.1;17.20;75686;2836.830;-1800.102;0;141;500;504.8;100.0;100.6;0;-0.5;26.2;-1.0;
25/02/2025 21:08:35;116;0;163.21;-4;-52.93;-10.43;-0.3;17.20;75688;2836.833;-1800.104;0;141;500;504.8;100.0;100.6;0;-0.5;26.2;-1.0;
25/02/2025 21:09:37;116;0;177.93;-4;-57.17;-19.02;-0.1;17.50;75707;2836.842;-1800.111;0;141;500;504.8;100.0;100.6;0;-0.5;26.2;-1.0;
25/02/2025 21:10:13;116;0;200.09;-4;-53.71;-14.65;-0.2;17.60;75739;2836.846;-1800.113;0;141;500;504.8;100.0;100.6;0;-0.5;26.2;-1.0;
25/02/2025 21:11:15;116;0;200.31;-4;-58.59;-21.51;-0.1;17.90;75752;2836.852;-1800.121;0;141;500;506.5;100.0;100.6;0;-0.5;26.2;-1.0;
25/02/2025 21:12:58;116;0;231.72;-4;-58.74;-8.94;-0.2;18.40;75796;2836.865;-1800.131;0;141;500;504.8;100.0;100.6;0;-0.5;26.2;-1.0;
25/02/2025 21:13:09;116;0;248.25;-4;-54.54;-15.46;-0.1;18.40;75794;2836.866;-1800.133;0;141;500;504.8;100.0;100.6;0;-0.5;26.2;-1.0;
25/02/2025 21:13:29;110;0;245.12;-4;-60.92;-14.31;-0.2;18.50;75797;2836.866;-1800.133;0;141;-90;380.6;100.0;99.7;-6;-5.9;26.2;-1.0;
25/02/2025 21:13:39;110;0;229.52;-4;-56.62;-10.16;0.1;18.60;76163;2836.867;-1800.133;1;141;-90;230.6;100.0;99.7;-6;-5.9;26.2;-1.0;
25/02/2025 21:13:49;110;0;231.24;-4;-59.47;-18.60;0.4;18.60;76408;2836.867;-1800.133;1;141;-90;72.6;100.0;99.7;-6;-5.9;26.1;-1.0;
25/02/2025 21:13:59;110;0;234.16;-4;-71.02;-6.24;0.8;18.60;76739;2836.868;-1800.133;1;141;-90;-87.1;100.0;99.7;-6;-5.9;26.2;-1.0;
25/02/2025 21:14:09;110;0;249.30;-4;-66.76;-12.91;1.0;18.70;77083;2836.868;-1800.134;1;141;-90;-90.3;43.1;43.2;-6;-5.9;26.2;-1.0;
25/02/2025 21:14:29;100;0;267.47;-4;-35.37;-14.57;4.3;18.80;77042;2836.869;-1800.137;1;141;-90;-87.1;43.1;42.9;-6;-5.9;26.2;-1.0;
25/02/2025 21:14:49;100;0;273.29;-4;-21.75;-14.54;8.0;18.80;77046;2836.871;-1800.142;1;141;-90;-83.9;43.1;42.7;70;69.9;26.2;-1.0;
25/02/2025 21:15:09;100;0;265.12;-4;-23.44;24.93;11.0;18.80;77065;2836.871;-1800.146;1;141;-90;-83.9;42.1;42.1;70;69.9;26.2;-1.0;
25/02/2025 21:15:29;100;0;251.41;-4;-23.36;23.95;14.2;18.90;77046;2836.871;-1800.151;1;141;-90;-82.3;41.1;41.1;70;70.4;26.2;0.0;
25/02/2025 21:15:49;100;0;238.74;-4;-20.06;23.95;16.8;18.90;77035;2836.871;-1800.154;1;141;-90;-83.9;41.1;40.8;70;69.9;26.2;0.0;
25/02/2025 21:16:09;100;0;225.98;-4;-19.57;23.89;19.1;18.90;77043;2836.870;-1800.157;1;141;-90;-83.9;41.1;40.8;70;69.9;26.2;0.0;
25/02/2025 21:16:29;100;0;214.46;-4;-19.70;23.73;21.5;18.90;77043;2836.869;-1800.159;1;141;-90;-83.9;41.1;40.9;70;70.4;26.2;0.0;
25/02/2025 21:16:49;100;0;203.13;-4;-19.80;23.70;23.7;18.90;77051;2836.867;-1800.161;1;141;-90;-83.9;41.1;40.9;70;70.4;26.2;0.0;
25/02/2025 21:17:09;100;0;190.67;-4;-19.68;23.62;26.0;18.90;77048;2836.865;-1800.162;1;141;-90;-83.9;41.1;40.8;64;64.1;26.2;0.0;
25/02/2025 21:17:29;100;0;179.15;-4;-18.66;20.01;28.2;18.90;77059;2836.864;-1800.162;1;141;-90;-83.9;41.5;41.8;49;49.2;26.2;0.0;
25/02/2025 21:17:49;100;0;170.26;-4;-19.30;12.44;30.4;18.90;77056;2836.862;-1800.162;1;141;-90;-83.9;41.5;41.8;32;32.0;26.2;0.0;
25/02/2025 21:18:09;100;0;166.64;-4;-18.70;4.02;32.7;18.90;77055;2836.860;-1800.161;1;141;-90;-83.9;41.9;42.3;26;26.2;26.2;0.0;
25/02/2025 21:18:29;100;0;163.11;-4;-19.84;1.17;35.0;18.90;77063;2836.858;-1800.161;1;141;-90;-83.9;41.9;42.4;22;22.1;26.2;0.0;
25/02/2025 21:18:49;100;0;160.97;-4;-19.87;-0.71;37.4;19.00;77059;2836.857;-1800.160;1;141;-90;-83.9;41.9;42.3;22;21.7;26.2;0.0;
25/02/2025 21:19:10;100;0;158.02;-4;-19.69;-0.77;39.8;19.00;77067;2836.855;-1800.159;1;141;-90;-83.9;41.9;42.4;17;16.7;26.2;0.0;
25/02/2025 21:19:30;100;0;157.36;-4;-19.44;-3.53;42.2;19.00;77072;2836.853;-1800.158;1;141;-90;-83.9;41.9;42.3;19;19.0;26.2;0.0;
25/02/2025 21:19:50;100;0;156.16;-4;-19.70;-1.95;44.7;19.00;77075;2836.851;-1800.157;1;141;-90;-83.9;41.9;42.4;19;19.4;26.2;0.0;
25/02/2025 21:20:10;100;0;154.61;-4;-19.68;-1.90;47.2;19.00;77077;2836.850;-1800.156;1;141;-90;-82.3;41.9;42.4;17;17.1;26.2;0.0;
25/02/2025 21:20:30;100;0;155.12;-4;-19.39;-3.40;49.8;19.00;77082;2836.848;-1800.154;1;141;-90;-83.9;41.9;42.4;17;16.7;26.2;0.0;
25/02/2025 21:20:50;100;0;155.99;-4;-19.51;-3.36;52.3;19.00;77093;2836.846;-1800.153;1;141;-90;-85.5;41.9;42.3;17;16.7;26.2;0.0;
25/02/2025 21:21:10;100;0;154.08;-4;-19.48;-3.46;55.0;19.00;77089;2836.844;-1800.152;1;141;-90;-83.9;41.9;42.4;17;16.7;26.2;0.0;
25/02/2025 21:21:30;100;0;153.07;-4;-19.51;-3.49;57.5;19.00;77089;2836.842;-1800.150;1;141;-90;-83.9;41.9;42.4;17;16.7;26.2;0.0;
25/02/2025 21:21:50;100;0;153.91;-4;-19.41;-3.43;60.0;19.10;77107;2836.840;-1800.149;1;141;-90;-83.9;41.9;42.4;17;16.7;26.2;0.0;
25/02/2025 21:22:10;100;0;153.64;-4;-19.39;-3.42;62.9;19.00;77100;2836.838;-1800.147;1;141;-90;-83.9;41.9;42.4;17;16.7;26.2;0.0;
25/02/2025 21:22:30;100;0;153.35;-4;-19.33;-3.45;65.5;19.10;77104;2836.836;-1800.146;1;141;-90;-83.9;41.9;42.4;17;16.7;26.2;0.0;
25/02/2025 21:22:50;100;0;153.64;-4;-19.52;-3.43;68.0;19.10;77110;2836.834;-1800.145;1;141;-90;-83.9;41.9;42.4;17;16.7;26.2;0.0;
25/02/2025 21:23:10;100;0;152.74;-4;-19.38;-3.45;70.9;19.10;77110;2836.832;-1800.143;1;141;-90;-83.9;41.9;42.4;17;16.7;26.2;0.0;
25/02/2025 21:23:30;100;0;152.93;-4;-19.43;-3.45;73.5;19.10;77115;2836.830;-1800.141;1;141;-90;-85.5;41.9;42.4;17;16.7;26.2;0.0;
25/02/2025 21:23:50;100;0;153.02;-4;-19.21;-3.43;76.2;19.10;77125;2836.828;-1800.140;1;141;-90;-83.9;41.9;42.4;17;16.7;26.2;0.0;
25/02/2025 21:24:10;100;0;152.77;-4;-19.30;-3.43;78.8;19.10;77119;2836.826;-1800.138;1;141;-90;-82.3;41.9;42.4;17;16.7;26.2;0.0;
25/02/2025 21:24:30;100;0;152.00;-4;-19.25;-3.45;81.6;19.10;77125;2836.824;-1800.137;1;141;-90;-83.9;41.9;42.4;17;16.7;26.2;0.0;
25/02/2025 21:24:50;100;0;151.77;-4;-19.15;-3.44;84.2;19.10;77125;2836.822;-1800.135;1;141;-90;-87.1;41.9;42.3;17;16.7;26.2;0.0;
25/02/2025 21:25:10;100;0;150.84;-4;-19.32;-3.44;86.9;19.10;77134;2836.820;-1800.133;1;141;-90;-83.9;41.9;42.4;17;16.7;26.2;0.0;
25/02/2025 21:25:30;100;0;150.18;-4;-19.23;-3.47;89.5;19.10;77139;2836.818;-1800.132;1;141;-90;-83.9;41.9;42.4;17;16.7;26.2;0.0;
25/02/2025 21:25:50;100;0;147.62;-4;-19.26;-3.55;92.2;19.10;77139;2836.816;-1800.130;1;141;-90;-83.9;41.9;42.4;17;16.7;26.2;0.0;
25/02/2025 21:26:10;100;0;145.61;-4;-19.17;-3.47;94.7;19.10;77142;2836.815;-1800.128;1;141;-90;-82.3;41.9;42.4;17;16.7;26.2;0.0;
25/02/2025 21:26:30;100;0;148.58;-4;-18.88;-3.42;97.5;19.10;77139;2836.813;-1800.126;1;141;-90;-83.9;42.2;42.3;17;16.7;26.2;0.0;
25/02/2025 21:26:50;100;0;149.57;-4;-19.06;-3.49;99.9;19.10;77139;2836.811;-1800.125;1;141;-90;-83.9;42.2;42.3;17;16.7;26.2;0.0;
25/02/2025 21:27:10;100;0;151.96;-4;-19.36;-3.43;102.4;19.10;77141;2836.809;-1800.123;1;141;-90;-83.9;42.2;42.1;17;16.7;26.2;0.0;
25/02/2025 21:27:30;100;0;149.73;-4;-18.60;-3.55;104.8;19.10;77127;2836.808;-1800.122;1;141;-90;-83.9;42.7;42.7;17;16.7;26.2;0.0;
25/02/2025 21:27:50;100;0;153.37;-4;-19.48;-3.56;107.1;19.10;77122;2836.806;-1800.121;1;141;-90;-83.9;42.7;43.0;17;16.7;26.2;0.0;
25/02/2025 21:28:10;100;0;151.21;-4;-19.46;-3.54;109.4;19.10;77097;2836.805;-1800.119;1;141;-90;-83.9;42.7;43.0;17;16.7;26.2;0.0;
25/02/2025 21:28:30;100;0;150.97;-4;-19.67;-3.58;111.5;19.10;77077;2836.803;-1800.118;1;141;-90;-83.9;42.7;43.0;17;16.7;26.2;0.0;
25/02/2025 21:28:50;100;0;153.35;-4;-20.06;-3.52;113.7;19.10;77064;2836.802;-1800.117;1;141;-90;-83.9;42.7;43.0;17;16.7;26.2;0.0;
25/02/2025 21:29:10;100;0;155.74;-4;-19.67;-3.45;116.2;19.00;77040;2836.800;-1800.116;1;141;-90;-82.3;42.7;43.0;17;16.2;26.2;0.0;
25/02/2025 21:29:30;100;0;158.62;-4;-19.97;-3.48;118.4;19.00;77029;2836.799;-1800.115;1;141;-90;-83.9;42.7;43.0;19;19.0;26.2;0.0;
25/02/2025 21:29:50;100;0;158.55;-4;-20.41;-2.07;120.7;19.00;77016;2836.797;-1800.114;1;141;-90;-83.9;42.7;43.0;19;19.0;26.2;0.0;
25/02/2025 21:30:10;100;0;157.30;-4;-20.08;-2.02;123.0;19.00;77004;2836.796;-1800.113;1;141;-90;-83.9;42.7;43.0;19;19.4;26.2;0.0;
25/02/2025 21:30:30;100;0;153.71;-4;-20.19;-2.09;125.5;19.00;77003;2836.794;-1800.112;1;141;-90;-83.9;42.7;43.0;17;17.1;26.2;0.0;
25/02/2025 21:30:50;100;0;153.48;-4;-20.30;-3.27;127.7;18.90;76992;2836.792;-1800.111;1;141;-90;-83.9;42.7;43.0;17;17.1;26.2;0.0;
25/02/2025 21:31:10;100;0;151.29;-4;-20.12;-3.22;130.1;18.90;76988;2836.791;-1800.109;1;141;-90;-82.3;42.7;43.0;17;17.1;26.2;0.0;
25/02/2025 21:31:30;100;0;151.02;-4;-20.09;-3.22;132.6;18.90;76975;2836.789;-1800.108;1;141;-90;-83.9;42.7;43.2;17;17.1;26.2;0.0;
25/02/2025 21:31:50;100;0;146.81;-4;-20.02;-3.30;134.9;18.90;76970;2836.788;-1800.106;1;141;-90;-83.9;42.7;43.0;17;17.1;26.2;0.0;
25/02/2025 21:32:10;100;0;142.95;-4;-19.78;-3.31;137.3;18.90;76965;2836.787;-1800.105;1;141;-90;-85.5;42.7;43.0;17;17.1;26.2;0.0;
25/02/2025 21:32:30;100;0;140.33;-4;-19.96;-3.28;139.4;18.80;76958;2836.786;-1800.103;1;141;-90;-83.9;42.7;43.0;12;12.2;26.2;0.0;
25/02/2025 21:32:50;100;0;140.66;-4;-19.92;-5.94;141.8;18.80;76948;2836.784;-1800.101;1;141;-90;-83.9;42.7;43.0;15;14.9;26.2;0.0;
25/02/2025 21:33:10;100;0;142.16;-4;-19.66;-3.85;143.8;18.80;76944;2836.784;-1800.100;1;141;-90;-85.5;42.7;43.0;15;15.8;26.2;0.0;
25/02/2025 21:33:30;100;0;139.86;-4;-19.79;-3.91;146.1;18.80;76932;2836.782;-1800.098;1;141;-90;-83.9;42.7;43.0;13;13.1;26.2;0.0;
25/02/2025 21:33:50;100;0;142.31;-4;-20.06;-5.27;148.5;18.70;76918;2836.781;-1800.096;1;141;-90;-83.9;42.7;43.0;15;14.9;26.2;0.0;
25/02/2025 21:34:10;100;0;142.55;-4;-19.84;-3.96;150.6;18.70;76904;2836.780;-1800.094;1;141;-90;-83.9;42.7;43.0;15;15.3;26.2;0.0;
25/02/2025 21:34:30;100;0;144.88;-4;-19.97;-3.95;152.8;18.70;76902;2836.779;-1800.093;1;141;-90;-83.9;42.7;43.0;15;15.3;26.2;0.0;
25/02/2025 21:34:50;100;0;145.15;-4;-19.94;-3.95;155.2;18.70;76890;2836.778;-1800.091;1;141;-90;-82.3;42.7;43.0;17;17.6;26.2;0.0;
25/02/2025 21:35:10;100;0;140.12;-4;-20.14;-2.78;157.3;18.60;76882;2836.777;-1800.090;1;141;-90;-82.3;42.7;43.0;12;12.2;26.2;0.0;
25/02/2025 21:35:30;100;0;138.48;-4;-19.48;-5.84;159.6;18.60;76880;2836.776;-1800.088;1;141;-90;-83.9;42.7;43.2;12;11.7;26.2;0.0;
25/02/2025 21:35:50;100;0;139.37;-4;-19.39;-5.75;161.8;18.60;76863;2836.775;-1800.086;1;141;-90;-83.9;42.7;43.0;12;11.7;26.2;0.0;
25/02/2025 21:36:10;100;0;138.31;-4;-19.25;-5.91;163.9;18.50;76859;2836.774;-1800.084;1;141;-90;-83.9;42.7;43.0;12;11.7;26.2;0.0;
25/02/2025 21:36:30;100;0;138.32;-4;-19.39;-5.85;165.8;18.50;76847;2836.773;-1800.082;1;141;-110;-109.7;42.7;43.0;10;9.9;26.2;0.0;
25/02/2025 21:36:50;100;0;139.88;-4;-18.67;-6.83;168.2;18.50;76902;2836.772;-1800.080;1;141;-110;-111.3;43.1;43.0;13;13.1;26.2;0.0;
25/02/2025 21:37:10;100;0;141.95;-4;-18.74;-4.96;170.3;18.40;76889;2836.770;-1800.079;1;141;-110;-111.3;43.4;43.4;13;13.1;26.2;0.0;
25/02/2025 21:37:30;100;0;143.17;-4;-20.08;-4.91;172.9;18.40;76877;2836.769;-1800.077;1;141;-110;-111.3;43.4;43.6;16;15.8;26.2;0.0;
25/02/2025 21:37:50;100;0;144.71;-4;-20.50;-3.42;175.5;18.40;76876;2836.768;-1800.075;1;141;-110;-111.3;43.4;43.7;16;16.2;26.2;0.0;
25/02/2025 21:38:10;100;0;144.18;-4;-20.59;-3.40;178.2;18.30;76869;2836.766;-1800.073;1;141;-110;-111.3;43.4;43.7;16;16.2;26.2;0.0;
25/02/2025 21:38:30;100;0;144.16;-4;-20.55;-3.38;180.8;18.30;76864;2836.764;-1800.071;1;141;-110;-111.3;43.4;43.6;16;16.2;26.2;0.0;
25/02/2025 21:38:50;100;0;143.75;-4;-20.62;-3.37;183.4;18.30;76855;2836.763;-1800.069;1;141;-110;-111.3;43.4;43.6;16;16.2;26.2;0.0;
25/02/2025 21:39:10;100;0;141.82;-4;-20.19;-3.47;185.9;18.20;76837;2836.762;-1800.067;1;141;-110;-111.3;43.4;43.7;16;16.2;26.2;0.0;
25/02/2025 21:39:30;100;0;139.81;-4;-20.23;-3.43;188.3;18.20;76836;2836.760;-1800.066;1;141;-110;-112.9;43.4;43.6;13;13.1;26.1;0.0;
25/02/2025 21:39:50;100;0;137.66;-4;-20.03;-5.09;190.6;18.20;76826;2836.759;-1800.064;1;141;-110;-111.3;43.4;43.7;10;9.9;26.2;0.0;
25/02/2025 21:40:10;100;0;140.11;-4;-20.30;-6.85;193.1;18.10;76808;2836.758;-1800.062;1;141;-110;-111.3;43.4;43.6;13;13.1;26.2;0.0;
25/02/2025 21:40:30;100;0;142.23;-4;-20.59;-4.88;195.4;18.10;76798;2836.757;-1800.060;1;141;-110;-111.3;43.4;43.7;13;13.5;26.2;0.0;
25/02/2025 21:40:50;100;0;145.32;-4;-20.61;-4.67;198.0;18.10;76796;2836.756;-1800.058;1;141;-110;-112.9;43.4;43.7;16;15.8;26.2;0.0;
25/02/2025 21:41:10;100;0;146.93;-4;-20.95;-3.36;200.5;18.00;76782;2836.754;-1800.057;1;141;-110;-111.3;43.4;43.7;16;16.2;26.2;0.0;
25/02/2025 21:41:30;100;0;144.94;-4;-20.78;-3.28;202.9;18.00;76783;2836.753;-1800.055;1;141;-110;-111.3;43.4;43.7;16;16.2;26.2;0.0;
25/02/2025 21:41:50;100;0;142.22;-4;-20.67;-3.35;205.6;18.00;76768;2836.751;-1800.053;1;141;-110;-111.3;43.4;43.7;16;16.2;26.2;0.0;
25/02/2025 21:42:10;100;0;141.35;-4;-20.53;-3.37;208.0;17.90;76761;2836.750;-1800.051;1;141;-110;-112.9;43.4;43.6;13;12.6;26.2;0.0;
25/02/2025 21:42:30;100;0;141.92;-4;-20.47;-5.32;210.6;17.90;76751;2836.749;-1800.049;1;141;-110;-111.3;43.4;43.7;13;12.6;26.2;0.0;
25/02/2025 21:42:50;100;0;141.49;-4;-20.39;-5.29;213.1;17.90;76747;2836.747;-1800.047;1;141;-110;-112.9;43.4;43.7;13;12.6;26.2;0.0;
25/02/2025 21:43:10;100;0;140.85;-4;-20.40;-5.31;215.5;17.80;76738;2836.746;-1800.045;1;141;-110;-111.3;43.4;43.6;13;12.6;26.2;0.0;
25/02/2025 21:43:30;100;0;141.63;-4;-20.20;-5.38;218.0;17.80;76725;2836.745;-1800.043;1;141;-110;-111.3;43.4;43.7;13;12.6;26.2;0.0;
25/02/2025 21:43:50;100;0;142.67;-4;-20.55;-5.51;220.5;17.80;76729;2836.743;-1800.042;1;141;-110;-111.3;43.4;43.7;15;14.9;26.2;0.0;
25/02/2025 21:44:10;100;0;142.73;-4;-20.53;-3.81;222.9;17.70;76717;2836.742;-1800.040;1;141;-110;-111.3;43.4;43.7;15;15.3;26.2;0.0;
25/02/2025 21:44:30;100;0;145.71;-4;-20.61;-3.62;225.5;17.70;76711;2836.741;-1800.038;1;141;-110;-111.3;43.4;43.7;15;15.8;26.2;0.0;
25/02/2025 21:44:50;100;0;147.44;-4;-20.75;-3.68;228.1;17.60;76709;2836.739;-1800.037;1;141;-110;-111.3;43.4;43.7;15;15.3;26.2;0.0;
25/02/2025 21:45:10;100;0;148.84;-4;-20.93;-3.63;230.7;17.60;76696;2836.738;-1800.035;1;141;-110;-112.9;43.4;43.7;15;15.3;26.2;0.0;
25/02/2025 21:45:30;100;0;151.06;-4;-20.39;-3.56;233.5;17.60;76685;2836.736;-1800.033;1;141;-110;-111.3;43.4;43.7;15;15.8;26.2;0.0;
25/02/2025 21:45:50;100;0;151.50;-4;-20.82;-3.74;236.2;17.50;76682;2836.734;-1800.032;1;141;-110;-112.9;43.4;43.7;15;15.8;26.2;0.0;
25/02/2025 21:46:10;100;0;151.61;-4;-20.74;-3.81;238.9;17.50;76682;2836.732;-1800.030;1;141;-110;-111.3;43.4;43.7;15;15.3;26.2;0.0;
25/02/2025 21:46:30;100;0;151.01;-4;-20.36;-3.74;241.6;17.50;76675;2836.730;-1800.029;1;141;-110;-111.3;43.4;43.7;15;15.3;26.2;0.0;
25/02/2025 21:46:50;100;0;150.07;-4;-20.31;-3.83;244.6;17.40;76663;2836.728;-1800.027;1;141;-110;-111.3;43.4;43.7;15;15.3;26.2;0.0;
25/02/2025 21:47:10;100;0;149.52;-4;-20.71;-3.64;247.2;17.40;76661;2836.726;-1800.025;1;141;-110;-111.3;43.4;43.6;15;15.8;26.2;0.0;
25/02/2025 21:47:30;100;0;149.84;-4;-20.43;-3.77;249.9;17.40;76665;2836.724;-1800.024;1;141;-110;-111.3;43.4;43.7;15;15.8;26.2;0.0;
25/02/2025 21:47:50;100;0;151.71;-4;-20.84;-3.70;252.7;17.30;76659;2836.723;-1800.022;1;141;-110;-112.9;43.4;43.7;15;15.3;26.2;0.0;
25/02/2025 21:48:10;100;0;152.21;-4;-20.57;-3.62;255.6;17.30;76652;2836.721;-1800.021;1;141;-110;-112.9;43.4;43.7;15;15.3;26.2;0.0;
25/02/2025 21:48:30;100;0;155.80;-4;-20.68;-3.79;258.4;17.30;76646;2836.719;-1800.019;1;141;-110;-114.5;43.4;43.7;17;17.1;26.2;0.0;
25/02/2025 21:48:50;100;0;156.92;-4;-20.58;-2.77;261.4;17.20;76652;2836.716;-1800.018;1;141;-110;-111.3;43.4;43.7;17;17.6;26.2;0.0;
25/02/2025 21:49:10;100;0;157.69;-4;-20.81;-2.84;264.3;17.20;76637;2836.714;-1800.017;1;141;-110;-111.3;43.4;43.7;17;17.6;26.2;0.0;
25/02/2025 21:49:30;100;0;157.03;-4;-20.91;-2.81;267.4;17.20;76626;2836.712;-1800.015;1;141;-110;-111.3;43.4;43.6;17;17.6;26.2;0.0;
25/02/2025 21:49:50;100;0;156.51;-4;-20.67;-2.76;270.3;17.10;76627;2836.710;-1800.014;1;141;-110;-112.9;43.4;43.7;17;17.6;26.2;0.0;
25/02/2025 21:50:10;100;0;158.19;-4;-20.57;-2.70;273.3;17.10;76617;2836.707;-1800.013;1;141;-110;-112.9;43.4;43.6;19;19.0;26.2;0.0;
25/02/2025 21:50:30;100;0;159.41;-4;-20.62;-1.84;276.4;17.10;76619;2836.705;-1800.012;1;141;-110;-111.3;43.4;43.7;21;21.2;26.2;0.0;
25/02/2025 21:50:50;100;0;158.66;-4;-20.84;-0.75;279.2;17.00;76609;2836.703;-1800.011;1;141;-110;-112.9;43.4;43.7;19;19.0;26.2;0.0;
25/02/2025 21:51:10;100;0;157.66;-4;-20.32;-2.38;282.2;17.00;76599;2836.700;-1800.009;1;141;-110;-111.3;43.4;43.7;19;18.5;26.2;0.0;
25/02/2025 21:51:30;100;0;155.46;-4;-20.43;-2.45;285.2;17.00;76597;2836.698;-1800.008;1;141;-110;-111.3;43.4;43.6;19;18.5;26.2;0.0;
25/02/2025 21:51:50;100;0;152.96;-4;-20.13;-2.47;288.2;17.00;76585;2836.696;-1800.006;1;141;-110;-111.3;43.4;43.7;17;17.1;26.2;0.0;
25/02/2025 21:52:10;100;0;151.44;-4;-20.70;-3.16;291.2;16.90;76570;2836.694;-1800.004;1;141;-110;-111.3;43.4;43.7;17;17.1;26.2;0.0;
25/02/2025 21:52:30;100;0;150.04;-4;-20.99;-3.08;294.1;16.90;76558;2836.692;-1800.003;1;141;-110;-112.9;43.4;43.7;17;16.7;26.2;0.0;
25/02/2025 21:52:50;100;0;147.41;-4;-20.83;-3.11;297.4;16.90;76550;2836.689;-1800.000;1;141;-110;-111.3;43.4;43.7;17;16.7;26.2;0.0;
25/02/2025 21:53:11;100;0;146.76;-4;-20.70;-3.10;300.4;16.80;76549;2836.687;-1759.998;1;141;-110;-111.3;43.4;43.7;17;17.1;26.2;0.0;
25/02/2025 21:53:31;100;0;145.20;-4;-19.89;-3.14;303.6;16.80;76529;2836.685;-1759.996;1;141;-110;-112.9;43.4;43.7;17;17.1;26.2;0.0;
25/02/2025 21:53:51;100;0;143.15;-4;-20.13;-3.19;306.5;16.80;76535;2836.683;-1759.994;1;141;-110;-112.9;43.4;43.7;17;16.7;26.2;0.0;
25/02/2025 21:54:11;100;0;139.61;-4;-20.04;-3.23;309.5;16.70;76509;2836.682;-1759.991;1;141;-110;-111.3;43.4;43.7;14;14.0;26.2;0.0;
25/02/2025 21:54:31;100;0;141.27;-4;-20.13;-4.74;312.5;16.70;76496;2836.680;-1759.989;1;141;-110;-111.3;43.4;43.7;14;14.0;26.2;0.0;
25/02/2025 21:54:51;100;0;141.89;-4;-20.20;-4.73;315.6;16.60;76487;2836.678;-1759.986;1;141;-110;-111.3;43.4;43.7;14;14.0;26.2;0.0;
25/02/2025 21:55:11;100;0;141.41;-4;-20.03;-4.76;318.6;16.60;76486;2836.676;-1759.984;1;141;-110;-111.3;43.4;43.7;14;13.5;26.2;0.0;
25/02/2025 21:55:31;100;0;140.51;-4;-20.08;-4.67;321.6;16.60;76476;2836.674;-1759.982;1;141;-110;-111.3;43.4;43.7;14;14.0;26.2;0.0;
25/02/2025 21:55:51;100;0;138.66;-4;-20.02;-4.73;324.6;16.50;76469;2836.672;-1759.979;1;141;-110;-111.3;43.4;43.7;14;14.0;26.2;0.0;
25/02/2025 21:56:11;100;0;138.79;-4;-20.46;-4.58;327.6;16.50;76459;2836.671;-1759.977;1;141;-110;-111.3;43.4;43.7;14;14.0;26.2;0.0;
25/02/2025 21:56:31;100;0;143.24;-4;-20.80;-4.59;330.6;16.50;76467;2836.669;-1759.974;1;141;-110;-112.9;43.4;43.7;14;13.5;26.2;0.0;
25/02/2025 21:56:51;100;0;141.56;-4;-20.12;-4.77;333.9;16.40;76445;2836.667;-1759.972;1;141;-110;-111.3;43.4;43.7;14;13.5;26.2;0.0;
25/02/2025 21:57:11;100;0;145.51;-4;-20.47;-4.66;337.0;16.40;76440;2836.664;-1759.969;1;141;-110;-111.3;43.4;43.7;16;15.8;26.2;0.0;
25/02/2025 21:57:31;100;0;147.68;-4;-19.90;-3.55;340.1;16.40;76444;2836.662;-1759.967;1;141;-110;-111.3;43.4;43.7;16;16.2;26.2;0.0;
25/02/2025 21:57:51;100;0;148.90;-4;-21.10;-3.48;343.1;16.30;76445;2836.660;-1759.965;1;141;-110;-111.3;43.4;43.6;16;16.2;26.2;0.0;
25/02/2025 21:58:11;100;0;151.82;-4;-20.44;-3.36;346.3;16.30;76441;2836.658;-1759.964;1;141;-110;-111.3;43.4;43.7;16;16.2;26.2;0.0;
25/02/2025 21:58:31;100;0;150.79;-4;-20.76;-3.35;349.5;16.30;76426;2836.655;-1759.962;1;141;-110;-111.3;43.4;43.9;16;16.2;26.2;0.0;
25/02/2025 21:58:51;100;0;147.77;-4;-20.24;-3.43;352.7;16.20;76419;2836.653;-1759.960;1;141;-110;-111.3;43.4;43.6;16;16.2;26.2;0.0;
25/02/2025 21:59:11;100;0;145.47;-4;-20.31;-3.49;355.8;16.20;76426;2836.651;-1759.957;1;141;-110;-111.3;43.4;43.7;16;16.2;26.2;0.0;
25/02/2025 21:59:31;100;0;141.71;-4;-20.58;-3.40;358.9;16.20;76421;2836.649;-1759.955;1;141;-110;-114.5;43.4;43.7;16;16.2;26.2;0.0;
25/02/2025 21:59:51;100;0;138.29;-4;-20.31;-3.39;362.0;16.10;76412;2836.647;-1759.952;1;141;-110;-111.3;43.4;43.7;13;12.6;26.2;0.0;
25/02/2025 22:00:11;100;0;140.31;-4;-19.77;-5.32;365.0;16.10;76400;2836.646;-1759.950;1;141;-110;-112.9;43.4;43.7;13;12.6;26.2;0.0;
25/02/2025 22:00:31;100;0;145.77;-4;-19.61;-5.27;368.0;16.10;76379;2836.644;-1759.948;1;141;-110;-111.3;43.4;43.7;16;16.2;26.2;0.0;
25/02/2025 22:00:51;100;0;149.74;-4;-19.64;-3.37;370.9;16.00;76376;2836.641;-1759.946;1;141;-110;-112.9;43.4;43.7;16;16.2;26.2;0.0;
25/02/2025 22:01:11;100;0;151.99;-4;-19.51;-3.37;373.8;16.00;76363;2836.639;-1759.944;1;141;-110;-111.3;43.4;43.7;16;16.7;26.2;0.0;
25/02/2025 22:01:31;100;0;153.95;-4;-19.64;-3.39;376.6;16.00;76362;2836.637;-1759.943;1;141;-110;-112.9;43.4;43.6;16;16.7;26.2;0.0;
25/02/2025 22:01:51;100;0;152.24;-4;-19.91;-3.34;379.1;16.00;76349;2836.635;-1759.941;1;141;-110;-111.3;43.4;43.7;16;16.7;26.2;0.0;
25/02/2025 22:02:11;100;0;149.91;-4;-20.15;-3.39;382.2;15.90;76337;2836.633;-1759.939;1;141;-110;-112.9;43.4;43.7;16;16.2;26.2;0.0;
25/02/2025 22:02:31;100;0;145.40;-4;-20.00;-3.38;385.1;15.90;76330;2836.631;-1759.937;1;141;-110;-109.7;43.4;43.7;16;16.2;26.2;0.0;
25/02/2025 22:02:51;100;0;140.26;-4;-20.13;-3.31;387.9;15.80;76319;2836.630;-1759.935;1;141;-110;-109.7;43.4;43.7;14;14.0;26.2;0.0;
25/02/2025 22:03:11;100;0;137.92;-4;-19.76;-4.69;390.6;15.80;76307;2836.628;-1759.933;1;141;-110;-111.3;43.4;43.7;12;12.2;26.2;0.0;
25/02/2025 22:03:31;100;0;138.73;-4;-19.46;-5.69;393.2;15.80;76313;2836.627;-1759.930;1;141;-110;-111.3;43.4;43.7;12;11.7;26.2;0.0;
25/02/2025 22:03:51;100;0;140.79;-4;-19.81;-5.63;396.0;15.70;76295;2836.625;-1759.928;1;141;-110;-112.9;43.4;43.7;14;14.0;26.2;0.0;
25/02/2025 22:04:11;100;0;143.03;-4;-19.76;-4.35;398.7;15.70;76281;2836.624;-1759.926;1;141;-110;-112.9;43.4;43.7;14;14.4;26.2;0.0;
25/02/2025 22:04:31;100;0;145.22;-4;-19.66;-4.34;401.3;15.60;76277;2836.622;-1759.924;1;141;-110;-111.3;43.4;43.7;14;14.4;26.2;0.0;
25/02/2025 22:04:51;100;0;147.89;-4;-19.65;-4.38;403.8;15.60;76257;2836.620;-1759.923;1;141;-110;-111.3;43.4;43.7;16;15.8;26.2;0.0;
25/02/2025 22:05:11;100;0;150.45;-4;-19.60;-3.45;406.5;15.60;76257;2836.619;-1759.921;1;141;-110;-111.3;43.4;43.6;16;16.2;26.2;0.0;
25/02/2025 22:05:31;100;0;150.76;-4;-19.67;-3.38;409.0;15.50;76259;2836.617;-1759.920;1;141;-110;-111.3;43.4;43.9;16;16.2;26.2;0.0;
25/02/2025 22:05:51;100;0;152.53;-4;-19.70;-3.41;411.6;15.50;76248;2836.615;-1759.918;1;141;-110;-111.3;43.4;43.7;16;16.2;26.2;0.0;
25/02/2025 22:06:11;100;0;155.28;-4;-19.81;-3.46;414.2;15.50;76239;2836.613;-1759.917;1;141;-110;-112.9;43.4;43.7;16;16.2;26.2;0.0;
25/02/2025 22:06:31;100;0;160.03;-4;-19.94;-3.33;416.9;15.40;76230;2836.611;-1759.916;1;141;-110;-112.9;43.4;43.7;19;19.0;26.2;0.0;
25/02/2025 22:06:51;100;0;161.51;-4;-19.78;-1.82;419.4;15.40;76220;2836.609;-1759.915;1;141;-110;-111.3;43.4;43.7;19;19.4;26.2;0.0;
25/02/2025 22:07:11;100;0;160.42;-4;-19.69;-1.83;422.0;15.40;76222;2836.607;-1759.914;1;141;-110;-111.3;43.4;43.7;19;19.4;26.2;0.0;
25/02/2025 22:07:31;100;0;156.37;-4;-19.66;-1.87;424.4;15.30;76206;2836.606;-1759.913;1;141;-110;-111.3;43.4;43.7;17;17.1;26.2;0.0;
25/02/2025 22:07:51;100;0;154.56;-4;-19.49;-3.24;426.9;15.30;76200;2836.604;-1759.912;1;141;-110;-112.9;43.4;43.7;17;16.7;26.2;0.0;
25/02/2025 22:08:11;100;0;155.20;-4;-19.57;-3.24;429.3;15.30;76204;2836.602;-1759.911;1;141;-110;-112.9;43.4;43.7;17;16.7;26.2;0.0;
25/02/2025 22:08:31;100;0;156.21;-4;-19.58;-3.24;431.8;15.20;76192;2836.600;-1759.909;1;141;-110;-111.3;43.4;43.7;17;17.1;26.2;0.0;
25/02/2025 22:08:51;100;0;156.66;-4;-19.73;-3.23;434.3;15.20;76185;2836.599;-1759.908;1;141;-110;-112.9;43.4;43.7;17;16.7;26.2;0.0;
25/02/2025 22:09:11;100;0;157.04;-4;-19.63;-3.18;436.7;15.20;76183;2836.597;-1759.907;1;141;-110;-112.9;43.4;43.7;17;16.7;26.2;0.0;
25/02/2025 22:09:31;100;0;156.48;-4;-19.71;-3.17;438.9;15.20;76191;2836.595;-1759.906;1;141;-110;-112.9;43.4;43.7;17;16.7;26.2;0.0;
25/02/2025 22:09:51;100;0;153.59;-4;-19.64;-3.16;441.3;15.10;76170;2836.594;-1759.905;1;141;-110;-111.3;43.4;43.7;17;16.7;26.2;0.0;
25/02/2025 22:10:11;100;0;151.90;-4;-19.76;-3.24;443.6;15.10;76163;2836.592;-1759.904;1;141;-110;-111.3;43.4;43.7;17;16.7;26.2;0.0;
25/02/2025 22:10:31;100;0;149.66;-4;-19.60;-3.28;445.8;15.10;76165;2836.591;-1759.903;1;141;-110;-114.5;43.4;43.7;17;17.1;26.2;0.0;
25/02/2025 22:10:51;100;0;148.27;-4;-19.60;-3.19;448.1;15.00;76152;2836.590;-1759.901;1;141;-110;-112.9;43.4;43.7;17;16.7;26.2;0.0;
25/02/2025 22:11:11;100;0;146.34;-4;-19.66;-3.22;450.4;15.00;76143;2836.588;-1759.900;1;141;-110;-112.9;43.4;43.7;17;16.7;26.2;0.0;
25/02/2025 22:11:31;100;0;143.48;-4;-20.04;-3.24;452.7;15.00;76144;2836.587;-1759.898;1;141;-110;-114.5;43.4;43.7;15;14.4;26.2;0.0;
25/02/2025 22:11:51;100;0;143.43;-4;-19.19;-4.35;455.0;14.90;76145;2836.586;-1759.896;1;141;-110;-111.3;43.4;43.7;15;14.4;26.2;0.0;
25/02/2025 22:12:11;100;0;141.07;-4;-19.74;-4.56;457.3;14.90;76139;2836.585;-1759.894;1;141;-110;-112.9;43.4;43.7;13;13.1;26.2;0.0;
25/02/2025 22:12:31;100;0;138.66;-4;-19.52;-4.96;459.6;14.90;76135;2836.584;-1759.892;1;141;-110;-112.9;43.4;43.7;11;10.8;26.2;0.0;
25/02/2025 22:12:51;100;0;137.87;-4;-19.34;-6.24;461.8;14.80;76134;2836.583;-1759.891;1;141;-110;-111.3;43.4;43.7;11;10.8;26.2;0.0;
25/02/2025 22:13:11;100;0;136.81;-4;-19.63;-6.15;464.0;14.80;76114;2836.582;-1759.889;1;141;-110;-111.3;43.4;43.7;7;7.2;26.2;0.0;
25/02/2025 22:13:31;100;0;135.72;-4;-19.56;-8.21;466.2;14.80;76117;2836.581;-1759.887;1;141;-110;-111.3;43.4;43.7;7;6.8;26.2;0.0;
25/02/2025 22:13:51;100;0;138.47;-4;-19.17;-8.12;468.6;14.80;76110;2836.580;-1759.885;1;141;-110;-111.3;43.4;43.7;11;10.8;26.2;0.0;
25/02/2025 22:14:11;100;0;141.17;-4;-19.28;-5.97;470.9;14.70;76100;2836.578;-1759.883;1;141;-110;-111.3;43.4;43.7;14;14.0;26.2;0.0;
25/02/2025 22:14:31;100;0;143.62;-4;-19.27;-4.48;473.2;14.70;76093;2836.577;-1759.881;1;141;-110;-111.3;43.4;43.6;14;14.0;26.2;0.0;
25/02/2025 22:14:51;100;0;145.78;-4;-19.45;-4.44;475.5;14.70;76092;2836.576;-1759.879;1;141;-110;-112.9;43.4;43.7;14;14.0;26.2;0.0;
25/02/2025 22:15:11;100;0;148.27;-4;-19.58;-4.42;477.9;14.60;76079;2836.574;-1759.878;1;141;-110;-111.3;43.4;43.7;16;16.2;26.2;0.0;
25/02/2025 22:15:31;100;0;149.46;-4;-19.60;-3.26;480.3;14.60;76075;2836.573;-1759.876;1;141;-110;-111.3;43.4;43.7;16;16.7;26.2;0.0;
25/02/2025 22:15:51;100;0;151.26;-4;-19.55;-3.31;482.5;14.60;76067;2836.571;-1759.875;1;141;-110;-111.3;43.4;43.9;16;16.7;26.2;0.0;
25/02/2025 22:16:11;100;0;151.65;-4;-19.69;-3.25;484.9;14.50;76054;2836.570;-1759.874;1;141;-110;-111.3;43.4;43.7;16;16.7;26.2;0.0;
25/02/2025 22:16:31;100;0;153.99;-4;-19.42;-3.24;487.3;14.50;76055;2836.568;-1759.873;1;141;-110;-111.3;43.4;43.7;16;16.7;26.2;0.0;
25/02/2025 22:16:51;100;0;156.08;-4;-19.35;-3.25;489.6;14.50;76053;2836.566;-1759.872;1;141;-110;-111.3;43.4;43.6;16;16.7;26.2;0.0;
25/02/2025 22:17:11;100;0;158.63;-4;-19.44;-3.25;491.7;14.50;76035;2836.565;-1759.871;1;141;-110;-111.3;43.4;43.6;16;16.7;26.2;0.0;
25/02/2025 22:17:31;100;0;160.02;-4;-19.24;-3.27;493.8;14.40;76036;2836.563;-1759.870;1;141;-110;-109.7;43.4;43.7;18;18.1;26.2;0.0;
25/02/2025 22:17:51;100;0;162.53;-4;-19.11;-2.34;496.0;14.40;76026;2836.562;-1759.869;1;141;-110;-111.3;43.4;43.7;20;19.9;26.2;0.0;
25/02/2025 22:18:11;100;0;163.88;-4;-19.50;-1.49;498.1;14.40;76018;2836.560;-1759.869;1;141;-110;-111.3;43.4;43.7;22;22.1;26.2;0.0;
25/02/2025 22:18:31;100;0;163.83;-4;-19.69;-0.40;500.2;14.40;76009;2836.559;-1759.868;1;141;-110;-111.3;43.4;43.7;22;22.6;26.2;0.0;
25/02/2025 22:18:51;100;0;162.94;-4;-19.62;-0.26;502.3;14.30;76023;2836.557;-1759.868;1;141;-110;-112.9;43.4;43.7;22;22.6;26.2;0.0;
25/02/2025 22:19:11;100;0;162.95;-4;-19.88;-0.43;504.4;14.30;76002;2836.556;-1759.867;1;141;-110;-111.3;43.4;43.7;20;19.9;26.2;0.0;
25/02/2025 22:19:31;100;0;163.34;-4;-19.56;-1.92;506.6;14.30;76002;2836.555;-1759.867;1;141;-110;-112.9;43.4;43.7;20;19.4;26.2;0.0;
25/02/2025 22:19:51;100;0;164.17;-4;-19.68;-1.94;508.6;14.20;75997;2836.553;-1759.866;1;141;-110;-112.9;43.4;43.7;20;19.4;26.2;0.0;
25/02/2025 22:20:11;100;0;163.83;-4;-19.78;-1.90;510.6;14.20;75998;2836.552;-1759.866;1;141;-130;-129.0;43.4;43.7;20;19.4;26.2;0.0;
25/02/2025 22:20:31;100;0;164.06;-4;-19.39;-1.88;512.9;14.20;76035;2836.550;-1759.865;1;141;-130;-129.0;43.4;43.7;24;23.9;26.2;0.0;
25/02/2025 22:20:51;100;0;161.06;-4;-19.63;0.74;515.1;14.20;76028;2836.549;-1759.864;1;141;-130;-130.6;43.4;43.7;19;19.0;26.2;0.0;
25/02/2025 22:21:11;100;0;159.34;-4;-19.43;-2.19;517.4;14.10;76021;2836.547;-1759.863;1;141;-130;-129.0;43.4;43.7;19;18.5;26.2;0.0;
25/02/2025 22:21:31;100;0;158.06;-4;-19.34;-2.21;519.8;14.10;76016;2836.545;-1759.862;1;141;-130;-129.0;43.4;43.7;19;19.0;26.2;0.0;
25/02/2025 22:21:51;100;0;153.88;-4;-19.20;-2.22;522.0;14.10;76020;2836.544;-1759.861;1;141;-130;-129.0;43.4;43.7;16;15.8;26.2;0.0;
25/02/2025 22:22:11;100;0;152.59;-4;-19.17;-3.74;524.4;14.10;76021;2836.542;-1759.860;1;141;-130;-130.6;43.4;43.6;16;15.8;26.2;0.0;
25/02/2025 22:22:31;100;0;150.66;-4;-18.91;-3.77;526.7;14.00;76007;2836.540;-1759.858;1;141;-130;-130.6;43.8;43.7;16;15.8;26.2;0.0;
25/02/2025 22:22:51;100;0;152.26;-4;-18.84;-3.78;528.9;14.00;76016;2836.539;-1759.857;1;141;-130;-130.6;44.1;44.0;16;15.8;26.2;0.0;
25/02/2025 22:23:11;100;0;152.42;-4;-19.82;-3.76;531.1;14.00;75994;2836.538;-1759.856;1;141;-130;-130.6;44.1;44.3;16;15.8;26.2;0.0;
25/02/2025 22:23:31;100;0;153.41;-4;-20.06;-3.76;533.4;14.00;75994;2836.536;-1759.855;1;141;-130;-129.0;44.1;44.3;16;15.8;26.2;0.0;
25/02/2025 22:23:51;100;0;153.98;-4;-20.24;-3.80;535.6;13.90;75980;2836.535;-1759.854;1;141;-130;-130.6;44.1;44.2;16;15.8;26.2;0.0;
25/02/2025 22:24:11;100;0;154.04;-4;-20.12;-3.80;538.2;13.90;75980;2836.533;-1759.852;1;141;-130;-130.6;44.1;44.3;16;15.8;26.2;0.0;
25/02/2025 22:24:31;100;0;153.33;-4;-20.12;-3.82;540.5;13.90;75977;2836.531;-1759.851;1;141;-130;-129.0;44.1;44.2;16;15.8;26.2;0.0;
25/02/2025 22:24:51;100;0;151.49;-4;-20.07;-3.81;543.0;13.80;75962;2836.530;-1759.850;1;141;-130;-129.0;44.1;44.3;16;15.8;26.2;0.0;
25/02/2025 22:25:11;100;0;151.04;-4;-20.19;-3.87;545.7;13.80;75967;2836.528;-1759.848;1;141;-130;-130.6;44.1;44.2;16;15.8;26.2;0.0;
25/02/2025 22:25:31;100;0;149.91;-4;-20.22;-3.75;548.3;13.80;75971;2836.526;-1759.847;1;141;-130;-129.0;44.1;44.3;16;15.8;26.2;0.0;
25/02/2025 22:25:51;100;0;149.10;-4;-20.29;-3.79;550.8;13.80;75964;2836.524;-1759.845;1;141;-130;-130.6;44.1;44.2;16;15.8;26.2;0.0;
25/02/2025 22:26:11;100;0;148.29;-4;-20.05;-3.70;553.6;13.80;75955;2836.523;-1759.843;1;141;-130;-130.6;44.1;44.2;16;15.8;26.2;0.0;
25/02/2025 22:26:31;100;0;146.17;-4;-20.14;-3.81;556.2;13.80;75967;2836.521;-1759.842;1;141;-130;-129.0;44.1;44.3;16;15.8;26.2;0.0;
25/02/2025 22:26:51;100;0;144.29;-4;-20.18;-3.73;558.9;13.70;75957;2836.519;-1759.840;1;141;-130;-130.6;44.1;44.2;16;15.8;26.2;0.0;
25/02/2025 22:27:11;100;0;142.80;-4;-20.16;-3.79;561.6;13.70;75952;2836.518;-1759.837;1;141;-130;-130.6;44.1;44.3;16;15.8;26.2;0.0;
25/02/2025 22:27:32;100;0;140.64;-4;-20.03;-3.74;564.4;13.70;75940;2836.516;-1759.835;1;141;-130;-130.6;44.1;44.3;14;14.0;26.2;0.0;
25/02/2025 22:27:52;100;0;137.44;-4;-20.35;-4.76;566.9;13.70;75949;2836.515;-1759.833;1;141;-130;-129.0;44.1;44.2;11;10.8;26.2;0.0;
25/02/2025 22:28:12;100;0;136.35;-4;-19.52;-6.45;569.8;13.60;75944;2836.513;-1759.830;1;141;-130;-132.3;44.1;44.3;11;10.4;26.2;0.0;
25/02/2025 22:28:32;100;0;135.02;-4;-20.14;-6.17;572.4;13.60;75932;2836.512;-1759.828;1;141;-130;-130.6;44.1;44.3;7;6.8;26.2;0.0;
25/02/2025 22:28:52;100;0;136.22;-4;-19.69;-8.13;575.1;13.60;75938;2836.511;-1759.826;1;141;-130;-130.6;44.1;44.3;10;10.4;26.2;0.0;
25/02/2025 22:29:12;100;0;133.02;-4;-19.94;-6.27;577.8;13.60;75923;2836.509;-1759.823;1;141;-130;-130.6;44.1;44.3;6;5.9;26.2;0.0;
25/02/2025 22:29:32;100;0;133.64;-4;-19.79;-8.78;580.4;13.60;75923;2836.508;-1759.821;1;141;-130;-130.6;44.1;44.3;6;5.4;26.2;0.0;
25/02/2025 22:29:52;100;0;136.26;-4;-19.80;-8.73;583.2;13.50;75916;2836.507;-1759.818;1;141;-130;-129.0;44.1;44.3;10;10.4;26.2;0.0;
25/02/2025 22:30:12;100;0;138.68;-4;-19.80;-6.15;585.9;13.50;75909;2836.505;-1759.816;1;141;-130;-129.0;44.1;44.3;13;13.1;26.2;0.0;
25/02/2025 22:30:32;100;0;139.49;-4;-19.97;-4.67;588.6;13.50;75907;2836.504;-1759.814;1;141;-130;-130.6;44.1;44.3;13;13.5;26.2;0.0;
25/02/2025 22:30:52;100;0;139.51;-4;-20.03;-4.78;591.1;13.50;75908;2836.503;-1759.812;1;141;-130;-130.6;44.1;44.3;13;13.5;26.2;0.0;
25/02/2025 22:31:12;100;0;140.39;-4;-19.90;-4.76;593.9;13.40;75890;2836.501;-1759.809;1;141;-130;-130.6;44.1;44.3;13;13.5;26.2;0.0;
25/02/2025 22:31:32;100;0;142.63;-4;-20.14;-4.80;596.7;13.40;75897;2836.499;-1759.807;1;141;-130;-130.6;44.1;44.3;15;15.3;26.2;0.0;
25/02/2025 22:31:52;100;0;143.86;-4;-19.94;-3.67;599.4;13.40;75889;2836.498;-1759.805;1;141;-130;-130.6;44.1;44.3;15;15.8;26.2;0.0;
25/02/2025 22:32:12;100;0;143.67;-4;-20.21;-3.67;602.2;13.40;75883;2836.496;-1759.803;1;141;-130;-130.6;44.1;44.3;15;15.3;26.2;0.0;
25/02/2025 22:32:32;100;0;145.86;-4;-20.29;-3.67;605.0;13.30;75885;2836.494;-1759.801;1;141;-130;-129.0;44.1;44.3;15;15.8;26.2;0.0;
25/02/2025 22:32:52;100;0;149.75;-4;-20.32;-3.68;608.0;13.30;75889;2836.492;-1759.799;1;141;-130;-130.6;44.1;44.3;15;15.8;26.2;0.0;
25/02/2025 22:33:12;100;0;155.35;-4;-19.89;-3.39;610.8;13.30;75870;2836.490;-1759.798;1;141;-130;-130.6;44.1;44.3;17;17.6;26.2;0.0;
25/02/2025 22:33:32;100;0;159.22;-4;-20.31;-2.51;613.8;13.30;75870;2836.487;-1759.797;1;141;-130;-130.6;44.1;44.3;19;19.0;26.2;0.0;
25/02/2025 22:33:52;100;0;166.16;-4;-20.53;-1.98;616.8;13.30;75863;2836.485;-1759.796;1;141;-130;-130.6;44.1;44.3;28;28.0;26.2;0.0;
25/02/2025 22:34:12;100;0;164.57;-4;-20.48;2.64;620.1;13.20;75865;2836.482;-1759.795;1;141;-130;-130.6;44.1;44.3;28;28.4;26.2;0.0;
25/02/2025 22:34:32;100;0;157.28;-4;-19.87;2.59;623.1;13.20;75846;2836.480;-1759.794;1;141;-130;-129.0;44.1;44.3;18;18.1;26.2;0.0;
25/02/2025 22:34:52;100;0;152.31;-4;-20.05;-2.59;625.9;13.20;75828;2836.478;-1759.792;1;141;-130;-130.6;44.1;44.3;16;15.8;26.2;0.0;
25/02/2025 22:35:12;100;0;148.91;-4;-19.50;-3.76;628.8;13.20;75831;2836.475;-1759.790;1;141;-130;-129.0;44.1;44.3;16;15.8;26.2;0.0;
25/02/2025 22:35:32;100;0;145.30;-4;-19.65;-3.72;631.7;13.20;75810;2836.474;-1759.788;1;141;-130;-130.6;44.1;44.2;16;15.8;26.2;0.0;
25/02/2025 22:35:52;100;0;145.13;-4;-19.92;-3.79;634.6;13.10;75809;2836.472;-1759.786;1;141;-130;-132.3;44.1;44.3;16;15.8;26.2;0.0;
25/02/2025 22:36:12;100;0;142.57;-4;-20.10;-3.72;637.5;13.10;75807;2836.470;-1759.784;1;141;-130;-129.0;44.1;44.3;16;15.8;26.2;0.0;
25/02/2025 22:36:32;100;0;141.17;-4;-20.23;-3.63;640.3;13.10;75803;2836.468;-1759.782;1;141;-130;-130.6;44.1;44.3;14;14.0;26.1;0.0;
25/02/2025 22:36:52;100;0;137.42;-4;-19.36;-4.74;643.2;13.00;75801;2836.467;-1759.779;1;141;-130;-130.6;44.1;44.3;12;11.7;26.2;0.0;
25/02/2025 22:37:12;100;0;138.73;-4;-20.05;-5.78;645.9;13.00;75794;2836.465;-1759.777;1;141;-130;-130.6;44.1;44.3;12;11.7;26.2;0.0;
25/02/2025 22:37:32;100;0;141.64;-4;-19.82;-5.64;648.9;13.00;75798;2836.463;-1759.774;1;141;-130;-129.0;44.1;44.3;15;14.9;26.2;0.0;
25/02/2025 22:37:52;100;0;138.65;-4;-18.89;-3.75;651.5;13.00;75788;2836.462;-1759.772;1;141;-130;-130.6;44.4;44.6;12;12.2;26.2;0.0;
25/02/2025 22:38:12;100;0;137.12;-4;-19.90;-5.66;654.1;13.00;75781;2836.461;-1759.770;1;141;-130;-129.0;44.4;44.6;10;9.5;26.2;0.0;
25/02/2025 22:38:32;100;0;141.74;-4;-20.34;-6.87;656.8;12.90;75771;2836.459;-1759.768;1;141;-130;-130.6;44.4;44.6;14;14.0;26.1;0.0;
25/02/2025 22:38:52;100;0;143.99;-4;-20.36;-4.23;659.6;12.90;75766;2836.457;-1759.766;1;141;-130;-130.6;44.4;44.6;14;14.4;26.2;0.0;
25/02/2025 22:39:12;100;0;148.13;-4;-19.82;-4.46;662.4;12.90;75752;2836.455;-1759.764;1;141;-130;-130.6;44.4;44.6;16;15.8;26.2;0.0;
25/02/2025 22:39:32;100;0;148.41;-4;-20.60;-2.86;664.9;12.80;75746;2836.454;-1759.762;1;141;-130;-133.9;44.4;44.6;16;16.2;26.2;0.0;
25/02/2025 22:39:52;100;0;149.38;-4;-20.69;-3.47;667.8;12.80;75743;2836.452;-1759.760;1;141;-130;-130.6;44.4;44.6;16;16.2;26.2;0.0;
25/02/2025 22:40:12;100;0;151.53;-4;-20.12;-3.33;670.4;12.80;75736;2836.450;-1759.759;1;141;-130;-130.6;44.4;44.6;16;16.2;26.2;0.0;
25/02/2025 22:40:32;100;0;149.43;-4;-20.77;-3.24;673.2;12.80;75725;2836.448;-1759.757;1;141;-130;-130.6;44.4;44.8;16;16.2;26.2;0.0;
25/02/2025 22:40:52;100;0;150.16;-4;-20.29;-3.38;675.8;12.80;75725;2836.447;-1759.756;1;141;-130;-130.6;44.4;44.6;16;16.2;26.2;0.0;
25/02/2025 22:41:12;100;0;150.72;-4;-20.18;-3.50;678.6;12.70;75718;2836.445;-1759.754;1;141;-130;-130.6;44.4;44.8;16;16.2;26.2;0.0;
25/02/2025 22:41:32;100;0;151.18;-4;-20.52;-3.36;681.2;12.70;75719;2836.443;-1759.753;1;141;-130;-130.6;44.4;44.6;16;16.2;26.2;0.0;
25/02/2025 22:41:52;100;0;151.14;-4;-20.37;-3.44;683.9;12.70;75710;2836.441;-1759.751;1;141;-130;-130.6;44.4;44.8;16;16.2;26.2;0.0;
25/02/2025 22:42:12;100;0;152.28;-4;-20.44;-3.42;686.7;12.60;75706;2836.439;-1759.749;1;141;-130;-130.6;44.4;44.6;16;16.2;26.2;0.0;
25/02/2025 22:42:32;100;0;153.40;-4;-20.88;-3.41;689.5;12.60;75709;2836.437;-1759.748;1;141;-130;-129.0;44.4;44.6;16;16.2;26.2;0.0;
25/02/2025 22:42:52;100;0;154.46;-4;-20.68;-3.33;692.4;12.60;75694;2836.435;-1759.747;1;141;-130;-129.0;44.4;44.6;16;16.2;26.2;0.0;
25/02/2025 22:43:12;100;0;155.63;-4;-20.89;-3.28;695.4;12.60;75700;2836.433;-1759.745;1;141;-130;-130.6;44.4;44.6;16;16.2;26.2;0.0;
25/02/2025 22:43:32;100;0;157.53;-4;-20.51;-3.64;698.5;12.60;75699;2836.430;-1759.744;1;141;-130;-130.6;44.4;44.6;19;19.0;26.2;0.0;
25/02/2025 22:43:52;100;0;153.73;-4;-20.45;-1.80;701.3;12.60;75677;2836.428;-1759.742;1;141;-130;-130.6;44.4;44.6;16;15.8;26.2;0.0;
25/02/2025 22:44:12;100;0;150.23;-4;-20.59;-3.59;704.1;12.50;75660;2836.426;-1759.741;1;141;-130;-130.6;44.4;44.8;16;15.8;26.2;0.0;
25/02/2025 22:44:32;100;0;146.64;-4;-20.37;-3.67;706.9;12.50;75668;2836.425;-1759.739;1;141;-130;-130.6;44.4;44.6;16;15.8;26.2;0.0;
25/02/2025 22:44:52;100;0;148.92;-4;-20.51;-3.65;709.7;12.50;75657;2836.423;-1759.737;1;141;-130;-130.6;44.4;44.6;16;15.8;26.2;0.0;
25/02/2025 22:45:12;100;0;142.80;-4;-20.66;-3.67;712.5;12.40;75642;2836.421;-1759.735;1;141;-130;-130.6;44.4;44.6;16;15.8;26.2;0.0;
25/02/2025 22:45:32;100;0;139.39;-4;-20.57;-3.64;715.3;12.40;75643;2836.420;-1759.733;1;141;-130;-129.0;44.4;44.6;13;13.1;26.2;0.0;
25/02/2025 22:45:52;100;0;135.72;-4;-20.86;-5.05;718.1;12.40;75637;2836.418;-1759.730;1;141;-130;-130.6;44.4;44.6;9;8.6;26.2;0.0;
25/02/2025 22:46:12;100;0;134.71;-4;-20.07;-7.22;721.0;12.40;75635;2836.417;-1759.728;1;141;-130;-133.9;44.4;44.8;9;8.6;26.2;0.0;
25/02/2025 22:46:32;100;0;133.54;-4;-20.04;-7.30;723.8;12.30;75628;2836.415;-1759.725;1;141;-130;-129.0;44.4;44.6;6;5.9;26.2;0.0;
25/02/2025 22:46:52;100;0;133.27;-4;-19.97;-8.68;726.4;12.30;75626;2836.414;-1759.723;1;141;-130;-130.6;44.4;44.6;6;5.9;26.2;0.0;
25/02/2025 22:47:12;100;0;134.66;-4;-19.63;-8.71;729.2;12.30;75621;2836.413;-1759.720;1;141;-130;-129.0;44.4;44.6;8;8.1;26.2;0.0;
25/02/2025 22:47:32;100;0;137.41;-4;-19.63;-7.36;731.8;12.30;75609;2836.412;-1759.718;1;141;-130;-130.6;44.4;44.6;10;9.9;26.2;0.0;
25/02/2025 22:47:52;100;0;139.79;-4;-19.85;-6.22;734.5;12.30;75604;2836.410;-1759.716;1;141;-130;-130.6;44.4;44.6;13;13.1;26.2;0.0;
25/02/2025 22:48:12;100;0;140.58;-4;-19.93;-4.88;737.0;12.20;75592;2836.409;-1759.714;1;141;-130;-130.6;44.4;44.6;13;13.5;26.2;0.0;
25/02/2025 22:48:32;100;0;141.70;-4;-20.13;-4.86;739.8;12.20;75590;2836.407;-1759.711;1;141;-130;-130.6;44.4;44.6;13;13.5;26.2;0.0;
25/02/2025 22:48:52;100;0;144.56;-4;-19.72;-4.83;742.5;12.20;75592;2836.406;-1759.709;1;141;-130;-130.6;44.4;44.8;15;15.3;26.2;0.0;
25/02/2025 22:49:12;100;0;146.99;-4;-20.30;-3.74;745.1;12.10;75579;2836.404;-1759.708;1;141;-130;-130.6;44.4;44.6;15;15.8;26.2;0.0;
25/02/2025 22:49:32;100;0;148.64;-4;-20.24;-3.76;747.7;12.10;75574;2836.402;-1759.706;1;141;-130;-130.6;44.4;44.6;15;15.3;26.2;0.0;
25/02/2025 22:49:52;100;0;149.41;-4;-20.42;-3.79;750.4;12.10;75572;2836.400;-1759.704;1;141;-130;-130.6;44.4;44.6;15;15.8;26.2;0.0;
25/02/2025 22:50:12;100;0;150.73;-4;-20.33;-3.69;753.0;12.10;75565;2836.399;-1759.703;1;141;-130;-130.6;44.4;44.8;15;15.8;26.2;0.0;
25/02/2025 22:50:32;100;0;153.35;-4;-20.30;-3.67;755.5;12.00;75558;2836.397;-1759.701;1;141;-130;-130.6;44.4;44.6;15;15.3;26.2;0.0;
25/02/2025 22:50:52;100;0;155.42;-4;-20.22;-3.70;758.2;12.00;75560;2836.395;-1759.700;1;141;-130;-130.6;44.4;44.6;15;15.3;26.2;0.0;
25/02/2025 22:51:12;100;0;156.06;-4;-19.78;-3.86;760.6;12.00;75550;2836.393;-1759.699;1;141;-130;-130.6;44.4;44.8;15;15.8;26.2;0.0;
25/02/2025 22:51:32;100;0;156.22;-4;-20.41;-3.77;763.0;12.00;75548;2836.391;-1759.698;1;141;-130;-129.0;44.4;44.8;15;15.8;26.1;0.0;
25/02/2025 22:51:52;100;0;156.17;-4;-20.46;-3.78;765.6;11.90;75545;2836.390;-1759.697;1;141;-130;-130.6;44.4;44.6;15;15.3;26.2;0.0;
25/02/2025 22:52:12;100;0;159.19;-4;-20.06;-3.73;768.1;11.90;75536;2836.388;-1759.696;1;141;-130;-130.6;44.4;44.6;18;18.1;26.2;0.0;
25/02/2025 22:52:32;100;0;160.71;-4;-20.18;-2.48;770.7;11.90;75531;2836.386;-1759.695;1;141;-130;-130.6;44.4;44.6;18;18.1;26.2;0.0;
25/02/2025 22:52:52;100;0;159.03;-4;-20.41;-2.44;773.3;11.90;75533;2836.384;-1759.694;1;141;-130;-130.6;44.4;44.6;18;18.1;26.2;0.0;
25/02/2025 22:53:12;100;0;157.41;-4;-20.42;-2.44;775.9;11.90;75524;2836.382;-1759.693;1;141;-130;-130.6;44.4;44.6;18;18.1;26.2;0.0;
25/02/2025 22:53:32;100;0;154.16;-4;-20.43;-2.43;778.5;11.80;75522;2836.380;-1759.691;1;141;-130;-130.6;44.4;44.8;16;15.3;26.2;0.0;
25/02/2025 22:53:52;100;0;152.64;-4;-20.27;-3.98;781.2;11.80;75511;2836.378;-1759.690;1;141;-130;-130.6;44.4;44.6;16;15.3;26.2;0.0;
25/02/2025 22:54:12;100;0;151.30;-4;-20.30;-4.04;783.8;11.80;75511;2836.376;-1759.688;1;141;-130;-130.6;44.4;44.6;16;15.3;26.2;0.0;
25/02/2025 22:54:32;100;0;150.96;-4;-20.21;-4.02;786.6;11.80;75507;2836.374;-1759.687;1;141;-130;-129.0;44.4;44.6;16;15.3;26.2;0.0;
25/02/2025 22:54:52;100;0;149.73;-4;-19.78;-3.92;789.3;11.70;75505;2836.373;-1759.685;1;141;-130;-132.3;44.4;44.6;16;15.3;26.2;0.0;
25/02/2025 22:55:12;100;0;150.22;-4;-19.46;-4.08;791.7;11.70;75495;2836.371;-1759.684;1;141;-130;-130.6;44.4;44.8;16;15.3;26.2;0.0;
25/02/2025 22:55:32;100;0;152.87;-4;-19.59;-3.99;794.1;11.70;75499;2836.369;-1759.682;1;141;-130;-130.6;44.4;44.8;16;15.3;26.2;0.0;
25/02/2025 22:55:52;100;0;157.60;-4;-19.79;-3.99;796.3;11.70;75484;2836.368;-1759.681;1;141;-130;-130.6;44.4;44.6;16;15.3;26.2;0.0;
25/02/2025 22:56:12;100;0;159.45;-4;-19.88;-3.99;798.9;11.70;75472;2836.366;-1759.680;1;141;-130;-130.6;44.4;44.8;18;18.1;26.2;0.0;
25/02/2025 22:56:32;100;0;159.80;-4;-19.89;-2.39;801.3;11.60;75468;2836.364;-1759.680;1;141;-130;-130.6;44.4;44.8;18;18.5;26.2;0.0;
25/02/2025 22:56:52;100;0;159.64;-4;-20.04;-2.44;803.7;11.60;75467;2836.362;-1759.679;1;141;-130;-130.6;44.4;44.6;18;18.5;26.1;0.0;
25/02/2025 22:57:12;100;0;158.50;-4;-20.04;-2.43;806.2;11.60;75467;2836.360;-1759.678;1;141;-130;-132.3;44.4;44.8;18;18.5;26.2;0.0;
25/02/2025 22:57:32;100;0;157.76;-4;-20.21;-2.37;808.7;11.60;75455;2836.359;-1759.677;1;141;-130;-129.0;44.4;44.8;18;18.1;26.2;0.0;
25/02/2025 22:57:52;100;0;157.02;-4;-20.12;-2.40;811.4;11.50;75459;2836.357;-1759.675;1;141;-130;-129.0;44.4;44.6;18;18.1;26.2;0.0;
25/02/2025 22:58:12;100;0;154.22;-4;-20.13;-2.32;814.0;11.50;75450;2836.355;-1759.674;1;141;-130;-130.6;44.4;44.8;16;15.8;26.2;0.0;
25/02/2025 22:58:32;100;0;152.49;-4;-19.96;-3.91;816.4;11.50;75443;2836.353;-1759.673;1;141;-130;-132.3;44.4;44.6;16;15.3;26.2;0.0;
25/02/2025 22:58:52;100;0;152.23;-4;-19.26;-3.88;818.8;11.50;75439;2836.352;-1759.671;1;141;-130;-130.6;44.4;44.8;16;15.3;26.2;0.0;
25/02/2025 22:59:12;100;0;152.27;-4;-19.70;-3.90;821.2;11.50;75435;2836.350;-1759.670;1;141;-130;-130.6;44.4;44.6;16;15.3;26.2;0.0;
25/02/2025 22:59:32;100;0;152.24;-4;-19.64;-3.84;823.7;11.40;75430;2836.348;-1759.669;1;141;-130;-130.6;44.4;44.6;16;15.3;26.2;0.0;
25/02/2025 22:59:52;100;0;152.06;-4;-19.71;-4.02;826.1;11.40;75421;2836.347;-1759.667;1;141;-130;-130.6;44.4;44.8;16;15.3;26.1;0.0;
25/02/2025 23:00:12;100;0;151.07;-4;-19.77;-3.91;828.6;11.40;75416;2836.345;-1759.666;1;141;-130;-129.0;44.4;44.8;16;15.3;26.2;0.0;
25/02/2025 23:00:32;100;0;148.42;-4;-20.11;-3.97;831.1;11.40;75417;2836.343;-1759.664;1;141;-130;-129.0;44.4;44.6;16;15.3;26.2;0.0;
25/02/2025 23:00:52;100;0;150.07;-4;-19.60;-3.92;833.8;11.30;75405;2836.342;-1759.663;1;141;-130;-130.6;44.4;44.6;16;15.3;26.2;0.0;
25/02/2025 23:01:12;100;0;153.11;-4;-19.74;-3.82;836.4;11.30;75405;2836.340;-1759.661;1;141;-130;-130.6;44.4;44.6;16;15.3;26.2;0.0;
25/02/2025 23:01:32;100;0;152.61;-4;-19.69;-3.92;838.9;11.30;75397;2836.338;-1759.660;1;141;-130;-130.6;44.4;44.6;16;15.3;26.2;0.0;
25/02/2025 23:01:53;100;0;151.93;-4;-19.89;-3.91;841.4;11.30;75397;2836.336;-1759.659;1;141;-130;-130.6;44.4;44.6;16;15.3;26.2;0.0;
25/02/2025 23:02:13;100;0;150.99;-4;-19.79;-3.85;843.9;11.30;75403;2836.335;-1759.657;1;141;-130;-130.6;44.4;44.6;16;15.3;26.2;0.0;
25/02/2025 23:02:33;100;0;150.53;-4;-19.57;-3.94;846.5;11.20;75380;2836.333;-1759.656;1;141;-130;-130.6;44.4;44.6;16;15.3;26.2;0.0;
25/02/2025 23:02:53;100;0;150.29;-4;-20.01;-3.91;849.2;11.20;75378;2836.331;-1759.654;1;141;-130;-130.6;44.4;44.8;16;15.3;26.2;0.0;
25/02/2025 23:03:13;100;0;148.60;-4;-19.78;-3.92;851.8;11.20;75374;2836.329;-1759.652;1;141;-130;-132.3;44.4;44.6;16;15.3;26.2;0.0;
25/02/2025 23:03:33;100;0;148.65;-4;-19.72;-4.01;854.5;11.20;75373;2836.328;-1759.651;1;141;-130;-130.6;44.4;44.8;16;15.3;26.2;0.0;
25/02/2025 23:03:53;100;0;149.04;-4;-19.50;-3.89;857.2;11.10;75366;2836.326;-1759.649;1;141;-130;-130.6;44.4;44.6;16;15.3;26.2;0.0;
25/02/2025 23:04:13;100;0;149.40;-4;-19.72;-3.90;859.8;11.10;75361;2836.324;-1759.647;1;141;-130;-130.6;44.4;44.6;16;15.3;26.2;0.0;
25/02/2025 23:04:33;100;0;149.04;-4;-19.45;-4.01;862.5;11.10;75365;2836.322;-1759.645;1;141;-130;-129.0;44.4;44.6;16;15.3;26.2;0.0;
25/02/2025 23:04:53;100;0;149.66;-4;-19.76;-3.85;865.2;11.10;75361;2836.320;-1759.644;1;141;-130;-129.0;44.4;44.6;16;15.3;26.1;0.0;
25/02/2025 23:05:13;100;0;150.27;-4;-19.87;-3.90;867.8;11.10;75366;2836.319;-1759.642;1;141;-130;-130.6;44.4;44.6;16;15.3;26.2;0.0;
25/02/2025 23:05:33;100;0;150.02;-4;-19.83;-3.87;870.4;11.00;75349;2836.317;-1759.641;1;141;-130;-130.6;44.4;44.6;16;15.3;26.2;0.0;
25/02/2025 23:05:53;100;0;150.57;-4;-19.66;-3.82;873.0;11.00;75354;2836.315;-1759.639;1;141;-130;-130.6;44.4;44.6;16;15.3;26.2;0.0;
25/02/2025 23:06:13;100;0;152.52;-4;-19.79;-3.91;875.8;11.00;75350;2836.313;-1759.638;1;141;-130;-130.6;44.4;44.6;16;15.3;26.1;0.0;
25/02/2025 23:06:33;100;0;152.99;-4;-19.93;-3.82;878.3;11.00;75346;2836.311;-1759.636;1;141;-130;-129.0;44.4;44.6;16;15.3;26.2;0.0;
25/02/2025 23:06:53;100;0;151.84;-4;-19.96;-3.98;881.0;11.00;75347;2836.309;-1759.635;1;141;-130;-130.6;44.4;44.8;16;15.3;26.2;0.0;
25/02/2025 23:07:13;100;0;153.15;-4;-19.93;-3.88;883.5;11.00;75344;2836.308;-1759.633;1;141;-130;-130.6;44.4;44.8;16;15.3;26.2;0.0;
25/02/2025 23:07:33;100;0;156.07;-4;-19.86;-4.19;886.2;10.90;75337;2836.306;-1759.632;1;141;-130;-130.6;44.4;44.6;16;15.3;26.2;0.0;
25/02/2025 23:07:53;100;0;158.05;-4;-19.76;-3.84;888.9;10.90;75323;2836.304;-1759.631;1;141;-130;-130.6;44.4;44.8;19;19.0;26.2;0.0;
25/02/2025 23:08:13;100;0;155.63;-4;-19.47;-1.94;891.6;10.90;75334;2836.301;-1759.630;1;141;-130;-129.0;44.4;44.9;17;17.1;26.2;0.0;
25/02/2025 23:08:33;100;0;154.32;-4;-19.72;-3.12;894.4;10.90;75324;2836.299;-1759.628;1;141;-130;-130.6;44.4;44.6;17;16.7;26.2;0.0;
25/02/2025 23:08:53;100;0;153.32;-4;-19.63;-3.21;897.0;10.90;75321;2836.298;-1759.627;1;141;-130;-129.0;44.4;44.6;17;17.1;26.2;0.0;
25/02/2025 23:09:13;100;0;151.91;-4;-19.61;-3.25;899.8;10.80;75312;2836.295;-1759.625;1;141;-130;-129.0;44.4;44.6;17;16.7;26.2;0.0;
25/02/2025 23:09:33;100;0;154.18;-4;-20.22;-3.01;902.4;10.80;75313;2836.294;-1759.624;1;141;-130;-132.3;44.4;44.6;17;16.7;26.1;0.0;
25/02/2025 23:09:53;100;0;154.52;-4;-20.00;-3.18;905.3;10.80;75306;2836.291;-1759.622;1;141;-130;-130.6;44.4;44.6;17;17.1;26.2;0.0;
25/02/2025 23:10:13;100;0;153.69;-4;-19.94;-3.21;908.1;10.80;75303;2836.289;-1759.621;1;141;-130;-130.6;44.4;44.6;17;17.1;26.2;0.0;
25/02/2025 23:10:33;100;0;153.85;-4;-20.08;-3.21;910.8;10.80;75305;2836.287;-1759.619;1;141;-130;-130.6;44.4;44.6;17;16.7;26.2;0.0;
25/02/2025 23:10:53;100;0;151.45;-4;-19.61;-3.29;913.6;10.70;75306;2836.285;-1759.618;1;141;-130;-130.6;44.4;44.6;17;16.7;26.2;0.0;
25/02/2025 23:11:13;100;0;150.54;-4;-19.60;-3.18;916.3;10.70;75299;2836.284;-1759.616;1;141;-130;-130.6;44.4;44.8;17;16.7;26.2;0.0;
25/02/2025 23:11:33;100;0;149.96;-4;-19.51;-3.16;919.1;10.70;75291;2836.282;-1759.614;1;141;-130;-130.6;44.4;44.6;17;17.1;26.2;0.0;
25/02/2025 23:11:53;100;0;149.05;-4;-19.21;-3.25;921.8;10.70;75295;2836.280;-1759.613;1;141;-130;-132.3;44.4;44.8;17;17.1;26.2;0.0;
25/02/2025 23:12:13;100;0;148.65;-4;-19.53;-3.29;924.4;10.70;75294;2836.278;-1759.611;1;141;-130;-130.6;44.4;44.6;17;16.7;26.2;0.0;
25/02/2025 23:12:33;100;0;148.85;-4;-19.50;-3.27;927.0;10.70;75291;2836.276;-1759.609;1;141;-130;-130.6;44.4;44.6;17;17.1;26.2;0.0;
25/02/2025 23:12:53;100;0;149.81;-4;-19.86;-3.26;929.6;10.60;75286;2836.275;-1759.608;1;141;-130;-130.6;44.4;44.6;17;17.1;26.2;0.0;
25/02/2025 23:13:13;100;0;149.28;-4;-19.51;-3.29;932.4;10.60;75276;2836.273;-1759.606;1;141;-130;-130.6;44.4;44.6;17;17.1;26.2;0.0;
25/02/2025 23:13:33;100;0;148.51;-4;-19.47;-3.26;935.1;10.60;75277;2836.271;-1759.604;1;141;-130;-130.6;44.4;44.6;17;17.1;26.2;0.0;
25/02/2025 23:13:53;100;0;148.73;-4;-19.15;-3.45;937.9;10.60;75270;2836.269;-1759.602;1;141;-130;-130.6;44.4;44.6;17;17.1;26.2;0.0;
25/02/2025 23:14:13;100;0;148.28;-4;-19.33;-3.22;940.6;10.60;75276;2836.267;-1759.601;1;141;-130;-130.6;44.4;44.6;17;16.7;26.2;0.0;
25/02/2025 23:14:33;100;0;147.53;-4;-19.37;-3.41;943.3;10.50;75272;2836.265;-1759.599;1;141;-130;-130.6;44.4;44.6;17;17.1;26.2;0.0;
25/02/2025 23:14:53;100;0;147.19;-4;-19.94;-3.17;945.9;10.50;75266;2836.263;-1759.597;1;141;-130;-130.6;44.4;44.8;17;16.7;26.2;0.0;
25/02/2025 23:15:13;100;0;147.11;-4;-19.63;-3.21;948.8;10.50;75265;2836.261;-1759.595;1;141;-130;-130.6;44.4;44.6;17;17.1;26.2;0.0;
25/02/2025 23:15:33;100;0;148.81;-4;-19.58;-3.23;951.4;10.50;75262;2836.260;-1759.593;1;141;-130;-130.6;44.4;44.6;17;16.7;26.2;0.0;
25/02/2025 23:15:53;100;0;148.63;-4;-19.74;-3.20;954.1;10.50;75258;2836.258;-1759.592;1;141;-130;-130.6;44.4;44.6;17;17.1;26.2;0.0;
25/02/2025 23:16:13;100;0;149.39;-4;-19.56;-3.02;956.6;10.50;75249;2836.256;-1759.590;1;141;-130;-130.6;44.4;44.6;17;16.7;26.2;0.0;
25/02/2025 23:16:33;100;0;149.68;-4;-19.60;-3.23;959.4;10.40;75255;2836.254;-1759.588;1;141;-130;-129.0;44.4;44.6;17;16.7;26.2;0.0;
25/02/2025 23:16:53;100;0;150.54;-4;-19.17;-3.31;961.9;10.40;75248;2836.252;-1759.587;1;141;-130;-130.6;44.4;44.6;17;17.1;26.2;0.0;
25/02/2025 23:17:13;100;0;151.60;-4;-19.52;-3.22;964.4;10.40;75243;2836.251;-1759.585;1;141;-130;-129.0;44.4;44.6;17;16.7;26.2;0.0;
25/02/2025 23:17:33;100;0;152.50;-4;-19.64;-3.22;967.0;10.40;75247;2836.249;-1759.584;1;141;-130;-130.6;44.4;44.6;17;17.1;26.2;0.0;
25/02/2025 23:17:53;100;0;152.79;-4;-19.25;-3.24;969.7;10.40;75244;2836.247;-1759.582;1;141;-130;-130.6;44.4;44.8;17;16.7;26.2;0.0;
25/02/2025 23:18:13;100;0;152.63;-4;-19.61;-3.20;972.2;10.40;75251;2836.245;-1759.581;1;141;-130;-130.6;44.4;44.6;17;17.1;26.2;0.0;
25/02/2025 23:18:33;100;0;153.20;-4;-19.24;-3.20;974.8;10.40;75235;2836.243;-1759.580;1;141;-130;-129.0;44.4;44.6;17;16.7;26.2;0.0;
25/02/2025 23:18:53;100;0;153.72;-4;-19.55;-3.26;977.2;10.30;75241;2836.242;-1759.578;1;141;-130;-129.0;44.4;44.6;17;17.1;26.1;0.0;
25/02/2025 23:19:13;100;0;153.20;-4;-19.58;-3.24;979.9;10.30;75239;2836.240;-1759.577;1;141;-130;-129.0;44.4;44.6;17;16.7;26.1;0.0;
25/02/2025 23:19:33;100;0;153.40;-4;-19.80;-3.33;982.3;10.30;75243;2836.238;-1759.576;1;141;-130;-130.6;44.4;44.6;17;17.1;26.2;0.0;
25/02/2025 23:19:53;100;0;152.14;-4;-19.69;-3.32;984.8;10.30;75238;2836.236;-1759.574;1;141;-130;-129.0;44.4;44.8;17;16.7;26.2;0.0;
25/02/2025 23:20:13;100;0;151.28;-4;-19.16;-3.21;987.5;10.30;75234;2836.234;-1759.573;1;141;-130;-130.6;44.4;44.6;17;16.7;26.2;0.0;
25/02/2025 23:20:33;100;0;150.42;-4;-19.45;-3.18;990.0;10.30;75228;2836.233;-1759.571;1;141;-130;-129.0;44.4;44.6;17;17.1;26.2;0.0;
25/02/2025 23:20:53;100;0;150.43;-4;-19.76;-3.30;992.7;10.20;75232;2836.231;-1759.570;1;141;-130;-130.6;44.4;44.6;17;17.1;26.2;0.0;
25/02/2025 23:21:13;100;0;148.93;-4;-20.01;-3.19;995.3;10.20;75227;2836.229;-1759.568;1;141;-130;-130.6;44.4;44.6;17;17.1;26.2;0.0;
25/02/2025 23:21:33;100;0;147.95;-4;-19.69;-3.28;998.1;10.20;75217;2836.227;-1759.566;1;141;-130;-130.6;44.4;44.6;17;17.1;26.1;0.0;
25/02/2025 23:21:39;118;0;147.25;-4;-19.86;-3.04;998.9;10.20;75218;2836.227;-1759.566;1;141;450;-127.4;22.0;21.9;6;5.9;26.2;0.0;
25/02/2025 23:21:49;118;0;118.69;-4;-4.57;-9.68;1000.1;10.20;75202;2836.226;-1759.564;1;141;450;-0.0;22.0;21.8;6;5.9;25.0;-1.0;
25/02/2025 23:21:59;118;0;99.86;-4;22.73;-9.61;1000.3;10.20;74930;2836.227;-1759.564;1;141;450;124.2;22.0;22.1;6;5.9;24.7;-1.0;
25/02/2025 23:22:09;118;0;97.19;-4;28.73;-9.94;999.5;10.20;74679;2836.227;-1759.563;1;141;450;248.4;22.0;22.1;6;5.4;24.8;-1.0;
25/02/2025 23:22:19;118;0;96.40;-4;28.37;-9.55;998.5;10.20;74435;2836.228;-1759.563;1;141;450;369.4;22.0;22.2;6;5.4;24.8;-1.0;
25/02/2025 23:22:29;118;0;96.84;-4;26.61;-9.25;997.2;10.20;74182;2836.228;-1759.561;1;141;450;453.2;22.0;22.2;6;5.4;24.9;-1.0;
25/02/2025 23:22:39;118;0;143.62;-4;23.38;-8.61;995.5;10.30;74021;2836.227;-1759.560;1;141;450;453.2;22.0;22.2;6;5.9;26.1;-1.0;
25/02/2025 23:22:59;117;0;136.25;-4;19.83;-8.44;992.3;10.30;74028;2836.225;-1759.557;1;141;450;453.2;22.0;22.2;6;5.9;26.1;-1.0;
25/02/2025 23:23:19;117;0;127.40;-4;18.78;-8.43;989.0;10.30;74016;2836.224;-1759.554;1;141;450;453.2;21.6;21.4;46;46.0;26.1;-1.0;
25/02/2025 23:23:39;117;0;132.80;-4;21.79;12.42;985.9;10.40;74021;2836.223;-1759.551;1;141;450;451.6;21.6;21.4;40;40.2;26.1;-1.0;
25/02/2025 23:23:59;117;0;138.34;-4;22.85;9.45;982.1;10.40;74023;2836.221;-1759.548;1;141;450;451.6;22.5;22.5;30;29.8;26.1;-1.0;
25/02/2025 23:24:19;117;0;139.98;-4;21.80;3.80;978.6;10.40;74014;2836.219;-1759.545;1;141;450;450.0;22.5;22.5;30;29.8;26.2;-1.0;
25/02/2025 23:24:39;117;0;140.32;-4;21.05;3.82;975.1;10.40;74017;2836.216;-1759.542;1;141;450;453.2;22.5;22.5;30;29.8;26.2;-1.0;
25/02/2025 23:24:59;117;0;140.27;-4;20.77;3.74;971.8;10.40;74014;2836.214;-1759.540;1;141;450;451.6;22.5;22.5;30;29.3;26.2;-1.0;
25/02/2025 23:25:19;117;0;140.84;-4;20.77;3.78;968.5;10.40;74003;2836.212;-1759.537;1;141;450;451.6;22.5;22.5;30;29.8;26.2;-1.0;
25/02/2025 23:25:39;117;0;141.30;-4;20.89;3.79;965.1;10.30;74002;2836.210;-1759.534;1;141;450;453.2;22.5;22.5;30;29.3;26.2;-1.0;
25/02/2025 23:25:59;117;0;141.60;-4;20.90;3.72;961.9;10.30;74001;2836.208;-1759.532;1;141;450;453.2;22.5;22.5;30;29.3;26.1;-1.0;
25/02/2025 23:26:19;117;0;142.10;-4;20.67;3.80;958.6;10.30;73993;2836.206;-1759.529;1;141;450;451.6;22.5;22.5;30;29.8;26.2;-1.0;
25/02/2025 23:26:39;117;0;142.33;-4;20.52;3.89;955.3;10.30;73993;2836.204;-1759.527;1;141;450;451.6;22.5;22.5;30;29.3;26.2;-1.0;
25/02/2025 23:26:59;117;0;142.34;-4;20.72;3.74;952.1;10.30;73991;2836.202;-1759.525;1;141;450;453.2;22.5;22.5;30;29.8;26.2;-1.0;
25/02/2025 23:27:19;117;0;142.87;-4;20.82;3.68;948.9;10.30;73995;2836.200;-1759.522;1;141;450;451.6;22.5;22.5;30;29.8;26.1;-1.0;
25/02/2025 23:27:39;117;0;144.41;-4;20.65;3.83;945.8;10.30;73986;2836.198;-1759.520;1;141;450;453.2;22.5;22.5;30;29.8;26.2;-1.0;
25/02/2025 23:27:59;117;0;146.78;-4;21.48;3.72;942.7;10.20;73983;2836.196;-1759.518;1;141;450;453.2;22.5;22.5;28;28.0;26.2;-1.0;
25/02/2025 23:28:19;117;0;146.19;-4;20.71;2.57;939.3;10.20;73984;2836.194;-1759.516;1;141;450;453.2;22.5;22.5;28;27.5;26.1;-1.0;
25/02/2025 23:28:39;117;0;146.68;-4;19.54;2.73;936.0;10.20;73974;2836.191;-1759.513;1;141;450;451.6;22.5;22.5;28;27.5;26.1;-1.0;
25/02/2025 23:28:59;117;0;148.24;-4;20.52;2.73;933.1;10.20;73980;2836.189;-1759.511;1;141;450;453.2;22.5;22.7;28;27.5;26.2;-1.0;
25/02/2025 23:29:19;117;0;148.35;-4;20.26;2.82;930.2;10.20;73974;2836.187;-1759.509;1;141;450;450.0;22.5;22.5;28;27.5;26.2;-1.0;
25/02/2025 23:29:39;117;0;148.66;-4;20.55;2.69;927.2;10.20;73970;2836.186;-1759.508;1;141;450;451.6;22.5;22.5;28;27.5;26.2;-1.0;
25/02/2025 23:29:59;117;0;148.86;-4;20.50;2.78;924.3;10.20;73965;2836.183;-1759.506;1;141;450;453.2;22.5;22.5;28;27.5;26.2;-1.0;
25/02/2025 23:30:19;117;0;148.82;-4;20.73;2.72;921.5;10.20;73976;2836.182;-1759.504;1;141;450;451.6;22.5;22.5;28;27.5;26.2;-1.0;
25/02/2025 23:30:39;117;0;148.46;-4;20.93;2.76;918.6;10.10;73958;2836.180;-1759.502;1;141;450;453.2;22.5;22.5;28;27.5;26.2;-1.0;
25/02/2025 23:30:59;117;0;148.89;-4;20.75;2.84;915.7;10.10;73949;2836.178;-1759.500;1;141;450;451.6;22.5;22.5;28;27.5;26.2;-1.0;
25/02/2025 23:31:19;117;0;148.60;-4;20.42;2.80;913.0;10.10;73949;2836.176;-1759.499;1;141;450;454.8;22.5;22.5;28;27.5;26.2;-1.0;
25/02/2025 23:31:39;117;0;149.90;-4;20.92;2.75;910.1;10.10;73947;2836.174;-1759.497;1;141;450;453.2;22.5;22.5;28;27.5;26.1;-1.0;
25/02/2025 23:31:59;117;0;151.00;-4;20.69;2.71;907.2;10.10;73952;2836.172;-1759.495;1;141;450;451.6;22.5;22.7;28;27.5;26.2;-1.0;
25/02/2025 23:32:19;117;0;151.57;-4;20.83;2.86;904.5;10.10;73947;2836.170;-1759.494;1;141;450;453.2;22.5;22.5;28;27.5;26.2;-1.0;
25/02/2025 23:32:39;117;0;151.02;-4;20.59;2.78;901.6;10.10;73945;2836.168;-1759.492;1;141;450;453.2;22.5;22.7;28;27.5;26.2;-1.0;
25/02/2025 23:32:59;117;0;151.14;-4;20.47;2.72;898.8;10.00;73937;2836.166;-1759.491;1;141;450;453.2;22.5;22.5;28;27.5;26.1;-1.0;
25/02/2025 23:33:19;117;0;152.43;-4;21.16;2.44;895.7;10.00;73944;2836.164;-1759.489;1;141;450;453.2;22.5;22.5;28;27.5;26.1;-1.0;
25/02/2025 23:33:39;117;0;151.63;-4;20.62;2.80;892.6;10.00;73944;2836.162;-1759.487;1;141;450;454.8;22.5;22.5;28;27.5;26.2;-1.0;
25/02/2025 23:33:59;117;0;151.93;-4;20.71;2.78;889.4;10.00;73930;2836.160;-1759.485;1;141;450;451.6;22.5;22.5;28;27.5;26.2;-1.0;
25/02/2025 23:34:19;117;0;152.20;-4;20.88;2.59;886.3;10.00;73937;2836.157;-1759.484;1;141;450;451.6;22.5;22.7;28;27.5;26.2;-1.0;
25/02/2025 23:34:39;117;0;151.90;-4;20.71;2.82;883.2;10.00;73934;2836.155;-1759.482;1;141;450;451.6;22.5;22.5;28;27.5;26.2;-1.0;
25/02/2025 23:34:59;117;0;150.64;-4;20.62;2.79;880.0;10.00;73934;2836.153;-1759.480;1;141;450;453.2;22.5;22.5;28;27.5;26.1;-1.0;
25/02/2025 23:35:19;117;0;150.98;-4;20.69;2.72;876.7;10.00;73937;2836.150;-1759.478;1;141;450;453.2;22.5;22.5;28;27.5;26.2;-1.0;
25/02/2025 23:35:39;117;0;151.61;-4;20.86;2.68;873.4;10.00;73919;2836.148;-1759.476;1;141;450;453.2;22.5;22.7;28;27.5;26.1;-1.0;
25/02/2025 23:35:59;117;0;151.93;-4;20.77;2.66;869.9;10.00;73927;2836.145;-1759.474;1;141;450;453.2;22.5;22.5;28;27.5;26.2;-1.0;
25/02/2025 23:36:20;117;0;152.20;-4;21.01;2.74;866.6;10.00;73928;2836.143;-1759.472;1;141;450;453.2;22.5;22.5;28;27.5;26.1;-1.0;
25/02/2025 23:36:40;117;0;151.46;-4;20.22;2.75;863.1;10.00;73933;2836.140;-1759.470;1;141;450;454.8;22.5;22.5;28;27.5;26.1;-1.0;
25/02/2025 23:37:00;117;0;151.54;-4;20.43;2.73;859.9;10.00;73933;2836.137;-1759.468;1;141;450;453.2;22.5;22.5;28;27.5;26.1;-1.0;
25/02/2025 23:37:20;117;0;151.99;-4;20.81;2.83;856.5;9.90;73926;2836.135;-1759.466;1;141;450;453.2;22.5;22.5;28;27.5;26.1;-1.0;
25/02/2025 23:37:40;117;0;154.01;-4;20.89;2.78;853.0;9.90;73926;2836.132;-1759.465;1;141;450;451.6;22.5;22.5;28;27.5;26.2;-1.0;
25/02/2025 23:38:00;117;0;156.58;-4;20.99;2.78;849.5;9.90;73921;2836.129;-1759.463;1;141;450;453.2;22.5;22.5;26;26.2;26.1;-1.0;
25/02/2025 23:38:20;117;0;156.03;-4;20.52;2.22;846.0;9.90;73926;2836.127;-1759.461;1;141;450;454.8;22.5;22.5;26;26.2;26.2;-1.0;
25/02/2025 23:38:40;117;0;155.74;-4;19.87;1.81;842.6;9.90;73922;2836.124;-1759.460;1;141;450;453.2;22.5;22.5;26;26.2;26.2;-1.0;
25/02/2025 23:39:00;117;0;153.71;-4;18.94;1.94;839.5;9.90;73905;2836.121;-1759.458;1;141;450;453.2;22.2;22.1;26;26.2;26.2;-1.0;
25/02/2025 23:39:20;117;0;153.73;-4;20.14;1.91;836.6;9.90;73919;2836.119;-1759.456;1;141;450;453.2;22.2;22.1;26;26.2;26.2;-1.0;
25/02/2025 23:39:40;117;0;154.54;-4;19.46;2.42;834.1;9.90;73896;2836.117;-1759.455;1;141;450;453.2;22.2;21.8;28;28.0;26.2;-1.0;
