Timestamp;NavState;SecurityLevel;Heading;Declination;Pitch;Roll;Depth;Temperature;Pa;Lat;Lon;DeadReckoning;DesiredH;BallastCmd;BallastPos;LinCmd;LinPos;AngCmd;AngPos;Voltage;Altitude;
12/02/2025 17:45:20;119;0;238.28;-4;-55.87;-13.20;-0.2;18.40;76270;2835.278;-1758.857;0;139;500;509.7;100.0;100.7;0;0.0;29.0;-1.0;
12/02/2025 17:45:30;116;0;243.65;-4;-50.70;-12.55;-0.3;18.40;76278;2835.283;-1758.856;0;140;500;508.1;100.0;100.7;0;-0.5;29.0;-1.0;
12/02/2025 17:45:57;116;0;240.91;-4;-51.17;-1.31;-0.1;18.50;76295;2835.284;-1758.853;0;141;500;509.7;100.0;100.6;0;-0.5;29.0;-1.0;
12/02/2025 17:46:15;116;0;243.28;-4;-57.34;-27.20;-0.1;18.60;76308;2835.284;-1758.853;0;-9999;500;509.7;100.0;100.6;0;0.0;29.0;-1.0;
12/02/2025 17:46:38;116;0;244.95;-4;-51.43;-15.29;-0.1;18.70;76311;2835.284;-1758.851;0;104;500;509.7;100.0;100.6;0;0.0;29.0;-1.0;
12/02/2025 17:47:41;116;0;241.34;-4;-52.27;-10.17;0.0;19.10;76347;2835.287;-1758.850;0;104;500;511.3;100.0;100.7;0;0.0;29.0;-1.0;
12/02/2025 17:48:39;116;0;246.05;-4;-53.05;-17.30;0.0;19.50;76379;2835.287;-1758.849;0;104;500;509.7;100.0;100.7;0;0.0;29.0;-1.0;
12/02/2025 17:49:42;116;0;254.14;-4;-58.02;-6.71;-0.0;20.00;76403;2835.288;-1758.848;0;104;500;511.3;100.0;100.6;0;0.0;29.0;-1.0;
12/02/2025 17:49:48;116;0;254.75;-4;-50.15;-0.79;0.1;20.00;76398;2835.288;-1758.848;0;104;500;509.7;100.0;100.7;0;0.0;29.0;-1.0;
12/02/2025 17:50:08;116;0;243.00;-4;-53.51;-11.97;0.1;20.20;76410;2835.287;-1758.848;0;104;500;509.7;100.0;100.6;0;0.0;29.0;-1.0;
12/02/2025 17:50:19;116;0;246.51;-4;-52.31;-2.51;0.1;20.30;76418;2835.289;-1758.846;0;104;500;509.7;100.0;100.6;0;0.0;29.0;-1.0;
12/02/2025 17:50:30;116;0;241.28;-4;-53.34;-11.85;0.1;20.30;76416;2835.291;-1758.845;0;104;500;509.7;100.0;100.7;0;0.0;29.0;-1.0;
12/02/2025 17:50:50;110;0;241.31;-4;-53.25;-3.67;0.0;20.50;76423;2835.291;-1758.845;0;104;-100;393.5;100.0;100.6;2;1.8;29.0;-1.0;
12/02/2025 17:51:00;110;0;240.26;-4;-48.71;-9.61;0.1;20.50;76787;2835.291;-1758.845;1;104;-100;245.2;100.0;100.6;2;2.3;29.0;-1.0;
12/02/2025 17:51:10;110;0;229.33;-4;-56.10;-14.88;0.6;20.60;77023;2835.291;-1758.845;1;104;-100;87.1;100.0;100.6;2;2.3;29.0;-1.0;
12/02/2025 17:51:20;110;0;230.72;-4;-66.72;-1.16;0.8;20.60;77350;2835.291;-1758.845;1;104;-100;-71.0;100.0;100.7;2;2.3;29.0;-1.0;
12/02/2025 17:51:30;110;0;242.77;-4;-62.97;-11.92;1.1;20.70;77693;2835.291;-1758.845;1;104;-100;-100.0;49.2;49.2;2;2.3;29.0;-1.0;
12/02/2025 17:51:40;110;0;256.99;-4;-53.73;-10.41;2.5;20.70;77700;2835.291;-1758.846;1;104;-100;-100.0;49.2;49.0;2;2.3;29.0;-1.0;
12/02/2025 17:52:00;100;0;263.73;-4;-32.32;-11.73;6.4;20.80;77703;2835.290;-1758.850;1;104;-100;-98.4;49.2;48.9;2;2.3;29.0;-1.0;
12/02/2025 17:52:20;100;0;269.16;-4;-31.39;-10.52;11.1;20.80;77683;2835.290;-1758.854;1;104;-100;-98.4;49.2;48.7;70;70.4;29.0;-1.0;
12/02/2025 17:52:40;100;0;263.00;-4;-34.27;23.03;15.9;20.80;77689;2835.290;-1758.858;1;104;-100;-98.4;47.9;47.9;70;70.4;29.0;0.0;
12/02/2025 17:53:00;100;0;250.34;-4;-33.82;23.43;20.8;20.70;77681;2835.288;-1758.862;1;104;-100;-96.8;46.8;46.8;70;70.4;29.0;0.0;
12/02/2025 17:53:20;100;0;235.74;-4;-31.58;23.78;25.6;20.70;77699;2835.286;-1758.865;1;104;-100;-98.4;46.8;46.7;70;70.4;29.0;0.0;
12/02/2025 17:53:40;100;0;223.90;-4;-31.18;23.65;30.1;20.70;77691;2835.283;-1758.868;1;104;-100;-98.4;46.8;46.7;70;70.4;29.0;0.0;
12/02/2025 17:54:00;100;0;210.14;-4;-30.84;23.65;34.8;20.70;77700;2835.280;-1758.870;1;104;-100;-98.4;46.8;46.7;70;70.4;29.0;0.0;
12/02/2025 17:54:20;100;0;197.17;-4;-31.02;23.64;39.3;20.70;77698;2835.276;-1758.871;1;104;-100;-98.4;46.8;46.7;70;70.4;29.0;0.0;
12/02/2025 17:54:40;100;0;182.38;-4;-31.17;23.67;44.1;20.70;77699;2835.272;-1758.871;1;104;-100;-98.4;46.8;46.7;70;70.4;29.0;0.0;
12/02/2025 17:55:00;100;0;169.09;-4;-31.20;23.80;48.7;20.60;77695;2835.268;-1758.870;1;104;-100;-98.4;46.8;46.7;70;70.4;29.0;0.0;
12/02/2025 17:55:20;100;0;155.85;-4;-31.08;23.85;53.5;20.60;77693;2835.264;-1758.868;1;103;-100;-98.4;46.8;46.7;70;70.8;29.0;0.0;
12/02/2025 17:55:40;100;0;141.95;-4;-29.94;23.59;57.9;20.60;77688;2835.261;-1758.865;1;103;-100;-98.4;46.8;46.5;55;54.6;29.0;0.0;
12/02/2025 17:56:00;100;0;130.43;-4;-28.85;15.42;62.2;20.60;77692;2835.258;-1758.862;1;103;-100;-98.4;47.1;47.4;39;38.8;29.0;0.0;
12/02/2025 17:56:20;100;0;121.71;-4;-29.51;6.81;66.2;20.60;77689;2835.256;-1758.858;1;103;-100;-98.4;47.1;47.4;24;23.5;29.0;0.0;
12/02/2025 17:56:40;100;0;116.33;-4;-28.57;-0.20;70.5;20.60;77679;2835.254;-1758.854;1;103;-100;-96.8;47.6;47.9;16;15.8;29.0;0.0;
12/02/2025 17:57:00;100;0;115.58;-4;-28.78;-4.02;74.6;20.60;77687;2835.253;-1758.850;1;103;-100;-98.4;47.9;47.9;16;15.3;29.0;0.0;
12/02/2025 17:57:20;100;0;113.93;-4;-29.13;-4.03;78.8;20.50;77688;2835.251;-1758.846;1;103;-100;-98.4;47.9;47.9;13;13.1;29.0;0.0;
12/02/2025 17:57:40;100;0;113.69;-4;-29.09;-5.47;83.2;20.50;77689;2835.249;-1758.841;1;103;-100;-98.4;47.9;47.9;13;12.6;29.0;0.0;
12/02/2025 17:58:00;100;0;112.53;-4;-29.20;-5.40;87.5;20.50;77689;2835.248;-1758.837;1;103;-100;-98.4;47.9;47.7;13;12.6;29.0;0.0;
12/02/2025 17:58:20;100;0;111.39;-4;-28.94;-5.46;91.9;20.50;77691;2835.246;-1758.833;1;103;-100;-98.4;48.3;48.3;11;10.8;29.0;0.0;
12/02/2025 17:58:40;100;0;113.03;-4;-30.45;-6.29;96.3;20.50;77708;2835.245;-1758.828;1;103;-100;-96.8;48.3;48.6;11;10.8;29.0;0.0;
12/02/2025 17:59:00;100;0;113.01;-4;-30.59;-6.26;100.8;20.50;77691;2835.243;-1758.824;1;103;-100;-98.4;48.3;48.6;11;10.8;29.0;0.0;
12/02/2025 17:59:20;100;0;112.69;-4;-30.78;-6.25;105.6;20.50;77692;2835.241;-1758.820;1;103;-100;-98.4;48.3;48.6;11;10.8;29.0;0.0;
12/02/2025 17:59:40;100;0;114.91;-4;-30.68;-6.20;110.2;20.50;77700;2835.240;-1758.815;1;103;-100;-98.4;48.3;48.6;14;14.4;29.0;0.0;
12/02/2025 18:00:00;100;0;112.49;-4;-30.73;-4.29;114.7;20.40;77687;2835.238;-1758.811;1;103;-100;-98.4;48.3;48.7;12;11.7;29.0;0.0;
12/02/2025 18:00:20;100;0;111.38;-4;-30.54;-5.77;119.4;20.40;77693;2835.237;-1758.807;1;103;-100;-98.4;48.3;48.6;12;11.7;29.0;0.0;
12/02/2025 18:00:40;100;0;107.80;-4;-30.38;-5.73;123.8;20.40;77689;2835.235;-1758.802;1;103;-100;-96.8;48.3;48.7;9;9.0;29.0;0.0;
12/02/2025 18:01:00;100;0;107.28;-4;-30.44;-7.21;128.3;20.40;77666;2835.234;-1758.798;1;103;-100;-96.8;48.3;48.7;9;9.0;29.0;0.0;
12/02/2025 18:01:20;100;0;106.05;-4;-31.70;-6.99;133.0;20.40;77625;2835.233;-1758.793;1;103;-100;-98.4;48.3;48.7;9;9.0;29.0;0.0;
12/02/2025 18:01:40;100;0;102.47;-4;-31.24;-7.19;137.7;20.30;77584;2835.232;-1758.789;1;103;-100;-98.4;48.3;48.7;9;9.0;29.0;0.0;
12/02/2025 18:02:00;100;0;107.83;-4;-29.85;-7.20;142.2;20.30;77557;2835.231;-1758.784;1;103;-100;-98.4;48.3;48.7;9;9.0;29.0;0.0;
12/02/2025 18:02:20;100;0;113.46;-4;-29.44;-7.36;146.5;20.30;77536;2835.229;-1758.780;1;103;-100;-98.4;48.3;48.6;13;13.1;29.0;0.0;
12/02/2025 18:02:40;100;0;113.27;-4;-29.48;-5.11;150.6;20.20;77527;2835.227;-1758.776;1;103;-100;-96.8;48.3;48.7;13;13.5;29.0;0.0;
12/02/2025 18:03:00;100;0;120.63;-4;-30.65;-5.02;154.7;20.20;77512;2835.226;-1758.772;1;103;-100;-98.4;48.3;48.6;23;23.0;29.0;0.0;
12/02/2025 18:03:20;100;0;122.74;-4;-31.57;0.14;159.4;20.10;77489;2835.223;-1758.768;1;103;-100;-98.4;48.3;48.7;26;26.2;29.0;0.0;
12/02/2025 18:03:40;100;0;118.85;-4;-30.23;1.67;164.1;20.10;77461;2835.221;-1758.764;1;103;-100;-98.4;48.3;48.7;20;19.4;29.0;0.0;
12/02/2025 18:04:01;100;0;122.00;-4;-30.25;-1.54;168.4;20.00;77455;2835.219;-1758.760;1;103;-100;-96.8;48.3;48.6;25;24.8;29.0;0.0;
12/02/2025 18:04:21;100;0;121.40;-4;-30.09;0.75;172.8;20.00;77434;2835.217;-1758.756;1;103;-100;-98.4;48.3;48.7;25;25.3;29.0;0.0;
12/02/2025 18:04:41;100;0;117.61;-4;-29.62;0.63;176.9;20.00;77418;2835.215;-1758.752;1;103;-100;-98.4;48.3;48.7;18;17.6;29.0;0.0;
12/02/2025 18:05:01;100;0;115.64;-4;-29.61;-2.93;181.0;19.90;77418;2835.214;-1758.748;1;103;-100;-98.4;48.3;48.7;16;15.8;29.0;0.0;
12/02/2025 18:05:21;100;0;115.87;-4;-29.69;-4.10;185.3;19.90;77401;2835.212;-1758.744;1;103;-100;-96.8;48.3;48.6;16;15.3;29.0;0.0;
12/02/2025 18:05:41;100;0;114.25;-4;-29.57;-4.08;189.5;19.80;77374;2835.210;-1758.740;1;103;-100;-98.4;48.3;48.7;14;14.0;29.0;0.0;
12/02/2025 18:06:01;100;0;111.84;-4;-29.72;-4.66;193.8;19.80;77373;2835.209;-1758.736;1;103;-100;-98.4;48.3;48.6;12;12.2;29.0;0.0;
12/02/2025 18:06:21;100;0;110.12;-4;-29.78;-5.77;198.1;19.70;77356;2835.208;-1758.732;1;103;-100;-98.4;48.3;48.7;12;11.7;29.0;0.0;
12/02/2025 18:06:41;100;0;109.89;-4;-30.20;-5.79;202.6;19.70;77353;2835.206;-1758.727;1;103;-100;-98.4;48.3;48.7;10;9.9;29.0;0.0;
12/02/2025 18:07:01;100;0;108.29;-4;-29.88;-6.80;207.1;19.60;77346;2835.205;-1758.723;1;103;-100;-98.4;48.3;48.7;10;9.9;29.0;0.0;
12/02/2025 18:07:21;100;0;104.95;-4;-30.06;-6.95;211.6;19.60;77331;2835.204;-1758.718;1;103;-100;-98.4;48.3;48.7;10;9.5;29.0;0.0;
12/02/2025 18:07:41;100;0;103.76;-4;-29.69;-6.86;216.0;19.50;77325;2835.203;-1758.714;1;103;-100;-98.4;48.3;48.6;10;9.9;29.0;0.0;
12/02/2025 18:08:01;100;0;101.99;-4;-29.94;-6.90;220.4;19.50;77311;2835.202;-1758.709;1;103;-100;-98.4;48.3;48.7;10;9.9;29.0;0.0;
12/02/2025 18:08:21;100;0;97.64;-4;-30.33;-6.90;225.1;19.40;77292;2835.201;-1758.704;1;103;-100;-98.4;48.3;48.6;10;9.9;29.0;0.0;
12/02/2025 18:08:41;100;0;94.15;-4;-29.69;-6.94;229.7;19.40;77288;2835.201;-1758.700;1;103;-100;-98.4;48.3;48.7;7;7.2;29.0;0.0;
12/02/2025 18:09:01;100;0;95.49;-4;-29.44;-8.28;234.2;19.30;77277;2835.200;-1758.695;1;103;-100;-98.4;48.3;48.7;7;7.2;29.0;0.0;
12/02/2025 18:09:21;100;0;95.98;-4;-30.11;-8.23;238.7;19.30;77258;2835.200;-1758.690;1;103;-100;-96.8;48.3;48.7;7;6.8;29.0;0.0;
12/02/2025 18:09:41;100;0;99.55;-4;-29.70;-8.21;243.5;19.30;77255;2835.199;-1758.685;1;103;-100;-98.4;48.3;48.6;9;9.0;29.0;0.0;
12/02/2025 18:10:01;100;0;102.40;-4;-29.14;-6.75;248.1;19.20;77235;2835.198;-1758.680;1;103;-100;-98.4;48.3;48.7;9;9.9;29.0;0.0;
12/02/2025 18:10:21;100;0;104.64;-4;-29.10;-6.78;252.5;19.10;77220;2835.197;-1758.676;1;103;-100;-98.4;48.3;48.7;9;9.5;29.0;0.0;
12/02/2025 18:10:41;100;0;105.76;-4;-29.01;-6.94;256.8;19.10;77225;2835.196;-1758.671;1;103;-100;-98.4;48.3;48.7;9;9.5;29.0;0.0;
12/02/2025 18:11:01;100;0;107.71;-4;-29.24;-6.95;261.3;19.10;77221;2835.194;-1758.666;1;103;-100;-98.4;48.3;48.7;9;9.9;29.0;0.0;
12/02/2025 18:11:21;100;0;107.65;-4;-29.05;-6.74;265.7;19.00;77196;2835.193;-1758.662;1;103;-100;-98.4;48.3;48.7;9;9.9;29.0;0.0;
12/02/2025 18:11:41;100;0;108.76;-4;-29.35;-6.87;270.0;19.00;77190;2835.192;-1758.657;1;103;-100;-98.4;48.3;48.7;9;9.9;29.0;0.0;
12/02/2025 18:12:01;100;0;113.10;-4;-29.38;-6.81;274.4;18.90;77184;2835.190;-1758.653;1;103;-100;-98.4;48.3;48.7;13;13.1;29.0;0.0;
12/02/2025 18:12:21;100;0;115.88;-4;-29.66;-4.94;278.7;18.90;77179;2835.188;-1758.649;1;103;-100;-98.4;48.3;48.6;16;15.8;29.0;0.0;
12/02/2025 18:12:41;100;0;114.27;-4;-29.85;-3.70;283.2;18.80;77159;2835.187;-1758.645;1;103;-100;-96.8;48.3;48.9;14;14.0;29.0;0.0;
12/02/2025 18:13:01;100;0;116.10;-4;-29.66;-4.95;287.5;18.80;77150;2835.185;-1758.641;1;102;-100;-98.4;48.3;48.7;18;18.1;29.0;0.0;
12/02/2025 18:13:21;100;0;114.13;-4;-30.24;-2.43;291.9;18.70;77144;2835.183;-1758.636;1;102;-100;-98.4;48.3;48.7;15;14.9;29.0;0.0;
12/02/2025 18:13:41;100;0;109.12;-4;-29.69;-4.49;296.3;18.70;77127;2835.182;-1758.632;1;102;-100;-98.4;48.3;48.7;11;10.8;29.0;0.0;
12/02/2025 18:14:01;100;0;105.10;-4;-29.01;-6.48;300.4;18.60;77110;2835.181;-1758.628;1;102;-100;-98.4;48.3;48.7;9;9.0;29.0;0.0;
12/02/2025 18:14:21;100;0;103.92;-4;-29.45;-7.36;304.5;18.50;77096;2835.180;-1758.623;1;102;-100;-98.4;48.3;48.7;9;9.0;29.0;0.0;
12/02/2025 18:14:41;100;0;105.56;-4;-30.10;-7.39;308.7;18.50;77067;2835.179;-1758.619;1;102;-100;-98.4;48.3;48.7;9;8.6;29.0;0.0;
12/02/2025 18:15:01;100;0;108.48;-4;-30.21;-7.29;313.1;18.50;77055;2835.177;-1758.615;1;102;-100;-98.4;48.3;48.7;11;11.3;29.0;0.0;
12/02/2025 18:15:21;100;0;104.51;-4;-30.13;-5.96;317.5;18.40;77038;2835.176;-1758.610;1;102;-100;-98.4;48.3;48.7;9;9.0;29.0;0.0;
12/02/2025 18:15:41;100;0;104.61;-4;-29.77;-7.41;321.9;18.30;77026;2835.175;-1758.606;1;102;-100;-98.4;48.3;48.7;9;8.6;29.0;0.0;
12/02/2025 18:16:01;100;0;107.69;-4;-29.89;-7.43;326.1;18.30;77011;2835.174;-1758.601;1;102;-100;-96.8;48.3;48.7;9;8.6;29.0;0.0;
12/02/2025 18:16:21;100;0;109.85;-4;-29.48;-7.43;330.3;18.20;76996;2835.173;-1758.597;1;102;-100;-98.4;48.3;48.6;11;10.8;29.0;0.0;
12/02/2025 18:16:41;100;0;111.72;-4;-29.34;-5.94;334.4;18.20;76991;2835.171;-1758.593;1;102;-100;-98.4;48.3;48.7;13;13.1;29.0;0.0;
12/02/2025 18:17:01;100;0;110.78;-4;-28.58;-5.00;338.3;18.10;76982;2835.170;-1758.589;1;102;-100;-98.4;48.7;48.7;13;13.5;29.0;0.0;
12/02/2025 18:17:21;100;0;108.44;-4;-28.53;-5.23;342.1;18.10;76962;2835.169;-1758.585;1;102;-100;-98.4;49.1;49.3;11;10.8;29.0;0.0;
12/02/2025 18:17:41;100;0;111.10;-4;-29.33;-6.74;345.7;18.00;76950;2835.167;-1758.581;1;102;-100;-98.4;49.1;49.3;13;13.1;29.0;0.0;
12/02/2025 18:18:01;100;0;109.96;-4;-29.79;-5.00;349.4;18.00;76939;2835.166;-1758.578;1;102;-100;-98.4;49.1;49.3;13;13.5;29.0;0.0;
12/02/2025 18:18:21;100;0;103.93;-4;-29.99;-4.98;353.2;17.90;76927;2835.165;-1758.574;1;102;-100;-98.4;49.1;49.3;10;9.9;29.0;0.0;
12/02/2025 18:18:41;100;0;102.35;-4;-30.49;-7.12;357.1;17.90;76901;2835.165;-1758.570;1;102;-100;-96.8;49.1;49.3;10;9.5;29.0;0.0;
12/02/2025 18:19:01;100;0;100.57;-4;-30.47;-7.01;361.1;17.80;76890;2835.164;-1758.566;1;102;-100;-98.4;49.1;49.3;10;9.5;29.0;0.0;
12/02/2025 18:19:21;100;0;100.05;-4;-29.83;-7.29;365.1;17.80;76889;2835.163;-1758.561;1;102;-100;-98.4;49.1;49.3;10;9.5;29.0;0.0;
12/02/2025 18:19:41;100;0;99.20;-4;-30.02;-7.04;369.0;17.70;76880;2835.163;-1758.557;1;102;-100;-98.4;49.1;49.3;10;9.5;29.0;0.0;
12/02/2025 18:20:01;100;0;99.50;-4;-29.87;-6.91;373.0;17.60;76854;2835.162;-1758.553;1;102;-100;-98.4;49.1;49.3;10;9.5;29.0;0.0;
12/02/2025 18:20:21;100;0;98.51;-4;-30.18;-7.03;377.1;17.60;76853;2835.161;-1758.549;1;102;-100;-96.8;49.1;49.3;10;9.5;29.0;0.0;
12/02/2025 18:20:41;100;0;100.96;-4;-29.97;-7.10;381.1;17.50;76835;2835.160;-1758.545;1;102;-100;-96.8;49.1;49.3;10;9.5;29.0;0.0;
12/02/2025 18:21:01;100;0;105.67;-4;-30.11;-7.04;385.1;17.50;76820;2835.159;-1758.541;1;102;-100;-98.4;49.1;49.2;10;9.5;29.0;0.0;
12/02/2025 18:21:21;100;0;108.55;-4;-29.96;-6.94;389.2;17.40;76813;2835.158;-1758.537;1;102;-100;-96.8;49.1;49.3;10;9.5;29.0;0.0;
12/02/2025 18:21:41;100;0;107.38;-4;-29.72;-7.11;393.3;17.40;76798;2835.157;-1758.533;1;102;-100;-98.4;49.1;49.3;10;9.5;29.0;0.0;
12/02/2025 18:22:01;100;0;103.72;-4;-29.58;-7.11;397.4;17.30;76792;2835.156;-1758.528;1;102;-100;-101.6;49.1;49.3;10;9.5;29.0;0.0;
12/02/2025 18:22:21;100;0;104.95;-4;-30.25;-7.02;401.6;17.30;76777;2835.155;-1758.524;1;102;-100;-98.4;49.1;49.3;10;9.5;29.0;0.0;
12/02/2025 18:22:41;100;0;108.29;-4;-29.93;-7.05;405.8;17.20;76766;2835.154;-1758.520;1;102;-100;-98.4;49.1;49.3;10;9.5;29.0;0.0;
12/02/2025 18:23:01;100;0;111.70;-4;-30.21;-7.08;410.1;17.20;76749;2835.152;-1758.516;1;102;-100;-96.8;49.1;49.3;13;13.1;29.0;0.0;
12/02/2025 18:23:21;100;0;111.95;-4;-30.53;-5.12;414.6;17.10;76740;2835.151;-1758.511;1;102;-100;-98.4;49.1;49.3;13;13.5;29.0;0.0;
12/02/2025 18:23:41;100;0;109.30;-4;-30.64;-5.07;419.3;17.10;76728;2835.149;-1758.507;1;102;-100;-98.4;49.1;49.3;13;13.5;29.0;0.0;
12/02/2025 18:24:01;100;0;106.46;-4;-30.72;-5.07;423.9;17.00;76722;2835.148;-1758.502;1;102;-100;-98.4;49.1;49.3;10;9.9;29.0;0.0;
12/02/2025 18:24:21;100;0;105.19;-4;-30.44;-6.80;428.5;16.90;76713;2835.147;-1758.498;1;102;-100;-96.8;49.1;49.3;10;9.9;29.0;0.0;
12/02/2025 18:24:41;100;0;104.22;-4;-30.60;-6.80;433.1;16.90;76696;2835.146;-1758.493;1;102;-100;-95.2;49.1;49.3;10;9.9;29.0;0.0;
12/02/2025 18:25:01;100;0;102.86;-4;-30.68;-6.82;437.8;16.80;76693;2835.145;-1758.489;1;102;-100;-98.4;49.1;49.3;10;9.9;29.0;0.0;
12/02/2025 18:25:21;100;0;101.45;-4;-30.62;-6.81;442.5;16.80;76681;2835.144;-1758.484;1;102;-100;-98.4;49.1;49.3;10;9.9;29.0;0.0;
12/02/2025 18:25:41;100;0;98.37;-4;-30.56;-6.85;447.2;16.70;76675;2835.144;-1758.479;1;102;-100;-98.4;49.1;49.3;10;9.9;29.0;0.0;
12/02/2025 18:26:01;100;0;95.56;-4;-30.59;-6.96;451.9;16.70;76668;2835.143;-1758.475;1;102;-100;-98.4;49.1;49.3;10;9.9;29.0;0.0;
12/02/2025 18:26:21;100;0;100.11;-4;-29.86;-6.74;456.3;16.60;76640;2835.142;-1758.470;1;102;-100;-98.4;49.1;49.3;10;9.9;29.0;0.0;
12/02/2025 18:26:41;100;0;105.70;-4;-29.44;-6.85;460.5;16.60;76634;2835.141;-1758.466;1;102;-100;-98.4;49.1;49.3;10;9.9;29.0;0.0;
12/02/2025 18:27:01;100;0;108.14;-4;-29.57;-6.90;464.7;16.50;76628;2835.140;-1758.461;1;102;-100;-98.4;49.1;49.3;10;9.9;29.0;0.0;
12/02/2025 18:27:21;100;0;108.23;-4;-29.88;-6.90;468.8;16.50;76620;2835.139;-1758.457;1;102;-100;-96.8;49.1;49.3;10;9.9;29.0;0.0;
12/02/2025 18:27:41;100;0;108.62;-4;-29.70;-7.00;473.0;16.40;76600;2835.137;-1758.453;1;102;-100;-98.4;49.1;49.3;10;9.5;29.0;0.0;
12/02/2025 18:28:01;100;0;113.03;-4;-29.58;-7.08;477.3;16.40;76589;2835.136;-1758.449;1;102;-100;-98.4;49.1;49.3;15;14.9;29.0;0.0;
12/02/2025 18:28:21;100;0;114.59;-4;-29.79;-4.18;481.4;16.30;76580;2835.134;-1758.445;1;102;-100;-96.8;49.1;49.3;17;17.1;29.0;0.0;
12/02/2025 18:28:41;100;0;117.54;-4;-29.87;-2.93;485.5;16.30;76573;2835.133;-1758.441;1;102;-100;-98.4;49.1;49.3;21;21.2;29.0;0.0;
12/02/2025 18:29:01;100;0;117.58;-4;-30.23;-0.92;489.7;16.20;76556;2835.131;-1758.437;1;102;-100;-96.8;49.1;49.3;21;22.1;29.0;0.0;
12/02/2025 18:29:21;100;0;115.41;-4;-30.27;-0.93;493.8;16.20;76550;2835.129;-1758.433;1;102;-100;-98.4;49.1;49.3;18;17.6;29.0;0.0;
12/02/2025 18:29:41;100;0;109.40;-4;-29.92;-3.02;498.1;16.20;76549;2835.128;-1758.429;1;102;-100;-98.4;49.1;49.3;12;12.2;29.0;0.0;
12/02/2025 18:29:45;118;0;108.75;-4;-30.13;-5.88;498.9;16.10;76541;2835.128;-1758.428;1;102;220;-91.9;23.7;23.7;-3;-3.6;29.0;0.0;
12/02/2025 18:29:55;118;0;111.40;-4;-17.54;-14.07;500.3;16.10;76517;2835.127;-1758.426;1;102;220;37.1;23.7;23.4;-3;-3.6;28.3;-1.0;
12/02/2025 18:30:05;118;0;103.06;-4;8.22;-14.29;501.0;16.10;76241;2835.126;-1758.425;1;102;220;159.7;23.7;23.7;-3;-3.6;28.3;-1.0;
12/02/2025 18:30:15;118;0;98.38;-4;20.21;-15.13;500.4;16.10;75981;2835.126;-1758.424;1;102;220;222.6;23.7;24.0;-3;-3.6;28.2;-1.0;
12/02/2025 18:30:25;118;0;120.86;-4;22.25;-14.83;499.5;16.00;75870;2835.126;-1758.423;1;102;220;222.6;23.7;24.0;-3;-3.6;29.0;-1.0;
12/02/2025 18:30:45;117;0;115.37;-4;22.54;-14.61;497.3;16.00;75857;2835.125;-1758.420;1;102;220;222.6;23.7;24.0;-3;-3.6;29.0;-1.0;
12/02/2025 18:31:05;117;0;109.95;-4;22.56;-14.70;495.0;16.00;75861;2835.124;-1758.417;1;102;220;222.6;21.4;21.5;2;2.3;29.0;-1.0;
12/02/2025 18:31:25;117;0;104.83;-4;27.88;-11.71;492.5;15.90;75860;2835.123;-1758.414;1;102;220;222.6;20.8;20.6;4;4.5;29.0;-1.0;
12/02/2025 18:31:45;117;0;97.09;-4;29.93;-10.48;489.6;15.90;75853;2835.123;-1758.411;1;102;220;224.2;20.8;20.5;4;5.0;29.0;-1.0;
12/02/2025 18:32:05;117;0;88.10;-4;29.91;-10.41;486.4;15.90;75836;2835.123;-1758.408;1;102;220;221.0;20.8;20.6;11;10.8;29.0;-1.0;
12/02/2025 18:32:25;117;0;77.47;-4;30.56;-7.00;483.3;15.80;75833;2835.123;-1758.404;1;102;220;224.2;20.8;20.5;27;27.1;29.0;-1.0;
12/02/2025 18:32:45;117;0;67.73;-4;31.79;2.02;480.1;15.80;75829;2835.124;-1758.402;1;102;220;222.6;20.8;20.5;43;42.9;29.0;-1.0;
12/02/2025 18:33:05;117;0;65.69;-4;33.37;10.26;476.7;15.70;75829;2835.125;-1758.398;1;102;220;224.2;21.8;21.8;46;46.5;29.0;-1.0;
12/02/2025 18:33:25;117;0;63.41;-4;32.07;12.04;473.3;15.70;75837;2835.126;-1758.395;1;102;220;222.6;22.4;22.7;49;49.2;29.0;-1.0;
12/02/2025 18:33:45;117;0;64.32;-4;30.76;13.65;469.9;15.70;75830;2835.127;-1758.392;1;102;220;221.0;22.4;22.7;49;49.6;29.0;-1.0;
12/02/2025 18:34:05;117;0;65.52;-4;30.42;13.65;466.7;15.60;75820;2835.128;-1758.389;1;102;220;222.6;22.4;22.7;46;46.0;29.0;-1.0;
12/02/2025 18:34:25;117;0;67.47;-4;29.94;11.39;463.5;15.60;75812;2835.129;-1758.386;1;102;220;221.0;22.4;22.7;43;42.4;29.0;-1.0;
12/02/2025 18:34:45;117;0;67.50;-4;29.86;9.49;460.4;15.50;75808;2835.130;-1758.383;1;102;220;222.6;22.4;22.7;43;42.4;29.0;-1.0;
12/02/2025 18:35:05;117;0;66.90;-4;29.85;9.43;457.3;15.50;75802;2835.131;-1758.380;1;102;220;222.6;22.4;22.7;43;42.4;29.0;-1.0;
12/02/2025 18:35:25;117;0;65.43;-4;29.70;9.38;454.2;15.50;75799;2835.132;-1758.377;1;102;220;222.6;22.4;22.7;46;46.0;29.0;-1.0;
12/02/2025 18:35:45;117;0;64.18;-4;29.89;11.84;451.2;15.40;75796;2835.134;-1758.374;1;102;220;222.6;22.4;22.7;48;47.8;29.0;-1.0;
12/02/2025 18:36:05;117;0;61.04;-4;30.22;12.94;448.2;15.40;75797;2835.135;-1758.371;1;103;220;222.6;22.4;22.7;53;52.8;29.0;-1.0;
12/02/2025 18:36:25;117;0;64.96;-4;30.45;15.61;445.2;15.40;75805;2835.136;-1758.368;1;103;220;222.6;22.4;22.7;48;47.8;29.0;-1.0;
12/02/2025 18:36:45;117;0;69.60;-4;30.09;12.43;442.2;15.40;75811;2835.137;-1758.365;1;103;220;222.6;22.4;22.7;42;42.0;29.0;-1.0;
12/02/2025 18:37:05;117;0;73.72;-4;29.48;9.05;439.3;15.30;75797;2835.137;-1758.362;1;103;220;222.6;22.4;22.7;35;35.2;29.0;-1.0;
12/02/2025 18:37:25;117;0;75.20;-4;29.30;5.50;436.3;15.30;75803;2835.138;-1758.359;1;103;220;222.6;22.4;22.7;33;32.9;29.0;-1.0;
12/02/2025 18:37:45;117;0;75.97;-4;29.14;4.20;433.5;15.30;75807;2835.138;-1758.356;1;103;220;224.2;22.4;22.7;33;32.5;29.0;-1.0;
12/02/2025 18:38:05;117;0;76.02;-4;28.96;4.15;430.6;15.30;75803;2835.139;-1758.353;1;103;220;222.6;22.1;22.1;33;32.5;29.0;-1.0;
12/02/2025 18:38:26;117;0;77.22;-4;29.84;4.12;427.8;15.20;75795;2835.139;-1758.350;1;103;220;222.6;22.1;21.8;30;29.8;29.0;-1.0;
12/02/2025 18:38:46;117;0;77.67;-4;29.94;2.56;424.9;15.20;75799;2835.140;-1758.347;1;103;220;222.6;22.1;21.8;30;29.8;29.0;-1.0;
12/02/2025 18:39:06;117;0;79.19;-4;29.94;2.56;422.0;15.20;75794;2835.140;-1758.344;1;103;220;222.6;22.1;21.8;26;26.2;29.0;-1.0;
12/02/2025 18:39:26;117;0;79.26;-4;29.90;0.54;419.1;15.20;75800;2835.141;-1758.341;1;103;220;222.6;22.1;21.8;26;26.2;29.0;-1.0;
12/02/2025 18:39:46;117;0;79.25;-4;29.77;0.63;416.2;15.20;75798;2835.141;-1758.338;1;103;220;222.6;22.1;21.8;26;26.2;29.0;-1.0;
12/02/2025 18:40:06;117;0;79.13;-4;29.81;0.69;413.2;15.10;75792;2835.142;-1758.334;1;103;220;222.6;22.1;21.8;26;26.2;29.0;-1.0;
12/02/2025 18:40:26;117;0;79.78;-4;29.82;0.55;410.1;15.10;75790;2835.142;-1758.331;1;103;220;221.0;22.1;21.8;26;25.7;29.0;-1.0;
12/02/2025 18:40:46;117;0;77.23;-4;29.42;0.74;407.1;15.10;75802;2835.143;-1758.328;1;103;220;222.6;22.1;21.8;30;29.8;29.0;-1.0;
12/02/2025 18:41:06;117;0;74.68;-4;29.94;3.05;404.3;15.10;75796;2835.143;-1758.325;1;103;220;221.0;22.1;21.8;34;33.8;29.0;-1.0;
12/02/2025 18:41:26;117;0;71.27;-4;30.30;5.34;401.3;15.10;75795;2835.144;-1758.322;1;103;220;224.2;22.1;21.8;40;40.2;29.0;-1.0;
12/02/2025 18:41:46;117;0;69.18;-4;30.73;8.69;398.3;15.10;75790;2835.145;-1758.319;1;103;220;222.6;22.1;21.8;43;42.9;29.0;-1.0;
12/02/2025 18:42:06;117;0;69.76;-4;30.77;10.01;395.2;15.10;75799;2835.146;-1758.316;1;103;220;222.6;22.1;21.8;43;42.9;29.0;-1.0;
12/02/2025 18:42:26;117;0;70.00;-4;31.18;10.03;392.1;15.10;75794;2835.146;-1758.313;1;103;220;222.6;22.1;21.8;41;41.1;29.0;-1.0;
12/02/2025 18:42:46;117;0;70.12;-4;31.37;8.62;388.9;15.00;75801;2835.147;-1758.310;1;104;220;222.6;22.1;21.8;43;42.9;29.0;-1.0;
12/02/2025 18:43:06;117;0;68.22;-4;30.98;10.10;385.7;15.00;75801;2835.148;-1758.307;1;104;220;222.6;22.1;21.8;45;45.1;29.0;-1.0;
12/02/2025 18:43:26;117;0;67.62;-4;31.17;11.37;382.5;15.00;75813;2835.149;-1758.304;1;104;220;222.6;22.1;21.8;45;45.6;29.0;-1.0;
12/02/2025 18:43:46;117;0;71.03;-4;30.82;11.50;379.3;15.00;75801;2835.150;-1758.301;1;104;220;222.6;22.1;21.9;41;41.1;29.0;-1.0;
12/02/2025 18:44:06;117;0;70.85;-4;30.72;8.59;376.3;15.00;75797;2835.151;-1758.298;1;104;220;222.6;22.1;21.8;41;40.6;29.0;-1.0;
12/02/2025 18:44:26;117;0;70.02;-4;30.68;8.62;373.3;15.00;75800;2835.151;-1758.295;1;104;220;222.6;22.1;21.8;43;42.9;29.0;-1.0;
12/02/2025 18:44:46;117;0;68.29;-4;31.26;10.14;370.3;15.00;75809;2835.152;-1758.292;1;104;220;222.6;22.1;21.8;45;45.1;29.0;-1.0;
12/02/2025 18:45:06;117;0;69.76;-4;30.97;11.26;367.1;15.00;75806;2835.153;-1758.289;1;104;220;222.6;22.1;21.8;43;42.4;29.0;-1.0;
12/02/2025 18:45:26;117;0;68.04;-4;30.58;9.32;364.2;15.00;75804;2835.154;-1758.286;1;104;220;222.6;22.1;21.8;46;46.0;29.0;-1.0;
12/02/2025 18:45:46;117;0;68.75;-4;31.31;11.79;361.3;15.00;75818;2835.155;-1758.283;1;104;220;222.6;22.1;21.8;46;46.5;29.0;-1.0;
12/02/2025 18:46:06;117;0;73.22;-4;31.15;11.80;358.1;15.00;75827;2835.156;-1758.280;1;104;220;222.6;22.1;21.8;38;37.9;29.0;-1.0;
12/02/2025 18:46:26;117;0;73.70;-4;30.65;6.91;355.0;15.00;75827;2835.156;-1758.277;1;104;220;221.0;22.1;21.8;38;37.5;29.0;-1.0;
12/02/2025 18:46:46;117;0;74.29;-4;30.50;6.91;351.8;15.00;75830;2835.157;-1758.274;1;104;220;222.6;22.1;21.8;36;35.6;29.0;-1.0;
12/02/2025 18:47:06;117;0;75.87;-4;30.23;6.22;349.0;15.00;75825;2835.157;-1758.271;1;104;220;222.6;22.1;21.8;34;33.8;29.0;-1.0;
12/02/2025 18:47:26;117;0;77.73;-4;30.56;4.97;345.8;15.00;75835;2835.158;-1758.268;1;104;220;224.2;22.1;21.8;31;31.1;29.0;-1.0;
12/02/2025 18:47:46;117;0;75.55;-4;29.97;3.12;342.7;15.00;75838;2835.159;-1758.264;1;104;220;222.6;22.1;21.8;34;34.3;29.0;-1.0;
12/02/2025 18:48:06;117;0;71.78;-4;29.99;5.40;339.6;15.00;75841;2835.159;-1758.261;1;104;220;224.2;22.1;21.6;40;40.2;29.0;-1.0;
12/02/2025 18:48:26;117;0;68.28;-4;30.79;8.68;336.6;15.00;75844;2835.160;-1758.258;1;104;220;222.6;22.1;21.8;46;46.0;29.0;-1.0;
12/02/2025 18:48:46;117;0;67.80;-4;31.26;11.79;333.3;15.00;75855;2835.161;-1758.255;1;105;220;225.8;22.1;21.8;48;47.8;29.0;-1.0;
12/02/2025 18:49:06;117;0;67.77;-4;31.42;12.93;329.9;15.00;75857;2835.162;-1758.252;1;105;220;222.6;22.1;21.8;48;48.3;29.0;-1.0;
12/02/2025 18:49:26;117;0;67.04;-4;31.42;12.99;326.6;15.00;75865;2835.163;-1758.249;1;105;220;222.6;22.1;21.8;48;48.3;29.0;-1.0;
12/02/2025 18:49:46;117;0;69.82;-4;31.08;12.91;323.2;15.00;75877;2835.164;-1758.246;1;105;220;222.6;22.1;21.8;45;45.1;29.0;-1.0;
12/02/2025 18:50:06;117;0;71.62;-4;30.89;10.66;320.0;15.00;75879;2835.165;-1758.242;1;105;220;222.6;22.1;21.8;42;42.0;29.0;-1.0;
12/02/2025 18:50:26;117;0;72.20;-4;30.64;9.03;316.7;15.00;75885;2835.166;-1758.239;1;105;220;222.6;22.1;21.8;42;41.5;29.0;-1.0;
12/02/2025 18:50:46;117;0;75.64;-4;30.12;9.15;313.5;15.00;75882;2835.166;-1758.236;1;105;220;222.6;22.1;21.8;36;36.1;29.0;-1.0;
12/02/2025 18:51:06;117;0;78.49;-4;30.17;5.97;310.5;15.00;75894;2835.167;-1758.233;1;105;220;222.6;22.1;21.8;31;31.1;29.0;-1.0;
12/02/2025 18:51:26;117;0;80.40;-4;29.98;3.02;307.4;15.00;75902;2835.167;-1758.229;1;105;220;224.2;22.1;21.8;28;28.0;29.0;-1.0;
12/02/2025 18:51:46;117;0;79.96;-4;29.45;1.47;304.3;15.00;75913;2835.168;-1758.226;1;105;220;222.6;22.1;21.8;28;27.5;29.0;-1.0;
12/02/2025 18:52:06;117;0;79.19;-4;29.52;1.45;301.2;15.00;75913;2835.168;-1758.223;1;105;220;221.0;22.1;21.8;30;29.8;29.0;-1.0;
12/02/2025 18:52:26;117;0;77.99;-4;29.15;3.03;298.2;15.10;75918;2835.169;-1758.220;1;105;220;224.2;22.1;21.6;32;32.0;29.0;-1.0;
12/02/2025 18:52:46;117;0;81.27;-4;30.23;4.12;295.2;15.10;75931;2835.169;-1758.216;1;105;220;224.2;22.1;21.8;27;27.1;29.0;-1.0;
12/02/2025 18:53:06;117;0;81.39;-4;29.52;1.25;292.0;15.10;75941;2835.169;-1758.213;1;105;220;224.2;22.1;21.8;27;26.6;29.0;-1.0;
12/02/2025 18:53:26;117;0;82.98;-4;29.76;0.98;288.9;15.10;75941;2835.169;-1758.210;1;105;220;222.6;22.1;21.8;24;23.9;29.0;-1.0;
12/02/2025 18:53:46;117;0;78.45;-4;29.01;-0.47;285.7;15.10;75963;2835.170;-1758.206;1;105;220;224.2;22.1;21.6;32;32.0;29.0;-1.0;
12/02/2025 18:54:06;117;0;79.43;-4;29.49;4.20;282.7;15.10;75960;2835.170;-1758.203;1;105;220;224.2;22.1;21.8;30;29.8;29.0;-1.0;
12/02/2025 18:54:26;117;0;79.61;-4;29.33;2.42;279.6;15.10;75978;2835.171;-1758.200;1;105;220;224.2;22.1;21.8;30;29.3;29.0;-1.0;
12/02/2025 18:54:46;117;0;74.77;-4;29.74;2.40;276.6;15.20;75986;2835.171;-1758.197;1;106;220;224.2;22.1;21.8;39;39.3;29.0;-1.0;
12/02/2025 18:55:06;117;0;73.33;-4;30.07;7.94;273.6;15.20;75988;2835.172;-1758.193;1;106;220;224.2;22.1;21.8;41;41.1;29.0;-1.0;
12/02/2025 18:55:26;117;0;73.68;-4;30.37;9.10;270.5;15.20;76002;2835.173;-1758.190;1;106;220;224.2;22.1;21.8;41;41.5;29.0;-1.0;
12/02/2025 18:55:46;117;0;75.15;-4;30.24;9.14;267.3;15.20;75997;2835.173;-1758.187;1;106;220;224.2;22.1;21.8;39;38.8;29.0;-1.0;
12/02/2025 18:56:06;117;0;74.44;-4;30.15;7.25;264.2;15.20;76004;2835.174;-1758.184;1;106;220;224.2;22.1;21.8;39;37.9;29.0;-1.0;
12/02/2025 18:56:26;117;0;73.11;-4;30.21;7.23;261.1;15.20;76014;2835.175;-1758.181;1;106;220;224.2;22.1;21.6;42;42.0;29.0;-1.0;
12/02/2025 18:56:46;117;0;73.85;-4;30.43;9.59;258.0;15.30;76021;2835.175;-1758.177;1;106;220;224.2;22.1;21.8;42;42.4;29.0;-1.0;
12/02/2025 18:57:06;117;0;74.67;-4;30.40;9.55;254.9;15.30;76021;2835.176;-1758.174;1;106;220;224.2;22.1;21.8;39;38.8;29.0;-1.0;
12/02/2025 18:57:26;117;0;74.00;-4;30.27;7.45;251.7;15.30;76025;2835.177;-1758.171;1;106;220;224.2;22.1;21.8;39;38.4;29.0;-1.0;
12/02/2025 18:57:46;117;0;73.78;-4;30.35;7.39;248.7;15.30;76022;2835.178;-1758.168;1;106;220;224.2;22.1;21.8;41;41.1;29.0;-1.0;
12/02/2025 18:58:06;117;0;72.49;-4;30.39;9.03;245.5;15.30;76030;2835.178;-1758.165;1;106;220;224.2;22.1;21.6;43;42.9;29.0;-1.0;
12/02/2025 18:58:26;117;0;71.71;-4;30.58;10.04;242.3;15.30;76034;2835.179;-1758.161;1;106;220;224.2;22.1;21.8;43;43.3;29.0;-1.0;
12/02/2025 18:58:46;117;0;71.50;-4;30.61;10.12;239.0;15.40;76038;2835.180;-1758.158;1;106;220;224.2;22.1;21.8;43;42.9;29.0;-1.0;
12/02/2025 18:59:06;117;0;69.03;-4;30.43;10.11;235.8;15.40;76046;2835.181;-1758.155;1;106;220;222.6;22.1;21.8;48;47.8;29.0;-1.0;
12/02/2025 18:59:26;117;0;67.76;-4;31.22;12.84;232.7;15.40;76045;2835.182;-1758.152;1;106;220;225.8;22.1;21.8;48;48.3;29.0;-1.0;
12/02/2025 18:59:46;117;0;67.29;-4;30.36;12.73;229.5;15.40;76069;2835.183;-1758.149;1;106;220;222.6;22.1;21.8;50;50.1;29.0;-1.0;
12/02/2025 19:00:06;117;0;66.57;-4;30.78;14.15;226.4;15.40;76072;2835.184;-1758.146;1;107;220;222.6;22.1;21.8;52;51.9;29.0;-1.0;
12/02/2025 19:00:26;117;0;71.92;-4;30.91;15.13;223.3;15.50;76088;2835.184;-1758.143;1;107;220;222.6;22.1;21.8;45;45.1;29.0;-1.0;
12/02/2025 19:00:46;117;0;75.34;-4;30.76;10.69;220.2;15.50;76104;2835.185;-1758.140;1;107;220;224.2;22.1;21.8;40;40.2;29.0;-1.0;
12/02/2025 19:01:06;117;0;78.74;-4;30.11;8.00;217.2;15.50;76105;2835.186;-1758.137;1;107;220;224.2;22.1;21.8;35;35.2;28.9;-1.0;
12/02/2025 19:01:26;117;0;82.37;-4;29.82;5.26;214.3;15.50;76121;2835.186;-1758.134;1;107;220;222.6;22.1;21.8;28;27.5;29.0;-1.0;
12/02/2025 19:01:46;117;0;83.46;-4;29.25;1.25;211.5;15.60;76131;2835.186;-1758.130;1;107;220;224.2;22.1;21.8;28;27.1;29.0;-1.0;
12/02/2025 19:02:06;117;0;75.65;-4;29.08;1.50;208.7;15.60;76127;2835.187;-1758.127;1;107;220;224.2;22.1;21.8;40;40.2;29.0;-1.0;
12/02/2025 19:02:26;117;0;73.10;-4;30.14;8.42;206.1;15.60;76149;2835.187;-1758.125;1;107;220;224.2;22.1;21.8;43;42.9;29.0;-1.0;
12/02/2025 19:02:46;117;0;75.56;-4;30.56;10.19;203.2;15.60;76168;2835.188;-1758.122;1;107;220;222.6;22.1;21.8;40;40.2;29.0;-1.0;
12/02/2025 19:03:06;117;0;79.00;-4;30.59;7.96;200.3;15.70;76175;2835.188;-1758.119;1;107;220;224.2;22.1;21.8;34;33.8;29.0;-1.0;
12/02/2025 19:03:26;117;0;77.97;-4;29.62;4.62;197.2;15.70;76177;2835.189;-1758.116;1;107;220;224.2;22.1;21.8;36;36.1;29.0;-1.0;
12/02/2025 19:03:46;117;0;72.99;-4;29.46;6.67;194.4;15.70;76195;2835.189;-1758.113;1;107;220;225.8;22.1;21.8;44;44.2;29.0;-1.0;
12/02/2025 19:04:06;117;0;72.16;-4;30.23;10.92;191.7;15.80;76211;2835.190;-1758.110;1;107;220;224.2;22.1;21.8;44;44.7;29.0;-1.0;
12/02/2025 19:04:26;117;0;70.18;-4;30.45;10.84;188.8;15.80;76218;2835.191;-1758.107;1;107;220;224.2;22.1;21.8;48;47.8;29.0;-1.0;
12/02/2025 19:04:46;117;0;70.22;-4;30.50;12.81;185.9;15.80;76219;2835.191;-1758.104;1;107;220;224.2;22.1;21.8;48;48.3;29.0;-1.0;
12/02/2025 19:05:06;117;0;75.13;-4;30.62;12.87;183.0;15.90;76237;2835.192;-1758.101;1;107;220;222.6;22.1;21.9;40;39.7;29.0;-1.0;
12/02/2025 19:05:26;117;0;79.38;-4;29.82;7.89;180.1;15.90;76253;2835.192;-1758.098;1;107;220;224.2;22.1;21.8;34;33.8;29.0;-1.0;
12/02/2025 19:05:46;117;0;76.30;-4;29.28;4.54;177.6;15.90;76279;2835.193;-1758.095;1;108;220;224.2;22.1;21.8;40;40.2;29.0;-1.0;
12/02/2025 19:06:06;117;0;71.30;-4;30.12;8.44;175.0;16.00;76283;2835.193;-1758.093;1;108;220;224.2;22.1;21.8;47;46.9;29.0;-1.0;
12/02/2025 19:06:26;117;0;68.54;-4;29.79;12.13;172.3;16.00;76300;2835.194;-1758.090;1;108;220;225.8;22.1;21.8;51;51.0;29.0;-1.0;
12/02/2025 19:06:46;117;0;67.59;-4;31.26;14.61;169.6;16.00;76342;2835.195;-1758.087;1;108;220;225.8;22.1;21.8;51;51.4;29.0;-1.0;
12/02/2025 19:07:06;117;0;67.89;-4;30.94;14.58;166.5;16.10;76355;2835.196;-1758.085;1;108;220;224.2;22.1;21.8;51;51.4;29.0;-1.0;
12/02/2025 19:07:26;117;0;71.07;-4;30.63;14.51;163.6;16.10;76367;2835.197;-1758.082;1;108;220;224.2;22.1;21.8;48;47.8;29.0;-1.0;
12/02/2025 19:07:46;117;0;75.80;-4;30.01;12.25;160.7;16.10;76392;2835.197;-1758.079;1;108;220;224.2;22.1;21.8;41;41.1;29.0;-1.0;
12/02/2025 19:08:06;117;0;78.33;-4;29.42;8.46;158.1;16.20;76424;2835.198;-1758.076;1;108;220;224.2;22.1;21.8;37;36.6;29.0;-1.0;
12/02/2025 19:08:26;117;0;83.14;-4;28.99;6.13;155.6;16.30;76430;2835.198;-1758.073;1;108;220;225.8;21.8;21.8;29;28.9;29.0;-1.0;
12/02/2025 19:08:46;117;0;83.11;-4;28.91;2.16;153.2;16.30;76475;2835.198;-1758.070;1;108;220;225.8;21.5;21.4;29;28.4;29.0;-1.0;
12/02/2025 19:09:06;117;0;81.30;-4;29.69;2.07;150.7;16.30;76485;2835.198;-1758.068;1;108;220;225.8;21.5;21.4;32;32.0;29.0;-1.0;
12/02/2025 19:09:26;117;0;77.78;-4;30.00;4.52;148.2;16.40;76497;2835.199;-1758.065;1;108;220;224.2;21.5;21.1;38;38.4;29.0;-1.0;
12/02/2025 19:09:46;117;0;75.58;-4;30.85;7.50;145.4;16.50;76530;2835.199;-1758.062;1;108;220;224.2;21.5;21.1;41;41.1;29.0;-1.0;
12/02/2025 19:10:06;117;0;74.93;-4;30.86;8.94;142.7;16.50;76545;2835.200;-1758.059;1;108;220;225.8;21.5;21.2;41;41.1;29.0;-1.0;
12/02/2025 19:10:26;117;0;74.09;-4;31.48;8.96;140.1;16.60;76549;2835.200;-1758.057;1;108;220;224.2;21.5;21.2;44;44.2;29.0;-1.0;
12/02/2025 19:10:46;117;0;74.84;-4;31.46;10.93;137.2;16.60;76572;2835.201;-1758.054;1;108;220;225.8;21.5;21.2;44;44.2;29.0;-1.0;
12/02/2025 19:11:06;117;0;78.04;-4;31.17;11.03;134.4;16.70;76588;2835.201;-1758.051;1;108;220;222.6;21.5;21.2;38;37.9;29.0;-1.0;
12/02/2025 19:11:26;117;0;80.30;-4;30.69;6.84;131.7;16.70;76605;2835.202;-1758.048;1;108;220;225.8;21.5;21.2;34;33.8;29.0;-1.0;
12/02/2025 19:11:46;117;0;79.84;-4;30.24;4.53;129.1;16.80;76617;2835.202;-1758.046;1;109;220;222.6;21.5;21.2;36;36.6;29.0;-1.0;
12/02/2025 19:12:06;117;0;79.87;-4;30.79;6.58;126.6;16.80;76630;2835.202;-1758.043;1;109;220;225.8;21.5;21.2;36;37.0;29.0;-1.0;
12/02/2025 19:12:27;117;0;84.73;-4;30.61;5.72;123.8;16.90;76634;2835.202;-1758.040;1;109;220;224.2;21.5;21.2;28;27.5;29.0;-1.0;
12/02/2025 19:12:47;117;0;82.97;-4;29.13;1.66;121.3;16.90;76644;2835.203;-1758.037;1;109;220;225.8;21.5;21.2;31;31.6;29.0;-1.0;
12/02/2025 19:13:07;117;0;82.49;-4;30.17;3.55;118.8;17.00;76657;2835.203;-1758.035;1;109;220;224.2;21.5;21.1;31;32.0;29.0;-1.0;
12/02/2025 19:13:27;117;0;81.77;-4;29.68;3.86;116.1;17.00;76663;2835.203;-1758.032;1;109;220;225.8;21.5;21.2;33;32.9;29.0;-1.0;
12/02/2025 19:13:47;117;0;81.88;-4;30.66;4.85;113.6;17.10;76674;2835.203;-1758.029;1;109;220;225.8;21.5;21.2;33;33.4;29.0;-1.0;
12/02/2025 19:14:07;117;0;81.45;-4;30.33;4.78;110.9;17.10;76678;2835.203;-1758.026;1;109;220;224.2;21.5;21.2;33;33.4;29.0;-1.0;
12/02/2025 19:14:27;117;0;79.84;-4;30.30;4.78;108.3;17.20;76675;2835.204;-1758.024;1;109;220;225.8;21.5;21.1;37;37.5;29.0;-1.0;
12/02/2025 19:14:47;117;0;80.87;-4;30.50;7.06;105.7;17.20;76692;2835.204;-1758.021;1;109;220;225.8;21.5;21.2;35;34.7;29.0;-1.0;
12/02/2025 19:15:07;117;0;80.45;-4;30.52;5.42;103.0;17.30;76707;2835.204;-1758.018;1;109;220;224.2;21.5;21.2;35;34.7;29.0;-1.0;
12/02/2025 19:15:27;117;0;79.97;-4;30.69;5.41;100.3;17.30;76716;2835.205;-1758.015;1;109;220;225.8;21.5;21.2;35;34.7;29.0;-1.0;
12/02/2025 19:15:47;117;0;79.50;-4;30.43;5.43;97.7;17.40;76728;2835.205;-1758.012;1;109;220;224.2;21.5;21.2;37;37.0;29.0;-1.0;
12/02/2025 19:16:07;117;0;79.23;-4;30.81;6.85;94.9;17.40;76729;2835.205;-1758.010;1;109;220;227.4;21.5;21.2;37;37.5;29.0;-1.0;
12/02/2025 19:16:27;117;0;78.57;-4;30.93;6.87;92.1;17.50;76726;2835.206;-1758.007;1;109;220;225.8;21.5;21.2;39;39.3;29.0;-1.0;
12/02/2025 19:16:47;117;0;78.83;-4;30.92;8.05;89.2;17.50;76744;2835.206;-1758.004;1;109;220;225.8;21.5;21.2;39;39.3;29.0;-1.0;
12/02/2025 19:17:07;117;0;79.46;-4;31.04;8.03;86.3;17.60;76742;2835.207;-1758.001;1;109;220;224.2;21.5;21.2;37;36.6;29.0;-1.0;
12/02/2025 19:17:27;117;0;78.17;-4;30.93;6.33;83.3;17.60;76750;2835.207;-1757.998;1;109;220;225.8;21.5;21.2;41;41.5;29.0;-1.0;
12/02/2025 19:17:47;117;0;76.74;-4;31.13;9.29;80.3;17.60;76749;2835.208;-1757.995;1;109;220;225.8;21.5;21.2;41;41.5;29.0;-1.0;
12/02/2025 19:18:07;117;0;76.91;-4;31.02;9.29;77.4;17.70;76765;2835.208;-1757.992;1;110;220;224.2;21.5;21.2;44;44.2;29.0;-1.0;
12/02/2025 19:18:27;117;0;77.08;-4;31.29;10.76;74.4;17.70;76771;2835.209;-1757.989;1;110;220;224.2;21.5;21.2;44;44.2;29.0;-1.0;
12/02/2025 19:18:47;117;0;78.65;-4;31.05;10.72;71.4;17.80;76777;2835.209;-1757.986;1;110;220;224.2;21.5;21.2;42;41.5;29.0;-1.0;
12/02/2025 19:19:07;117;0;79.92;-4;31.36;8.77;68.5;17.80;76781;2835.209;-1757.983;1;110;220;224.2;21.5;21.2;40;40.2;29.0;-1.0;
12/02/2025 19:19:27;117;0;81.22;-4;30.92;7.99;65.4;17.90;76790;2835.210;-1757.980;1;110;220;224.2;21.5;21.2;38;37.0;29.0;-1.0;
12/02/2025 19:19:47;117;0;80.49;-4;30.86;7.05;62.4;17.90;76786;2835.210;-1757.977;1;110;220;225.8;21.5;21.4;38;37.5;29.0;-1.0;
12/02/2025 19:20:07;117;0;81.23;-4;30.99;7.04;59.4;17.90;76795;2835.210;-1757.974;1;110;220;225.8;21.5;21.2;38;37.5;29.0;-1.0;
12/02/2025 19:20:27;117;0;80.87;-4;30.83;7.02;56.4;18.00;76809;2835.211;-1757.970;1;110;220;225.8;21.5;21.2;38;37.5;29.0;-1.0;
12/02/2025 19:20:47;117;0;79.44;-4;30.76;7.04;53.3;18.00;76819;2835.211;-1757.967;1;110;220;225.8;21.5;21.2;41;41.5;29.0;-1.0;
12/02/2025 19:21:07;117;0;80.20;-4;30.90;9.35;50.4;18.00;76815;2835.211;-1757.964;1;110;220;225.8;21.5;21.2;39;38.8;29.0;-1.0;
12/02/2025 19:21:27;117;0;79.13;-4;30.92;7.32;47.3;18.10;76819;2835.212;-1757.961;1;110;220;225.8;21.5;21.2;41;41.5;29.0;-1.0;
12/02/2025 19:21:47;117;0;79.64;-4;30.96;9.32;44.4;18.10;76826;2835.212;-1757.958;1;110;220;225.8;21.5;21.2;41;42.0;29.0;-1.0;
12/02/2025 19:22:07;117;0;81.53;-4;31.02;9.37;41.3;18.20;76826;2835.212;-1757.955;1;110;220;225.8;21.5;21.2;37;36.6;29.0;-1.0;
12/02/2025 19:22:27;117;0;82.78;-4;30.55;6.25;38.2;18.20;76836;2835.213;-1757.952;1;110;220;225.8;21.5;21.2;35;34.7;29.0;-1.0;
12/02/2025 19:22:47;117;0;83.80;-4;30.73;5.27;35.2;18.20;76837;2835.213;-1757.949;1;110;220;225.8;21.5;21.2;35;34.3;29.0;-1.0;
12/02/2025 19:23:07;117;0;85.55;-4;30.42;5.20;32.2;18.30;76849;2835.213;-1757.946;1;110;220;224.2;21.5;21.1;31;31.1;29.0;-1.0;
12/02/2025 19:23:27;117;0;85.94;-4;30.06;3.12;29.2;18.30;76842;2835.213;-1757.942;1;111;220;225.8;21.5;21.2;31;30.2;29.0;-1.0;
12/02/2025 19:23:47;117;0;85.76;-4;30.16;3.17;26.2;18.30;76863;2835.213;-1757.939;1;111;220;227.4;21.5;21.1;31;30.2;29.0;-1.0;
12/02/2025 19:24:07;117;0;84.66;-4;30.54;3.16;23.3;18.40;76845;2835.213;-1757.936;1;111;220;225.8;21.5;21.1;34;33.8;29.0;-1.0;
12/02/2025 19:24:27;117;0;84.89;-4;30.40;5.30;20.2;18.40;76863;2835.214;-1757.933;1;111;220;227.4;21.5;21.2;34;34.3;29.0;-1.0;
12/02/2025 19:24:47;117;0;85.26;-4;30.02;5.25;17.3;18.40;76867;2835.214;-1757.930;1;111;220;225.8;21.5;21.2;34;34.3;29.0;-1.0;
12/02/2025 19:25:07;117;0;84.43;-4;30.40;5.31;14.3;18.50;76863;2835.214;-1757.927;1;111;220;222.6;21.5;21.2;34;34.3;29.0;-1.0;
12/02/2025 19:25:27;117;0;86.16;-4;29.46;5.04;11.3;18.50;76867;2835.214;-1757.923;1;111;220;225.8;21.5;21.1;31;30.7;29.0;-1.0;
12/02/2025 19:25:47;117;0;85.13;-4;29.72;2.77;8.4;18.50;76878;2835.214;-1757.920;1;111;220;225.8;21.5;21.2;33;32.9;29.0;-1.0;
12/02/2025 19:26:07;117;0;83.99;-4;30.95;5.00;5.5;18.60;76877;2835.214;-1757.917;1;111;220;224.2;21.5;21.1;35;35.6;29.0;-1.0;
12/02/2025 19:26:23;115;0;85.33;-4;30.63;5.87;3.1;18.60;76879;2835.214;-1757.915;1;111;500;232.3;100.0;65.2;0;-0.5;29.0;-1.0;
12/02/2025 19:26:33;115;0;79.82;-4;11.75;-13.09;1.9;18.60;76856;2835.215;-1757.913;1;111;500;350.0;100.0;100.0;0;-0.5;28.7;-1.0;
12/02/2025 19:26:43;115;0;81.73;-4;-64.13;-17.26;2.4;18.60;76606;2835.215;-1757.912;1;111;500;462.9;100.0;100.6;0;-0.5;28.7;-1.0;
12/02/2025 19:26:53;115;0;28.61;-4;-66.59;-6.84;1.9;18.60;76350;2835.215;-1757.912;1;111;500;508.1;100.0;100.7;0;-0.5;28.8;-1.0;
12/02/2025 19:27:03;115;0;339.07;-4;-28.80;-4.22;-0.3;18.70;76288;2835.217;-1757.913;1;111;500;508.1;100.0;100.6;0;-0.5;29.0;-1.0;
12/02/2025 19:27:23;119;0;345.47;-4;-56.79;-14.53;-0.3;18.70;76316;2835.217;-1757.913;1;111;500;509.7;100.0;100.7;0;-0.5;29.0;-1.0;
12/02/2025 19:27:33;119;0;343.45;-4;-48.68;-12.73;-0.3;18.80;76307;2835.336;-1758.035;0;111;500;509.7;100.0;100.7;0;-0.5;29.0;-1.0;
