Timestamp;NavState;SecurityLevel;Heading;Declination;Pitch;Roll;Depth;Temperature;Pa;Lat;Lon;DeadReckoning;DesiredH;BallastCmd;BallastPos;LinCmd;LinPos;AngCmd;AngPos;Voltage;Altitude;
14/02/2025 05:37:56;119;0;139.58;-4;-56.77;-20.76;0.1;19.00;76096;2837.596;-1801.030;0;259;500;509.7;100.0;100.7;0;-0.5;28.6;-1.0;
14/02/2025 05:38:06;116;0;112.66;-4;-56.03;-17.74;0.2;19.00;76097;2837.597;-1801.033;0;259;500;509.7;100.0;100.7;0;-0.5;28.6;-1.0;
14/02/2025 05:38:39;116;0;79.35;-4;-58.80;-3.26;0.1;19.10;76113;2837.598;-1801.035;0;259;500;509.7;100.0;100.7;0;-0.5;28.6;-1.0;
14/02/2025 05:38:48;116;0;79.14;-4;-56.89;-10.21;0.2;19.10;76106;2837.599;-1801.035;0;258;500;508.1;100.0;100.9;0;-0.5;28.6;-1.0;
14/02/2025 05:38:55;116;0;83.77;-4;-51.43;-12.80;0.2;19.10;76103;2837.599;-1801.035;0;258;500;506.5;100.0;100.7;0;-0.5;28.6;-1.0;
14/02/2025 05:39:15;116;0;101.05;-4;-50.45;-23.61;0.2;19.10;76113;2837.600;-1801.036;0;258;500;509.7;100.0;100.7;0;-0.5;28.6;-1.0;
14/02/2025 05:39:30;116;0;90.98;-4;-52.50;-21.27;0.1;19.10;76106;2837.601;-1801.036;0;258;500;508.1;100.0;100.9;0;-0.5;28.6;-1.0;
14/02/2025 05:39:50;116;0;76.34;-4;-57.35;-17.14;0.0;19.20;76119;2837.602;-1801.036;0;258;500;508.1;100.0;100.7;0;-0.5;28.6;-1.0;
14/02/2025 05:40:04;116;0;72.50;-4;-54.76;-19.73;0.1;19.20;76123;2837.603;-1801.037;0;258;500;508.1;100.0;100.7;0;-0.5;28.6;-1.0;
14/02/2025 05:40:47;116;0;88.02;-4;-57.07;-11.86;-0.0;19.30;76132;2837.607;-1801.039;0;257;500;509.7;100.0;100.7;0;-0.5;28.6;-1.0;
14/02/2025 05:41:35;116;0;72.11;-4;-51.58;-17.55;0.1;19.40;76146;2837.609;-1801.040;0;257;500;509.7;100.0;100.7;0;-0.5;28.6;-1.0;
14/02/2025 05:41:55;116;0;75.19;-4;-54.88;-14.93;0.1;19.50;76144;2837.611;-1801.041;0;256;500;509.7;100.0;100.7;0;-0.5;28.6;-1.0;
14/02/2025 05:42:15;116;0;75.31;-4;-49.38;-10.65;0.1;19.50;76154;2837.612;-1801.042;0;256;500;508.1;100.0;100.9;0;-0.5;28.5;-1.0;
14/02/2025 05:42:26;116;0;84.41;-4;-55.41;-9.68;0.1;19.50;76149;2837.613;-1801.043;0;255;500;509.7;100.0;100.7;0;-0.5;28.6;-1.0;
14/02/2025 05:42:38;116;0;82.87;-4;-52.84;-12.36;0.2;19.60;76147;2837.614;-1801.043;0;255;500;508.1;100.0;100.7;0;-0.5;28.6;-1.0;
14/02/2025 05:42:58;110;0;77.16;-4;-49.18;-10.40;-0.2;19.70;76162;2837.614;-1801.043;0;255;-100;395.2;100.0;99.7;-10;-9.9;28.6;-1.0;
14/02/2025 05:43:08;110;0;83.35;-4;-56.93;-7.57;0.1;19.70;76515;2837.614;-1801.042;1;255;-100;245.2;100.0;99.7;-10;-10.4;28.6;-1.0;
14/02/2025 05:43:18;110;0;89.01;-4;-60.01;-11.70;0.5;19.70;76756;2837.615;-1801.042;1;255;-100;85.5;100.0;99.7;-10;-10.4;28.6;-1.0;
14/02/2025 05:43:28;110;0;92.15;-4;-68.97;-22.44;0.7;19.70;77092;2837.615;-1801.042;1;255;-100;-74.2;100.0;99.7;-10;-9.9;28.6;-1.0;
14/02/2025 05:43:38;110;0;105.34;-4;-69.35;-13.07;1.0;19.80;77428;2837.615;-1801.041;1;255;-100;-100.0;48.6;48.6;-10;-9.9;28.6;-1.0;
14/02/2025 05:43:48;110;0;116.18;-4;-53.83;-15.86;2.5;19.80;77447;2837.615;-1801.040;1;255;-100;-100.0;48.6;48.3;-10;-10.4;28.6;-1.0;
14/02/2025 05:44:08;100;0;122.37;-4;-32.20;-16.91;6.9;19.80;77452;2837.614;-1801.037;1;255;-100;-98.4;48.6;48.2;-10;-10.4;28.6;-1.0;
14/02/2025 05:44:28;100;0;130.96;-4;-29.38;-16.66;11.8;19.90;77457;2837.612;-1801.032;1;256;-100;-96.8;48.6;48.0;-70;-69.9;28.6;-1.0;
14/02/2025 05:44:48;100;0;141.92;-4;-28.19;-45.01;16.0;19.90;77455;2837.609;-1801.029;1;256;-100;-93.5;49.2;49.2;-70;-69.9;28.6;0.0;
14/02/2025 05:45:08;100;0;151.37;-4;-32.03;-44.99;20.4;19.90;77462;2837.607;-1801.027;1;257;-100;-95.2;48.6;48.6;-70;-70.4;28.6;0.0;
14/02/2025 05:45:28;100;0;161.53;-4;-29.50;-44.63;25.1;20.00;77460;2837.603;-1801.025;1;258;-100;-95.2;48.6;48.5;-70;-70.4;28.6;0.0;
14/02/2025 05:45:48;100;0;171.80;-4;-29.80;-44.76;29.7;20.00;77479;2837.600;-1801.024;1;258;-100;-95.2;48.6;48.3;-70;-70.4;28.6;0.0;
14/02/2025 05:46:08;100;0;182.66;-4;-29.26;-44.64;34.2;20.00;77474;2837.597;-1801.024;1;259;-100;-95.2;48.6;48.5;-68;-68.1;28.6;0.0;
14/02/2025 05:46:28;100;0;190.86;-4;-29.66;-43.30;38.8;20.00;77476;2837.593;-1801.025;1;260;-100;-95.2;48.6;48.3;-61;-60.9;28.6;0.0;
14/02/2025 05:46:48;100;0;201.79;-4;-29.09;-40.04;43.4;20.00;77476;2837.590;-1801.026;1;260;-100;-95.2;48.6;48.3;-47;-46.9;28.6;0.0;
14/02/2025 05:47:08;100;0;211.76;-4;-28.78;-33.15;47.8;20.00;77484;2837.587;-1801.029;1;261;-100;-95.2;48.9;49.2;-36;-35.6;28.6;0.0;
14/02/2025 05:47:28;100;0;221.69;-4;-29.63;-27.69;52.3;20.00;77481;2837.585;-1801.031;1;261;-100;-95.2;48.9;49.3;-22;-22.1;28.6;0.0;
14/02/2025 05:47:48;100;0;230.39;-4;-30.16;-21.13;56.9;20.00;77484;2837.583;-1801.034;1;262;-100;-93.5;48.9;49.3;-9;-8.6;28.6;0.0;
14/02/2025 05:48:08;100;0;235.24;-4;-30.92;-15.13;61.5;20.00;77498;2837.582;-1801.038;1;262;-100;-95.2;48.9;49.3;-1;-0.9;28.7;0.0;
14/02/2025 05:48:28;100;0;238.39;-4;-31.44;-11.33;66.2;20.00;77493;2837.580;-1801.042;1;262;-100;-95.2;48.9;49.5;4;4.5;28.6;0.0;
14/02/2025 05:48:48;100;0;241.05;-4;-31.49;-8.98;71.0;20.00;77502;2837.579;-1801.045;1;262;-100;-95.2;48.9;49.3;7;7.2;28.6;0.0;
14/02/2025 05:49:08;100;0;241.43;-4;-31.86;-7.63;75.9;20.00;77508;2837.578;-1801.049;1;262;-100;-95.2;48.9;49.3;7;7.2;28.6;0.0;
14/02/2025 05:49:28;100;0;242.52;-4;-31.89;-7.62;80.8;20.00;77502;2837.577;-1801.053;1;263;-100;-95.2;48.9;49.5;7;7.7;28.6;0.0;
14/02/2025 05:49:48;100;0;242.99;-4;-31.87;-7.53;85.6;20.00;77509;2837.575;-1801.057;1;263;-100;-95.2;48.9;49.3;7;7.7;28.6;0.0;
14/02/2025 05:50:08;100;0;243.64;-4;-31.74;-7.63;90.5;20.00;77514;2837.574;-1801.060;1;263;-100;-93.5;48.9;49.5;7;7.7;28.6;0.0;
14/02/2025 05:50:28;100;0;244.16;-4;-31.93;-7.63;95.4;20.00;77515;2837.573;-1801.064;1;263;-100;-95.2;48.9;49.3;9;9.0;28.6;0.0;
14/02/2025 05:50:48;100;0;241.14;-4;-32.24;-6.44;100.4;20.00;77508;2837.572;-1801.068;1;263;-100;-95.2;48.3;48.2;6;5.4;28.6;0.0;
14/02/2025 05:51:08;100;0;237.02;-4;-30.81;-8.84;105.3;20.00;77513;2837.570;-1801.072;1;264;-100;-95.2;48.3;48.0;-2;-2.3;28.6;0.0;
14/02/2025 05:51:28;100;0;237.32;-4;-29.58;-12.76;110.1;20.00;77519;2837.569;-1801.076;1;264;-100;-95.2;48.3;48.0;-2;-2.3;28.6;0.0;
14/02/2025 05:51:48;100;0;240.03;-4;-29.28;-12.67;114.6;20.00;77508;2837.567;-1801.079;1;264;-100;-98.4;48.3;48.0;3;3.6;28.6;0.0;
14/02/2025 05:52:08;100;0;234.10;-4;-30.16;-9.56;119.3;20.00;77471;2837.566;-1801.083;1;264;-100;-95.2;48.3;48.0;-7;-7.7;28.6;0.0;
14/02/2025 05:52:28;100;0;237.67;-4;-27.93;-15.43;123.7;20.00;77432;2837.564;-1801.087;1;265;-100;-93.5;48.9;49.2;-2;-1.4;28.6;0.0;
14/02/2025 05:52:48;100;0;245.43;-4;-29.41;-12.08;128.0;19.90;77402;2837.563;-1801.090;1;265;-100;-95.2;48.9;49.2;9;9.0;28.6;0.0;
14/02/2025 05:53:08;100;0;238.22;-4;-31.02;-6.86;132.3;19.90;77374;2837.562;-1801.094;1;265;-100;-95.2;48.9;49.3;0;0.0;28.6;0.0;
14/02/2025 05:53:28;100;0;236.35;-4;-30.91;-11.61;137.0;19.90;77345;2837.560;-1801.097;1;266;-100;-95.2;48.9;49.3;-5;-5.0;28.6;0.0;
14/02/2025 05:53:48;100;0;239.20;-4;-30.74;-14.13;141.6;19.90;77334;2837.559;-1801.101;1;266;-100;-95.2;48.9;49.2;0;0.0;28.6;0.0;
14/02/2025 05:54:08;100;0;239.41;-4;-31.16;-11.24;146.3;19.80;77329;2837.558;-1801.104;1;266;-100;-93.5;48.9;49.2;0;0.5;28.6;0.0;
14/02/2025 05:54:28;100;0;237.94;-4;-30.12;-11.12;150.9;19.80;77307;2837.556;-1801.108;1;267;-100;-96.8;48.9;49.2;-6;-5.9;28.6;0.0;
14/02/2025 05:54:48;100;0;238.98;-4;-28.91;-14.43;155.1;19.80;77284;2837.555;-1801.112;1;267;-100;-95.2;49.2;49.2;-2;-1.8;28.6;0.0;
14/02/2025 05:55:08;100;0;243.46;-4;-29.05;-11.97;159.1;19.70;77262;2837.554;-1801.115;1;267;-100;-95.2;49.2;49.3;4;4.5;28.6;0.0;
14/02/2025 05:55:28;100;0;251.12;-4;-29.36;-9.25;163.2;19.70;77233;2837.553;-1801.119;1;267;-100;-95.2;49.2;49.3;11;10.8;28.6;0.0;
14/02/2025 05:55:48;100;0;254.48;-4;-29.73;-6.08;167.3;19.60;77221;2837.553;-1801.122;1;267;-100;-95.2;49.2;49.3;11;11.3;28.6;0.0;
14/02/2025 05:56:08;100;0;256.69;-4;-30.81;-6.26;171.4;19.60;77206;2837.553;-1801.126;1;267;-100;-95.2;49.2;49.2;11;11.3;28.6;0.0;
14/02/2025 05:56:28;100;0;258.69;-4;-31.39;-5.96;175.7;19.60;77197;2837.553;-1801.130;1;267;-100;-95.2;49.2;49.3;11;11.3;28.6;0.0;
14/02/2025 05:56:48;100;0;255.12;-4;-31.60;-5.97;180.5;19.50;77187;2837.553;-1801.134;1;267;-100;-95.2;49.2;49.3;11;11.3;28.6;0.0;
14/02/2025 05:57:08;100;0;254.51;-4;-31.68;-6.00;185.0;19.50;77163;2837.552;-1801.138;1;267;-100;-95.2;49.2;49.3;11;11.3;28.6;0.0;
14/02/2025 05:57:28;100;0;254.57;-4;-31.36;-5.91;189.7;19.40;77145;2837.552;-1801.142;1;267;-100;-93.5;49.2;49.3;11;11.3;28.6;0.0;
14/02/2025 05:57:48;100;0;257.19;-4;-30.48;-5.97;194.2;19.40;77122;2837.552;-1801.146;1;267;-100;-95.2;49.2;49.3;11;11.3;28.6;0.0;
14/02/2025 05:58:08;100;0;259.60;-4;-30.96;-6.00;198.7;19.30;77111;2837.552;-1801.150;1;267;-100;-95.2;49.2;49.3;11;11.3;28.6;0.0;
14/02/2025 05:58:11;118;0;259.87;-4;-30.94;-5.87;199.3;19.30;77111;2837.552;-1801.150;1;267;100;-90.3;22.9;22.8;11;11.3;28.6;0.0;
14/02/2025 05:58:21;118;0;239.98;-4;-18.86;-6.57;200.9;19.30;77088;2837.551;-1801.152;1;268;100;38.7;22.9;22.5;11;11.3;28.2;-1.0;
14/02/2025 05:58:31;118;0;266.99;-4;5.78;-6.48;201.6;19.30;76810;2837.551;-1801.154;1;267;100;103.2;22.9;22.4;11;11.3;28.2;-1.0;
14/02/2025 05:58:41;118;0;262.84;-4;20.56;-7.16;201.2;19.30;76692;2837.552;-1801.154;1;267;100;103.2;22.9;21.6;11;11.3;28.6;-1.0;
14/02/2025 05:59:01;117;0;259.58;-4;30.23;-7.37;199.4;19.20;76682;2837.552;-1801.156;1;267;100;104.8;22.9;21.6;11;11.3;28.6;-1.0;
14/02/2025 05:59:21;117;0;254.35;-4;30.32;-7.30;197.7;19.20;76682;2837.552;-1801.157;1;267;100;106.5;22.9;22.8;21;21.2;28.6;-1.0;
14/02/2025 05:59:41;117;0;250.89;-4;29.26;-1.68;196.3;19.10;76667;2837.553;-1801.158;1;267;100;106.5;22.9;23.0;21;21.7;28.6;-1.0;
14/02/2025 06:00:01;117;0;246.47;-4;29.88;-1.66;195.0;19.10;76661;2837.553;-1801.159;1;267;100;106.5;22.9;23.0;21;21.7;28.6;-1.0;
14/02/2025 06:00:21;117;0;244.76;-4;29.26;-1.65;193.9;19.10;76659;2837.553;-1801.160;1;267;100;104.8;22.9;22.8;21;21.7;28.6;-1.0;
14/02/2025 06:00:41;117;0;243.19;-4;29.76;-1.67;192.7;19.00;76657;2837.553;-1801.160;1;267;100;104.8;22.9;23.0;16;15.8;28.6;-1.0;
14/02/2025 06:01:01;117;0;236.28;-4;29.35;-4.69;191.6;19.00;76648;2837.553;-1801.161;1;267;100;106.5;22.9;22.8;29;28.9;28.6;-1.0;
14/02/2025 06:01:21;117;0;231.44;-4;30.13;2.48;190.6;18.90;76641;2837.554;-1801.162;1;266;100;106.5;22.9;23.0;29;29.3;28.6;-1.0;
14/02/2025 06:01:41;117;0;229.75;-4;30.22;2.48;189.5;18.90;76632;2837.554;-1801.162;1;266;100;106.5;22.9;22.8;29;29.3;28.6;-1.0;
14/02/2025 06:02:01;117;0;229.32;-4;30.21;2.48;188.5;18.80;76631;2837.554;-1801.163;1;266;100;106.5;22.9;23.0;29;29.3;28.6;-1.0;
14/02/2025 06:02:21;117;0;228.61;-4;30.20;2.50;187.5;18.80;76633;2837.554;-1801.163;1;266;100;106.5;22.9;23.0;29;29.3;28.6;-1.0;
14/02/2025 06:02:41;117;0;227.79;-4;30.08;2.46;186.5;18.80;76632;2837.554;-1801.164;1;266;100;104.8;22.9;23.0;31;31.6;28.6;-1.0;
14/02/2025 06:03:01;117;0;227.01;-4;30.36;3.89;185.5;18.70;76615;2837.554;-1801.164;1;266;100;104.8;22.9;22.8;31;32.0;28.6;-1.0;
14/02/2025 06:03:21;117;0;227.24;-4;30.49;3.90;184.6;18.70;76625;2837.554;-1801.164;1;266;100;106.5;22.9;22.8;31;32.0;28.6;-1.0;
14/02/2025 06:03:41;117;0;226.48;-4;30.75;3.97;183.7;18.70;76621;2837.554;-1801.165;1;266;100;104.8;22.9;23.0;31;31.6;28.6;-1.0;
14/02/2025 06:04:01;117;0;229.24;-4;30.14;3.87;182.7;18.60;76611;2837.554;-1801.165;1;266;100;104.8;22.9;23.0;31;31.6;28.6;-1.0;
14/02/2025 06:04:21;117;0;231.41;-4;30.52;3.88;181.8;18.60;76610;2837.555;-1801.166;1;266;100;104.8;22.9;22.8;28;27.1;28.6;-1.0;
14/02/2025 06:04:41;117;0;231.13;-4;30.51;1.81;180.9;18.50;76603;2837.555;-1801.166;1;266;100;104.8;22.9;23.0;28;28.0;28.6;-1.0;
14/02/2025 06:05:01;117;0;228.96;-4;29.89;1.73;180.0;18.50;76601;2837.555;-1801.167;1;266;100;106.5;22.9;22.8;30;29.8;28.6;-1.0;
14/02/2025 06:05:21;117;0;227.41;-4;30.43;2.98;179.2;18.50;76595;2837.555;-1801.167;1;266;120;124.2;22.9;23.0;30;30.2;28.6;-1.0;
14/02/2025 06:05:41;117;0;231.89;-4;29.46;3.07;178.2;18.50;76565;2837.555;-1801.167;1;266;140;143.5;22.9;23.0;27;27.1;28.6;-1.0;
14/02/2025 06:06:01;117;0;229.38;-4;29.34;1.60;177.1;18.50;76526;2837.555;-1801.168;1;266;160;162.9;22.9;22.8;31;31.1;28.6;-1.0;
14/02/2025 06:06:21;117;0;231.95;-4;29.25;3.71;176.0;18.40;76478;2837.555;-1801.169;1;266;180;185.5;22.9;23.0;31;31.6;28.6;-1.0;
14/02/2025 06:06:41;117;0;237.85;-4;28.90;3.78;174.3;18.40;76445;2837.555;-1801.170;1;266;200;204.8;22.5;22.5;31;31.6;28.6;-1.0;
14/02/2025 06:07:01;117;0;239.89;-4;28.74;3.80;172.5;18.40;76397;2837.555;-1801.171;1;266;220;222.6;22.2;22.2;31;31.6;28.6;-1.0;
14/02/2025 06:07:21;117;0;231.52;-4;28.46;3.89;170.5;18.40;76379;2837.555;-1801.173;1;266;240;245.2;21.7;21.5;38;37.9;28.6;-1.0;
14/02/2025 06:07:41;117;0;230.13;-4;30.59;7.83;168.1;18.30;76329;2837.554;-1801.174;1;266;240;243.5;21.7;21.4;43;42.9;28.6;-1.0;
14/02/2025 06:08:01;117;0;227.79;-4;30.27;10.42;165.2;18.30;76327;2837.553;-1801.176;1;266;240;245.2;21.7;21.5;54;54.2;28.6;-1.0;
14/02/2025 06:08:21;117;0;229.81;-4;31.23;16.44;162.3;18.30;76338;2837.552;-1801.178;1;267;240;245.2;21.7;21.5;50;50.1;28.6;-1.0;
14/02/2025 06:08:41;117;0;227.54;-4;31.79;13.53;159.3;18.30;76335;2837.551;-1801.180;1;267;240;243.5;21.7;21.5;54;54.2;28.6;-1.0;
14/02/2025 06:09:01;117;0;229.05;-4;31.72;16.73;156.1;18.30;76340;2837.550;-1801.182;1;267;240;245.2;21.7;21.5;54;54.6;28.6;-1.0;
14/02/2025 06:09:21;117;0;228.19;-4;32.36;16.82;152.8;18.30;76363;2837.549;-1801.184;1;268;240;241.9;22.4;22.5;57;57.3;28.6;-1.0;
14/02/2025 06:09:41;117;0;232.60;-4;29.97;18.25;149.6;18.30;76374;2837.548;-1801.186;1;268;240;245.2;22.4;22.7;51;51.0;28.6;-1.0;
14/02/2025 06:10:01;117;0;237.50;-4;28.68;14.22;146.9;18.30;76383;2837.547;-1801.188;1;269;240;245.2;22.0;21.6;41;41.1;28.6;-1.0;
14/02/2025 06:10:21;117;0;239.80;-4;29.33;8.70;144.3;18.20;76382;2837.547;-1801.190;1;269;240;245.2;22.0;21.6;37;36.6;28.6;-1.0;
14/02/2025 06:10:41;117;0;242.73;-4;29.18;6.37;141.8;18.20;76396;2837.546;-1801.192;1;269;240;245.2;22.0;21.6;34;33.4;28.6;-1.0;
14/02/2025 06:11:01;117;0;241.98;-4;29.11;4.84;139.3;18.20;76405;2837.546;-1801.194;1;269;240;245.2;22.0;21.6;34;33.4;28.6;-1.0;
14/02/2025 06:11:21;117;0;243.28;-4;29.02;4.68;136.9;18.20;76413;2837.546;-1801.196;1;269;240;241.9;22.0;21.6;34;33.4;28.6;-1.0;
14/02/2025 06:11:41;117;0;247.20;-4;28.71;4.76;134.4;18.20;76421;2837.546;-1801.198;1;269;240;245.2;21.6;21.6;32;32.0;28.6;-1.0;
14/02/2025 06:12:01;117;0;249.51;-4;28.86;3.80;132.0;18.20;76435;2837.546;-1801.200;1;269;240;243.5;21.3;21.2;32;31.6;28.6;-1.0;
14/02/2025 06:12:21;117;0;252.36;-4;29.78;3.74;129.6;18.20;76442;2837.546;-1801.202;1;269;240;245.2;21.3;21.1;32;31.6;28.6;-1.0;
14/02/2025 06:12:41;117;0;251.93;-4;30.40;3.78;127.0;18.20;76453;2837.546;-1801.204;1;269;240;243.5;21.3;21.1;32;31.6;28.6;-1.0;
14/02/2025 06:13:01;117;0;248.60;-4;30.35;3.82;124.3;18.20;76464;2837.545;-1801.207;1;269;240;245.2;21.3;21.1;32;31.6;28.6;-1.0;
14/02/2025 06:13:21;117;0;252.11;-4;29.62;3.71;121.6;18.30;76488;2837.545;-1801.209;1;269;240;243.5;21.3;21.1;32;31.6;28.6;-1.0;
14/02/2025 06:13:41;117;0;253.00;-4;29.52;3.78;119.1;18.30;76512;2837.545;-1801.211;1;269;240;245.2;21.3;21.1;32;31.6;28.6;-1.0;
14/02/2025 06:14:01;117;0;258.17;-4;29.56;3.81;116.8;18.30;76540;2837.546;-1801.213;1;269;240;245.2;21.3;21.1;29;28.9;28.6;-1.0;
14/02/2025 06:14:21;117;0;262.96;-4;29.90;2.11;114.5;18.30;76568;2837.546;-1801.215;1;269;240;245.2;21.3;21.1;25;24.8;28.6;-1.0;
14/02/2025 06:14:41;117;0;261.50;-4;29.44;0.06;112.0;18.30;76614;2837.546;-1801.217;1;269;240;245.2;21.3;21.1;28;28.0;28.6;-1.0;
14/02/2025 06:15:01;117;0;260.29;-4;29.63;2.27;109.7;18.40;76628;2837.547;-1801.219;1;268;240;245.2;21.3;21.1;28;28.9;28.6;-1.0;
14/02/2025 06:15:21;117;0;258.79;-4;29.91;2.35;107.3;18.40;76635;2837.547;-1801.221;1;268;240;245.2;21.3;21.1;28;28.9;28.6;-1.0;
14/02/2025 06:15:41;117;0;256.91;-4;29.98;2.33;104.8;18.40;76653;2837.547;-1801.224;1;268;240;245.2;21.3;21.1;30;29.8;28.6;-1.0;
14/02/2025 06:16:01;117;0;255.19;-4;29.88;3.19;102.1;18.40;76657;2837.547;-1801.226;1;268;240;245.2;21.3;21.1;30;30.2;28.6;-1.0;
14/02/2025 06:16:21;117;0;253.59;-4;29.98;3.16;99.4;18.50;76667;2837.547;-1801.228;1;268;240;245.2;21.3;21.1;30;30.2;28.6;-1.0;
14/02/2025 06:16:41;117;0;251.72;-4;29.80;3.21;96.7;18.50;76672;2837.547;-1801.231;1;268;240;245.2;21.3;21.1;30;30.2;28.6;-1.0;
14/02/2025 06:17:01;117;0;250.72;-4;30.11;3.07;94.0;18.50;76682;2837.547;-1801.233;1;268;240;243.5;21.3;21.1;30;30.2;28.6;-1.0;
14/02/2025 06:17:22;117;0;249.74;-4;30.01;3.16;91.3;18.50;76692;2837.547;-1801.235;1;268;240;245.2;21.3;21.1;32;32.0;28.6;-1.0;
14/02/2025 06:17:42;117;0;250.01;-4;29.67;4.40;88.5;18.60;76699;2837.547;-1801.238;1;268;240;245.2;21.3;21.1;32;32.5;28.6;-1.0;
14/02/2025 06:18:02;117;0;251.27;-4;29.84;4.30;85.7;18.60;76689;2837.547;-1801.240;1;268;240;245.2;21.3;21.1;32;32.5;28.6;-1.0;
14/02/2025 06:18:22;117;0;251.23;-4;29.87;4.26;82.9;18.60;76703;2837.547;-1801.242;1;268;240;245.2;21.3;21.1;32;32.5;28.6;-1.0;
14/02/2025 06:18:42;117;0;252.07;-4;29.94;4.35;80.1;18.60;76701;2837.547;-1801.245;1;268;240;243.5;21.3;21.1;32;32.5;28.6;-1.0;
14/02/2025 06:19:02;117;0;252.99;-4;30.10;4.31;77.2;18.70;76712;2837.547;-1801.247;1;268;240;243.5;21.3;21.1;32;32.5;28.6;-1.0;
14/02/2025 06:19:22;117;0;251.95;-4;30.01;4.37;74.4;18.70;76716;2837.546;-1801.250;1;268;240;245.2;21.3;21.1;32;32.5;28.6;-1.0;
14/02/2025 06:19:42;117;0;251.36;-4;30.04;4.36;71.4;18.70;76718;2837.546;-1801.252;1;268;240;245.2;21.3;21.1;32;32.5;28.6;-1.0;
14/02/2025 06:20:02;117;0;250.77;-4;29.93;4.37;68.4;18.70;76723;2837.546;-1801.255;1;268;240;245.2;21.3;20.9;32;32.5;28.6;-1.0;
14/02/2025 06:20:22;117;0;249.56;-4;29.77;4.37;65.5;18.80;76733;2837.546;-1801.257;1;268;240;245.2;21.3;21.1;32;32.5;28.6;-1.0;
14/02/2025 06:20:42;117;0;248.77;-4;29.95;4.40;62.3;18.80;76732;2837.546;-1801.260;1;269;240;243.5;21.3;21.1;32;32.5;28.6;-1.0;
14/02/2025 06:21:02;117;0;247.79;-4;30.02;4.31;59.3;18.80;76739;2837.545;-1801.262;1;269;240;245.2;21.3;21.1;32;32.5;28.6;-1.0;
14/02/2025 06:21:22;117;0;246.47;-4;29.96;4.42;56.3;18.80;76749;2837.545;-1801.265;1;269;240;245.2;21.3;21.1;32;32.5;28.6;-1.0;
14/02/2025 06:21:42;117;0;245.37;-4;30.23;4.41;53.2;18.90;76744;2837.544;-1801.267;1;270;240;245.2;21.3;21.1;34;33.8;28.6;-1.0;
14/02/2025 06:22:02;117;0;245.09;-4;29.99;5.47;50.0;18.90;76755;2837.544;-1801.270;1;270;240;245.2;21.3;21.1;36;36.1;28.6;-1.0;
14/02/2025 06:22:22;117;0;244.61;-4;30.00;6.71;46.9;18.90;76754;2837.543;-1801.273;1;271;240;245.2;21.3;21.1;36;36.6;28.6;-1.0;
14/02/2025 06:22:42;117;0;244.04;-4;30.14;6.75;43.8;18.90;76754;2837.543;-1801.275;1;271;240;245.2;21.3;20.9;36;36.6;28.6;-1.0;
14/02/2025 06:23:02;117;0;243.83;-4;30.07;6.68;40.7;18.90;76758;2837.542;-1801.278;1;272;240;245.2;21.3;20.9;38;37.9;28.6;-1.0;
14/02/2025 06:23:22;117;0;243.98;-4;30.30;7.56;37.6;19.00;76758;2837.542;-1801.280;1;272;240;243.5;21.3;21.1;38;37.9;28.6;-1.0;
14/02/2025 06:23:42;117;0;243.89;-4;30.29;7.55;34.5;19.00;76756;2837.541;-1801.283;1;273;240;243.5;21.3;21.1;40;40.2;28.6;-1.0;
14/02/2025 06:24:02;117;0;245.10;-4;30.23;9.20;31.4;19.00;76768;2837.541;-1801.285;1;274;240;245.2;21.3;21.1;40;40.6;28.6;-1.0;
14/02/2025 06:24:22;117;0;245.05;-4;30.55;9.17;28.3;19.00;76771;2837.541;-1801.288;1;275;240;245.2;21.3;21.1;40;41.1;28.6;-1.0;
14/02/2025 06:24:42;117;0;248.21;-4;30.43;9.17;25.1;19.00;76773;2837.540;-1801.290;1;275;240;245.2;21.3;21.1;37;36.1;28.6;-1.0;
14/02/2025 06:25:02;117;0;249.32;-4;30.18;6.39;22.0;19.10;76778;2837.540;-1801.293;1;276;240;245.2;21.3;21.1;37;36.6;28.6;-1.0;
14/02/2025 06:25:22;117;0;249.37;-4;30.28;6.64;18.9;19.10;76772;2837.540;-1801.296;1;277;240;245.2;21.3;21.1;37;36.6;28.6;-1.0;
14/02/2025 06:25:42;117;0;247.69;-4;31.62;6.54;16.0;19.10;76787;2837.539;-1801.298;1;277;240;245.2;21.3;21.1;37;36.6;28.6;-1.0;
14/02/2025 06:26:02;117;0;248.77;-4;30.09;6.55;12.8;19.10;76787;2837.539;-1801.301;1;279;240;245.2;21.3;21.1;41;41.5;28.6;-1.0;
14/02/2025 06:26:22;117;0;249.17;-4;29.66;10.03;9.6;19.10;76788;2837.539;-1801.303;1;280;240;245.2;21.3;21.1;41;42.0;28.6;-1.0;
14/02/2025 06:26:42;117;0;251.49;-4;30.57;9.87;6.5;19.20;76790;2837.539;-1801.306;1;281;240;245.2;21.3;21.1;39;38.8;28.6;-1.0;
14/02/2025 06:27:02;117;0;251.73;-4;28.93;7.46;3.4;19.20;76795;2837.538;-1801.309;1;282;240;245.2;21.0;21.1;42;38.8;28.6;-1.0;
14/02/2025 06:27:05;115;0;252.58;-4;29.30;9.67;3.0;19.20;76790;2837.538;-1801.309;1;282;500;251.6;100.0;64.5;0;-0.5;28.6;-1.0;
14/02/2025 06:27:15;115;0;246.15;-4;13.87;-12.92;1.8;19.20;76760;2837.538;-1801.311;1;284;500;371.0;100.0;100.0;0;-0.5;28.4;-1.0;
14/02/2025 06:27:25;115;0;208.93;-4;-60.82;-13.95;2.4;19.20;76500;2837.538;-1801.311;1;284;500;480.6;100.0;100.7;0;-0.5;28.4;-1.0;
14/02/2025 06:27:35;115;0;212.72;-4;-69.17;-14.11;1.8;19.20;76248;2837.538;-1801.311;1;284;500;508.1;100.0;100.7;0;-0.5;28.4;-1.0;
14/02/2025 06:27:45;115;0;234.44;-4;-26.27;-14.21;-0.1;19.20;76212;2837.537;-1801.313;1;287;500;508.1;100.0;100.6;0;-0.5;28.6;-1.0;
14/02/2025 06:28:05;119;0;241.24;-4;-59.97;-16.79;-0.0;19.30;76222;2837.537;-1801.313;1;287;500;508.1;100.0;100.7;0;-0.5;28.6;-1.0;
14/02/2025 06:28:15;119;0;264.30;-4;-55.65;-10.97;0.1;19.30;76219;2837.511;-1801.390;0;287;500;509.7;100.0;100.7;0;-0.5;28.6;-1.0;
