Timestamp;NavState;SecurityLevel;Heading;Declination;Pitch;Roll;Depth;Temperature;Pa;Lat;Lon;DeadReckoning;DesiredH;BallastCmd;BallastPos;LinCmd;LinPos;AngCmd;AngPos;Voltage;Altitude;
13/02/2025 20:47:51;119;0;261.92;-4;-60.95;-18.95;0.1;18.20;76037;2838.246;-1800.083;0;50;500;511.3;100.0;100.6;0;0.0;28.7;-1.0;
13/02/2025 20:48:01;116;0;245.18;-4;-54.87;-17.60;0.2;18.30;76049;2838.247;-1800.093;0;50;500;509.7;100.0;100.6;0;-0.5;28.7;-1.0;
13/02/2025 20:48:30;116;0;208.62;-4;-54.71;-14.07;0.1;18.40;76050;2838.249;-1800.092;0;51;500;509.7;100.0;100.6;0;0.0;28.7;-1.0;
13/02/2025 20:48:50;116;0;184.67;-4;-48.41;-10.24;0.2;18.40;76062;2838.250;-1800.092;0;51;500;509.7;100.0;100.6;0;0.0;28.7;-1.0;
13/02/2025 20:49:11;116;0;189.66;-4;-49.83;-9.71;0.3;18.50;76065;2838.251;-1800.091;0;51;500;509.7;100.0;100.6;0;0.0;28.7;-1.0;
13/02/2025 20:49:31;116;0;179.27;-4;-54.97;-18.71;0.2;18.50;76069;2838.252;-1800.091;0;51;500;509.7;100.0;100.6;0;0.0;28.7;-1.0;
13/02/2025 20:50:34;116;0;190.50;-4;-52.46;-23.21;0.3;18.70;76093;2838.258;-1800.087;0;51;500;508.1;100.0;100.6;0;0.0;28.6;-1.0;
13/02/2025 20:51:19;116;0;182.67;-4;-57.02;-15.41;0.2;18.80;76105;2838.263;-1800.086;0;51;500;509.7;100.0;100.6;0;0.0;28.7;-1.0;
13/02/2025 20:52:22;116;0;167.94;-4;-51.47;-14.26;0.3;19.10;76129;2838.270;-1800.083;0;51;500;509.7;100.0;100.6;0;0.0;28.7;-1.0;
13/02/2025 20:52:46;116;0;185.09;-4;-54.40;-15.27;0.3;19.20;76135;2838.272;-1800.081;0;52;500;509.7;100.0;100.7;0;0.0;28.7;-1.0;
13/02/2025 20:53:00;116;0;185.48;-4;-56.86;-17.98;0.2;19.30;76140;2838.274;-1800.081;0;52;500;509.7;100.0;100.6;0;0.0;28.7;-1.0;
13/02/2025 20:53:20;110;0;169.00;-4;-54.05;-19.90;0.1;19.30;76141;2838.274;-1800.081;0;52;-100;396.8;100.0;99.9;-13;-13.5;28.7;-1.0;
13/02/2025 20:53:30;110;0;162.02;-4;-55.55;-21.63;0.1;19.40;76489;2838.273;-1800.081;1;52;-100;248.4;100.0;99.9;-13;-13.5;28.6;-1.0;
13/02/2025 20:53:40;110;0;163.24;-4;-55.06;-14.41;0.7;19.40;76737;2838.273;-1800.081;1;52;-100;85.5;100.0;99.9;-13;-14.0;28.6;-1.0;
13/02/2025 20:53:50;110;0;192.00;-4;-68.64;-12.14;1.0;19.50;77071;2838.273;-1800.081;1;52;-100;-74.2;100.0;99.9;-13;-13.5;28.6;-1.0;
13/02/2025 20:54:00;110;0;211.88;-4;-64.79;-18.04;1.3;19.50;77424;2838.273;-1800.081;1;52;-100;-98.4;49.2;49.2;-13;-14.0;28.6;-1.0;
13/02/2025 20:54:10;110;0;248.33;-4;-51.41;-18.01;2.9;19.50;77433;2838.272;-1800.082;1;52;-100;-100.0;49.2;48.9;-13;-14.0;28.7;-1.0;
13/02/2025 20:54:30;100;0;264.17;-4;-30.90;-18.72;6.9;19.60;77424;2838.272;-1800.086;1;52;-100;-96.8;49.2;48.7;-13;-14.0;28.7;-1.0;
13/02/2025 20:54:50;100;0;271.84;-4;-30.26;-18.29;11.6;19.60;77419;2838.271;-1800.091;1;52;-100;-96.8;49.2;48.6;-70;-69.9;28.7;-1.0;
13/02/2025 20:55:10;100;0;279.98;-4;-30.07;-44.64;15.9;19.70;77425;2838.272;-1800.095;1;52;-100;-98.4;49.2;48.6;-70;-70.4;28.7;0.0;
13/02/2025 20:55:30;100;0;291.56;-4;-30.38;-44.91;20.3;19.70;77435;2838.273;-1800.099;1;53;-100;-96.8;49.2;48.6;-70;-70.4;28.7;0.0;
13/02/2025 20:55:50;100;0;302.92;-4;-29.77;-44.92;24.8;19.80;77434;2838.275;-1800.103;1;53;-100;-95.2;49.2;48.6;-70;-70.4;28.7;0.0;
13/02/2025 20:56:10;100;0;314.07;-4;-30.04;-44.73;29.3;19.80;77440;2838.278;-1800.106;1;53;-100;-98.4;49.2;48.6;-70;-69.9;28.7;0.0;
13/02/2025 20:56:30;100;0;325.58;-4;-30.52;-44.95;33.8;19.80;77437;2838.280;-1800.109;1;53;-100;-96.8;49.2;48.6;-70;-70.4;28.7;0.0;
13/02/2025 20:56:50;100;0;335.93;-4;-30.63;-44.84;38.4;19.80;77428;2838.284;-1800.111;1;54;-100;-95.2;49.2;48.6;-70;-69.9;28.7;0.0;
13/02/2025 20:57:10;100;0;346.44;-4;-30.31;-44.77;43.1;19.80;77424;2838.288;-1800.112;1;54;-100;-95.2;49.2;48.6;-68;-68.1;28.6;0.0;
13/02/2025 20:57:30;100;0;357.32;-4;-29.68;-43.44;47.6;19.80;77421;2838.291;-1800.112;1;54;-100;-95.2;49.2;48.6;-55;-55.1;28.7;0.0;
13/02/2025 20:57:50;100;0;8.07;-4;-29.43;-36.99;52.0;19.80;77435;2838.295;-1800.112;1;55;-100;-95.2;49.2;48.6;-43;-42.9;28.7;0.0;
13/02/2025 20:58:10;100;0;19.17;-4;-29.24;-31.14;56.3;19.80;77426;2838.299;-1800.110;1;55;-100;-95.2;49.2;48.6;-29;-28.9;28.7;0.0;
13/02/2025 20:58:30;100;0;28.48;-4;-29.17;-24.32;60.5;19.90;77436;2838.302;-1800.108;1;55;-100;-95.2;49.2;48.7;-14;-14.0;28.7;0.0;
13/02/2025 20:58:50;100;0;36.15;-4;-29.61;-17.58;64.7;19.80;77444;2838.305;-1800.106;1;55;-100;-96.8;49.2;48.7;-1;-0.9;28.7;0.0;
13/02/2025 20:59:10;100;0;40.22;-4;-30.45;-11.68;69.1;19.80;77444;2838.307;-1800.103;1;55;-100;-95.2;49.2;48.6;5;5.0;28.7;0.0;
13/02/2025 20:59:30;100;0;43.06;-4;-30.53;-8.90;73.6;19.80;77447;2838.310;-1800.100;1;55;-100;-95.2;49.2;48.6;8;8.6;28.7;0.0;
13/02/2025 20:59:50;100;0;44.02;-4;-30.93;-7.03;78.1;19.80;77451;2838.312;-1800.097;1;55;-100;-95.2;49.2;48.6;8;9.0;28.7;0.0;
13/02/2025 21:00:10;100;0;43.69;-4;-30.99;-7.02;82.6;19.80;77451;2838.315;-1800.094;1;55;-100;-95.2;49.2;48.7;8;9.0;28.7;0.0;
13/02/2025 21:00:30;100;0;44.00;-4;-31.05;-7.06;87.1;19.80;77451;2838.318;-1800.091;1;55;-100;-95.2;49.2;48.7;8;9.0;28.6;0.0;
13/02/2025 21:00:50;100;0;42.31;-4;-31.14;-6.96;91.7;19.80;77454;2838.320;-1800.088;1;55;-100;-93.5;49.2;48.7;8;9.0;28.7;0.0;
13/02/2025 21:01:10;100;0;40.06;-4;-30.82;-7.02;96.2;19.80;77456;2838.323;-1800.085;1;55;-100;-95.2;49.2;48.6;4;4.1;28.7;0.0;
13/02/2025 21:01:30;100;0;37.69;-4;-30.40;-9.73;100.6;19.80;77459;2838.326;-1800.083;1;56;-100;-95.2;49.2;48.7;0;0.0;28.7;0.0;
13/02/2025 21:01:50;100;0;38.27;-4;-30.57;-11.62;105.0;19.80;77446;2838.329;-1800.080;1;56;-100;-95.2;49.2;48.7;0;-0.5;28.7;0.0;
13/02/2025 21:02:10;100;0;41.62;-4;-30.04;-11.70;109.4;19.80;77449;2838.331;-1800.077;1;56;-100;-95.2;49.2;48.7;5;5.0;28.7;0.0;
13/02/2025 21:02:30;100;0;43.55;-4;-30.63;-8.79;113.6;19.80;77454;2838.334;-1800.075;1;56;-100;-95.2;49.2;48.7;7;7.2;28.7;0.0;
13/02/2025 21:02:50;100;0;44.72;-4;-30.51;-7.78;117.8;19.80;77460;2838.336;-1800.072;1;56;-100;-95.2;49.2;48.7;7;7.7;28.7;0.0;
13/02/2025 21:03:10;100;0;43.85;-4;-30.80;-7.76;122.1;19.80;77460;2838.338;-1800.069;1;56;-100;-95.2;49.2;48.7;7;7.7;28.7;0.0;
13/02/2025 21:03:30;100;0;39.56;-4;-30.32;-7.79;126.4;19.80;77449;2838.341;-1800.066;1;56;-100;-93.5;49.2;48.6;2;1.8;28.7;0.0;
13/02/2025 21:03:50;100;0;37.97;-4;-28.76;-10.78;130.3;19.80;77432;2838.344;-1800.064;1;56;-100;-93.5;49.6;49.8;0;-0.9;28.7;0.0;
13/02/2025 21:04:10;100;0;40.95;-4;-30.12;-12.04;134.0;19.80;77407;2838.346;-1800.062;1;56;-100;-95.2;49.6;50.1;5;5.0;28.7;0.0;
13/02/2025 21:04:30;100;0;47.62;-4;-31.42;-8.88;137.8;19.80;77376;2838.348;-1800.059;1;56;-100;-96.8;49.6;49.9;9;9.0;28.7;0.0;
13/02/2025 21:04:50;100;0;46.44;-4;-32.29;-6.85;141.8;19.70;77346;2838.350;-1800.056;1;56;-100;-95.2;48.9;48.9;9;9.5;28.7;0.0;
13/02/2025 21:05:10;100;0;41.76;-4;-30.66;-6.81;145.9;19.70;77317;2838.352;-1800.054;1;56;-100;-93.5;48.9;48.6;5;5.0;28.7;0.0;
13/02/2025 21:05:30;100;0;40.62;-4;-30.04;-9.32;149.9;19.70;77295;2838.355;-1800.051;1;56;-100;-95.2;48.9;48.6;3;3.2;28.7;0.0;
13/02/2025 21:05:50;100;0;37.02;-4;-30.54;-10.11;153.8;19.60;77285;2838.357;-1800.049;1;56;-100;-95.2;48.9;48.7;0;0.0;28.7;0.0;
13/02/2025 21:06:10;100;0;40.39;-4;-30.27;-11.74;158.0;19.60;77249;2838.360;-1800.046;1;57;-100;-95.2;48.9;48.6;2;1.8;28.7;0.0;
13/02/2025 21:06:30;100;0;43.24;-4;-30.18;-10.21;162.3;19.60;77226;2838.362;-1800.043;1;57;-100;-95.2;48.9;48.6;5;5.0;28.7;0.0;
13/02/2025 21:06:50;100;0;44.99;-4;-30.99;-9.29;166.7;19.50;77222;2838.365;-1800.040;1;57;-100;-95.2;48.9;48.6;7;7.2;28.7;0.0;
13/02/2025 21:07:10;100;0;46.79;-4;-30.89;-7.69;171.1;19.50;77212;2838.367;-1800.037;1;57;-100;-96.8;48.9;48.6;7;7.7;28.7;0.0;
13/02/2025 21:07:30;100;0;49.03;-4;-30.53;-7.79;175.6;19.50;77202;2838.369;-1800.034;1;57;-100;-95.2;48.9;48.6;9;9.0;28.7;0.0;
13/02/2025 21:07:50;100;0;51.48;-4;-31.28;-6.92;180.0;19.40;77200;2838.371;-1800.031;1;57;-100;-95.2;48.9;48.6;9;9.5;28.7;0.0;
13/02/2025 21:08:10;100;0;57.02;-4;-30.22;-6.93;184.5;19.40;77188;2838.373;-1800.027;1;57;-100;-95.2;48.9;48.6;9;9.5;28.7;0.0;
13/02/2025 21:08:30;100;0;59.03;-4;-29.41;-7.07;188.5;19.40;77152;2838.375;-1800.023;1;57;-100;-95.2;48.9;48.6;9;9.5;28.7;0.0;
13/02/2025 21:08:50;100;0;64.10;-4;-29.85;-6.98;192.7;19.30;77149;2838.377;-1800.020;1;57;-100;-95.2;48.9;48.6;12;12.2;28.7;0.0;
13/02/2025 21:09:10;100;0;65.70;-4;-29.82;-5.38;196.9;19.30;77129;2838.378;-1800.016;1;57;-100;-95.2;48.9;48.6;14;14.0;28.7;0.0;
13/02/2025 21:09:30;100;0;66.80;-4;-29.62;-4.34;200.9;19.20;77119;2838.379;-1800.012;1;56;-100;-95.2;48.9;48.6;16;15.8;28.7;0.0;
13/02/2025 21:09:50;100;0;67.17;-4;-30.26;-3.66;204.9;19.20;77100;2838.380;-1800.009;1;56;-100;-95.2;48.9;48.6;16;16.2;28.7;0.0;
13/02/2025 21:10:10;100;0;70.62;-4;-31.48;-3.43;209.3;19.10;77083;2838.381;-1800.005;1;56;-100;-95.2;48.9;48.6;21;21.2;28.7;0.0;
13/02/2025 21:10:30;100;0;66.67;-4;-30.38;-0.89;213.8;19.10;77057;2838.382;-1800.001;1;56;-100;-95.2;48.9;48.6;16;15.8;28.7;0.0;
13/02/2025 21:10:50;100;0;62.35;-4;-30.78;-3.91;218.1;19.00;77041;2838.384;-1759.997;1;56;-100;-95.2;48.9;48.6;12;12.2;28.7;0.0;
13/02/2025 21:11:10;100;0;57.46;-4;-30.74;-5.66;222.6;19.00;77020;2838.386;-1759.993;1;56;-100;-95.2;48.9;48.6;10;9.9;28.7;0.0;
13/02/2025 21:11:30;100;0;54.93;-4;-29.80;-7.06;227.0;18.90;77017;2838.388;-1759.990;1;56;-100;-95.2;48.9;48.6;10;9.5;28.7;0.0;
13/02/2025 21:11:50;100;0;55.95;-4;-29.98;-7.12;231.2;18.90;77009;2838.390;-1759.986;1;56;-100;-95.2;48.9;48.6;10;9.5;28.7;0.0;
13/02/2025 21:12:10;100;0;56.42;-4;-30.00;-7.06;235.6;18.80;76991;2838.392;-1759.983;1;56;-100;-95.2;48.9;48.6;10;9.5;28.7;0.0;
13/02/2025 21:12:30;100;0;56.10;-4;-30.22;-6.93;240.1;18.80;76973;2838.394;-1759.979;1;56;-100;-95.2;48.9;48.7;10;9.5;28.7;0.0;
13/02/2025 21:12:51;100;0;56.80;-4;-30.35;-7.05;244.5;18.70;76952;2838.396;-1759.975;1;56;-100;-95.2;48.9;48.6;10;9.5;28.7;0.0;
13/02/2025 21:13:11;100;0;57.63;-4;-29.85;-6.96;249.1;18.70;76939;2838.397;-1759.972;1;56;-100;-95.2;48.9;48.6;10;9.5;28.7;0.0;
13/02/2025 21:13:31;100;0;55.59;-4;-29.79;-7.07;253.3;18.60;76923;2838.399;-1759.968;1;56;-100;-95.2;48.9;48.6;10;9.5;28.7;0.0;
13/02/2025 21:13:51;100;0;55.52;-4;-29.95;-7.11;257.7;18.60;76899;2838.401;-1759.965;1;56;-100;-95.2;48.9;48.7;10;9.5;28.7;0.0;
13/02/2025 21:14:11;100;0;58.22;-4;-29.32;-7.09;262.1;18.50;76899;2838.403;-1759.961;1;56;-100;-95.2;48.9;48.7;10;9.0;28.7;0.0;
13/02/2025 21:14:31;100;0;62.31;-4;-29.43;-7.07;266.3;18.50;76879;2838.405;-1759.957;1;56;-100;-95.2;48.9;48.6;12;12.2;28.7;0.0;
13/02/2025 21:14:51;100;0;62.67;-4;-29.33;-5.72;270.6;18.40;76876;2838.406;-1759.953;1;56;-100;-96.8;48.9;48.7;12;12.6;28.7;0.0;
13/02/2025 21:15:11;100;0;60.29;-4;-29.58;-5.45;274.9;18.40;76856;2838.408;-1759.949;1;56;-100;-95.2;48.9;48.7;12;12.6;28.7;0.0;
13/02/2025 21:15:31;100;0;59.19;-4;-29.63;-5.42;279.0;18.30;76839;2838.410;-1759.946;1;56;-100;-95.2;48.9;48.7;12;12.6;28.7;0.0;
13/02/2025 21:15:51;100;0;61.23;-4;-29.48;-5.38;283.2;18.30;76828;2838.411;-1759.942;1;56;-100;-93.5;48.9;48.6;12;12.6;28.7;0.0;
13/02/2025 21:16:11;100;0;60.05;-4;-30.12;-5.30;287.4;18.20;76824;2838.413;-1759.938;1;56;-100;-95.2;48.9;48.7;12;12.6;28.7;0.0;
13/02/2025 21:16:31;100;0;58.18;-4;-29.93;-5.46;291.8;18.20;76813;2838.415;-1759.935;1;56;-100;-95.2;48.9;48.6;12;12.6;28.7;0.0;
13/02/2025 21:16:51;100;0;56.47;-4;-29.82;-5.40;296.2;18.10;76810;2838.417;-1759.931;1;56;-100;-95.2;48.9;48.6;10;9.9;28.7;0.0;
13/02/2025 21:17:11;100;0;54.98;-4;-29.54;-6.88;300.5;18.00;76798;2838.419;-1759.928;1;55;-100;-95.2;48.9;48.7;10;9.5;28.7;0.0;
13/02/2025 21:17:31;100;0;60.51;-4;-29.85;-6.85;304.9;18.00;76786;2838.420;-1759.924;1;55;-100;-95.2;48.9;48.7;12;12.2;28.6;0.0;
13/02/2025 21:17:51;100;0;56.76;-4;-30.00;-5.46;309.4;18.00;76766;2838.422;-1759.920;1;55;-100;-95.2;48.9;48.6;12;12.6;28.7;0.0;
13/02/2025 21:18:11;100;0;53.17;-4;-30.11;-5.52;314.0;17.90;76758;2838.424;-1759.916;1;55;-100;-96.8;48.9;48.6;10;9.9;28.7;0.0;
13/02/2025 21:18:31;100;0;53.53;-4;-30.04;-6.94;318.6;17.80;76736;2838.427;-1759.913;1;55;-100;-95.2;48.9;48.6;10;9.5;28.7;0.0;
13/02/2025 21:18:51;100;0;54.03;-4;-29.37;-6.98;323.1;17.80;76724;2838.429;-1759.909;1;55;-100;-96.8;48.9;48.6;10;9.0;28.7;0.0;
13/02/2025 21:19:11;100;0;55.03;-4;-29.92;-7.01;327.6;17.70;76719;2838.431;-1759.905;1;55;-100;-95.2;48.9;48.6;10;9.5;28.7;0.0;
13/02/2025 21:19:31;100;0;56.72;-4;-29.62;-6.97;332.4;17.70;76699;2838.433;-1759.901;1;55;-100;-95.2;48.9;48.6;10;9.5;28.7;0.0;
13/02/2025 21:19:51;100;0;60.32;-4;-29.69;-7.09;337.1;17.60;76678;2838.435;-1759.897;1;55;-100;-93.5;48.9;48.6;12;12.2;28.7;0.0;
13/02/2025 21:20:11;100;0;61.54;-4;-30.12;-5.38;341.8;17.60;76672;2838.437;-1759.893;1;55;-100;-95.2;48.9;48.7;12;12.6;28.7;0.0;
13/02/2025 21:20:31;100;0;60.47;-4;-30.11;-5.40;346.9;17.50;76658;2838.439;-1759.889;1;55;-100;-95.2;48.9;48.7;12;12.6;28.7;0.0;
13/02/2025 21:20:51;100;0;60.10;-4;-30.14;-5.30;351.9;17.50;76644;2838.441;-1759.885;1;55;-100;-95.2;48.9;48.6;12;12.6;28.7;0.0;
13/02/2025 21:21:11;100;0;58.56;-4;-29.91;-5.26;357.0;17.40;76633;2838.443;-1759.880;1;55;-100;-95.2;48.9;48.6;12;12.6;28.7;0.0;
13/02/2025 21:21:31;100;0;56.59;-4;-29.89;-5.33;362.1;17.30;76625;2838.445;-1759.876;1;55;-100;-95.2;48.9;48.6;12;12.6;28.7;0.0;
13/02/2025 21:21:51;100;0;54.59;-4;-29.84;-5.23;367.2;17.30;76617;2838.447;-1759.872;1;55;-100;-95.2;48.9;48.6;12;12.6;28.7;0.0;
13/02/2025 21:22:11;100;0;54.52;-4;-30.21;-5.30;372.2;17.20;76596;2838.450;-1759.868;1;55;-100;-93.5;48.9;48.6;12;12.6;28.7;0.0;
13/02/2025 21:22:31;100;0;53.56;-4;-29.59;-5.30;377.2;17.20;76582;2838.452;-1759.864;1;55;-100;-98.4;48.9;48.6;12;13.1;28.7;0.0;
13/02/2025 21:22:51;100;0;51.83;-4;-29.56;-5.42;382.1;17.10;76573;2838.455;-1759.860;1;55;-100;-95.2;48.9;48.6;12;12.6;28.7;0.0;
13/02/2025 21:23:11;100;0;54.32;-4;-29.12;-5.31;387.0;17.10;76559;2838.457;-1759.856;1;55;-100;-95.2;48.9;48.7;12;13.1;28.7;0.0;
13/02/2025 21:23:31;100;0;53.10;-4;-29.40;-5.38;391.8;17.00;76551;2838.459;-1759.852;1;55;-100;-95.2;48.9;48.6;12;12.6;28.7;0.0;
13/02/2025 21:23:51;100;0;52.00;-4;-29.62;-5.30;396.7;17.00;76536;2838.462;-1759.848;1;55;-100;-95.2;48.9;48.6;12;12.6;28.7;0.0;
13/02/2025 21:24:11;100;0;51.71;-4;-29.69;-5.40;401.4;16.90;76531;2838.464;-1759.845;1;55;-100;-93.5;48.9;48.6;12;12.6;28.7;0.0;
13/02/2025 21:24:31;100;0;48.65;-4;-29.34;-5.33;406.3;16.90;76522;2838.467;-1759.841;1;55;-100;-95.2;48.9;48.6;10;9.5;28.7;0.0;
13/02/2025 21:24:51;100;0;40.71;-4;-29.17;-7.23;411.0;16.80;76522;2838.470;-1759.838;1;55;-100;-95.2;48.9;48.7;5;5.0;28.7;0.0;
13/02/2025 21:25:11;100;0;42.27;-4;-28.15;-9.37;415.8;16.80;76507;2838.473;-1759.834;1;55;-100;-95.2;49.5;49.5;7;7.2;28.7;0.0;
13/02/2025 21:25:31;100;0;46.91;-4;-30.25;-7.78;420.5;16.70;76504;2838.476;-1759.831;1;55;-100;-95.2;49.5;49.8;10;9.9;28.7;0.0;
13/02/2025 21:25:51;100;0;47.42;-4;-30.62;-6.53;425.3;16.60;76475;2838.478;-1759.828;1;55;-100;-95.2;49.5;49.8;10;10.4;28.7;0.0;
13/02/2025 21:26:11;100;0;42.16;-4;-31.84;-6.65;430.2;16.60;76472;2838.481;-1759.824;1;56;-100;-95.2;49.5;49.8;6;5.9;28.7;0.0;
13/02/2025 21:26:31;100;0;45.04;-4;-31.15;-8.73;435.3;16.60;76463;2838.484;-1759.821;1;56;-100;-95.2;49.5;49.8;8;8.1;28.7;0.0;
13/02/2025 21:26:51;100;0;44.75;-4;-30.90;-7.43;440.5;16.50;76453;2838.487;-1759.818;1;56;-100;-95.2;49.5;49.8;8;8.1;28.7;0.0;
13/02/2025 21:27:11;100;0;47.11;-4;-31.50;-7.63;445.3;16.50;76448;2838.489;-1759.814;1;56;-100;-93.5;49.5;49.8;8;8.1;28.7;0.0;
13/02/2025 21:27:31;100;0;49.39;-4;-31.32;-7.61;450.4;16.40;76421;2838.492;-1759.811;1;56;-100;-93.5;49.5;49.8;10;9.9;28.7;0.0;
13/02/2025 21:27:51;100;0;50.67;-4;-31.46;-6.45;455.4;16.40;76413;2838.494;-1759.807;1;56;-100;-96.8;49.5;49.8;10;10.4;28.7;0.0;
13/02/2025 21:28:11;100;0;52.04;-4;-31.56;-6.42;460.4;16.30;76413;2838.497;-1759.803;1;56;-100;-95.2;49.5;49.8;10;10.4;28.7;0.0;
13/02/2025 21:28:31;100;0;50.93;-4;-31.14;-6.39;465.2;16.20;76398;2838.499;-1759.800;1;56;-100;-93.5;49.5;49.8;10;10.4;28.7;0.0;
13/02/2025 21:28:51;100;0;55.68;-4;-31.18;-6.46;470.1;16.20;76389;2838.501;-1759.796;1;56;-100;-95.2;49.5;49.8;10;10.4;28.7;0.0;
13/02/2025 21:29:11;100;0;57.16;-4;-31.08;-6.52;475.1;16.10;76383;2838.503;-1759.792;1;56;-100;-96.8;49.5;49.9;10;10.4;28.7;0.0;
13/02/2025 21:29:31;100;0;59.72;-4;-30.87;-6.45;479.9;16.10;76361;2838.505;-1759.788;1;56;-100;-95.2;49.5;49.8;10;10.4;28.7;0.0;
13/02/2025 21:29:51;100;0;58.17;-4;-30.75;-6.52;484.8;16.00;76370;2838.507;-1759.784;1;56;-100;-95.2;49.5;49.8;10;10.4;28.7;0.0;
13/02/2025 21:30:11;100;0;55.78;-4;-30.71;-6.48;489.5;16.00;76361;2838.509;-1759.780;1;56;-100;-95.2;49.5;49.8;10;10.4;28.7;0.0;
13/02/2025 21:30:31;100;0;54.16;-4;-30.65;-6.48;494.1;16.00;76352;2838.511;-1759.777;1;56;-100;-95.2;49.5;49.8;10;10.4;28.7;0.0;
13/02/2025 21:30:51;100;0;52.68;-4;-30.62;-6.59;498.6;15.90;76341;2838.513;-1759.773;1;56;-100;-95.2;49.5;49.8;10;10.4;28.7;0.0;
13/02/2025 21:31:11;100;0;50.41;-4;-30.58;-6.51;503.2;15.90;76337;2838.516;-1759.770;1;56;-100;-93.5;49.5;49.8;10;10.4;28.7;0.0;
13/02/2025 21:31:31;100;0;51.06;-4;-30.80;-6.41;507.7;15.80;76328;2838.518;-1759.766;1;56;-100;-95.2;49.5;49.8;10;10.4;28.7;0.0;
13/02/2025 21:31:51;100;0;48.44;-4;-30.86;-6.52;512.4;15.80;76317;2838.520;-1759.763;1;56;-100;-95.2;49.5;49.8;10;10.4;28.7;0.0;
13/02/2025 21:32:11;100;0;52.08;-4;-30.65;-6.46;516.9;15.70;76305;2838.522;-1759.760;1;56;-100;-93.5;49.5;49.8;10;10.4;28.7;0.0;
13/02/2025 21:32:31;100;0;56.27;-4;-30.74;-6.46;521.6;15.70;76306;2838.524;-1759.756;1;56;-100;-95.2;49.5;49.8;10;10.4;28.6;0.0;
13/02/2025 21:32:51;100;0;57.34;-4;-30.76;-6.50;526.1;15.60;76292;2838.526;-1759.752;1;56;-100;-95.2;49.5;49.8;10;10.4;28.7;0.0;
13/02/2025 21:33:11;100;0;61.45;-4;-30.71;-6.51;530.6;15.60;76286;2838.528;-1759.749;1;56;-100;-93.5;49.5;49.8;12;12.6;28.7;0.0;
13/02/2025 21:33:31;100;0;59.09;-4;-30.79;-5.26;535.2;15.60;76282;2838.530;-1759.745;1;56;-100;-95.2;49.5;49.8;12;13.1;28.6;0.0;
13/02/2025 21:33:51;100;0;59.06;-4;-30.73;-5.25;539.8;15.50;76268;2838.531;-1759.741;1;56;-100;-95.2;49.5;49.8;12;13.1;28.7;0.0;
13/02/2025 21:34:11;100;0;60.39;-4;-30.94;-5.15;544.3;15.50;76260;2838.533;-1759.737;1;55;-100;-93.5;49.5;49.8;12;13.1;28.7;0.0;
13/02/2025 21:34:31;100;0;59.80;-4;-31.63;-5.10;549.0;15.40;76243;2838.535;-1759.734;1;55;-100;-93.5;49.5;49.8;12;13.1;28.7;0.0;
13/02/2025 21:34:51;100;0;58.09;-4;-30.93;-5.04;553.9;15.40;76237;2838.537;-1759.730;1;55;-100;-96.8;49.5;49.8;12;13.1;28.7;0.0;
13/02/2025 21:35:11;100;0;56.79;-4;-30.97;-5.21;558.6;15.30;76231;2838.539;-1759.726;1;55;-100;-96.8;49.5;49.9;12;13.1;28.7;0.0;
13/02/2025 21:35:31;100;0;57.51;-4;-30.81;-5.06;563.1;15.30;76230;2838.541;-1759.722;1;55;-100;-93.5;49.5;49.8;12;13.1;28.7;0.0;
13/02/2025 21:35:51;100;0;59.08;-4;-30.89;-5.25;567.6;15.20;76221;2838.542;-1759.719;1;55;-100;-95.2;49.5;49.8;12;13.1;28.7;0.0;
13/02/2025 21:36:11;100;0;63.13;-4;-30.19;-5.20;572.0;15.20;76208;2838.544;-1759.715;1;55;-100;-95.2;49.5;49.8;14;14.0;28.7;0.0;
13/02/2025 21:36:31;100;0;64.35;-4;-31.03;-4.67;576.3;15.10;76191;2838.545;-1759.711;1;55;-100;-95.2;49.5;49.8;14;14.4;28.7;0.0;
13/02/2025 21:36:51;100;0;64.01;-4;-30.45;-4.59;580.6;15.10;76198;2838.547;-1759.707;1;55;-100;-95.2;49.5;49.8;14;14.4;28.7;0.0;
13/02/2025 21:37:11;100;0;59.20;-4;-29.82;-4.63;584.7;15.10;76173;2838.548;-1759.704;1;54;-100;-95.2;49.5;49.8;12;12.2;28.7;0.0;
13/02/2025 21:37:31;100;0;60.44;-4;-30.38;-5.74;588.7;15.00;76175;2838.550;-1759.700;1;54;-100;-93.5;49.5;49.8;12;12.2;28.7;0.0;
13/02/2025 21:37:51;100;0;61.78;-4;-30.34;-5.66;593.1;15.00;76152;2838.551;-1759.696;1;54;-100;-95.2;49.5;49.8;14;14.4;28.7;0.0;
13/02/2025 21:38:11;100;0;61.08;-4;-30.97;-4.39;597.2;14.90;76150;2838.553;-1759.693;1;54;-100;-95.2;49.5;49.8;14;14.9;28.7;0.0;
13/02/2025 21:38:31;100;0;60.82;-4;-31.41;-4.49;601.6;14.90;76139;2838.554;-1759.689;1;54;-100;-95.2;49.5;49.8;14;14.9;28.7;0.0;
13/02/2025 21:38:51;100;0;56.66;-4;-31.44;-4.32;606.0;14.90;76139;2838.556;-1759.686;1;54;-100;-95.2;49.5;49.8;11;10.8;28.7;0.0;
13/02/2025 21:39:11;100;0;54.58;-4;-30.50;-6.18;610.5;14.80;76122;2838.558;-1759.682;1;54;-100;-95.2;49.5;49.8;11;11.3;28.7;0.0;
13/02/2025 21:39:31;100;0;55.36;-4;-30.67;-6.07;614.7;14.80;76115;2838.560;-1759.679;1;54;-100;-96.8;49.5;49.8;11;11.3;28.7;0.0;
13/02/2025 21:39:51;100;0;56.01;-4;-30.55;-6.21;618.9;14.70;76112;2838.562;-1759.676;1;53;-100;-95.2;49.5;49.8;11;11.3;28.7;0.0;
13/02/2025 21:40:11;100;0;54.61;-4;-30.94;-6.14;623.1;14.70;76102;2838.564;-1759.672;1;53;-100;-95.2;49.5;49.8;11;11.3;28.7;0.0;
13/02/2025 21:40:31;100;0;49.24;-4;-30.35;-6.06;627.6;14.60;76104;2838.566;-1759.669;1;53;-100;-95.2;49.5;49.8;11;11.3;28.7;0.0;
13/02/2025 21:40:51;100;0;50.87;-4;-30.87;-6.11;632.0;14.60;76087;2838.568;-1759.666;1;53;-100;-95.2;49.5;49.8;11;11.3;28.7;0.0;
13/02/2025 21:41:11;100;0;52.53;-4;-29.50;-6.08;636.2;14.60;76077;2838.571;-1759.662;1;53;-100;-95.2;49.5;49.8;11;11.3;28.7;0.0;
13/02/2025 21:41:31;100;0;54.70;-4;-29.89;-6.15;640.2;14.50;76064;2838.572;-1759.659;1;53;-100;-95.2;49.5;49.8;11;11.3;28.7;0.0;
13/02/2025 21:41:51;100;0;55.24;-4;-29.96;-5.97;644.3;14.50;76059;2838.574;-1759.656;1;53;-100;-95.2;49.5;49.8;11;11.3;28.7;0.0;
13/02/2025 21:42:11;100;0;58.23;-4;-29.53;-6.05;648.3;14.40;76058;2838.576;-1759.652;1;53;-100;-95.2;49.5;49.8;11;11.3;28.7;0.0;
13/02/2025 21:42:31;100;0;58.60;-4;-29.87;-6.13;652.1;14.40;76043;2838.577;-1759.649;1;53;-100;-95.2;49.5;49.8;11;11.3;28.7;0.0;
13/02/2025 21:42:51;100;0;58.26;-4;-30.07;-5.97;656.0;14.40;76050;2838.579;-1759.646;1;53;-100;-93.5;49.5;49.8;11;11.3;28.7;0.0;
13/02/2025 21:43:11;100;0;55.50;-4;-30.10;-6.17;659.9;14.30;76031;2838.581;-1759.643;1;53;-100;-95.2;49.5;49.8;11;11.3;28.7;0.0;
13/02/2025 21:43:31;100;0;56.10;-4;-30.39;-6.00;663.9;14.30;76018;2838.582;-1759.640;1;53;-100;-96.8;49.5;49.8;11;11.3;28.7;0.0;
13/02/2025 21:43:51;100;0;58.60;-4;-30.90;-6.07;667.9;14.30;76020;2838.584;-1759.636;1;52;-100;-95.2;49.5;49.8;13;13.1;28.6;0.0;
13/02/2025 21:44:11;100;0;58.02;-4;-30.25;-4.96;671.9;14.20;76008;2838.586;-1759.633;1;52;-100;-95.2;49.5;49.8;13;13.5;28.7;0.0;
13/02/2025 21:44:31;100;0;58.97;-4;-30.27;-5.00;676.0;14.20;76007;2838.587;-1759.629;1;52;-100;-95.2;49.5;49.8;13;13.5;28.6;0.0;
13/02/2025 21:44:51;100;0;57.08;-4;-30.12;-5.03;680.0;14.10;75996;2838.589;-1759.626;1;52;-100;-95.2;49.5;49.8;13;13.5;28.7;0.0;
13/02/2025 21:45:11;100;0;53.28;-4;-30.55;-5.15;684.3;14.10;75987;2838.591;-1759.623;1;52;-100;-96.8;49.5;49.8;11;10.8;28.7;0.0;
13/02/2025 21:45:31;100;0;52.92;-4;-29.88;-6.63;688.5;14.10;75978;2838.593;-1759.620;1;52;-100;-95.2;49.5;49.8;11;10.4;28.7;0.0;
13/02/2025 21:45:51;100;0;53.16;-4;-29.24;-6.44;692.5;14.00;75964;2838.595;-1759.616;1;52;-100;-95.2;49.5;49.8;11;10.4;28.6;0.0;
13/02/2025 21:46:11;100;0;52.86;-4;-30.23;-6.63;696.4;14.00;75965;2838.597;-1759.613;1;52;-100;-95.2;49.5;49.8;11;10.4;28.7;0.0;
13/02/2025 21:46:31;100;0;54.42;-4;-29.85;-6.47;700.5;14.00;75953;2838.599;-1759.610;1;51;-100;-95.2;49.5;49.8;11;10.8;28.7;0.0;
13/02/2025 21:46:51;100;0;50.83;-4;-31.45;-6.32;704.8;13.90;75941;2838.601;-1759.607;1;51;-100;-95.2;49.5;49.8;11;10.4;28.7;0.0;
13/02/2025 21:47:11;100;0;48.66;-4;-29.85;-6.50;709.4;13.90;75951;2838.603;-1759.603;1;51;-100;-95.2;49.5;49.8;11;10.4;28.7;0.0;
13/02/2025 21:47:31;100;0;51.27;-4;-29.45;-6.38;714.0;13.90;75944;2838.606;-1759.600;1;51;-100;-95.2;49.5;49.8;11;10.8;28.7;0.0;
13/02/2025 21:47:52;100;0;51.37;-4;-29.89;-6.46;718.3;13.80;75943;2838.608;-1759.596;1;51;-100;-95.2;49.5;49.8;11;10.4;28.6;0.0;
13/02/2025 21:48:12;100;0;51.30;-4;-29.25;-6.75;722.7;13.80;75936;2838.610;-1759.593;1;51;-100;-95.2;49.5;49.8;11;10.8;28.7;0.0;
13/02/2025 21:48:32;100;0;51.94;-4;-30.23;-6.59;726.9;13.80;75927;2838.612;-1759.590;1;51;-100;-95.2;49.5;49.8;11;10.4;28.7;0.0;
13/02/2025 21:48:52;100;0;52.52;-4;-29.55;-6.40;731.2;13.70;75906;2838.614;-1759.586;1;51;-100;-95.2;49.5;49.8;11;10.4;28.6;0.0;
13/02/2025 21:49:12;100;0;53.84;-4;-28.85;-6.47;735.3;13.70;75918;2838.616;-1759.583;1;51;-100;-95.2;49.8;49.8;11;10.4;28.7;10.1;
13/02/2025 21:49:14;118;0;55.37;-4;-29.87;-6.82;735.9;13.70;75908;2838.616;-1759.582;1;51;220;-91.9;22.2;22.2;13;13.5;28.7;0.0;
13/02/2025 21:49:24;118;0;81.25;-4;-16.98;-5.36;737.4;13.70;75889;2838.617;-1759.580;1;50;220;38.7;22.2;21.9;13;13.5;27.7;-1.0;
13/02/2025 21:49:34;118;0;71.43;-4;9.60;-5.61;738.0;13.60;75609;2838.617;-1759.579;1;50;220;162.9;22.2;22.4;13;13.5;27.9;-1.0;
13/02/2025 21:49:44;118;0;65.90;-4;24.74;-5.90;737.4;13.60;75342;2838.617;-1759.578;1;50;220;222.6;22.2;22.5;13;13.5;27.7;-1.0;
13/02/2025 21:49:54;118;0;59.46;-4;26.79;-5.54;736.2;13.60;75249;2838.618;-1759.577;1;50;220;222.6;22.2;22.5;13;13.5;28.7;-1.0;
13/02/2025 21:50:14;117;0;50.34;-4;27.93;-5.43;733.6;13.60;75240;2838.619;-1759.575;1;49;220;222.6;22.2;22.5;13;13.5;28.7;-1.0;
13/02/2025 21:50:34;117;0;45.94;-4;26.90;-5.42;730.5;13.60;75249;2838.621;-1759.573;1;49;220;224.2;21.3;21.1;37;37.0;28.7;-1.0;
13/02/2025 21:50:54;117;0;46.09;-4;31.75;8.03;727.5;13.60;75246;2838.622;-1759.571;1;49;220;222.6;21.3;21.2;37;37.0;28.7;-1.0;
13/02/2025 21:51:14;117;0;46.34;-4;32.11;7.01;724.2;13.50;75233;2838.624;-1759.569;1;49;220;222.6;21.9;21.9;37;37.0;28.7;-1.0;
13/02/2025 21:51:34;117;0;45.27;-4;31.34;7.11;721.2;13.50;75238;2838.625;-1759.566;1;50;220;222.6;21.9;22.1;37;37.5;28.6;-1.0;
13/02/2025 21:51:54;117;0;45.77;-4;30.36;6.98;718.2;13.50;75230;2838.627;-1759.564;1;50;220;222.6;21.9;22.1;37;37.0;28.7;-1.0;
13/02/2025 21:52:14;117;0;42.74;-4;32.42;7.08;715.3;13.50;75237;2838.629;-1759.563;1;50;220;222.6;22.6;22.8;37;37.0;28.7;-1.0;
13/02/2025 21:52:35;117;0;41.24;-4;30.25;7.33;712.2;13.40;75228;2838.630;-1759.561;1;50;220;222.6;22.6;23.0;37;37.5;28.7;-1.0;
13/02/2025 21:52:55;117;0;40.37;-4;29.19;7.24;709.1;13.40;75235;2838.632;-1759.559;1;50;220;222.6;22.6;23.0;37;37.0;28.7;-1.0;
13/02/2025 21:53:15;117;0;43.61;-4;28.04;7.13;706.3;13.40;75220;2838.634;-1759.557;1;50;220;222.6;22.0;21.9;37;37.5;28.7;-1.0;
13/02/2025 21:53:35;117;0;44.50;-4;30.23;7.17;703.5;13.30;75213;2838.636;-1759.555;1;50;220;222.6;22.0;21.8;37;37.0;28.7;-1.0;
13/02/2025 21:53:55;117;0;42.63;-4;31.28;6.60;700.7;13.30;75217;2838.637;-1759.553;1;50;220;222.6;22.0;21.9;37;37.5;28.7;-1.0;
13/02/2025 21:54:15;117;0;42.86;-4;31.71;7.10;697.5;13.30;75210;2838.639;-1759.551;1;51;220;222.6;22.0;21.8;37;37.0;28.6;-1.0;
13/02/2025 21:54:35;117;0;44.20;-4;31.36;6.94;694.3;13.30;75203;2838.641;-1759.549;1;51;220;222.6;22.0;21.8;37;37.5;28.7;-1.0;
13/02/2025 21:54:55;117;0;41.83;-4;30.80;7.01;691.1;13.20;75202;2838.642;-1759.547;1;51;220;222.6;22.0;21.8;37;37.0;28.7;-1.0;
13/02/2025 21:55:15;117;0;40.53;-4;32.46;7.37;687.8;13.20;75193;2838.644;-1759.545;1;51;220;222.6;22.8;22.8;39;39.3;28.7;-1.0;
13/02/2025 21:55:35;117;0;39.23;-4;29.53;8.30;684.5;13.20;75196;2838.646;-1759.543;1;52;220;222.6;22.8;23.0;39;38.8;28.7;-1.0;
13/02/2025 21:55:55;117;0;39.73;-4;29.70;8.47;681.2;13.20;75196;2838.648;-1759.541;1;52;220;224.2;22.8;23.1;39;39.3;28.7;-1.0;
13/02/2025 21:56:15;117;0;40.81;-4;29.77;8.09;678.1;13.20;75189;2838.650;-1759.539;1;53;220;222.6;22.8;23.0;39;39.3;28.7;-1.0;
13/02/2025 21:56:35;117;0;41.26;-4;30.08;8.08;675.0;13.10;75183;2838.652;-1759.537;1;53;220;222.6;22.8;23.0;39;39.3;28.7;-1.0;
13/02/2025 21:56:55;117;0;39.82;-4;29.27;8.07;671.6;13.10;75183;2838.654;-1759.535;1;54;220;222.6;22.8;23.1;42;42.4;28.7;-1.0;
13/02/2025 21:57:15;117;0;42.21;-4;30.06;10.05;668.5;13.10;75178;2838.656;-1759.533;1;55;220;221.0;22.8;23.0;40;40.2;28.6;-1.0;
13/02/2025 21:57:35;117;0;43.83;-4;27.50;8.18;665.2;13.10;75177;2838.658;-1759.530;1;55;220;222.6;22.0;22.1;40;39.7;28.7;-1.0;
13/02/2025 21:57:55;117;0;45.13;-4;31.53;8.17;662.3;13.10;75175;2838.660;-1759.528;1;56;220;222.6;22.0;21.8;40;39.7;28.7;-1.0;
13/02/2025 21:58:15;117;0;41.53;-4;31.13;8.20;659.0;13.00;75179;2838.661;-1759.526;1;56;220;222.6;22.0;21.8;42;42.0;28.7;-1.0;
13/02/2025 21:58:35;117;0;42.08;-4;31.20;9.96;655.7;13.00;75176;2838.663;-1759.524;1;57;220;222.6;22.0;21.8;42;42.4;28.7;-1.0;
13/02/2025 21:58:55;117;0;42.26;-4;32.11;9.77;652.3;13.00;75185;2838.665;-1759.522;1;58;220;224.2;22.7;22.7;44;44.7;28.7;-1.0;
13/02/2025 21:59:15;117;0;44.82;-4;30.11;10.86;648.8;13.00;75174;2838.667;-1759.520;1;59;220;222.6;22.7;22.8;42;42.0;28.7;-1.0;
13/02/2025 21:59:35;117;0;43.60;-4;29.90;9.26;645.5;13.00;75179;2838.669;-1759.517;1;61;220;222.6;22.7;22.8;46;46.0;28.6;-1.0;
13/02/2025 21:59:55;117;0;45.07;-4;30.43;11.88;642.3;13.00;75166;2838.671;-1759.515;1;62;220;222.6;22.7;22.8;46;46.0;28.7;-1.0;
13/02/2025 22:00:15;117;0;45.20;-4;30.42;11.97;638.9;13.00;75164;2838.673;-1759.513;1;64;220;222.6;22.7;22.8;48;47.8;28.7;-1.0;
13/02/2025 22:00:35;117;0;45.53;-4;30.25;12.99;635.4;12.90;75168;2838.675;-1759.510;1;66;220;222.6;22.7;22.8;50;50.1;28.7;-1.0;
13/02/2025 22:00:55;117;0;50.43;-4;30.49;14.16;632.2;12.90;75161;2838.676;-1759.508;1;68;220;222.6;22.7;22.8;45;45.1;28.7;-1.0;
13/02/2025 22:01:15;117;0;54.09;-4;29.62;11.12;629.0;12.90;75167;2838.678;-1759.505;1;71;220;222.6;22.7;22.8;45;45.1;28.7;-1.0;
13/02/2025 22:01:35;117;0;55.72;-4;30.01;11.13;625.9;12.90;75161;2838.679;-1759.503;1;74;220;222.6;22.7;22.8;45;45.1;28.7;-1.0;
13/02/2025 22:01:55;117;0;57.26;-4;29.92;11.18;622.7;12.90;75168;2838.680;-1759.500;1;77;220;222.6;22.7;22.7;48;47.8;28.7;-1.0;
13/02/2025 22:02:15;117;0;60.41;-4;29.82;13.02;619.6;12.90;75177;2838.681;-1759.498;1;83;220;224.2;22.7;22.8;52;51.9;28.7;-1.0;
13/02/2025 22:02:35;117;0;64.23;-4;30.44;15.17;616.5;12.90;75171;2838.682;-1759.495;1;95;220;224.2;22.7;22.8;65;65.0;28.6;-1.0;
13/02/2025 22:02:55;117;0;70.58;-4;31.53;22.88;613.3;12.80;75161;2838.683;-1759.492;1;134;220;222.6;22.7;22.8;70;70.4;28.7;-1.0;
13/02/2025 22:03:15;117;0;76.70;-4;31.73;25.71;609.9;12.80;75165;2838.683;-1759.489;1;231;220;222.6;22.7;22.8;70;70.4;28.7;-1.0;
13/02/2025 22:03:35;117;0;81.41;-4;32.44;25.70;606.5;12.80;75171;2838.684;-1759.486;1;250;220;222.6;23.4;23.4;70;70.4;28.7;-1.0;
13/02/2025 22:03:55;117;0;86.49;-4;30.89;25.66;603.0;12.80;75161;2838.684;-1759.483;1;258;220;222.6;23.4;23.6;70;70.4;28.7;-1.0;
13/02/2025 22:04:15;117;0;92.81;-4;30.50;25.75;599.7;12.80;75159;2838.683;-1759.480;1;263;220;222.6;23.4;23.4;70;70.4;28.7;-1.0;
13/02/2025 22:04:35;117;0;98.72;-4;30.18;25.66;596.6;12.80;75172;2838.683;-1759.477;1;268;220;222.6;23.4;23.6;70;70.4;28.7;-1.0;
13/02/2025 22:04:55;117;0;105.45;-4;30.28;25.81;593.6;12.80;75172;2838.682;-1759.474;1;272;220;222.6;23.4;23.4;70;70.4;28.7;-1.0;
13/02/2025 22:05:15;117;0;111.22;-4;30.65;25.76;590.3;12.80;75168;2838.680;-1759.471;1;275;220;222.6;23.4;23.6;70;70.4;28.6;-1.0;
13/02/2025 22:05:35;117;0;117.29;-4;30.19;25.48;587.2;12.80;75158;2838.679;-1759.468;1;279;220;222.6;23.4;23.6;70;70.4;28.7;-1.0;
13/02/2025 22:05:55;117;0;120.73;-4;30.21;25.64;584.1;12.80;75166;2838.677;-1759.465;1;282;220;222.6;23.4;23.6;70;70.4;28.7;-1.0;
13/02/2025 22:06:15;117;0;124.65;-4;30.93;25.87;581.0;12.80;75168;2838.675;-1759.463;1;285;220;222.6;23.4;23.6;70;70.4;28.7;-1.0;
13/02/2025 22:06:35;117;0;132.37;-4;30.40;25.72;577.7;12.80;75174;2838.673;-1759.461;1;288;220;222.6;23.4;23.4;70;70.4;28.7;-1.0;
13/02/2025 22:06:55;117;0;139.03;-4;30.47;25.64;574.5;12.70;75175;2838.671;-1759.459;1;291;220;222.6;23.4;23.4;70;70.4;28.7;-1.0;
13/02/2025 22:07:15;117;0;145.19;-4;30.39;25.70;571.3;12.80;75177;2838.668;-1759.457;1;294;220;222.6;23.4;23.6;70;70.4;28.7;-1.0;
13/02/2025 22:07:35;117;0;152.07;-4;31.68;25.94;567.9;12.70;75167;2838.666;-1759.455;1;298;220;222.6;23.4;23.6;70;70.4;28.7;-1.0;
13/02/2025 22:07:55;117;0;154.59;-4;31.59;25.82;564.0;12.80;75177;2838.663;-1759.454;1;301;220;222.6;23.4;23.6;70;70.4;28.7;-1.0;
13/02/2025 22:08:15;117;0;156.72;-4;30.64;25.78;560.1;12.70;75180;2838.659;-1759.452;1;304;220;222.6;23.4;23.6;70;70.4;28.7;-1.0;
13/02/2025 22:08:35;117;0;159.42;-4;29.64;25.30;556.4;12.70;75184;2838.656;-1759.451;1;307;220;224.2;23.4;23.4;70;70.4;28.7;-1.0;
13/02/2025 22:08:55;117;0;164.02;-4;29.88;26.06;552.9;12.70;75184;2838.653;-1759.450;1;309;220;222.6;23.4;23.6;70;70.4;28.7;-1.0;
13/02/2025 22:09:15;117;0;164.60;-4;30.09;25.58;549.3;12.70;75187;2838.650;-1759.449;1;312;220;222.6;23.4;23.4;70;70.4;28.7;-1.0;
13/02/2025 22:09:35;117;0;164.85;-4;31.07;25.99;545.7;12.70;75190;2838.646;-1759.449;1;314;220;222.6;23.4;23.6;70;70.4;28.7;-1.0;
13/02/2025 22:09:55;117;0;167.03;-4;30.05;25.72;542.2;12.70;75184;2838.643;-1759.448;1;316;220;222.6;23.4;23.6;70;70.4;28.7;-1.0;
13/02/2025 22:10:15;117;0;169.10;-4;30.26;25.61;538.7;12.70;75192;2838.640;-1759.447;1;318;220;222.6;23.4;23.6;70;70.4;28.6;-1.0;
13/02/2025 22:10:35;117;0;172.07;-4;30.42;25.88;535.4;12.70;75181;2838.637;-1759.447;1;319;220;224.2;23.4;23.4;70;70.4;28.7;-1.0;
13/02/2025 22:10:55;117;0;176.34;-4;30.30;25.74;531.9;12.70;75190;2838.633;-1759.447;1;321;220;222.6;23.4;23.4;70;70.4;28.7;-1.0;
13/02/2025 22:11:15;117;0;182.85;-4;30.21;25.74;528.5;12.80;75197;2838.630;-1759.447;1;323;220;222.6;23.4;23.4;70;70.4;28.7;-1.0;
13/02/2025 22:11:35;117;0;188.67;-4;30.21;25.78;525.1;12.70;75195;2838.627;-1759.448;1;325;220;222.6;23.4;23.4;70;70.4;28.7;-1.0;
13/02/2025 22:11:55;117;0;194.72;-4;30.03;25.54;521.7;12.70;75200;2838.624;-1759.448;1;327;220;224.2;23.4;23.6;70;70.4;28.7;-1.0;
13/02/2025 22:12:15;117;0;199.65;-4;30.24;25.64;518.3;12.70;75192;2838.621;-1759.450;1;329;220;222.6;23.4;23.6;70;70.4;28.7;-1.0;
13/02/2025 22:12:35;117;0;205.14;-4;30.16;25.64;514.9;12.70;75195;2838.618;-1759.451;1;331;220;224.2;23.4;23.6;70;70.4;28.7;-1.0;
13/02/2025 22:12:55;117;0;211.81;-4;30.15;25.77;511.5;12.70;75197;2838.615;-1759.453;1;334;220;224.2;23.4;23.6;70;70.4;28.7;-1.0;
13/02/2025 22:13:15;117;0;218.13;-4;30.13;25.72;508.1;12.80;75197;2838.612;-1759.455;1;336;220;222.6;23.4;23.4;70;70.4;28.7;-1.0;
13/02/2025 22:13:35;117;0;223.99;-4;30.17;25.67;504.7;12.80;75207;2838.610;-1759.458;1;338;220;222.6;23.4;23.6;70;70.4;28.7;-1.0;
13/02/2025 22:13:55;117;0;230.70;-4;30.08;25.73;501.4;12.80;75199;2838.608;-1759.460;1;340;220;222.6;23.4;23.4;70;70.4;28.6;-1.0;
13/02/2025 22:14:15;117;0;237.84;-4;29.89;25.68;498.1;12.80;75202;2838.606;-1759.463;1;342;220;224.2;23.4;23.6;70;70.4;28.7;-1.0;
13/02/2025 22:14:35;117;0;244.53;-4;30.15;25.77;494.7;12.80;75204;2838.605;-1759.466;1;344;220;221.0;23.4;23.4;70;70.4;28.7;-1.0;
13/02/2025 22:14:55;117;0;251.00;-4;29.64;25.59;491.3;12.80;75207;2838.603;-1759.470;1;347;220;222.6;23.4;23.4;70;70.4;28.7;-1.0;
13/02/2025 22:15:15;117;0;255.61;-4;30.55;25.55;488.0;12.80;75204;2838.603;-1759.473;1;349;220;224.2;23.4;23.6;70;70.4;28.7;-1.0;
13/02/2025 22:15:35;117;0;259.55;-4;29.82;25.58;484.7;12.80;75207;2838.602;-1759.476;1;351;220;219.4;23.4;23.4;70;70.4;28.7;-1.0;
13/02/2025 22:15:55;117;0;265.14;-4;29.87;25.65;481.4;12.80;75211;2838.601;-1759.480;1;353;220;222.6;23.4;23.4;70;70.4;28.6;-1.0;
13/02/2025 22:16:15;117;0;267.86;-4;30.30;25.63;478.2;12.80;75212;2838.601;-1759.483;1;355;220;222.6;23.4;23.6;70;70.4;28.7;-1.0;
13/02/2025 22:16:35;117;0;273.33;-4;30.08;25.59;474.8;12.80;75209;2838.601;-1759.486;1;357;220;222.6;23.4;23.6;70;70.4;28.6;-1.0;
13/02/2025 22:16:55;117;0;279.38;-4;30.10;25.68;471.6;12.80;75214;2838.601;-1759.490;1;359;220;222.6;23.4;23.6;70;70.4;28.7;-1.0;
13/02/2025 22:17:15;117;0;285.39;-4;30.00;25.67;468.2;12.80;75228;2838.602;-1759.493;1;1;220;224.2;23.4;23.6;70;70.4;28.6;-1.0;
13/02/2025 22:17:35;117;0;294.07;-4;29.38;25.73;465.0;12.80;75225;2838.603;-1759.496;1;3;220;222.6;23.4;23.6;70;70.4;28.7;-1.0;
13/02/2025 22:17:55;117;0;299.34;-4;30.54;25.60;461.9;12.80;75223;2838.604;-1759.499;1;5;220;222.6;23.4;23.4;70;70.4;28.7;-1.0;
13/02/2025 22:18:15;117;0;306.40;-4;30.00;25.68;458.5;12.80;75237;2838.605;-1759.502;1;7;220;222.6;23.4;23.6;70;70.4;28.7;-1.0;
13/02/2025 22:18:35;117;0;312.85;-4;31.39;26.32;455.3;12.80;75223;2838.607;-1759.504;1;9;220;224.2;23.4;23.6;70;70.4;28.7;-1.0;
13/02/2025 22:18:55;117;0;321.94;-4;30.09;25.75;451.9;12.90;75241;2838.609;-1759.506;1;10;220;222.6;23.4;23.6;70;70.4;28.7;-1.0;
13/02/2025 22:19:15;117;0;327.76;-4;29.73;25.63;448.6;12.90;75228;2838.611;-1759.508;1;12;220;222.6;23.4;23.6;70;70.4;28.7;-1.0;
13/02/2025 22:19:35;117;0;333.44;-4;30.12;25.59;445.5;12.90;75240;2838.614;-1759.510;1;13;220;222.6;23.4;23.6;70;70.4;28.7;-1.0;
13/02/2025 22:19:55;117;0;341.75;-4;29.60;25.51;442.2;12.90;75227;2838.616;-1759.511;1;15;220;222.6;23.4;23.4;70;70.4;28.7;-1.0;
13/02/2025 22:20:15;117;0;345.75;-4;30.37;25.67;439.1;12.90;75240;2838.619;-1759.511;1;16;220;222.6;23.4;23.4;70;70.4;28.6;-1.0;
13/02/2025 22:20:35;117;0;353.57;-4;29.95;25.78;435.9;12.90;75247;2838.621;-1759.512;1;17;220;224.2;23.4;23.4;61;60.9;28.7;-1.0;
13/02/2025 22:20:55;117;0;357.67;-4;29.17;19.64;432.7;12.90;75245;2838.624;-1759.512;1;18;220;222.6;23.4;23.6;55;55.1;28.7;-1.0;
13/02/2025 22:21:15;117;0;1.26;-4;28.51;16.43;429.5;12.90;75252;2838.627;-1759.512;1;18;220;224.2;22.9;22.7;50;50.1;28.7;-1.0;
13/02/2025 22:21:35;117;0;6.36;-4;29.22;13.57;426.6;12.90;75262;2838.629;-1759.512;1;19;220;224.2;22.9;22.8;44;44.2;28.7;-1.0;
13/02/2025 22:21:55;117;0;9.99;-4;29.09;10.34;423.6;13.00;75266;2838.632;-1759.511;1;20;220;224.2;22.9;22.8;41;41.1;28.7;-1.0;
13/02/2025 22:22:15;117;0;11.03;-4;28.97;8.76;420.6;13.00;75272;2838.634;-1759.511;1;20;220;224.2;22.6;22.7;41;41.1;28.7;-1.0;
13/02/2025 22:22:35;117;0;13.94;-4;28.74;8.73;417.6;13.00;75269;2838.636;-1759.510;1;20;220;224.2;22.3;22.1;39;38.8;28.7;-1.0;
13/02/2025 22:22:55;117;0;13.72;-4;29.74;7.54;414.6;13.00;75268;2838.639;-1759.510;1;21;220;224.2;22.3;21.9;39;38.4;28.7;-1.0;
13/02/2025 22:23:15;117;0;13.35;-4;30.00;7.66;411.5;13.00;75276;2838.641;-1759.509;1;21;220;224.2;22.3;22.1;39;38.4;28.7;-1.0;
13/02/2025 22:23:35;117;0;11.99;-4;29.84;7.52;408.4;13.00;75276;2838.644;-1759.508;1;22;220;222.6;22.3;22.1;41;41.1;28.7;-1.0;
13/02/2025 22:23:55;117;0;12.97;-4;29.95;9.19;405.2;13.00;75278;2838.646;-1759.508;1;22;220;224.2;22.3;22.1;41;41.5;28.6;-1.0;
13/02/2025 22:24:15;117;0;13.78;-4;30.21;9.18;402.1;13.00;75278;2838.649;-1759.507;1;23;220;224.2;22.3;22.1;41;41.5;28.7;-1.0;
13/02/2025 22:24:35;117;0;13.28;-4;30.19;9.26;399.0;13.00;75276;2838.651;-1759.506;1;23;220;222.6;22.3;22.1;41;41.5;28.7;-1.0;
13/02/2025 22:24:55;117;0;15.10;-4;29.94;9.15;396.0;13.00;75282;2838.653;-1759.506;1;24;220;224.2;22.3;22.1;41;41.5;28.7;-1.0;
13/02/2025 22:25:15;117;0;15.91;-4;30.07;9.23;393.0;13.10;75289;2838.656;-1759.505;1;25;220;221.0;22.3;22.1;41;41.5;28.7;-1.0;
13/02/2025 22:25:35;117;0;17.30;-4;30.29;9.19;390.0;13.10;75291;2838.658;-1759.504;1;25;220;224.2;22.3;22.1;41;41.1;28.7;-1.0;
13/02/2025 22:25:55;117;0;16.92;-4;30.25;9.27;387.1;13.10;75288;2838.660;-1759.503;1;26;220;224.2;22.3;22.1;41;41.5;28.7;-1.0;
13/02/2025 22:26:15;117;0;16.00;-4;30.02;9.27;384.2;13.10;75293;2838.663;-1759.502;1;27;220;224.2;22.3;22.1;41;41.5;28.7;-1.0;
13/02/2025 22:26:35;117;0;17.98;-4;29.92;9.10;381.3;13.10;75301;2838.665;-1759.502;1;28;220;224.2;22.3;22.1;41;41.5;28.7;-1.0;
13/02/2025 22:26:55;117;0;17.29;-4;30.25;9.13;378.4;13.10;75308;2838.667;-1759.501;1;30;220;222.6;22.3;21.9;43;42.9;28.7;-1.0;
13/02/2025 22:27:15;117;0;18.67;-4;30.42;10.33;375.6;13.10;75315;2838.669;-1759.500;1;31;220;224.2;22.3;22.1;43;43.3;28.7;-1.0;
13/02/2025 22:27:35;117;0;19.30;-4;30.20;10.21;372.7;13.10;75318;2838.671;-1759.499;1;34;220;224.2;22.3;22.1;45;45.1;28.7;-1.0;
13/02/2025 22:27:56;117;0;20.35;-4;30.46;11.40;369.7;13.20;75308;2838.674;-1759.498;1;36;220;224.2;22.3;22.1;45;45.1;28.7;-1.0;
13/02/2025 22:28:16;117;0;21.31;-4;30.82;11.31;366.7;13.20;75308;2838.676;-1759.497;1;41;220;224.2;22.3;21.9;52;51.9;28.7;-1.0;
13/02/2025 22:28:36;117;0;23.84;-4;31.02;15.28;363.6;13.20;75324;2838.678;-1759.496;1;47;220;224.2;22.3;21.9;56;56.0;28.6;-1.0;
13/02/2025 22:28:56;117;0;29.59;-4;31.04;17.54;360.3;13.20;75322;2838.680;-1759.494;1;59;220;224.2;22.3;21.9;67;66.8;28.7;-1.0;
13/02/2025 22:29:16;117;0;35.08;-4;31.70;23.66;357.1;13.20;75324;2838.682;-1759.493;1;92;220;224.2;22.3;21.9;70;69.9;28.7;-1.0;
13/02/2025 22:29:36;117;0;39.96;-4;32.26;25.57;353.9;13.20;75336;2838.684;-1759.491;1;182;220;224.2;22.9;23.1;70;70.4;28.7;-1.0;
13/02/2025 22:29:56;117;0;45.50;-4;30.68;25.41;350.7;13.30;75340;2838.686;-1759.489;1;209;220;224.2;22.9;23.1;70;70.4;28.7;-1.0;
13/02/2025 22:30:16;117;0;53.37;-4;29.98;25.48;347.8;13.30;75351;2838.687;-1759.487;1;219;220;224.2;22.9;23.1;70;70.4;28.7;-1.0;
13/02/2025 22:30:36;117;0;59.76;-4;31.00;25.64;344.9;13.30;75361;2838.688;-1759.484;1;226;220;224.2;22.9;23.1;70;70.4;28.7;-1.0;
13/02/2025 22:30:56;117;0;64.57;-4;30.59;25.50;341.9;13.30;75361;2838.689;-1759.482;1;231;220;224.2;22.9;23.1;70;69.9;28.7;-1.0;
13/02/2025 22:31:16;117;0;69.24;-4;30.36;25.51;338.8;13.30;75366;2838.690;-1759.479;1;235;220;224.2;22.9;23.1;70;70.4;28.7;-1.0;
13/02/2025 22:31:36;117;0;74.21;-4;30.33;25.51;335.8;13.30;75365;2838.690;-1759.476;1;239;220;224.2;22.9;23.1;70;70.4;28.6;-1.0;
13/02/2025 22:31:56;117;0;79.96;-4;30.68;25.60;333.0;13.30;75381;2838.690;-1759.473;1;242;220;224.2;22.9;23.1;70;70.4;28.7;-1.0;
13/02/2025 22:32:16;117;0;87.67;-4;30.25;25.52;330.0;13.40;75390;2838.690;-1759.470;1;246;220;225.8;22.9;23.1;70;70.4;28.6;-1.0;
13/02/2025 22:32:36;117;0;91.97;-4;30.49;25.59;327.1;13.40;75390;2838.690;-1759.467;1;249;220;224.2;22.9;23.1;70;70.4;28.6;-1.0;
13/02/2025 22:32:56;117;0;98.83;-4;31.07;25.68;324.1;13.40;75395;2838.689;-1759.465;1;253;220;224.2;22.9;23.1;70;70.4;28.7;-1.0;
13/02/2025 22:33:16;117;0;103.92;-4;30.68;25.61;320.9;13.40;75404;2838.688;-1759.462;1;256;220;224.2;22.9;23.1;70;70.4;28.7;-1.0;
13/02/2025 22:33:36;117;0;108.13;-4;30.15;25.51;317.8;13.40;75401;2838.687;-1759.459;1;260;220;224.2;22.9;23.1;70;70.4;28.6;-1.0;
13/02/2025 22:33:56;117;0;113.49;-4;30.56;25.51;314.7;13.50;75417;2838.686;-1759.456;1;263;220;224.2;22.9;23.1;70;70.4;28.7;-1.0;
13/02/2025 22:34:16;117;0;119.04;-4;30.16;25.43;311.6;13.50;75423;2838.684;-1759.453;1;266;220;224.2;22.9;23.1;70;69.9;28.7;-1.0;
13/02/2025 22:34:36;117;0;124.04;-4;29.97;25.53;308.5;13.50;75437;2838.683;-1759.451;1;269;220;224.2;22.9;23.1;70;70.4;28.7;-1.0;
13/02/2025 22:34:56;117;0;129.45;-4;30.24;25.34;305.5;13.50;75433;2838.681;-1759.449;1;272;220;224.2;22.9;23.1;70;70.4;28.7;-1.0;
13/02/2025 22:35:16;117;0;133.41;-4;30.67;25.56;302.6;13.50;75438;2838.679;-1759.447;1;275;220;222.6;22.9;23.1;70;70.4;28.7;-1.0;
13/02/2025 22:35:36;117;0;137.91;-4;30.37;25.58;299.5;13.60;75453;2838.676;-1759.445;1;278;220;224.2;22.9;23.1;70;70.4;28.7;-1.0;
13/02/2025 22:35:56;117;0;143.97;-4;30.03;25.54;296.3;13.60;75458;2838.674;-1759.443;1;281;220;224.2;22.9;23.1;70;70.4;28.7;-1.0;
13/02/2025 22:36:16;117;0;150.79;-4;30.15;25.56;293.4;13.60;75468;2838.672;-1759.441;1;284;220;224.2;22.9;23.1;70;69.9;28.7;-1.0;
13/02/2025 22:36:36;117;0;157.46;-4;30.53;25.61;290.3;13.60;75475;2838.669;-1759.440;1;286;220;225.8;22.9;23.1;70;70.4;28.7;-1.0;
13/02/2025 22:36:56;117;0;163.70;-4;30.36;25.61;287.1;13.60;75472;2838.666;-1759.440;1;290;220;225.8;22.9;23.1;70;70.4;28.7;-1.0;
13/02/2025 22:37:16;117;0;169.96;-4;30.39;25.56;283.9;13.70;75483;2838.663;-1759.439;1;293;220;224.2;22.9;23.1;70;69.9;28.6;-1.0;
13/02/2025 22:37:36;117;0;175.06;-4;30.40;25.53;280.6;13.70;75483;2838.660;-1759.439;1;296;220;224.2;22.9;23.1;70;70.4;28.7;-1.0;
13/02/2025 22:37:56;117;0;179.74;-4;30.55;25.54;277.3;13.70;75484;2838.657;-1759.439;1;299;220;224.2;22.9;23.1;70;70.4;28.7;-1.0;
13/02/2025 22:38:16;117;0;186.09;-4;30.04;25.64;274.0;13.70;75494;2838.654;-1759.439;1;302;220;224.2;22.9;23.1;70;70.4;28.7;-1.0;
13/02/2025 22:38:36;117;0;192.35;-4;30.09;25.80;270.7;13.80;75509;2838.651;-1759.440;1;305;220;224.2;22.9;23.3;70;70.4;28.7;-1.0;
13/02/2025 22:38:56;117;0;197.75;-4;30.14;25.68;267.3;13.80;75504;2838.647;-1759.441;1;308;220;224.2;22.9;23.1;70;70.4;28.7;-1.0;
13/02/2025 22:39:16;117;0;203.59;-4;30.17;25.63;264.1;13.80;75517;2838.645;-1759.443;1;311;220;224.2;22.9;23.1;70;69.9;28.7;-1.0;
13/02/2025 22:39:36;117;0;208.99;-4;29.82;25.48;261.0;13.80;75519;2838.642;-1759.444;1;314;220;222.6;22.9;23.1;70;70.4;28.7;-1.0;
13/02/2025 22:39:56;117;0;215.63;-4;30.26;25.94;257.9;13.80;75522;2838.640;-1759.446;1;317;220;224.2;22.9;23.1;70;70.4;28.7;-1.0;
13/02/2025 22:40:16;117;0;222.95;-4;30.02;25.62;254.8;13.90;75531;2838.637;-1759.448;1;320;220;224.2;22.9;23.1;70;69.9;28.7;-1.0;
13/02/2025 22:40:36;117;0;227.89;-4;30.09;25.61;251.8;13.90;75530;2838.635;-1759.451;1;323;220;224.2;22.9;23.1;70;69.9;28.7;-1.0;
13/02/2025 22:40:56;117;0;234.62;-4;30.14;25.68;248.8;13.90;75546;2838.634;-1759.453;1;326;220;224.2;22.9;23.1;70;69.9;28.7;-1.0;
13/02/2025 22:41:16;117;0;241.44;-4;30.07;25.64;245.8;13.90;75542;2838.632;-1759.456;1;328;220;224.2;22.9;23.1;70;70.4;28.6;-1.0;
13/02/2025 22:41:36;117;0;244.78;-4;29.74;25.40;243.0;14.00;75554;2838.631;-1759.458;1;331;220;222.6;22.9;23.1;70;70.4;28.7;-1.0;
13/02/2025 22:41:56;117;0;248.60;-4;29.86;25.55;240.3;14.00;75547;2838.630;-1759.461;1;333;220;224.2;22.9;23.3;70;70.4;28.7;-1.0;
13/02/2025 22:42:16;117;0;254.99;-4;29.96;25.59;237.7;14.00;75564;2838.629;-1759.464;1;336;220;224.2;22.9;23.3;70;70.4;28.7;-1.0;
13/02/2025 22:42:36;117;0;263.06;-4;29.99;25.71;235.1;14.00;75565;2838.628;-1759.466;1;338;220;224.2;22.9;23.1;70;69.9;28.7;-1.0;
13/02/2025 22:42:56;117;0;267.94;-4;30.12;25.53;232.6;14.10;75583;2838.628;-1759.469;1;340;220;224.2;22.9;23.1;70;69.9;28.7;-1.0;
13/02/2025 22:43:16;117;0;270.44;-4;29.98;25.49;230.1;14.10;75574;2838.628;-1759.472;1;342;220;224.2;22.9;23.1;70;70.4;28.7;-1.0;
13/02/2025 22:43:36;117;0;274.00;-4;30.09;25.64;227.6;14.10;75589;2838.628;-1759.474;1;345;220;221.0;22.9;23.1;70;70.4;28.7;-1.0;
13/02/2025 22:43:56;117;0;278.34;-4;30.03;25.48;225.2;14.10;75602;2838.628;-1759.477;1;347;220;224.2;22.9;23.1;70;70.4;28.7;-1.0;
13/02/2025 22:44:16;117;0;281.26;-4;30.19;25.54;222.8;14.20;75617;2838.628;-1759.479;1;349;220;224.2;22.9;23.1;70;69.9;28.7;-1.0;
13/02/2025 22:44:36;117;0;286.14;-4;30.29;25.60;220.2;14.20;75613;2838.628;-1759.482;1;351;220;224.2;22.9;23.1;70;70.4;28.7;-1.0;
13/02/2025 22:44:56;117;0;294.04;-4;30.00;25.68;217.7;14.20;75624;2838.629;-1759.484;1;353;220;224.2;22.9;23.1;70;69.9;28.7;-1.0;
13/02/2025 22:45:16;117;0;301.15;-4;30.49;25.72;215.1;14.20;75636;2838.630;-1759.486;1;355;220;224.2;22.9;23.1;70;69.9;28.7;-1.0;
13/02/2025 22:45:36;117;0;308.99;-4;30.13;25.77;212.4;14.30;75626;2838.631;-1759.488;1;357;220;224.2;22.9;23.1;70;70.4;28.6;-1.0;
13/02/2025 22:45:56;117;0;315.88;-4;29.94;25.61;209.6;14.30;75646;2838.633;-1759.490;1;359;220;224.2;22.9;23.1;70;69.9;28.7;-1.0;
13/02/2025 22:46:16;117;0;324.68;-4;30.04;25.74;206.8;14.30;75648;2838.635;-1759.492;1;1;220;224.2;22.9;23.1;70;70.4;28.6;-1.0;
13/02/2025 22:46:36;117;0;332.15;-4;30.16;25.73;204.1;14.30;75658;2838.637;-1759.493;1;3;220;224.2;22.9;23.1;70;70.4;28.7;-1.0;
13/02/2025 22:46:56;117;0;338.28;-4;30.10;25.64;201.3;14.40;75667;2838.639;-1759.495;1;4;220;225.8;22.9;23.3;67;66.8;28.6;-1.0;
13/02/2025 22:47:16;117;0;341.86;-4;29.83;23.28;198.5;14.40;75677;2838.641;-1759.496;1;6;220;224.2;22.9;23.1;65;64.5;28.7;-1.0;
13/02/2025 22:47:36;117;0;344.26;-4;29.36;21.82;195.7;14.40;75682;2838.643;-1759.496;1;7;220;224.2;22.9;23.1;62;61.4;28.7;-1.0;
13/02/2025 22:47:56;117;0;348.58;-4;29.18;20.02;193.0;14.40;75689;2838.645;-1759.497;1;8;220;224.2;22.9;23.1;56;55.5;28.6;-1.0;
13/02/2025 22:48:16;117;0;350.68;-4;28.79;16.51;190.4;14.50;75695;2838.647;-1759.498;1;9;220;224.2;22.6;22.5;56;55.1;28.7;-1.0;
13/02/2025 22:48:36;117;0;352.90;-4;29.54;16.56;187.8;14.50;75692;2838.649;-1759.498;1;11;220;224.2;22.6;22.2;53;52.8;28.7;-1.0;
13/02/2025 22:48:56;117;0;356.58;-4;29.51;15.03;185.1;14.50;75715;2838.652;-1759.498;1;12;220;224.2;22.6;22.2;49;49.2;28.7;-1.0;
13/02/2025 22:49:16;117;0;358.91;-4;29.56;13.29;182.5;14.60;75717;2838.654;-1759.498;1;13;220;221.0;22.6;22.4;47;46.9;28.7;-1.0;
13/02/2025 22:49:36;117;0;1.36;-4;29.72;11.85;179.8;14.60;75729;2838.656;-1759.498;1;14;220;224.2;22.6;22.2;45;45.1;28.7;-1.0;
13/02/2025 22:49:56;117;0;9.18;-4;27.98;10.74;177.1;14.60;75735;2838.658;-1759.498;1;14;220;225.8;22.0;21.8;40;40.2;28.7;-1.0;
13/02/2025 22:50:16;117;0;11.39;-4;30.22;8.07;174.6;14.60;75748;2838.660;-1759.497;1;15;220;225.8;22.0;21.6;40;39.3;28.7;-1.0;
13/02/2025 22:50:36;117;0;11.83;-4;29.81;8.12;171.9;14.70;75765;2838.662;-1759.497;1;15;220;224.2;22.0;21.8;40;39.7;28.7;-1.0;
13/02/2025 22:50:56;117;0;11.95;-4;29.47;8.14;169.2;14.70;75769;2838.664;-1759.496;1;15;220;225.8;22.0;21.8;40;39.7;28.7;-1.0;
13/02/2025 22:51:16;117;0;9.07;-4;29.64;8.18;166.5;14.70;75776;2838.667;-1759.496;1;16;220;221.0;22.0;21.8;40;39.7;28.7;-1.0;
13/02/2025 22:51:36;117;0;4.74;-4;30.20;8.33;164.0;14.80;75795;2838.669;-1759.496;1;18;220;224.2;22.0;21.8;46;46.0;28.7;-1.0;
13/02/2025 22:51:56;117;0;2.34;-4;28.07;10.65;161.2;14.80;75810;2838.671;-1759.496;1;21;220;225.8;21.4;21.2;52;52.3;28.7;-1.0;
13/02/2025 22:52:16;117;0;4.02;-4;33.63;15.75;158.6;14.90;75821;2838.673;-1759.496;1;25;220;225.8;22.5;22.5;56;56.4;28.7;-1.0;
13/02/2025 22:52:36;117;0;3.09;-4;30.13;17.19;155.5;14.90;75831;2838.675;-1759.496;1;32;220;227.4;22.5;22.7;70;69.9;28.7;-1.0;
13/02/2025 22:52:56;117;0;11.65;-4;32.16;25.34;152.5;14.90;75840;2838.677;-1759.495;1;39;220;224.2;23.1;23.3;65;65.0;28.7;-1.0;
13/02/2025 22:53:16;117;0;16.09;-4;30.97;21.76;149.2;15.00;75852;2838.680;-1759.494;1;55;220;224.2;23.1;23.1;70;69.9;28.7;-1.0;
13/02/2025 22:53:36;117;0;21.99;-4;29.47;25.62;145.9;15.00;75862;2838.683;-1759.493;1;105;220;224.2;23.1;23.1;70;70.4;28.7;-1.0;
13/02/2025 22:53:56;117;0;25.66;-4;29.87;25.54;142.6;15.00;75884;2838.685;-1759.492;1;166;220;224.2;23.1;23.1;70;70.4;28.7;-1.0;
13/02/2025 22:54:16;117;0;28.66;-4;29.84;25.59;139.2;15.10;75897;2838.687;-1759.490;1;187;220;225.8;23.1;23.3;70;70.4;28.7;-1.0;
13/02/2025 22:54:36;117;0;35.40;-4;29.33;25.52;135.8;15.10;75926;2838.690;-1759.488;1;198;220;224.2;23.1;23.1;70;70.4;28.7;-1.0;
13/02/2025 22:54:56;117;0;39.14;-4;29.42;25.43;132.6;15.20;75943;2838.692;-1759.486;1;203;220;225.8;23.1;23.3;70;69.9;28.7;-1.0;
13/02/2025 22:55:16;117;0;45.67;-4;29.61;25.64;129.4;15.20;75961;2838.693;-1759.484;1;208;220;224.2;23.1;23.1;70;69.9;28.7;-1.0;
13/02/2025 22:55:36;117;0;55.34;-4;29.08;25.33;126.5;15.20;75978;2838.695;-1759.482;1;213;220;225.8;23.1;23.3;70;69.9;28.7;-1.0;
13/02/2025 22:55:56;117;0;64.03;-4;29.67;25.81;123.8;15.30;75982;2838.696;-1759.479;1;218;220;225.8;23.1;23.1;70;69.9;28.7;-1.0;
13/02/2025 22:56:16;117;0;74.07;-4;28.89;25.33;121.0;15.30;75993;2838.696;-1759.476;1;222;220;225.8;22.8;22.8;70;70.4;28.7;-1.0;
13/02/2025 22:56:36;117;0;82.88;-4;29.81;25.56;118.4;15.40;75998;2838.696;-1759.474;1;227;220;225.8;22.8;22.5;70;70.4;28.7;-1.0;
13/02/2025 22:56:56;117;0;94.40;-4;29.66;25.55;115.8;15.40;76020;2838.696;-1759.471;1;232;220;225.8;22.8;22.5;70;69.9;28.7;-1.0;
13/02/2025 22:57:16;117;0;99.60;-4;30.85;25.65;113.3;15.50;76034;2838.695;-1759.469;1;236;220;225.8;22.8;22.5;70;69.9;28.6;-1.0;
13/02/2025 22:57:36;117;0;104.13;-4;30.52;25.66;110.8;15.50;76060;2838.694;-1759.467;1;240;220;225.8;22.8;22.5;70;70.4;28.6;-1.0;
13/02/2025 22:57:56;117;0;106.73;-4;29.48;25.39;108.2;15.50;76103;2838.693;-1759.464;1;244;220;224.2;22.8;22.7;70;69.9;28.7;-1.0;
13/02/2025 22:58:16;117;0;111.68;-4;30.50;25.61;105.8;15.60;76132;2838.692;-1759.462;1;248;220;225.8;22.8;22.5;70;69.9;28.6;-1.0;
13/02/2025 22:58:36;117;0;116.88;-4;30.32;25.52;103.1;15.70;76167;2838.691;-1759.460;1;252;220;225.8;22.8;22.7;70;70.4;28.7;-1.0;
13/02/2025 22:58:56;117;0;122.86;-4;29.66;25.39;100.7;15.70;76192;2838.690;-1759.458;1;255;220;224.2;22.8;22.5;70;70.4;28.7;-1.0;
13/02/2025 22:59:16;117;0;127.80;-4;29.49;25.33;98.3;15.80;76218;2838.688;-1759.456;1;259;220;224.2;22.8;22.7;70;70.4;28.7;-1.0;
13/02/2025 22:59:36;117;0;134.99;-4;29.50;25.29;96.0;15.80;76234;2838.687;-1759.454;1;262;220;225.8;22.8;22.7;70;70.4;28.7;-1.0;
13/02/2025 22:59:56;117;0;142.68;-4;29.63;24.88;93.8;15.90;76246;2838.685;-1759.453;1;265;220;225.8;22.8;22.5;70;70.4;28.7;-1.0;
13/02/2025 23:00:16;117;0;149.00;-4;29.77;25.44;91.6;16.00;76268;2838.683;-1759.452;1;269;220;225.8;22.8;22.7;70;70.4;28.7;-1.0;
13/02/2025 23:00:36;117;0;155.32;-4;30.30;25.37;89.2;16.00;76277;2838.681;-1759.451;1;272;220;227.4;22.8;22.7;70;70.4;28.7;-1.0;
13/02/2025 23:00:56;117;0;161.46;-4;30.05;25.57;86.7;16.10;76294;2838.678;-1759.450;1;276;220;222.6;22.8;22.7;70;70.4;28.6;-1.0;
13/02/2025 23:01:16;117;0;168.77;-4;29.82;25.52;84.1;16.10;76302;2838.676;-1759.450;1;280;220;225.8;22.8;22.7;70;70.4;28.6;-1.0;
13/02/2025 23:01:36;117;0;173.59;-4;29.80;25.49;81.5;16.20;76316;2838.673;-1759.450;1;283;220;225.8;22.8;22.7;70;70.4;28.7;-1.0;
13/02/2025 23:01:56;117;0;179.11;-4;29.69;25.65;79.0;16.30;76335;2838.671;-1759.450;1;287;220;224.2;22.8;22.7;70;70.4;28.7;-1.0;
13/02/2025 23:02:17;117;0;185.20;-4;29.73;25.61;76.5;16.30;76336;2838.669;-1759.450;1;290;220;225.8;22.8;22.5;70;70.4;28.6;-1.0;
13/02/2025 23:02:37;117;0;191.71;-4;29.79;25.55;74.1;16.40;76359;2838.666;-1759.450;1;294;220;224.2;22.8;22.7;70;69.9;28.6;-1.0;
13/02/2025 23:02:57;117;0;195.63;-4;29.84;25.52;71.6;16.40;76361;2838.664;-1759.451;1;297;220;225.8;22.8;22.7;70;70.4;28.7;-1.0;
13/02/2025 23:03:17;117;0;199.88;-4;29.91;25.62;69.2;16.50;76370;2838.662;-1759.452;1;301;220;225.8;22.8;22.5;70;70.4;28.7;-1.0;
13/02/2025 23:03:37;117;0;205.84;-4;29.81;25.65;66.7;16.50;76383;2838.659;-1759.453;1;304;220;225.8;22.8;22.5;70;69.9;28.7;-1.0;
13/02/2025 23:03:57;117;0;212.54;-4;29.86;25.66;64.3;16.60;76380;2838.657;-1759.455;1;308;220;225.8;22.8;22.7;70;70.4;28.7;-1.0;
13/02/2025 23:04:17;117;0;217.31;-4;29.71;25.53;61.7;16.70;76405;2838.655;-1759.456;1;311;220;225.8;22.8;22.7;70;70.4;28.7;-1.0;
13/02/2025 23:04:37;117;0;222.37;-4;29.80;25.48;59.2;16.70;76391;2838.654;-1759.458;1;315;220;225.8;22.8;22.7;70;69.9;28.6;-1.0;
13/02/2025 23:04:57;117;0;227.09;-4;29.77;25.63;56.8;16.80;76414;2838.652;-1759.460;1;318;220;224.2;22.8;22.7;70;70.4;28.6;-1.0;
13/02/2025 23:05:17;117;0;232.52;-4;29.87;25.57;54.2;16.80;76417;2838.650;-1759.462;1;321;220;225.8;22.8;22.7;70;69.9;28.7;-1.0;
13/02/2025 23:05:37;117;0;237.58;-4;29.72;25.67;51.6;16.90;76435;2838.649;-1759.464;1;325;220;224.2;22.8;22.7;70;70.4;28.7;-1.0;
13/02/2025 23:05:57;117;0;242.28;-4;29.64;25.51;49.0;16.90;76438;2838.647;-1759.467;1;328;220;224.2;22.8;22.5;70;70.4;28.7;-1.0;
13/02/2025 23:06:17;117;0;247.64;-4;29.90;25.41;46.6;17.00;76444;2838.646;-1759.469;1;332;220;224.2;22.8;22.7;70;70.4;28.7;-1.0;
13/02/2025 23:06:37;117;0;252.82;-4;30.19;25.53;43.9;17.00;76447;2838.645;-1759.472;1;335;220;224.2;22.8;22.7;70;69.9;28.7;-1.0;
13/02/2025 23:06:57;117;0;256.33;-4;30.08;25.58;41.1;17.10;76458;2838.645;-1759.474;1;339;220;224.2;22.8;22.7;70;70.4;28.7;-1.0;
13/02/2025 23:07:17;117;0;260.92;-4;30.15;25.72;38.2;17.10;76465;2838.644;-1759.477;1;343;220;222.6;22.8;22.7;70;70.4;28.7;-1.0;
13/02/2025 23:07:37;117;0;266.15;-4;29.69;25.58;35.2;17.20;76473;2838.644;-1759.480;1;346;220;225.8;22.8;22.7;70;69.9;28.7;-1.0;
13/02/2025 23:07:57;117;0;271.55;-4;29.81;25.57;32.4;17.20;76479;2838.644;-1759.483;1;350;220;224.2;22.8;22.5;70;69.9;28.7;-1.0;
13/02/2025 23:08:17;117;0;277.11;-4;29.75;25.62;29.4;17.30;76508;2838.644;-1759.486;1;354;220;225.8;22.8;22.5;70;70.4;28.6;-1.0;
13/02/2025 23:08:37;117;0;285.56;-4;29.59;25.67;26.5;17.30;76500;2838.644;-1759.489;1;358;220;224.2;22.8;22.7;70;70.4;28.7;-1.0;
13/02/2025 23:08:57;117;0;292.89;-4;29.87;25.65;23.5;17.40;76504;2838.645;-1759.492;1;2;220;222.6;22.8;22.5;70;69.9;28.7;-1.0;
13/02/2025 23:09:17;117;0;298.88;-4;29.61;25.57;20.6;17.40;76508;2838.646;-1759.495;1;5;220;224.2;22.8;22.7;70;70.4;28.7;-1.0;
13/02/2025 23:09:37;117;0;304.51;-4;29.75;25.64;17.6;17.50;76530;2838.647;-1759.497;1;9;220;224.2;22.8;22.7;70;69.9;28.7;-1.0;
13/02/2025 23:09:57;117;0;311.55;-4;29.57;25.45;14.7;17.50;76532;2838.649;-1759.500;1;13;220;224.2;22.8;22.7;70;69.9;28.7;-1.0;
13/02/2025 23:10:17;117;0;316.70;-4;29.75;25.75;11.8;17.60;76535;2838.650;-1759.502;1;16;220;224.2;22.8;22.7;70;70.4;28.6;-1.0;
13/02/2025 23:10:37;117;0;321.95;-4;30.06;25.62;8.8;17.60;76540;2838.652;-1759.504;1;20;220;225.8;22.8;22.5;70;70.4;28.7;-1.0;
13/02/2025 23:10:57;117;0;327.44;-4;29.34;25.19;5.9;17.60;76539;2838.654;-1759.505;1;24;220;224.2;22.8;22.7;70;70.4;28.7;-1.0;
13/02/2025 23:11:16;115;0;332.67;-4;30.63;26.19;3.1;17.70;76557;2838.656;-1759.507;1;28;500;232.3;100.0;66.1;0;-0.5;28.6;-1.0;
13/02/2025 23:11:26;115;0;346.86;-4;10.76;-12.40;1.9;17.70;76528;2838.658;-1759.507;1;30;500;353.2;100.0;100.1;0;-0.5;28.4;-1.0;
13/02/2025 23:11:36;115;0;320.51;-4;-62.30;-11.24;2.6;17.70;76280;2838.658;-1759.507;1;31;500;462.9;100.0;100.7;0;-0.5;28.4;-1.0;
13/02/2025 23:11:46;115;0;242.34;-4;-68.24;-15.09;2.2;17.80;76030;2838.658;-1759.508;1;31;500;508.1;100.0;100.7;0;-0.5;28.4;-1.0;
13/02/2025 23:11:56;115;0;253.35;-4;-31.25;-12.05;-0.0;17.80;75961;2838.657;-1759.510;1;33;500;508.1;100.0;100.7;0;-0.5;28.7;-1.0;
13/02/2025 23:12:16;119;0;243.22;-4;-61.63;-14.71;0.3;17.90;75974;2838.657;-1759.510;1;33;500;511.3;100.0;100.7;0;-0.5;28.6;-1.0;
13/02/2025 23:12:26;119;0;244.49;-4;-50.55;-10.99;0.1;17.90;75978;2839.269;-1759.752;0;33;500;509.7;100.0;100.7;0;-0.5;28.6;-1.0;
