Timestamp;NavState;SecurityLevel;Heading;Declination;Pitch;Roll;Depth;Temperature;Pa;Lat;Lon;DeadReckoning;DesiredH;BallastCmd;BallastPos;LinCmd;LinPos;AngCmd;AngPos;Voltage;Altitude;
26/02/2025 17:26:46;119;0;122.22;-4;-64.94;-12.25;-0.2;16.60;75556;2836.719;-1800.796;0;135;500;503.2;100.0;100.6;0;0.0;26.0;-1.0;
26/02/2025 17:26:56;116;0;130.16;-4;-57.93;-20.03;-0.3;16.70;75565;2836.704;-1800.800;0;135;500;503.2;100.0;100.4;0;0.0;26.0;-1.0;
26/02/2025 17:27:21;116;0;206.09;-4;-65.38;-16.12;-0.3;16.80;75577;2836.707;-1800.797;0;135;500;504.8;100.0;100.4;0;0.0;26.0;-1.0;
26/02/2025 17:27:31;116;0;258.09;-4;-48.70;-7.95;-0.2;16.80;75605;2836.707;-1800.797;0;135;500;504.8;100.0;100.6;0;0.0;26.0;-1.0;
26/02/2025 17:27:39;116;0;280.86;-4;-49.84;-10.25;-0.2;16.90;75598;2836.710;-1800.796;0;135;500;506.5;100.0;100.4;0;0.0;26.0;-1.0;
26/02/2025 17:27:59;116;0;315.94;-4;-48.91;-3.48;-0.2;16.90;75610;2836.712;-1800.796;0;135;500;504.8;100.0;100.6;0;0.0;26.0;-1.0;
26/02/2025 17:28:19;116;0;299.47;-4;-56.73;-10.87;-0.2;17.00;75630;2836.716;-1800.795;0;133;500;504.8;100.0;100.6;0;-0.5;26.0;-1.0;
26/02/2025 17:28:32;116;0;313.83;-4;-56.96;-15.52;-0.1;17.10;75631;2836.719;-1800.794;0;133;500;504.8;100.0;100.4;0;0.0;25.9;-1.0;
26/02/2025 17:29:35;116;0;309.15;-4;-53.04;-13.38;0.0;17.30;75665;2836.731;-1800.794;0;133;500;504.8;100.0;100.6;0;0.0;26.0;-1.0;
26/02/2025 17:30:53;116;0;304.54;-4;-58.73;-14.69;-0.1;17.70;75714;2836.744;-1800.793;0;133;500;504.8;100.0;100.6;0;0.0;26.0;-1.0;
26/02/2025 17:32:01;116;0;301.90;-4;-49.77;-8.41;-0.2;18.00;75743;2836.756;-1800.792;0;133;500;504.8;100.0;100.6;0;0.0;26.0;-1.0;
26/02/2025 17:32:12;116;0;309.77;-4;-48.52;-11.19;-0.1;18.10;75749;2836.758;-1800.792;0;133;500;504.8;100.0;100.6;0;0.0;26.0;-1.0;
26/02/2025 17:32:32;110;0;305.64;-4;-51.17;-13.08;0.1;18.20;75757;2836.758;-1800.792;0;133;-90;383.9;100.0;100.4;-6;-5.9;26.0;-1.0;
26/02/2025 17:32:42;110;0;314.90;-4;-53.40;-19.82;0.2;18.20;76119;2836.758;-1800.792;1;133;-90;235.5;100.0;100.4;-6;-5.9;25.9;-1.0;
26/02/2025 17:32:52;110;0;310.61;-4;-56.11;-14.83;0.6;18.30;76363;2836.758;-1800.793;1;133;-90;77.4;100.0;100.6;-6;-5.9;25.9;-1.0;
26/02/2025 17:33:02;110;0;288.01;-4;-64.34;-16.16;0.8;18.30;76680;2836.758;-1800.793;1;133;-90;-79.0;100.0;100.4;-6;-5.9;26.0;-1.0;
26/02/2025 17:33:12;110;0;270.57;-4;-69.23;-16.16;1.0;18.40;77022;2836.759;-1800.793;1;133;-90;-90.3;41.4;52.6;-6;-5.9;25.9;-1.0;
26/02/2025 17:33:22;110;0;282.17;-4;-53.05;-12.54;2.3;18.40;76990;2836.759;-1800.794;1;133;-90;-88.7;41.4;41.4;-6;-5.9;25.9;-1.0;
26/02/2025 17:33:42;100;0;292.62;-4;-19.73;-15.20;4.8;18.50;76976;2836.760;-1800.797;1;133;-90;-83.9;41.4;40.9;-6;-5.9;26.0;-1.0;
26/02/2025 17:34:02;100;0;300.38;-4;-17.08;-14.93;6.9;18.50;76964;2836.762;-1800.801;1;133;-90;-83.9;42.3;42.6;70;69.9;26.0;-1.0;
26/02/2025 17:34:22;100;0;299.05;-4;-21.64;23.62;9.2;18.50;76969;2836.764;-1800.804;1;133;-90;-83.9;42.3;42.6;70;70.4;26.0;-1.0;
26/02/2025 17:34:42;100;0;288.12;-4;-22.76;23.45;11.7;18.60;76967;2836.765;-1800.807;1;133;-90;-83.9;41.5;41.5;70;69.9;26.0;-1.0;
26/02/2025 17:35:02;100;0;276.02;-4;-20.86;23.69;14.4;18.50;76963;2836.765;-1800.811;1;133;-90;-82.3;41.5;41.4;70;69.9;26.0;0.0;
26/02/2025 17:35:22;100;0;264.47;-4;-20.73;23.91;16.9;18.60;76967;2836.765;-1800.814;1;133;-90;-83.9;41.5;41.4;70;69.9;26.0;0.0;
26/02/2025 17:35:42;100;0;254.91;-4;-20.25;23.60;19.2;18.60;76976;2836.765;-1800.818;1;133;-90;-82.3;41.5;41.4;70;69.9;26.0;0.0;
26/02/2025 17:36:02;100;0;242.60;-4;-20.49;23.70;21.7;18.60;76983;2836.763;-1800.821;1;133;-90;-82.3;41.5;41.4;70;69.9;26.0;0.0;
26/02/2025 17:36:22;100;0;232.44;-4;-20.55;23.60;24.2;18.60;76978;2836.762;-1800.824;1;133;-90;-82.3;41.5;41.4;70;69.9;26.0;0.0;
26/02/2025 17:36:42;100;0;222.26;-4;-20.70;23.65;26.8;18.60;76974;2836.760;-1800.827;1;133;-90;-82.3;41.5;41.4;70;69.9;26.0;0.0;
26/02/2025 17:37:02;100;0;211.81;-4;-20.80;23.91;29.3;18.60;76988;2836.757;-1800.829;1;133;-90;-83.9;41.5;41.4;70;70.4;26.0;0.0;
26/02/2025 17:37:22;100;0;203.42;-4;-20.92;23.81;31.8;18.60;76988;2836.755;-1800.831;1;133;-90;-83.9;41.5;41.4;70;70.4;26.0;0.0;
26/02/2025 17:37:42;100;0;193.34;-4;-21.02;23.61;34.4;18.70;76989;2836.752;-1800.832;1;133;-90;-82.3;41.5;41.4;70;70.4;26.0;0.0;
26/02/2025 17:38:02;100;0;183.50;-4;-20.68;23.74;37.3;18.70;77000;2836.748;-1800.832;1;133;-90;-85.5;41.5;41.4;70;69.9;26.0;0.0;
26/02/2025 17:38:22;100;0;173.88;-4;-20.77;23.77;39.8;18.70;76994;2836.746;-1800.832;1;133;-90;-83.9;41.5;41.4;63;63.2;26.0;0.0;
26/02/2025 17:38:42;100;0;163.72;-4;-20.08;19.68;42.4;18.70;77005;2836.743;-1800.831;1;133;-90;-83.9;41.5;41.4;49;49.2;26.0;0.0;
26/02/2025 17:39:02;100;0;154.98;-4;-19.40;12.56;45.1;18.70;77017;2836.740;-1800.830;1;133;-90;-82.3;41.5;41.2;34;33.8;26.0;0.0;
26/02/2025 17:39:22;100;0;149.14;-4;-19.01;5.01;47.6;18.70;77012;2836.737;-1800.828;1;133;-90;-82.3;41.5;41.4;25;24.4;26.0;0.0;
26/02/2025 17:39:42;100;0;146.59;-4;-18.37;0.22;50.0;18.70;77009;2836.735;-1800.826;1;133;-90;-83.9;41.9;42.1;22;21.7;26.0;0.0;
26/02/2025 17:40:02;100;0;144.64;-4;-19.36;-0.75;52.5;18.70;77023;2836.732;-1800.824;1;133;-90;-82.3;41.9;42.3;20;19.9;26.0;0.0;
26/02/2025 17:40:22;100;0;144.06;-4;-19.46;-2.15;55.0;18.80;77021;2836.730;-1800.822;1;133;-90;-83.9;41.9;42.3;20;19.4;26.0;0.0;
26/02/2025 17:40:42;100;0;142.74;-4;-19.38;-2.07;57.5;18.80;77025;2836.727;-1800.820;1;133;-90;-83.9;41.9;42.3;18;18.1;26.0;0.0;
26/02/2025 17:41:02;100;0;141.81;-4;-19.23;-2.91;60.0;18.80;77025;2836.725;-1800.818;1;133;-90;-83.9;41.9;42.3;18;17.6;26.0;0.0;
26/02/2025 17:41:22;100;0;140.38;-4;-19.34;-2.93;62.6;18.80;77037;2836.722;-1800.815;1;133;-90;-82.3;41.9;42.3;18;17.6;26.0;0.0;
26/02/2025 17:41:42;100;0;139.42;-4;-19.12;-2.96;65.0;18.80;77037;2836.720;-1800.813;1;133;-90;-82.3;41.9;42.4;18;17.6;26.0;0.0;
26/02/2025 17:42:02;100;0;135.87;-4;-18.92;-3.00;67.4;18.80;77032;2836.718;-1800.811;1;133;-90;-83.9;42.3;42.4;16;15.8;26.0;0.0;
26/02/2025 17:42:22;100;0;136.80;-4;-19.03;-4.06;69.6;18.80;77026;2836.716;-1800.809;1;133;-90;-83.9;42.3;42.3;16;15.3;26.0;0.0;
26/02/2025 17:42:42;100;0;138.83;-4;-19.05;-4.02;71.9;18.80;77036;2836.714;-1800.807;1;133;-90;-82.3;42.3;42.4;16;15.8;26.0;0.0;
26/02/2025 17:43:02;100;0;141.63;-4;-19.01;-4.00;74.2;18.80;77039;2836.712;-1800.805;1;133;-90;-83.9;42.3;42.3;18;18.1;26.0;0.0;
26/02/2025 17:43:22;100;0;144.56;-4;-19.05;-2.49;76.5;18.80;77036;2836.710;-1800.803;1;133;-90;-83.9;42.3;42.3;20;19.9;26.0;0.0;
26/02/2025 17:43:42;100;0;146.50;-4;-18.74;-1.52;78.8;18.80;77033;2836.708;-1800.801;1;133;-90;-82.3;42.7;42.9;22;22.6;25.9;0.0;
26/02/2025 17:44:02;100;0;150.59;-4;-20.47;-0.33;80.9;18.80;77006;2836.705;-1800.800;1;133;-90;-82.3;42.7;42.9;27;27.1;26.0;0.0;
26/02/2025 17:44:22;100;0;152.15;-4;-20.85;2.17;83.2;18.80;76986;2836.703;-1800.799;1;133;-90;-83.9;42.7;42.9;30;29.8;26.0;0.0;
26/02/2025 17:44:42;100;0;147.39;-4;-21.09;3.45;85.7;18.80;76978;2836.701;-1800.797;1;133;-90;-83.9;42.7;43.0;23;23.0;26.0;0.0;
26/02/2025 17:45:02;100;0;143.39;-4;-20.79;-0.17;88.2;18.80;76973;2836.699;-1800.795;1;133;-90;-83.9;42.7;43.0;19;19.0;26.0;0.0;
26/02/2025 17:45:22;100;0;140.05;-4;-20.71;-2.50;90.7;18.80;76965;2836.696;-1800.793;1;133;-90;-83.9;42.7;43.0;17;17.1;26.0;0.0;
26/02/2025 17:45:42;100;0;138.92;-4;-19.63;-3.29;93.1;18.80;76958;2836.694;-1800.791;1;133;-90;-83.9;42.7;42.9;17;17.1;26.0;0.0;
26/02/2025 17:46:02;100;0;143.47;-4;-20.30;-3.36;95.3;18.80;76955;2836.692;-1800.789;1;133;-90;-82.3;42.7;43.0;19;19.0;26.0;0.0;
26/02/2025 17:46:22;100;0;148.36;-4;-20.29;-1.99;97.8;18.70;76932;2836.690;-1800.788;1;133;-90;-82.3;42.7;43.0;24;23.9;26.0;0.0;
26/02/2025 17:46:42;100;0;147.51;-4;-20.62;0.46;100.1;18.70;76920;2836.688;-1800.786;1;133;-90;-82.3;42.7;43.0;24;24.4;26.0;0.0;
26/02/2025 17:47:02;100;0;145.27;-4;-20.20;0.43;102.5;18.70;76913;2836.685;-1800.784;1;133;-90;-83.9;42.7;43.0;21;21.2;26.0;0.0;
26/02/2025 17:47:22;100;0;146.20;-4;-20.02;-1.27;104.8;18.70;76896;2836.683;-1800.783;1;133;-90;-82.3;42.7;42.9;21;20.8;26.0;0.0;
26/02/2025 17:47:42;100;0;146.22;-4;-19.91;-1.28;107.2;18.70;76894;2836.681;-1800.781;1;133;-90;-82.3;42.7;42.9;21;21.2;26.0;0.0;
26/02/2025 17:48:02;100;0;144.77;-4;-19.82;-1.30;109.5;18.70;76886;2836.679;-1800.779;1;133;-90;-82.3;42.7;42.9;21;20.8;26.0;0.0;
26/02/2025 17:48:22;100;0;142.56;-4;-19.56;-1.35;111.8;18.60;76877;2836.676;-1800.777;1;133;-90;-82.3;42.7;42.9;19;19.0;26.0;0.0;
26/02/2025 17:48:42;100;0;142.57;-4;-19.69;-2.43;114.0;18.60;76864;2836.675;-1800.776;1;133;-90;-83.9;42.7;43.0;19;18.5;26.0;0.0;
26/02/2025 17:49:02;100;0;145.05;-4;-19.93;-2.41;116.2;18.60;76856;2836.672;-1800.774;1;133;-90;-85.5;42.7;42.9;21;21.7;26.0;0.0;
26/02/2025 17:49:22;100;0;143.23;-4;-19.67;-0.81;118.6;18.50;76847;2836.670;-1800.772;1;133;-90;-83.9;42.7;43.0;19;19.0;26.0;0.0;
26/02/2025 17:49:42;100;0;141.80;-4;-20.03;-2.52;120.8;18.50;76833;2836.668;-1800.770;1;133;-90;-83.9;42.7;42.9;19;18.5;26.0;0.0;
26/02/2025 17:50:02;100;0;142.25;-4;-20.27;-2.55;123.1;18.50;76824;2836.666;-1800.768;1;133;-90;-83.9;42.7;42.9;19;18.5;26.0;0.0;
26/02/2025 17:50:22;100;0;142.66;-4;-20.20;-2.51;125.8;18.50;76822;2836.664;-1800.766;1;133;-90;-82.3;42.7;42.9;19;18.5;26.0;0.0;
26/02/2025 17:50:42;100;0;144.48;-4;-20.23;-2.46;128.3;18.50;76815;2836.661;-1800.764;1;133;-90;-82.3;42.7;42.9;19;18.5;26.0;0.0;
26/02/2025 17:51:02;100;0;142.48;-4;-20.18;-2.48;130.8;18.40;76808;2836.659;-1800.762;1;133;-90;-83.9;42.7;42.9;19;18.5;25.9;0.0;
26/02/2025 17:51:22;100;0;141.72;-4;-19.92;-2.46;133.5;18.40;76792;2836.656;-1800.760;1;133;-90;-83.9;42.7;43.0;19;18.5;26.0;0.0;
26/02/2025 17:51:42;100;0;140.07;-4;-20.28;-2.51;135.9;18.40;76802;2836.654;-1800.758;1;133;-90;-83.9;42.7;42.9;19;18.5;26.0;0.0;
26/02/2025 17:52:02;100;0;137.46;-4;-20.20;-2.50;138.4;18.40;76791;2836.652;-1800.756;1;133;-90;-85.5;42.7;42.9;17;17.1;26.0;0.0;
26/02/2025 17:52:22;100;0;133.71;-4;-20.01;-3.27;141.1;18.30;76795;2836.650;-1800.753;1;133;-90;-83.9;42.7;42.9;17;17.1;26.0;0.0;
26/02/2025 17:52:42;100;0;132.30;-4;-20.08;-3.28;143.5;18.30;76784;2836.648;-1800.751;1;133;-90;-82.3;42.7;42.9;17;17.1;26.0;0.0;
26/02/2025 17:53:02;100;0;129.51;-4;-19.91;-3.26;146.0;18.30;76775;2836.646;-1800.748;1;133;-90;-83.9;42.7;42.9;17;17.1;26.0;0.0;
26/02/2025 17:53:23;100;0;126.60;-4;-19.66;-3.32;148.5;18.30;76778;2836.645;-1800.745;1;133;-90;-82.3;42.7;42.9;17;17.1;26.0;0.0;
26/02/2025 17:53:43;100;0;126.06;-4;-19.43;-3.40;150.8;18.20;76770;2836.643;-1800.743;1;133;-90;-83.9;42.7;43.0;15;14.9;26.0;0.0;
26/02/2025 17:54:03;100;0;125.11;-4;-19.85;-4.58;153.1;18.20;76753;2836.642;-1800.740;1;133;-90;-85.5;42.7;43.0;15;14.4;26.0;0.0;
26/02/2025 17:54:23;100;0;125.62;-4;-19.77;-4.57;155.6;18.20;76748;2836.640;-1800.737;1;133;-90;-83.9;42.7;43.0;15;14.4;26.0;0.0;
26/02/2025 17:54:43;100;0;124.11;-4;-19.83;-4.55;158.1;18.10;76739;2836.638;-1800.735;1;133;-90;-83.9;42.7;42.9;15;14.4;26.0;0.0;
26/02/2025 17:55:03;100;0;124.12;-4;-19.63;-4.66;160.5;18.10;76734;2836.637;-1800.732;1;133;-90;-83.9;42.7;43.0;15;14.4;26.0;0.0;
26/02/2025 17:55:23;100;0;124.25;-4;-19.63;-4.58;163.0;18.10;76732;2836.635;-1800.729;1;133;-90;-83.9;42.7;42.9;15;14.4;26.0;0.0;
26/02/2025 17:55:43;100;0;124.43;-4;-19.54;-4.60;165.4;18.00;76723;2836.634;-1800.726;1;133;-90;-83.9;42.7;42.9;15;14.4;26.0;0.0;
26/02/2025 17:56:03;100;0;123.59;-4;-19.51;-4.59;167.8;18.00;76710;2836.632;-1800.724;1;133;-90;-83.9;42.7;43.0;13;13.1;26.0;0.0;
26/02/2025 17:56:23;100;0;122.94;-4;-19.37;-5.38;170.1;18.00;76714;2836.631;-1800.721;1;133;-90;-83.9;42.7;43.0;13;12.6;26.0;0.0;
26/02/2025 17:56:43;100;0;123.12;-4;-19.53;-5.39;172.6;18.00;76714;2836.630;-1800.718;1;133;-90;-82.3;42.7;42.9;13;12.6;26.0;0.0;
26/02/2025 17:57:03;100;0;122.55;-4;-19.50;-5.37;174.9;17.90;76711;2836.628;-1800.715;1;133;-90;-83.9;42.7;42.9;13;12.6;26.0;0.0;
26/02/2025 17:57:23;100;0;121.75;-4;-19.59;-5.33;177.3;17.90;76695;2836.627;-1800.713;1;133;-90;-82.3;42.7;42.9;11;10.8;26.0;0.0;
26/02/2025 17:57:43;100;0;121.66;-4;-19.25;-6.61;179.6;17.90;76694;2836.625;-1800.710;1;133;-90;-83.9;42.7;42.9;11;10.4;26.0;0.0;
26/02/2025 17:58:03;100;0;122.70;-4;-19.16;-6.63;181.9;17.90;76693;2836.624;-1800.707;1;133;-90;-83.9;42.7;42.9;11;10.4;26.0;0.0;
26/02/2025 17:58:23;100;0;122.29;-4;-19.32;-6.60;184.1;17.80;76679;2836.623;-1800.705;1;133;-90;-83.9;42.7;42.9;11;10.4;26.0;0.0;
26/02/2025 17:58:43;100;0;122.85;-4;-19.16;-6.61;186.4;17.80;76673;2836.621;-1800.702;1;133;-90;-82.3;42.7;42.9;11;10.4;26.0;0.0;
26/02/2025 17:59:03;100;0;124.69;-4;-19.22;-6.62;188.5;17.80;76665;2836.620;-1800.699;1;133;-90;-83.9;42.7;42.9;14;14.4;26.0;0.0;
26/02/2025 17:59:23;100;0;125.38;-4;-19.05;-4.38;190.8;17.70;76670;2836.618;-1800.697;1;133;-90;-83.9;42.7;43.0;14;14.4;26.0;0.0;
26/02/2025 17:59:43;100;0;125.57;-4;-19.27;-4.39;192.8;17.70;76657;2836.617;-1800.695;1;133;-90;-83.9;42.7;42.9;14;14.4;26.0;0.0;
26/02/2025 18:00:03;100;0;124.44;-4;-19.23;-4.35;194.8;17.70;76644;2836.616;-1800.692;1;133;-90;-82.3;42.7;43.0;14;14.9;26.0;0.0;
26/02/2025 18:00:23;100;0;124.59;-4;-19.22;-4.37;196.8;17.60;76635;2836.615;-1800.690;1;133;-110;-109.7;42.7;43.0;14;14.9;26.0;0.0;
26/02/2025 18:00:43;100;0;122.41;-4;-18.54;-4.32;198.8;17.60;76698;2836.613;-1800.688;1;133;-110;-111.3;43.1;43.4;12;12.2;26.0;0.0;
26/02/2025 18:01:03;100;0;123.71;-4;-19.59;-5.67;201.0;17.60;76689;2836.612;-1800.685;1;133;-110;-111.3;43.1;43.6;12;12.2;26.0;0.0;
26/02/2025 18:01:23;100;0;125.20;-4;-19.55;-5.74;203.3;17.60;76682;2836.611;-1800.683;1;133;-110;-109.7;43.1;43.4;14;14.0;26.0;0.0;
26/02/2025 18:01:43;100;0;126.41;-4;-19.92;-4.27;205.6;17.50;76669;2836.609;-1800.680;1;133;-110;-111.3;43.1;43.4;14;14.4;26.0;0.0;
26/02/2025 18:02:03;100;0;128.47;-4;-20.00;-4.39;208.2;17.50;76668;2836.607;-1800.677;1;133;-110;-111.3;43.1;43.4;14;14.4;26.0;0.0;
26/02/2025 18:02:23;100;0;129.06;-4;-19.82;-4.31;210.2;17.50;76658;2836.606;-1800.675;1;133;-110;-111.3;43.1;43.4;16;15.8;26.0;0.0;
26/02/2025 18:02:43;100;0;132.20;-4;-20.58;-3.51;212.9;17.40;76656;2836.604;-1800.673;1;133;-110;-111.3;43.1;43.4;16;15.8;26.0;0.0;
26/02/2025 18:03:03;100;0;133.62;-4;-20.15;-3.51;215.4;17.40;76644;2836.602;-1800.670;1;133;-110;-111.3;43.1;43.4;16;15.8;26.0;0.0;
26/02/2025 18:03:23;100;0;133.76;-4;-20.24;-3.52;217.9;17.40;76640;2836.600;-1800.668;1;133;-110;-111.3;43.1;43.4;16;15.8;26.0;0.0;
26/02/2025 18:03:43;100;0;139.39;-4;-19.73;-3.60;220.6;17.30;76628;2836.597;-1800.665;1;133;-110;-111.3;43.1;43.6;16;15.8;26.0;0.0;
26/02/2025 18:04:03;100;0;138.41;-4;-20.09;-3.65;223.0;17.30;76621;2836.595;-1800.663;1;133;-110;-111.3;43.1;43.4;16;15.8;26.0;0.0;
26/02/2025 18:04:23;100;0;135.39;-4;-20.35;-3.66;225.5;17.30;76620;2836.593;-1800.661;1;133;-110;-111.3;43.1;43.6;16;15.8;26.0;0.0;
26/02/2025 18:04:43;100;0;133.93;-4;-20.28;-3.60;228.3;17.20;76604;2836.591;-1800.658;1;133;-110;-112.9;43.1;43.6;16;15.8;26.0;0.0;
26/02/2025 18:05:03;100;0;132.55;-4;-20.35;-3.61;231.0;17.20;76584;2836.589;-1800.656;1;133;-110;-111.3;43.1;43.4;16;15.8;26.0;0.0;
26/02/2025 18:05:23;100;0;130.17;-4;-20.30;-3.59;233.9;17.20;76589;2836.587;-1800.652;1;133;-110;-111.3;43.1;43.4;16;15.8;26.0;0.0;
26/02/2025 18:05:43;100;0;131.59;-4;-20.44;-3.52;236.7;17.20;76581;2836.585;-1800.650;1;133;-110;-111.3;43.1;43.4;16;15.8;26.0;0.0;
26/02/2025 18:06:03;100;0;134.73;-4;-20.56;-3.67;239.6;17.10;76569;2836.582;-1800.647;1;133;-110;-111.3;43.1;43.4;16;15.8;26.0;0.0;
26/02/2025 18:06:23;100;0;136.06;-4;-20.08;-3.80;242.5;17.10;76563;2836.580;-1800.644;1;133;-110;-111.3;43.1;43.4;16;15.8;26.0;0.0;
26/02/2025 18:06:43;100;0;136.39;-4;-20.28;-3.55;245.3;17.10;76566;2836.578;-1800.642;1;133;-110;-111.3;43.1;43.4;16;16.2;26.0;0.0;
26/02/2025 18:07:03;100;0;137.08;-4;-20.51;-3.54;248.1;17.00;76548;2836.575;-1800.639;1;133;-110;-111.3;43.1;43.6;16;15.8;26.0;0.0;
26/02/2025 18:07:23;100;0;136.96;-4;-20.41;-3.61;251.0;17.00;76558;2836.573;-1800.636;1;133;-110;-111.3;43.1;43.6;16;15.8;26.0;0.0;
26/02/2025 18:07:43;100;0;136.90;-4;-20.61;-3.54;253.9;17.00;76545;2836.570;-1800.634;1;133;-110;-111.3;43.1;43.4;16;15.8;26.0;0.0;
26/02/2025 18:08:03;100;0;136.29;-4;-20.48;-3.63;257.0;16.90;76548;2836.568;-1800.631;1;133;-110;-111.3;43.1;43.6;16;15.8;26.0;0.0;
26/02/2025 18:08:23;100;0;135.26;-4;-20.46;-3.55;259.8;16.90;76530;2836.566;-1800.628;1;133;-110;-111.3;43.1;43.4;16;15.8;26.0;0.0;
26/02/2025 18:08:43;100;0;133.71;-4;-20.45;-3.61;262.6;16.90;76545;2836.563;-1800.625;1;133;-110;-111.3;43.1;43.4;16;15.8;26.0;0.0;
26/02/2025 18:09:03;100;0;133.00;-4;-20.66;-3.50;265.7;16.80;76532;2836.561;-1800.622;1;133;-110;-111.3;43.1;43.4;16;16.2;26.0;0.0;
26/02/2025 18:09:23;100;0;132.23;-4;-20.14;-3.59;268.6;16.80;76533;2836.559;-1800.619;1;133;-110;-112.9;43.1;43.4;16;15.8;26.0;0.0;
26/02/2025 18:09:43;100;0;131.31;-4;-20.27;-3.57;271.4;16.80;76529;2836.557;-1800.617;1;133;-110;-111.3;43.1;43.4;16;16.2;26.0;0.0;
26/02/2025 18:10:03;100;0;130.37;-4;-20.27;-3.58;274.3;16.80;76524;2836.554;-1800.614;1;133;-110;-111.3;43.1;43.4;16;15.8;26.0;0.0;
26/02/2025 18:10:23;100;0;129.59;-4;-19.94;-3.61;277.5;16.70;76520;2836.552;-1800.610;1;133;-110;-111.3;43.1;43.4;16;15.8;26.0;0.0;
26/02/2025 18:10:43;100;0;129.60;-4;-19.96;-3.62;280.1;16.70;76510;2836.550;-1800.608;1;133;-110;-112.9;43.1;43.4;16;15.8;26.0;0.0;
26/02/2025 18:11:03;100;0;130.12;-4;-19.91;-3.60;283.1;16.70;76499;2836.548;-1800.604;1;133;-110;-111.3;43.1;43.4;16;15.8;26.0;0.0;
26/02/2025 18:11:23;100;0;128.53;-4;-19.86;-3.64;285.9;16.60;76485;2836.546;-1800.601;1;133;-110;-111.3;43.1;43.6;16;15.8;26.0;0.0;
26/02/2025 18:11:43;100;0;128.01;-4;-19.97;-3.62;288.8;16.60;76483;2836.544;-1800.598;1;133;-110;-111.3;43.1;43.6;16;15.8;26.0;0.0;
26/02/2025 18:12:03;100;0;127.85;-4;-19.82;-3.59;291.8;16.60;76479;2836.542;-1800.595;1;133;-110;-112.9;43.1;43.4;16;15.8;26.0;0.0;
26/02/2025 18:12:23;100;0;126.96;-4;-19.80;-3.63;294.8;16.50;76472;2836.540;-1800.592;1;133;-110;-111.3;43.1;43.4;16;15.8;26.0;0.0;
26/02/2025 18:12:43;100;0;126.48;-4;-20.04;-3.62;297.5;16.50;76465;2836.538;-1800.589;1;133;-110;-111.3;43.1;43.6;14;14.0;26.0;0.0;
26/02/2025 18:13:03;100;0;124.40;-4;-19.80;-4.50;300.7;16.50;76460;2836.536;-1800.585;1;133;-110;-111.3;43.1;43.4;14;14.4;26.0;0.0;
26/02/2025 18:13:23;100;0;123.18;-4;-19.57;-4.46;303.6;16.50;76453;2836.534;-1800.582;1;133;-110;-111.3;43.1;43.4;12;12.2;26.0;0.0;
26/02/2025 18:13:43;100;0;123.37;-4;-19.53;-5.70;306.8;16.40;76450;2836.532;-1800.578;1;133;-110;-111.3;43.1;43.4;12;11.7;26.0;0.0;
26/02/2025 18:14:03;100;0;123.30;-4;-19.86;-5.72;309.8;16.40;76454;2836.530;-1800.575;1;133;-110;-111.3;43.1;43.6;12;11.7;26.0;0.0;
26/02/2025 18:14:23;100;0;124.85;-4;-19.70;-5.71;312.8;16.40;76436;2836.528;-1800.571;1;133;-110;-111.3;43.1;43.6;12;11.7;26.0;0.0;
26/02/2025 18:14:43;100;0;127.31;-4;-19.90;-5.65;315.8;16.30;76429;2836.526;-1800.568;1;133;-110;-111.3;43.1;43.6;15;15.3;26.0;0.0;
26/02/2025 18:15:03;100;0;129.50;-4;-20.31;-3.64;318.9;16.30;76436;2836.524;-1800.565;1;133;-110;-111.3;43.1;43.4;15;15.8;26.0;0.0;
26/02/2025 18:15:23;100;0;129.30;-4;-20.31;-3.69;322.0;16.30;76426;2836.521;-1800.561;1;133;-110;-109.7;43.1;43.4;15;15.8;26.0;0.0;
26/02/2025 18:15:43;100;0;130.73;-4;-20.35;-3.68;325.2;16.30;76418;2836.519;-1800.558;1;133;-110;-112.9;43.1;43.6;15;15.8;26.0;0.0;
26/02/2025 18:16:03;100;0;130.88;-4;-20.24;-3.69;328.5;16.20;76420;2836.516;-1800.555;1;133;-110;-111.3;43.1;43.4;15;15.8;26.0;0.0;
26/02/2025 18:16:23;100;0;129.62;-4;-20.28;-3.63;331.6;16.20;76415;2836.514;-1800.551;1;133;-110;-111.3;43.1;43.6;15;15.8;26.0;0.0;
26/02/2025 18:16:43;100;0;127.84;-4;-20.15;-3.64;334.6;16.20;76413;2836.512;-1800.548;1;133;-110;-111.3;43.1;43.4;15;15.8;26.0;0.0;
26/02/2025 18:17:03;100;0;126.16;-4;-19.93;-3.72;337.7;16.10;76398;2836.510;-1800.545;1;133;-110;-111.3;43.1;43.4;15;15.8;26.0;0.0;
26/02/2025 18:17:23;100;0;122.65;-4;-19.79;-3.73;340.5;16.10;76409;2836.508;-1800.541;1;133;-110;-112.9;43.1;43.4;11;10.8;26.0;0.0;
26/02/2025 18:17:43;100;0;121.69;-4;-19.79;-6.35;343.6;16.10;76396;2836.506;-1800.538;1;133;-110;-111.3;43.1;43.4;11;10.4;26.0;0.0;
26/02/2025 18:18:03;100;0;122.72;-4;-19.75;-6.39;346.4;16.10;76391;2836.505;-1800.534;1;133;-110;-111.3;43.1;43.4;11;10.4;26.0;0.0;
26/02/2025 18:18:23;100;0;123.16;-4;-19.76;-6.40;349.4;16.00;76388;2836.503;-1800.531;1;133;-110;-111.3;43.1;43.4;11;10.4;26.0;0.0;
26/02/2025 18:18:43;100;0;125.97;-4;-19.79;-6.31;352.2;16.00;76388;2836.501;-1800.528;1;133;-110;-112.9;43.1;43.4;14;14.0;26.0;0.0;
26/02/2025 18:19:03;100;0;127.29;-4;-20.10;-4.41;355.3;16.00;76389;2836.499;-1800.524;1;133;-110;-111.3;43.1;43.6;14;14.4;26.0;0.0;
26/02/2025 18:19:23;100;0;128.74;-4;-19.98;-4.36;358.2;16.00;76382;2836.497;-1800.521;1;133;-110;-111.3;43.1;43.4;14;14.4;26.0;0.0;
26/02/2025 18:19:43;100;0;130.46;-4;-19.94;-4.37;361.1;15.90;76376;2836.494;-1800.518;1;133;-110;-111.3;43.1;43.6;14;14.4;26.0;0.0;
26/02/2025 18:20:03;100;0;131.49;-4;-19.96;-4.36;364.0;15.90;76363;2836.492;-1800.515;1;133;-110;-111.3;43.1;43.6;14;14.4;26.0;0.0;
26/02/2025 18:20:23;100;0;127.12;-4;-19.94;-4.39;366.8;15.90;76371;2836.490;-1800.512;1;133;-110;-111.3;43.1;43.6;14;14.4;26.0;0.0;
26/02/2025 18:20:43;100;0;121.85;-4;-20.03;-4.38;369.7;15.90;76360;2836.489;-1800.509;1;133;-110;-111.3;43.1;43.4;10;9.9;26.0;0.0;
26/02/2025 18:21:03;100;0;120.29;-4;-19.43;-6.78;372.7;15.80;76350;2836.487;-1800.505;1;133;-110;-111.3;43.1;43.4;8;8.1;26.0;0.0;
26/02/2025 18:21:23;100;0;122.21;-4;-19.04;-7.74;375.3;15.80;76338;2836.485;-1800.502;1;133;-110;-109.7;43.1;43.4;10;9.9;26.0;0.0;
26/02/2025 18:21:43;100;0;122.38;-4;-19.22;-6.52;378.1;15.80;76325;2836.483;-1800.499;1;133;-110;-114.5;43.1;43.6;10;9.9;26.0;0.0;
26/02/2025 18:22:03;100;0;124.40;-4;-19.24;-6.52;380.8;15.70;76318;2836.482;-1800.496;1;133;-110;-111.3;43.1;43.6;12;12.2;26.0;0.0;
26/02/2025 18:22:23;100;0;126.22;-4;-19.31;-5.32;383.6;15.70;76313;2836.480;-1800.492;1;133;-110;-111.3;43.1;43.6;12;12.6;26.0;0.0;
26/02/2025 18:22:43;100;0;126.65;-4;-19.47;-5.26;386.3;15.70;76309;2836.478;-1800.489;1;133;-110;-111.3;43.1;43.4;14;14.0;26.0;0.0;
26/02/2025 18:23:03;100;0;128.37;-4;-19.38;-4.33;389.0;15.70;76296;2836.476;-1800.486;1;133;-110;-111.3;43.1;43.4;14;14.4;26.0;0.0;
26/02/2025 18:23:23;100;0;129.90;-4;-19.36;-4.35;391.8;15.60;76295;2836.474;-1800.483;1;133;-110;-111.3;43.1;43.6;14;14.4;26.0;0.0;
26/02/2025 18:23:43;100;0;131.00;-4;-19.43;-4.29;394.5;15.60;76283;2836.471;-1800.480;1;133;-110;-111.3;43.1;43.4;14;14.4;26.0;0.0;
26/02/2025 18:24:03;100;0;131.05;-4;-19.71;-4.35;397.2;15.60;76284;2836.469;-1800.478;1;133;-110;-112.9;43.1;43.6;14;14.9;26.0;0.0;
26/02/2025 18:24:23;100;0;129.67;-4;-19.78;-4.13;400.0;15.50;76274;2836.467;-1800.475;1;133;-110;-112.9;43.1;43.4;14;14.4;26.0;0.0;
26/02/2025 18:24:43;100;0;129.80;-4;-19.23;-4.23;402.8;15.50;76267;2836.465;-1800.472;1;133;-110;-111.3;43.1;43.6;14;14.4;26.0;0.0;
26/02/2025 18:25:03;100;0;130.88;-4;-19.84;-4.34;405.5;15.50;76277;2836.463;-1800.469;1;133;-110;-111.3;43.1;43.6;14;14.4;26.0;0.0;
26/02/2025 18:25:23;100;0;131.33;-4;-19.51;-4.21;408.2;15.50;76267;2836.461;-1800.466;1;133;-110;-111.3;43.1;43.4;14;14.4;26.0;0.0;
26/02/2025 18:25:43;100;0;131.27;-4;-19.70;-4.29;411.0;15.40;76265;2836.459;-1800.463;1;133;-110;-111.3;43.1;43.6;14;14.4;26.0;0.0;
26/02/2025 18:26:03;100;0;131.57;-4;-19.50;-4.26;413.6;15.40;76266;2836.457;-1800.460;1;133;-110;-111.3;43.1;43.6;14;14.4;26.0;0.0;
26/02/2025 18:26:23;100;0;133.44;-4;-19.52;-4.38;416.4;15.40;76260;2836.455;-1800.458;1;133;-110;-111.3;43.1;43.4;14;14.4;26.0;0.0;
26/02/2025 18:26:43;100;0;135.39;-4;-19.44;-4.32;418.9;15.40;76257;2836.453;-1800.455;1;133;-110;-111.3;43.1;43.6;14;14.4;26.0;0.0;
26/02/2025 18:27:04;100;0;137.86;-4;-19.63;-4.33;421.7;15.30;76251;2836.450;-1800.453;1;133;-110;-111.3;43.1;43.6;14;14.9;26.0;0.0;
26/02/2025 18:27:24;100;0;139.65;-4;-19.74;-4.29;424.4;15.30;76243;2836.448;-1800.450;1;133;-110;-114.5;43.1;43.6;14;14.4;26.0;0.0;
26/02/2025 18:27:44;100;0;138.92;-4;-19.53;-4.30;427.2;15.30;76241;2836.445;-1800.448;1;133;-110;-111.3;43.1;43.4;14;14.4;26.0;0.0;
26/02/2025 18:28:04;100;0;138.00;-4;-19.51;-4.25;429.7;15.30;76233;2836.443;-1800.446;1;133;-110;-111.3;43.1;43.4;14;14.9;26.0;0.0;
26/02/2025 18:28:24;100;0;137.34;-4;-19.61;-4.32;432.4;15.20;76232;2836.441;-1800.443;1;133;-110;-111.3;43.1;43.4;14;14.4;26.0;0.0;
26/02/2025 18:28:44;100;0;136.89;-4;-19.36;-4.27;434.9;15.20;76220;2836.439;-1800.441;1;133;-110;-111.3;43.1;43.4;14;14.4;26.0;0.0;
26/02/2025 18:29:04;100;0;136.51;-4;-19.30;-4.26;437.6;15.20;76225;2836.436;-1800.438;1;133;-110;-111.3;43.1;43.6;14;14.4;26.0;0.0;
26/02/2025 18:29:24;100;0;136.21;-4;-19.83;-4.33;440.0;15.20;76222;2836.434;-1800.436;1;133;-110;-112.9;43.1;43.4;14;14.4;26.0;0.0;
26/02/2025 18:29:44;100;0;134.65;-4;-19.60;-4.29;442.6;15.10;76215;2836.432;-1800.433;1;133;-110;-111.3;43.1;43.4;14;14.4;26.0;0.0;
26/02/2025 18:30:04;100;0;135.36;-4;-19.47;-4.27;445.1;15.10;76205;2836.430;-1800.431;1;133;-110;-112.9;43.1;43.4;14;14.4;26.0;0.0;
26/02/2025 18:30:24;100;0;136.98;-4;-19.41;-4.29;447.6;15.10;76198;2836.428;-1800.429;1;133;-110;-111.3;43.1;43.6;14;14.4;26.0;0.0;
26/02/2025 18:30:44;100;0;137.59;-4;-19.45;-4.32;450.1;15.10;76199;2836.426;-1800.426;1;133;-110;-109.7;43.1;43.4;14;14.9;26.0;0.0;
26/02/2025 18:31:04;100;0;136.96;-4;-19.28;-4.31;452.4;15.00;76202;2836.424;-1800.424;1;133;-110;-112.9;43.1;43.6;14;14.4;26.0;0.0;
26/02/2025 18:31:24;100;0;135.79;-4;-19.53;-4.29;454.8;15.00;76185;2836.422;-1800.422;1;133;-110;-111.3;43.1;43.6;14;14.4;26.0;0.0;
26/02/2025 18:31:44;100;0;134.64;-4;-19.36;-4.29;457.2;15.00;76191;2836.420;-1800.419;1;133;-110;-112.9;43.1;43.4;14;14.4;26.0;0.0;
26/02/2025 18:32:04;100;0;134.09;-4;-19.33;-4.30;459.5;15.00;76184;2836.418;-1800.417;1;133;-110;-109.7;43.1;43.6;14;14.4;26.0;0.0;
26/02/2025 18:32:24;100;0;132.13;-4;-19.26;-4.32;461.7;14.90;76163;2836.416;-1800.415;1;133;-110;-112.9;43.1;43.4;14;14.4;26.0;0.0;
26/02/2025 18:32:44;100;0;130.97;-4;-19.11;-4.36;464.0;14.90;76164;2836.414;-1800.412;1;133;-110;-111.3;43.1;43.4;14;14.4;26.0;0.0;
26/02/2025 18:33:04;100;0;131.40;-4;-19.14;-4.34;466.1;14.90;76148;2836.413;-1800.410;1;133;-110;-114.5;43.1;43.6;14;14.4;26.0;0.0;
26/02/2025 18:33:24;100;0;131.81;-4;-19.54;-4.26;468.4;14.80;76147;2836.411;-1800.408;1;133;-110;-111.3;43.1;43.6;14;14.9;26.0;0.0;
26/02/2025 18:33:44;100;0;132.54;-4;-19.25;-4.31;470.7;14.80;76141;2836.409;-1800.406;1;133;-110;-111.3;43.1;43.4;14;14.4;26.0;0.0;
26/02/2025 18:34:04;100;0;130.74;-4;-19.04;-4.33;472.8;14.80;76127;2836.408;-1800.403;1;133;-110;-111.3;43.1;43.4;14;14.4;26.0;0.0;
26/02/2025 18:34:24;100;0;126.21;-4;-19.30;-4.33;475.0;14.80;76112;2836.406;-1800.401;1;133;-110;-111.3;43.1;43.4;14;14.4;26.0;0.0;
26/02/2025 18:34:44;100;0;124.23;-4;-19.17;-4.32;477.1;14.70;76111;2836.405;-1800.399;1;133;-110;-112.9;43.1;43.4;12;12.2;26.0;0.0;
26/02/2025 18:35:04;100;0;124.00;-4;-19.22;-5.62;479.2;14.70;76104;2836.403;-1800.396;1;133;-110;-111.3;43.1;43.6;12;12.2;26.0;0.0;
26/02/2025 18:35:24;100;0;123.46;-4;-18.99;-5.66;481.2;14.70;76097;2836.402;-1800.394;1;133;-110;-111.3;43.4;43.4;12;12.2;26.0;0.0;
26/02/2025 18:35:44;100;0;126.48;-4;-19.13;-5.73;483.4;14.70;76095;2836.401;-1800.391;1;133;-110;-112.9;43.4;43.4;12;11.7;26.0;0.0;
26/02/2025 18:36:04;100;0;130.04;-4;-19.14;-5.66;485.5;14.60;76074;2836.399;-1800.389;1;133;-110;-109.7;43.4;43.4;14;14.0;26.0;0.0;
26/02/2025 18:36:24;100;0;132.21;-4;-19.30;-4.42;487.7;14.60;76077;2836.397;-1800.387;1;133;-110;-109.7;43.4;43.4;14;14.4;26.0;0.0;
26/02/2025 18:36:44;100;0;133.29;-4;-19.17;-4.44;489.9;14.60;76074;2836.396;-1800.385;1;133;-110;-111.3;43.4;43.4;14;14.4;26.0;0.0;
26/02/2025 18:37:04;100;0;132.97;-4;-19.15;-4.42;492.2;14.60;76064;2836.394;-1800.382;1;133;-110;-111.3;43.4;43.4;14;14.4;26.0;0.0;
26/02/2025 18:37:24;100;0;133.72;-4;-19.17;-4.42;494.5;14.50;76062;2836.392;-1800.380;1;133;-110;-111.3;43.4;43.4;14;14.4;25.9;0.0;
26/02/2025 18:37:44;100;0;134.87;-4;-19.23;-4.46;496.9;14.50;76056;2836.390;-1800.378;1;133;-110;-111.3;43.4;43.4;14;14.4;26.0;0.0;
26/02/2025 18:38:04;100;0;135.29;-4;-19.35;-4.45;499.2;14.50;76049;2836.388;-1800.375;1;133;-110;-111.3;43.4;43.4;14;14.4;26.0;0.0;
26/02/2025 18:38:24;100;0;137.11;-4;-19.18;-4.41;501.6;14.40;76045;2836.386;-1800.373;1;133;-110;-111.3;43.4;43.4;14;14.4;26.0;0.0;
26/02/2025 18:38:44;100;0;138.60;-4;-19.17;-4.42;504.1;14.40;76038;2836.384;-1800.371;1;133;-110;-111.3;43.4;43.4;14;14.4;26.0;0.0;
26/02/2025 18:39:04;100;0;140.12;-4;-19.22;-4.43;506.6;14.40;76038;2836.381;-1800.368;1;133;-110;-111.3;43.4;43.4;16;15.8;26.0;0.0;
26/02/2025 18:39:24;100;0;140.70;-4;-19.24;-3.50;509.0;14.40;76035;2836.379;-1800.366;1;133;-110;-111.3;43.4;43.4;16;16.2;26.0;0.0;
26/02/2025 18:39:44;100;0;142.23;-4;-19.04;-3.52;511.5;14.30;76024;2836.377;-1800.364;1;133;-110;-112.9;43.4;43.4;16;16.2;26.0;0.0;
26/02/2025 18:40:04;100;0;140.97;-4;-19.07;-3.55;513.9;14.30;76022;2836.374;-1800.362;1;133;-110;-111.3;43.4;43.3;16;16.2;26.0;0.0;
26/02/2025 18:40:24;100;0;139.77;-4;-19.20;-3.51;516.4;14.30;76023;2836.372;-1800.360;1;133;-110;-111.3;43.4;43.4;16;16.2;26.0;0.0;
26/02/2025 18:40:44;100;0;138.62;-4;-19.25;-3.53;518.9;14.30;76009;2836.370;-1800.358;1;133;-110;-111.3;43.4;43.4;16;16.2;26.0;0.0;
26/02/2025 18:41:04;100;0;138.91;-4;-19.31;-3.48;521.4;14.30;76012;2836.368;-1800.355;1;133;-110;-111.3;43.4;43.4;16;16.2;26.0;0.0;
26/02/2025 18:41:24;100;0;139.70;-4;-19.24;-3.48;523.9;14.20;76008;2836.365;-1800.353;1;133;-110;-112.9;43.4;43.4;16;16.2;26.0;0.0;
26/02/2025 18:41:44;100;0;140.19;-4;-19.31;-3.45;526.4;14.20;76001;2836.363;-1800.351;1;133;-110;-111.3;43.4;43.4;16;16.2;26.0;0.0;
26/02/2025 18:42:04;100;0;138.67;-4;-19.23;-3.50;529.0;14.20;75997;2836.361;-1800.348;1;133;-110;-111.3;43.4;43.4;16;16.2;26.0;0.0;
26/02/2025 18:42:24;100;0;139.04;-4;-19.16;-3.53;531.7;14.10;75996;2836.358;-1800.346;1;133;-110;-111.3;43.4;43.4;16;16.2;26.0;0.0;
26/02/2025 18:42:44;100;0;138.47;-4;-19.16;-3.53;534.2;14.10;75992;2836.356;-1800.344;1;133;-110;-112.9;43.4;43.4;16;16.2;26.0;0.0;
26/02/2025 18:43:04;100;0;138.81;-4;-19.06;-3.53;536.9;14.10;75995;2836.353;-1800.341;1;133;-110;-111.3;43.4;43.4;16;16.2;26.0;0.0;
26/02/2025 18:43:24;100;0;139.23;-4;-19.08;-3.50;539.5;14.10;75991;2836.351;-1800.339;1;133;-110;-111.3;43.4;43.4;16;16.2;26.0;0.0;
26/02/2025 18:43:44;100;0;140.53;-4;-19.02;-3.54;542.1;14.10;75992;2836.349;-1800.337;1;133;-110;-111.3;43.4;43.4;16;16.2;26.0;0.0;
26/02/2025 18:44:04;100;0;141.28;-4;-19.11;-3.52;544.7;14.00;75978;2836.346;-1800.334;1;133;-110;-111.3;43.4;43.4;16;16.2;26.0;0.0;
26/02/2025 18:44:24;100;0;142.86;-4;-18.97;-3.55;547.4;14.00;75971;2836.344;-1800.332;1;133;-110;-111.3;43.7;43.7;16;16.2;26.0;0.0;
26/02/2025 18:44:44;100;0;144.86;-4;-19.87;-3.55;550.2;14.00;75980;2836.341;-1800.330;1;133;-110;-111.3;43.7;44.0;19;19.0;26.0;0.0;
26/02/2025 18:45:04;100;0;145.79;-4;-20.03;-1.92;553.0;14.00;75973;2836.338;-1800.328;1;133;-110;-111.3;43.7;44.0;19;19.4;26.0;0.0;
26/02/2025 18:45:24;100;0;147.38;-4;-19.85;-1.96;555.8;14.00;75967;2836.335;-1800.326;1;133;-110;-111.3;43.7;44.0;22;22.1;26.0;0.0;
26/02/2025 18:45:44;100;0;146.57;-4;-20.04;-0.35;558.7;13.90;75956;2836.333;-1800.324;1;133;-110;-111.3;43.7;44.0;22;22.6;26.0;0.0;
26/02/2025 18:46:04;100;0;145.32;-4;-20.50;-0.51;561.6;13.90;75953;2836.330;-1800.322;1;133;-110;-111.3;43.7;43.9;20;19.9;26.0;0.0;
26/02/2025 18:46:24;100;0;144.69;-4;-20.41;-1.97;564.6;13.90;75952;2836.327;-1800.319;1;133;-110;-111.3;43.7;44.0;20;19.4;26.0;0.0;
26/02/2025 18:46:44;100;0;144.92;-4;-20.11;-1.90;567.7;13.80;75950;2836.324;-1800.317;1;133;-110;-111.3;43.7;44.0;20;19.4;26.0;0.0;
26/02/2025 18:47:04;100;0;143.75;-4;-20.09;-1.96;570.6;13.80;75943;2836.321;-1800.315;1;133;-110;-111.3;43.7;44.0;18;18.1;26.0;0.0;
26/02/2025 18:47:24;100;0;143.18;-4;-19.86;-2.70;573.5;13.80;75955;2836.318;-1800.312;1;133;-110;-111.3;43.7;43.9;18;18.1;26.0;0.0;
26/02/2025 18:47:44;100;0;143.12;-4;-20.03;-2.69;576.5;13.80;75939;2836.316;-1800.310;1;133;-110;-111.3;43.7;44.0;18;18.1;26.0;0.0;
26/02/2025 18:48:04;100;0;142.82;-4;-19.87;-2.66;579.4;13.80;75948;2836.313;-1800.307;1;133;-110;-111.3;43.7;44.0;18;18.1;26.0;0.0;
26/02/2025 18:48:24;100;0;143.37;-4;-19.86;-2.77;582.2;13.70;75928;2836.310;-1800.305;1;133;-110;-111.3;43.7;44.0;18;18.1;26.0;0.0;
26/02/2025 18:48:44;100;0;143.67;-4;-19.78;-2.76;585.1;13.70;75934;2836.307;-1800.303;1;133;-110;-111.3;43.7;44.0;18;18.1;26.0;0.0;
26/02/2025 18:49:04;100;0;144.55;-4;-20.09;-2.70;588.0;13.70;75927;2836.305;-1800.301;1;133;-110;-112.9;43.7;44.0;18;18.1;26.0;0.0;
26/02/2025 18:49:24;100;0;145.46;-4;-19.99;-2.71;590.8;13.70;75925;2836.302;-1800.299;1;133;-110;-111.3;43.7;44.0;20;19.9;26.0;0.0;
26/02/2025 18:49:44;100;0;143.84;-4;-20.15;-1.52;593.6;13.70;75931;2836.299;-1800.296;1;133;-110;-111.3;43.7;44.0;20;19.9;26.0;0.0;
26/02/2025 18:50:04;100;0;140.54;-4;-20.14;-1.56;596.5;13.60;75916;2836.297;-1800.294;1;133;-110;-111.3;43.7;44.0;17;17.1;26.0;0.0;
26/02/2025 18:50:24;100;0;137.25;-4;-19.70;-3.10;599.4;13.60;75915;2836.294;-1800.291;1;133;-110;-111.3;43.7;44.0;17;17.1;26.0;0.0;
26/02/2025 18:50:44;100;0;134.07;-4;-19.92;-3.09;602.1;13.60;75912;2836.292;-1800.289;1;133;-110;-111.3;43.7;44.0;17;17.1;26.0;0.0;
26/02/2025 18:51:04;100;0;131.44;-4;-20.23;-3.11;605.0;13.60;75921;2836.290;-1800.286;1;133;-110;-111.3;43.7;43.9;17;17.1;25.9;0.0;
26/02/2025 18:51:24;100;0;130.94;-4;-20.48;-3.04;607.9;13.60;75908;2836.288;-1800.283;1;133;-110;-111.3;43.7;44.0;17;17.1;26.0;0.0;
26/02/2025 18:51:44;100;0;129.17;-4;-20.14;-3.12;610.7;13.50;75904;2836.285;-1800.280;1;133;-110;-111.3;43.7;44.0;15;14.9;26.0;0.0;
26/02/2025 18:52:04;100;0;126.68;-4;-20.18;-4.34;613.7;13.50;75899;2836.283;-1800.276;1;133;-110;-111.3;43.7;44.0;15;14.9;26.0;0.0;
26/02/2025 18:52:24;100;0;124.33;-4;-19.83;-4.35;616.5;13.50;75891;2836.282;-1800.273;1;133;-110;-111.3;43.7;44.0;13;13.1;26.0;0.0;
26/02/2025 18:52:44;100;0;123.58;-4;-19.74;-5.29;619.2;13.50;75890;2836.280;-1800.270;1;133;-110;-111.3;43.7;44.0;13;12.6;26.0;0.0;
26/02/2025 18:53:04;100;0;122.77;-4;-19.76;-5.33;622.0;13.50;75893;2836.278;-1800.267;1;133;-110;-111.3;43.7;44.0;11;10.8;26.0;0.0;
26/02/2025 18:53:24;100;0;122.19;-4;-19.56;-5.84;624.9;13.50;75883;2836.277;-1800.263;1;133;-110;-111.3;43.7;44.0;11;11.7;26.0;0.0;
26/02/2025 18:53:44;100;0;122.74;-4;-19.57;-5.77;627.6;13.40;75888;2836.275;-1800.260;1;133;-110;-109.7;43.7;44.0;11;11.7;25.9;0.0;
26/02/2025 18:54:04;100;0;121.51;-4;-19.55;-5.85;630.3;13.40;75888;2836.273;-1800.257;1;133;-110;-111.3;43.7;44.0;11;11.7;26.0;0.0;
26/02/2025 18:54:24;100;0;119.92;-4;-19.60;-5.83;633.0;13.40;75878;2836.272;-1800.254;1;133;-110;-111.3;43.7;43.9;8;8.1;25.9;0.0;
26/02/2025 18:54:44;100;0;120.04;-4;-19.48;-7.74;635.7;13.40;75877;2836.270;-1800.251;1;133;-110;-111.3;43.7;44.0;8;7.7;26.0;0.0;
26/02/2025 18:55:04;100;0;121.02;-4;-19.16;-7.80;638.4;13.40;75872;2836.269;-1800.247;1;133;-110;-111.3;43.7;44.0;8;7.7;26.0;0.0;
26/02/2025 18:55:24;100;0;120.69;-4;-19.27;-7.76;641.0;13.30;75862;2836.267;-1800.244;1;133;-110;-111.3;43.7;44.0;8;7.7;26.0;0.0;
26/02/2025 18:55:44;100;0;120.09;-4;-19.34;-7.75;643.7;13.30;75868;2836.266;-1800.241;1;133;-110;-111.3;43.7;44.0;8;7.7;26.0;0.0;
26/02/2025 18:56:04;100;0;118.96;-4;-19.59;-7.77;646.5;13.30;75856;2836.264;-1800.237;1;133;-110;-112.9;43.7;44.0;6;5.9;26.0;0.0;
26/02/2025 18:56:24;100;0;119.26;-4;-19.60;-9.00;649.2;13.30;75864;2836.263;-1800.234;1;133;-110;-109.7;43.7;44.0;6;5.4;26.0;0.0;
26/02/2025 18:56:44;100;0;118.95;-4;-19.43;-8.91;652.1;13.30;75856;2836.261;-1800.230;1;133;-110;-111.3;43.7;44.0;6;5.4;26.0;0.0;
26/02/2025 18:57:04;100;0;121.61;-4;-19.16;-8.95;654.8;13.30;75846;2836.259;-1800.227;1;133;-110;-111.3;43.7;43.9;10;9.9;26.0;0.0;
26/02/2025 18:57:24;100;0;125.98;-4;-19.28;-6.39;657.7;13.20;75840;2836.257;-1800.224;1;133;-110;-111.3;43.7;44.0;13;13.5;26.0;0.0;
26/02/2025 18:57:44;100;0;127.47;-4;-19.40;-4.79;660.3;13.20;75832;2836.255;-1800.221;1;133;-110;-111.3;43.7;44.0;13;13.5;26.0;0.0;
26/02/2025 18:58:04;100;0;129.29;-4;-19.43;-4.77;663.1;13.20;75831;2836.253;-1800.218;1;133;-110;-111.3;43.7;44.0;15;14.9;26.0;0.0;
26/02/2025 18:58:24;100;0;130.43;-4;-19.43;-4.16;665.8;13.20;75831;2836.251;-1800.215;1;133;-110;-112.9;43.7;44.0;15;14.9;26.0;0.0;
26/02/2025 18:58:44;100;0;133.08;-4;-18.86;-4.28;668.5;13.10;75833;2836.249;-1800.212;1;133;-110;-111.3;44.0;44.0;15;14.9;26.0;0.0;
26/02/2025 18:59:04;100;0;135.07;-4;-19.41;-4.15;671.3;13.10;75838;2836.247;-1800.209;1;133;-110;-111.3;44.0;44.0;15;14.9;26.0;0.0;
26/02/2025 18:59:24;100;0;137.48;-4;-19.53;-4.13;673.9;13.10;75828;2836.244;-1800.207;1;133;-110;-111.3;44.0;44.0;15;14.9;26.0;0.0;
26/02/2025 18:59:44;100;0;139.86;-4;-19.29;-4.18;676.6;13.10;75818;2836.242;-1800.205;1;133;-110;-111.3;44.0;44.0;15;14.9;26.0;0.0;
26/02/2025 19:00:04;100;0;141.59;-4;-19.27;-4.16;679.4;13.10;75816;2836.239;-1800.202;1;133;-110;-111.3;44.0;44.0;17;17.6;26.0;0.0;
26/02/2025 19:00:24;100;0;140.42;-4;-19.30;-2.89;682.1;13.10;75806;2836.237;-1800.200;1;133;-110;-109.7;44.0;44.0;17;17.6;26.0;0.0;
26/02/2025 19:00:44;100;0;142.58;-4;-19.30;-2.81;684.7;13.00;75804;2836.234;-1800.198;1;133;-110;-109.7;44.0;44.0;17;17.6;26.0;0.0;
26/02/2025 19:01:04;100;0;143.84;-4;-19.13;-2.85;687.4;13.00;75804;2836.231;-1800.195;1;133;-110;-111.3;44.0;44.0;17;17.6;26.0;0.0;
26/02/2025 19:01:24;100;0;141.77;-4;-19.26;-2.85;690.2;13.00;75794;2836.229;-1800.193;1;133;-110;-111.3;44.0;44.0;17;17.6;26.0;0.0;
26/02/2025 19:01:44;100;0;138.73;-4;-19.25;-2.82;692.7;13.00;75785;2836.227;-1800.191;1;133;-110;-111.3;44.0;44.0;17;17.6;26.0;0.0;
26/02/2025 19:02:05;100;0;135.49;-4;-19.54;-2.82;695.3;13.00;75784;2836.224;-1800.188;1;133;-110;-111.3;44.0;44.0;15;14.9;25.9;0.0;
26/02/2025 19:02:25;100;0;132.69;-4;-19.59;-4.35;698.1;13.00;75778;2836.222;-1800.185;1;133;-110;-111.3;44.0;44.0;15;14.9;26.0;0.0;
26/02/2025 19:02:45;100;0;131.74;-4;-19.42;-4.30;700.6;12.90;75774;2836.220;-1800.183;1;133;-110;-112.9;44.0;44.0;15;14.4;26.0;0.0;
26/02/2025 19:03:05;100;0;131.64;-4;-19.43;-4.30;703.2;12.90;75766;2836.218;-1800.180;1;133;-110;-111.3;44.0;44.0;15;14.9;26.0;0.0;
26/02/2025 19:03:25;100;0;132.92;-4;-19.36;-4.29;705.7;12.90;75748;2836.216;-1800.177;1;133;-110;-111.3;44.0;44.0;15;14.4;26.0;0.0;
26/02/2025 19:03:45;100;0;134.39;-4;-19.25;-4.30;708.3;12.90;75747;2836.214;-1800.175;1;133;-110;-109.7;44.0;44.0;15;14.4;26.0;0.0;
26/02/2025 19:04:05;100;0;135.57;-4;-19.27;-4.34;710.8;12.80;75743;2836.212;-1800.172;1;133;-110;-111.3;44.0;44.0;15;14.4;26.0;0.0;
26/02/2025 19:04:25;100;0;133.48;-4;-19.42;-4.32;713.2;12.80;75738;2836.210;-1800.170;1;133;-110;-111.3;44.0;44.0;15;14.4;26.0;0.0;
26/02/2025 19:04:45;100;0;132.12;-4;-19.52;-4.37;715.7;12.80;75726;2836.208;-1800.167;1;133;-110;-109.7;44.0;44.0;15;14.4;26.0;0.0;
26/02/2025 19:05:05;100;0;130.43;-4;-19.37;-4.33;718.2;12.80;75732;2836.206;-1800.165;1;133;-110;-112.9;44.0;44.0;15;14.9;25.9;0.0;
26/02/2025 19:05:25;100;0;128.53;-4;-19.38;-4.32;720.6;12.80;75716;2836.204;-1800.162;1;133;-110;-111.3;44.0;43.9;15;14.4;26.0;0.0;
26/02/2025 19:05:45;100;0;125.53;-4;-19.44;-4.35;722.9;12.70;75715;2836.203;-1800.159;1;133;-110;-111.3;44.0;44.0;13;13.1;26.0;0.0;
26/02/2025 19:06:05;100;0;122.06;-4;-18.82;-5.35;725.5;12.70;75712;2836.201;-1800.156;1;133;-110;-111.3;44.4;44.6;10;9.9;26.0;0.0;
26/02/2025 19:06:25;100;0;125.71;-4;-19.61;-6.78;727.9;12.70;75694;2836.200;-1800.154;1;133;-110;-111.3;44.4;44.6;13;13.1;26.0;0.0;
26/02/2025 19:06:45;100;0;127.87;-4;-20.01;-4.85;730.5;12.70;75677;2836.198;-1800.151;1;133;-110;-111.3;44.4;44.6;13;13.5;26.0;0.0;
26/02/2025 19:07:05;100;0;129.32;-4;-20.02;-4.90;732.8;12.60;75684;2836.196;-1800.149;1;133;-110;-112.9;44.4;44.5;15;14.9;26.0;0.0;
26/02/2025 19:07:25;100;0;130.54;-4;-20.14;-3.99;735.3;12.60;75673;2836.194;-1800.146;1;133;-110;-111.3;44.4;44.6;15;15.3;26.0;0.0;
26/02/2025 19:07:45;100;0;130.50;-4;-20.25;-3.99;737.7;12.60;75677;2836.193;-1800.144;1;133;-110;-111.3;44.4;44.6;15;15.3;26.0;0.0;
26/02/2025 19:08:05;100;0;131.38;-4;-20.33;-3.97;740.1;12.60;75670;2836.191;-1800.141;1;133;-110;-111.3;44.4;44.6;15;15.3;26.0;0.0;
26/02/2025 19:08:25;100;0;132.86;-4;-20.42;-4.00;742.7;12.60;75658;2836.189;-1800.139;1;133;-110;-111.3;44.4;44.5;15;15.3;26.0;0.0;
26/02/2025 19:08:45;100;0;134.27;-4;-20.43;-3.98;745.1;12.50;75660;2836.187;-1800.136;1;133;-110;-111.3;44.4;44.6;15;15.3;26.0;0.0;
26/02/2025 19:09:05;100;0;135.79;-4;-20.40;-3.95;747.6;12.50;75657;2836.185;-1800.134;1;133;-110;-111.3;44.4;44.6;15;15.3;26.0;0.0;
26/02/2025 19:09:25;100;0;138.10;-4;-20.45;-3.97;750.2;12.50;75652;2836.183;-1800.132;1;133;-110;-111.3;44.4;44.6;15;15.3;26.0;0.0;
26/02/2025 19:09:45;100;0;141.26;-4;-20.22;-4.00;752.8;12.50;75649;2836.180;-1800.129;1;133;-110;-112.9;44.4;44.6;15;15.3;26.0;0.0;
26/02/2025 19:10:05;100;0;144.21;-4;-20.38;-4.00;755.3;12.40;75636;2836.178;-1800.127;1;133;-110;-111.3;44.4;44.5;18;18.1;26.0;0.0;
26/02/2025 19:10:25;100;0;145.44;-4;-20.50;-2.44;757.9;12.40;75637;2836.175;-1800.126;1;133;-110;-111.3;44.4;44.6;20;20.3;26.0;0.0;
26/02/2025 19:10:45;100;0;144.32;-4;-20.34;-1.35;760.5;12.40;75629;2836.173;-1800.124;1;133;-110;-111.3;44.4;44.6;20;20.8;26.0;0.0;
26/02/2025 19:11:05;100;0;143.23;-4;-20.48;-1.41;762.7;12.40;75626;2836.171;-1800.122;1;133;-110;-111.3;44.4;44.6;18;18.1;26.0;0.0;
26/02/2025 19:11:25;100;0;143.23;-4;-20.47;-2.99;765.2;12.30;75599;2836.168;-1800.120;1;133;-110;-111.3;44.4;44.6;18;17.6;26.0;0.0;
26/02/2025 19:11:45;100;0;140.18;-4;-20.00;-2.97;767.6;12.30;75608;2836.166;-1800.118;1;133;-110;-111.3;44.4;44.6;16;15.8;25.9;0.0;
26/02/2025 19:12:05;100;0;137.67;-4;-20.51;-3.81;770.1;12.30;75598;2836.164;-1800.116;1;133;-110;-111.3;44.4;44.6;16;15.8;26.0;0.0;
26/02/2025 19:12:25;100;0;136.24;-4;-20.46;-3.87;772.5;12.30;75602;2836.162;-1800.113;1;133;-110;-111.3;44.4;44.5;16;15.3;26.0;0.0;
26/02/2025 19:12:45;100;0;135.60;-4;-20.38;-3.85;774.9;12.30;75595;2836.160;-1800.111;1;133;-110;-112.9;44.4;44.5;16;15.8;26.0;0.0;
26/02/2025 19:13:05;100;0;133.50;-4;-20.53;-3.93;777.3;12.30;75587;2836.159;-1800.109;1;133;-110;-112.9;44.4;44.6;16;15.8;26.0;0.0;
26/02/2025 19:13:25;100;0;133.27;-4;-20.15;-3.95;779.7;12.20;75575;2836.157;-1800.107;1;133;-110;-111.3;44.4;44.5;16;15.8;26.0;0.0;
26/02/2025 19:13:45;100;0;132.59;-4;-20.42;-3.80;782.0;12.20;75569;2836.155;-1800.104;1;133;-110;-111.3;44.4;44.5;16;15.8;26.0;0.0;
26/02/2025 19:14:05;100;0;131.38;-4;-20.20;-3.87;784.3;12.20;75569;2836.153;-1800.102;1;133;-110;-111.3;44.4;44.6;16;15.8;26.0;0.0;
26/02/2025 19:14:25;100;0;128.64;-4;-20.15;-3.85;786.8;12.10;75559;2836.151;-1800.099;1;133;-110;-111.3;44.4;44.6;16;15.3;26.0;0.0;
26/02/2025 19:14:45;100;0;128.06;-4;-20.04;-3.82;789.1;12.10;75568;2836.150;-1800.097;1;133;-110;-111.3;44.4;44.6;16;15.8;26.0;0.0;
26/02/2025 19:15:05;100;0;125.71;-4;-20.02;-3.96;791.7;12.10;75548;2836.148;-1800.094;1;133;-110;-111.3;44.4;44.6;13;13.1;26.0;0.0;
26/02/2025 19:15:25;100;0;124.33;-4;-20.21;-5.39;794.1;12.10;75554;2836.147;-1800.091;1;133;-110;-114.5;44.4;44.5;13;12.6;26.0;0.0;
26/02/2025 19:15:45;100;0;121.99;-4;-19.99;-5.38;796.6;12.00;75547;2836.145;-1800.088;1;133;-110;-111.3;44.4;44.6;10;9.9;26.0;0.0;
26/02/2025 19:16:05;100;0;121.81;-4;-19.84;-6.79;799.2;12.00;75537;2836.144;-1800.085;1;133;-110;-111.3;44.4;44.6;10;9.9;26.0;0.0;
26/02/2025 19:16:25;100;0;123.07;-4;-19.84;-6.79;801.7;12.00;75540;2836.142;-1800.082;1;133;-110;-111.3;44.4;44.6;10;9.9;26.0;0.0;
26/02/2025 19:16:45;100;0;124.51;-4;-19.91;-6.83;804.3;12.00;75536;2836.141;-1800.080;1;133;-110;-111.3;44.4;44.5;12;12.2;26.0;0.0;
26/02/2025 19:17:05;100;0;126.99;-4;-19.93;-5.34;806.8;12.00;75531;2836.139;-1800.077;1;133;-110;-111.3;44.4;44.5;14;14.0;26.0;0.0;
26/02/2025 19:17:25;100;0;129.25;-4;-20.00;-4.54;809.4;11.90;75517;2836.137;-1800.074;1;133;-110;-111.3;44.4;44.6;14;14.4;26.0;0.0;
26/02/2025 19:17:45;100;0;130.45;-4;-20.20;-4.52;811.8;11.90;75529;2836.135;-1800.072;1;133;-110;-111.3;44.4;44.6;14;14.0;26.0;0.0;
26/02/2025 19:18:05;100;0;129.00;-4;-19.95;-4.52;814.2;11.90;75508;2836.133;-1800.069;1;133;-110;-111.3;44.4;44.6;14;14.4;26.0;0.0;
26/02/2025 19:18:25;100;0;131.59;-4;-19.85;-4.41;816.7;11.90;75509;2836.132;-1800.067;1;133;-110;-112.9;44.4;44.6;14;14.4;26.0;0.0;
26/02/2025 19:18:45;100;0;132.69;-4;-19.88;-4.58;819.0;11.90;75505;2836.130;-1800.064;1;133;-110;-111.3;44.4;44.6;14;14.4;26.0;0.0;
26/02/2025 19:19:05;100;0;134.72;-4;-20.10;-4.55;821.4;11.80;75492;2836.128;-1800.062;1;133;-110;-111.3;44.4;44.6;14;14.4;26.0;0.0;
26/02/2025 19:19:25;100;0;136.12;-4;-20.14;-4.57;823.7;11.80;75485;2836.126;-1800.060;1;133;-110;-111.3;44.4;44.6;14;14.4;26.0;0.0;
26/02/2025 19:19:45;100;0;137.87;-4;-20.27;-4.56;826.3;11.80;75486;2836.124;-1800.058;1;133;-110;-111.3;44.4;44.6;14;14.4;26.0;0.0;
26/02/2025 19:20:05;100;0;139.07;-4;-20.28;-4.52;828.9;11.80;75472;2836.122;-1800.055;1;133;-110;-111.3;44.4;44.6;14;14.4;26.0;0.0;
26/02/2025 19:20:25;100;0;140.06;-4;-20.26;-4.51;831.4;11.70;75470;2836.119;-1800.053;1;133;-110;-111.3;44.4;44.5;16;16.2;26.0;0.0;
26/02/2025 19:20:45;100;0;140.76;-4;-20.24;-3.39;834.1;11.70;75465;2836.117;-1800.051;1;133;-110;-111.3;44.4;44.6;16;16.2;26.0;0.0;
26/02/2025 19:21:05;100;0;140.78;-4;-20.33;-3.48;836.7;11.70;75456;2836.114;-1800.049;1;133;-110;-112.9;44.4;44.6;16;16.2;26.0;0.0;
26/02/2025 19:21:25;100;0;141.13;-4;-20.23;-3.43;839.3;11.70;75459;2836.112;-1800.047;1;133;-110;-111.3;44.4;44.5;16;16.2;26.0;0.0;
26/02/2025 19:21:45;100;0;140.64;-4;-20.19;-3.42;841.9;11.70;75449;2836.110;-1800.044;1;133;-110;-111.3;44.4;44.6;16;16.7;26.0;0.0;
26/02/2025 19:22:05;100;0;139.08;-4;-20.25;-3.50;844.5;11.60;75438;2836.107;-1800.042;1;133;-110;-112.9;44.4;44.6;16;16.2;26.0;0.0;
26/02/2025 19:22:25;100;0;140.55;-4;-20.03;-3.48;847.3;11.60;75433;2836.105;-1800.040;1;133;-110;-111.3;44.4;44.6;16;16.2;26.0;0.0;
26/02/2025 19:22:45;100;0;141.55;-4;-20.02;-3.51;849.8;11.60;75431;2836.103;-1800.038;1;133;-110;-111.3;44.4;44.6;16;16.2;26.0;0.0;
26/02/2025 19:23:05;100;0;143.33;-4;-19.55;-3.48;852.4;11.60;75418;2836.100;-1800.035;1;133;-110;-112.9;44.4;44.6;18;18.1;26.0;0.0;
26/02/2025 19:23:25;100;0;140.69;-4;-20.49;-2.34;855.0;11.50;75408;2836.098;-1800.033;1;133;-110;-111.3;44.4;44.6;16;15.8;26.0;0.0;
26/02/2025 19:23:45;100;0;139.40;-4;-20.62;-3.94;857.6;11.50;75399;2836.096;-1800.031;1;133;-110;-114.5;44.4;44.6;16;15.8;26.0;0.0;
26/02/2025 19:24:05;100;0;135.53;-4;-20.79;-4.05;860.2;11.50;75402;2836.094;-1800.029;1;133;-110;-111.3;44.4;44.6;16;15.3;26.0;0.0;
26/02/2025 19:24:25;100;0;134.38;-4;-20.39;-3.62;862.9;11.50;75404;2836.091;-1800.026;1;133;-110;-111.3;44.4;44.6;16;15.8;26.0;0.0;
26/02/2025 19:24:45;100;0;132.04;-4;-19.73;-3.80;865.6;11.40;75402;2836.089;-1800.023;1;133;-110;-111.3;44.4;44.6;16;15.8;26.0;0.0;
26/02/2025 19:25:05;100;0;128.79;-4;-20.04;-3.89;868.3;11.40;75396;2836.087;-1800.021;1;133;-110;-111.3;44.4;44.5;16;15.8;26.0;0.0;
26/02/2025 19:25:25;100;0;126.38;-4;-20.02;-3.89;870.8;11.40;75394;2836.086;-1800.018;1;133;-110;-111.3;44.4;44.6;14;14.0;26.0;0.0;
26/02/2025 19:25:45;100;0;125.21;-4;-19.67;-4.94;873.5;11.40;75390;2836.084;-1800.015;1;133;-110;-111.3;44.4;44.6;14;14.0;26.0;0.0;
26/02/2025 19:26:05;100;0;126.75;-4;-19.81;-4.88;876.1;11.30;75380;2836.082;-1800.012;1;133;-110;-111.3;44.4;44.5;14;13.5;26.0;0.0;
26/02/2025 19:26:25;100;0;127.64;-4;-19.99;-4.96;878.8;11.30;75383;2836.080;-1800.009;1;133;-110;-111.3;44.4;44.6;14;14.0;26.0;0.0;
26/02/2025 19:26:45;100;0;128.07;-4;-19.91;-4.94;881.4;11.30;75374;2836.079;-1800.006;1;133;-110;-109.7;44.4;44.6;14;14.0;26.0;0.0;
26/02/2025 19:27:05;100;0;128.05;-4;-19.94;-4.82;884.2;11.30;75374;2836.077;-1800.003;1;133;-110;-111.3;44.4;44.6;14;13.5;26.0;0.0;
26/02/2025 19:27:25;100;0;128.89;-4;-19.91;-4.83;887.0;11.20;75365;2836.075;-1800.000;1;133;-110;-111.3;44.4;44.5;14;14.0;26.0;0.0;
26/02/2025 19:27:45;100;0;127.86;-4;-19.85;-4.86;889.8;11.20;75366;2836.073;-1759.997;1;133;-110;-111.3;44.4;44.6;14;13.5;26.0;0.0;
26/02/2025 19:28:05;100;0;128.31;-4;-19.83;-4.82;892.4;11.20;75353;2836.071;-1759.995;1;133;-110;-111.3;44.4;44.5;14;14.0;26.0;0.0;
26/02/2025 19:28:25;100;0;129.54;-4;-19.62;-4.85;895.3;11.20;75349;2836.069;-1759.991;1;133;-110;-111.3;44.4;44.6;14;14.0;26.0;0.0;
26/02/2025 19:28:45;100;0;131.93;-4;-19.22;-5.01;897.9;11.20;75345;2836.067;-1759.989;1;133;-110;-112.9;44.4;44.6;14;13.5;26.0;0.0;
26/02/2025 19:29:05;100;0;135.15;-4;-19.71;-4.86;900.5;11.10;75340;2836.064;-1759.986;1;133;-110;-109.7;44.4;44.6;14;13.5;26.0;0.0;
26/02/2025 19:29:25;100;0;135.21;-4;-19.84;-4.85;903.0;11.10;75330;2836.062;-1759.984;1;133;-110;-111.3;44.4;44.5;14;14.0;25.9;0.0;
26/02/2025 19:29:45;100;0;135.62;-4;-19.58;-4.85;905.7;11.10;75328;2836.060;-1759.981;1;133;-110;-111.3;44.4;44.5;14;13.5;26.0;0.0;
26/02/2025 19:30:05;100;0;137.24;-4;-19.64;-4.87;908.3;11.10;75330;2836.058;-1759.979;1;133;-110;-111.3;44.4;44.6;14;13.5;26.0;0.0;
26/02/2025 19:30:25;100;0;138.80;-4;-19.56;-4.84;911.0;11.10;75322;2836.056;-1759.977;1;133;-110;-111.3;44.4;44.6;14;13.5;26.0;0.0;
26/02/2025 19:30:45;100;0;137.99;-4;-19.47;-4.93;913.7;11.00;75312;2836.053;-1759.974;1;133;-110;-111.3;44.4;44.6;14;14.0;26.0;0.0;
26/02/2025 19:31:05;100;0;138.99;-4;-19.48;-4.80;916.1;11.00;75313;2836.051;-1759.972;1;133;-110;-111.3;44.4;44.6;16;15.8;26.0;0.0;
26/02/2025 19:31:25;100;0;137.56;-4;-19.48;-3.59;918.7;11.00;75306;2836.049;-1759.969;1;133;-110;-111.3;44.4;44.6;16;16.2;26.0;0.0;
26/02/2025 19:31:45;100;0;136.01;-4;-19.47;-3.55;921.1;11.00;75296;2836.047;-1759.967;1;133;-110;-111.3;44.4;44.6;16;16.2;25.9;0.0;
26/02/2025 19:32:05;100;0;135.35;-4;-19.58;-3.54;923.4;10.90;75294;2836.045;-1759.965;1;133;-110;-111.3;44.4;44.6;16;16.2;26.0;0.0;
26/02/2025 19:32:25;100;0;134.73;-4;-19.54;-3.54;925.9;11.00;75294;2836.043;-1759.962;1;133;-110;-111.3;44.4;44.6;16;16.2;26.0;0.0;
26/02/2025 19:32:45;100;0;134.95;-4;-19.57;-3.53;928.3;10.90;75283;2836.041;-1759.960;1;133;-110;-109.7;44.4;44.6;16;16.2;26.0;0.0;
26/02/2025 19:33:05;100;0;135.05;-4;-19.65;-3.51;930.9;10.90;75289;2836.039;-1759.958;1;133;-110;-111.3;44.4;44.6;16;16.2;26.0;0.0;
26/02/2025 19:33:25;100;0;136.06;-4;-19.69;-3.49;933.4;10.90;75282;2836.037;-1759.955;1;133;-110;-111.3;44.4;44.6;16;16.2;25.9;0.0;
26/02/2025 19:33:45;100;0;136.08;-4;-19.29;-3.51;935.8;10.90;75276;2836.035;-1759.953;1;133;-110;-111.3;44.4;44.5;16;16.2;26.0;0.0;
26/02/2025 19:34:05;100;0;135.13;-4;-19.50;-3.62;938.3;10.80;75275;2836.033;-1759.951;1;133;-110;-111.3;44.4;44.6;16;16.2;26.0;0.0;
26/02/2025 19:34:25;100;0;134.76;-4;-19.62;-3.47;940.7;10.80;75273;2836.031;-1759.948;1;133;-110;-112.9;44.4;44.6;16;16.2;25.9;0.0;
26/02/2025 19:34:45;100;0;134.32;-4;-19.43;-3.55;943.4;10.80;75258;2836.028;-1759.946;1;133;-110;-111.3;44.4;44.6;16;16.2;26.0;0.0;
26/02/2025 19:35:05;100;0;133.23;-4;-19.72;-3.51;945.8;10.80;75254;2836.026;-1759.943;1;133;-110;-109.7;44.4;44.6;16;16.2;26.0;0.0;
26/02/2025 19:35:25;100;0;131.50;-4;-19.74;-3.52;948.3;10.80;75263;2836.025;-1759.941;1;133;-110;-111.3;44.4;44.5;16;16.2;26.0;0.0;
26/02/2025 19:35:45;100;0;133.61;-4;-19.77;-3.54;950.8;10.70;75245;2836.023;-1759.938;1;133;-110;-111.3;44.4;44.6;16;16.2;26.0;0.0;
26/02/2025 19:36:05;100;0;136.62;-4;-19.07;-3.65;953.4;10.70;75238;2836.020;-1759.936;1;133;-110;-111.3;44.4;44.5;16;16.2;26.0;0.0;
26/02/2025 19:36:25;100;0;140.45;-4;-19.21;-3.22;956.0;10.70;75240;2836.018;-1759.934;1;133;-110;-111.3;44.4;44.6;16;16.2;26.0;0.0;
26/02/2025 19:36:46;100;0;138.58;-4;-18.29;-3.54;958.3;10.70;75243;2836.016;-1759.931;1;133;-110;-111.3;44.9;44.9;16;16.2;26.0;0.0;
26/02/2025 19:37:06;100;0;138.89;-4;-21.17;-3.64;960.7;10.60;75225;2836.014;-1759.929;1;133;-110;-111.3;44.9;45.1;16;16.2;26.0;0.0;
26/02/2025 19:37:26;100;0;140.32;-4;-20.51;-3.55;963.4;10.60;75229;2836.011;-1759.927;1;133;-110;-109.7;44.9;45.1;16;16.2;26.0;0.0;
26/02/2025 19:37:46;100;0;138.19;-4;-20.25;-3.45;966.0;10.60;75219;2836.009;-1759.925;1;133;-110;-114.5;44.9;45.2;16;16.2;26.0;0.0;
26/02/2025 19:38:06;100;0;138.38;-4;-18.69;-3.53;968.4;10.60;75214;2836.007;-1759.923;1;133;-110;-111.3;45.3;45.5;16;16.2;26.0;0.0;
26/02/2025 19:38:26;100;0;135.82;-4;-20.22;-3.44;970.6;10.60;75213;2836.005;-1759.921;1;133;-110;-111.3;45.3;45.7;16;16.2;26.0;0.0;
26/02/2025 19:38:46;100;0;137.28;-4;-22.25;-3.48;972.7;10.50;75212;2836.004;-1759.919;1;133;-110;-111.3;44.6;44.6;16;16.7;25.9;0.0;
26/02/2025 19:39:06;100;0;136.29;-4;-21.10;-3.77;975.0;10.50;75199;2836.002;-1759.917;1;133;-110;-111.3;44.6;44.5;16;16.2;26.0;0.0;
26/02/2025 19:39:26;100;0;130.56;-4;-20.27;-3.20;977.4;10.50;75205;2836.000;-1759.914;1;133;-110;-111.3;44.6;44.5;16;16.2;26.0;0.0;
26/02/2025 19:39:46;100;0;131.98;-4;-18.07;-3.52;979.8;10.50;75205;2835.998;-1759.912;1;133;-110;-111.3;45.2;45.2;16;16.2;26.0;0.0;
26/02/2025 19:40:06;100;0;135.03;-4;-21.75;-3.53;981.8;10.50;75196;2835.997;-1759.910;1;133;-110;-111.3;45.2;45.5;16;16.2;26.0;0.0;
26/02/2025 19:40:26;100;0;136.45;-4;-20.92;-3.62;984.2;10.40;75200;2835.995;-1759.908;1;133;-110;-111.3;45.2;45.4;16;16.2;25.9;0.0;
26/02/2025 19:40:46;100;0;130.44;-4;-21.25;-3.56;986.6;10.40;75200;2835.993;-1759.906;1;133;-110;-111.3;45.2;45.5;16;16.2;26.0;0.0;
26/02/2025 19:41:06;100;0;128.30;-4;-21.43;-3.64;988.6;10.40;75193;2835.992;-1759.904;1;133;-110;-111.3;45.2;45.5;16;16.2;26.0;0.0;
26/02/2025 19:41:26;100;0;128.62;-4;-21.08;-3.37;990.9;10.40;75186;2835.990;-1759.901;1;133;-110;-111.3;45.2;45.5;16;16.2;25.9;0.0;
26/02/2025 19:41:46;100;0;128.04;-4;-21.47;-3.36;993.1;10.40;75187;2835.989;-1759.899;1;133;-110;-111.3;45.2;45.5;16;16.2;26.0;0.0;
26/02/2025 19:42:06;100;0;128.07;-4;-20.87;-3.40;995.0;10.30;75186;2835.988;-1759.897;1;133;-130;-132.3;45.2;45.4;14;14.0;26.0;0.0;
26/02/2025 19:42:26;100;0;127.62;-4;-20.43;-5.05;996.9;10.30;75228;2835.986;-1759.895;1;133;-150;-151.6;45.2;45.5;14;13.5;26.0;0.0;
26/02/2025 19:42:45;118;0;129.15;-4;-20.61;-4.75;998.9;10.30;75262;2835.985;-1759.893;1;133;450;-150.0;21.6;21.6;7;7.2;26.0;0.0;
26/02/2025 19:42:55;118;0;110.35;-4;-6.15;-8.77;999.7;10.30;75262;2835.985;-1759.892;1;133;450;-24.2;21.6;21.5;7;7.2;24.6;-1.0;
26/02/2025 19:43:05;118;0;96.10;-4;18.01;-8.72;999.4;10.30;74985;2835.985;-1759.892;1;133;450;100.0;21.6;21.6;7;7.2;24.6;-1.0;
26/02/2025 19:43:15;118;0;90.27;-4;27.19;-8.73;998.5;10.30;74727;2835.985;-1759.891;1;133;450;224.2;21.6;21.8;7;6.8;24.6;-1.0;
26/02/2025 19:43:25;118;0;89.32;-4;28.95;-8.67;997.3;10.30;74477;2835.985;-1759.890;1;133;450;346.8;21.6;21.8;7;6.8;24.5;-1.0;
26/02/2025 19:43:35;118;0;90.24;-4;26.56;-8.39;996.0;10.30;74232;2835.985;-1759.888;1;133;450;451.6;21.6;21.8;7;7.2;24.5;-1.0;
26/02/2025 19:43:45;118;0;125.38;-4;24.19;-7.74;994.2;10.30;74019;2835.984;-1759.886;1;133;450;451.6;21.6;21.6;7;7.2;25.9;-1.0;
26/02/2025 19:43:55;118;0;123.61;-4;22.40;-7.56;992.7;10.40;74023;2835.983;-1759.885;1;133;450;451.6;21.6;21.8;7;7.2;25.9;-1.0;
26/02/2025 19:44:15;117;0;117.39;-4;20.12;-7.86;989.6;10.40;74035;2835.982;-1759.881;1;133;450;451.6;21.6;21.8;7;7.2;25.9;-1.0;
26/02/2025 19:44:35;117;0;107.03;-4;19.79;-7.85;986.6;10.40;74030;2835.981;-1759.877;1;133;450;451.6;21.6;21.8;57;56.9;25.9;-1.0;
26/02/2025 19:44:55;117;0;114.57;-4;22.17;18.14;983.4;10.50;74028;2835.979;-1759.873;1;133;450;451.6;22.3;22.5;44;44.2;25.9;-1.0;
26/02/2025 19:45:15;117;0;122.15;-4;22.15;11.38;979.6;10.50;74034;2835.977;-1759.869;1;133;450;451.6;22.9;23.0;33;32.9;25.9;-1.0;
26/02/2025 19:45:35;117;0;124.93;-4;20.83;5.48;975.9;10.50;74027;2835.975;-1759.865;1;133;450;451.6;22.9;23.0;31;31.1;25.9;-1.0;
26/02/2025 19:45:55;117;0;126.98;-4;20.19;4.35;972.5;10.50;74028;2835.973;-1759.861;1;133;450;451.6;22.9;23.1;31;30.7;25.9;-1.0;
26/02/2025 19:46:15;117;0;127.81;-4;20.18;4.41;969.3;10.50;74025;2835.970;-1759.858;1;133;450;453.2;22.9;23.1;29;28.4;26.0;-1.0;
26/02/2025 19:46:35;117;0;126.46;-4;19.72;3.09;966.1;10.40;74016;2835.968;-1759.854;1;133;450;451.6;22.9;23.0;29;28.4;26.0;-1.0;
26/02/2025 19:46:55;117;0;126.36;-4;19.94;3.18;962.9;10.40;74022;2835.966;-1759.851;1;133;450;450.0;22.9;23.1;29;28.4;26.0;-1.0;
26/02/2025 19:47:15;117;0;127.09;-4;20.54;2.94;959.5;10.40;74006;2835.963;-1759.847;1;133;450;450.0;22.9;23.1;29;28.4;26.0;-1.0;
26/02/2025 19:47:35;117;0;125.77;-4;19.62;3.25;956.0;10.40;74008;2835.961;-1759.843;1;133;450;451.6;22.9;23.1;31;31.1;25.9;-1.0;
26/02/2025 19:47:55;117;0;127.91;-4;19.54;4.99;952.6;10.40;74003;2835.959;-1759.839;1;133;450;451.6;22.9;23.1;31;31.6;26.0;-1.0;
26/02/2025 19:48:15;117;0;129.31;-4;20.40;4.89;949.2;10.40;74001;2835.956;-1759.836;1;133;450;453.2;22.9;23.1;29;28.9;26.0;-1.0;
26/02/2025 19:48:35;117;0;130.90;-4;19.84;3.32;945.6;10.40;74003;2835.953;-1759.832;1;133;450;453.2;22.9;23.1;29;28.4;26.0;-1.0;
26/02/2025 19:48:55;117;0;131.53;-4;19.29;3.37;942.3;10.30;73991;2835.951;-1759.829;1;133;450;453.2;22.9;23.1;29;28.4;26.0;-1.0;
26/02/2025 19:49:15;117;0;131.76;-4;19.16;3.24;939.2;10.30;73998;2835.948;-1759.825;1;133;450;453.2;22.9;23.1;29;28.4;25.9;-1.0;
26/02/2025 19:49:35;117;0;131.93;-4;19.88;3.31;936.0;10.30;73998;2835.946;-1759.822;1;133;450;451.6;22.9;23.0;29;28.4;26.0;-1.0;
26/02/2025 19:49:55;117;0;132.42;-4;19.41;3.37;932.7;10.30;73996;2835.943;-1759.818;1;133;450;451.6;22.9;23.1;29;28.4;26.0;-1.0;
26/02/2025 19:50:15;117;0;133.61;-4;19.73;3.19;929.9;10.30;73981;2835.941;-1759.816;1;133;450;451.6;22.9;23.1;29;28.4;26.0;-1.0;
26/02/2025 19:50:35;117;0;134.33;-4;19.66;3.28;926.5;10.30;73991;2835.938;-1759.812;1;133;450;451.6;22.9;23.1;29;28.4;26.0;-1.0;
26/02/2025 19:50:55;117;0;135.96;-4;19.48;3.26;923.4;10.20;73988;2835.935;-1759.809;1;133;450;450.0;22.9;23.1;29;28.4;26.0;-1.0;
26/02/2025 19:51:15;117;0;134.23;-4;19.72;3.36;920.2;10.20;73996;2835.933;-1759.806;1;133;450;451.6;22.9;23.1;29;28.4;26.0;-1.0;
26/02/2025 19:51:35;117;0;133.74;-4;19.53;3.32;916.9;10.20;74002;2835.930;-1759.803;1;133;450;451.6;22.9;23.0;29;28.4;26.0;-1.0;
26/02/2025 19:51:55;117;0;134.32;-4;19.27;3.18;913.6;10.20;73992;2835.927;-1759.799;1;133;450;451.6;22.9;23.1;29;28.4;26.0;-1.0;
26/02/2025 19:52:15;117;0;134.69;-4;19.45;3.26;910.3;10.20;73989;2835.924;-1759.796;1;133;450;451.6;22.9;23.0;29;28.4;26.0;-1.0;
26/02/2025 19:52:35;117;0;134.15;-4;19.68;3.15;907.0;10.20;73994;2835.922;-1759.793;1;133;450;453.2;22.9;23.1;29;28.4;26.0;-1.0;
26/02/2025 19:52:55;117;0;134.10;-4;19.41;3.31;903.7;10.20;73991;2835.919;-1759.790;1;133;450;453.2;22.9;23.0;29;28.4;26.0;-1.0;
26/02/2025 19:53:15;117;0;134.01;-4;19.39;3.34;900.4;10.20;73991;2835.916;-1759.786;1;133;450;451.6;22.9;23.1;29;28.9;26.0;-1.0;
26/02/2025 19:53:35;117;0;133.70;-4;19.56;3.30;896.9;10.20;73989;2835.913;-1759.783;1;133;450;451.6;22.9;23.0;29;28.4;25.9;-1.0;
26/02/2025 19:53:55;117;0;133.55;-4;19.57;3.44;893.6;10.20;73996;2835.910;-1759.779;1;133;450;451.6;22.9;23.1;29;28.9;26.0;-1.0;
26/02/2025 19:54:15;117;0;134.45;-4;19.79;3.31;890.2;10.20;73994;2835.907;-1759.776;1;133;450;450.0;22.9;23.1;29;28.4;26.0;-1.0;
26/02/2025 19:54:35;117;0;134.98;-4;19.69;3.25;886.8;10.20;73989;2835.905;-1759.773;1;133;450;453.2;22.9;23.1;29;28.4;26.0;-1.0;
26/02/2025 19:54:55;117;0;135.29;-4;19.57;3.52;883.3;10.10;73989;2835.902;-1759.769;1;133;450;453.2;22.9;23.0;29;28.9;25.9;-1.0;
26/02/2025 19:55:15;117;0;135.23;-4;19.39;3.34;879.9;10.10;73989;2835.899;-1759.766;1;133;450;451.6;22.9;23.1;29;28.4;25.9;-1.0;
26/02/2025 19:55:35;117;0;136.15;-4;19.88;3.17;876.3;10.10;74007;2835.896;-1759.763;1;133;450;453.2;22.9;23.1;29;28.4;26.0;-1.0;
26/02/2025 19:55:55;117;0;136.88;-4;19.95;3.67;872.8;10.10;73992;2835.893;-1759.759;1;133;450;451.6;22.9;23.0;29;28.4;25.9;-1.0;
26/02/2025 19:56:15;117;0;137.37;-4;19.75;3.27;869.1;10.10;73983;2835.889;-1759.756;1;133;450;453.2;22.9;23.1;29;28.9;26.0;-1.0;
26/02/2025 19:56:35;117;0;137.39;-4;19.67;3.46;865.4;10.10;73989;2835.886;-1759.752;1;133;450;453.2;22.9;23.1;29;28.9;25.9;-1.0;
26/02/2025 19:56:55;117;0;138.83;-4;19.62;3.22;861.8;10.10;73987;2835.883;-1759.749;1;133;450;453.2;22.9;23.0;29;28.4;26.0;-1.0;
26/02/2025 19:57:15;117;0;140.05;-4;19.52;3.08;858.0;10.10;73985;2835.879;-1759.746;1;133;450;451.6;22.9;23.1;29;28.4;26.0;-1.0;
26/02/2025 19:57:35;117;0;140.36;-4;19.75;3.21;854.4;10.10;73983;2835.876;-1759.743;1;133;450;451.6;22.9;23.0;29;28.9;25.9;-1.0;
26/02/2025 19:57:55;117;0;140.50;-4;19.55;3.42;850.6;10.10;73985;2835.873;-1759.739;1;133;450;450.0;22.9;23.1;29;28.9;26.0;-1.0;
26/02/2025 19:58:15;117;0;141.50;-4;19.47;3.26;846.9;10.10;73983;2835.869;-1759.736;1;133;450;453.2;22.9;23.1;27;27.1;26.0;-1.0;
