Timestamp;NavState;SecurityLevel;Heading;Declination;Pitch;Roll;Depth;Temperature;Pa;Lat;Lon;DeadReckoning;DesiredH;BallastCmd;BallastPos;LinCmd;LinPos;AngCmd;AngPos;Voltage;Altitude;
01/03/2025 16:54:29;119;0;243.06;-4;-48.91;-18.30;-0.1;16.60;75613;2836.711;-1759.407;0;144;500;509.7;100.0;100.4;0;-0.5;25.4;-1.0;
01/03/2025 16:54:38;116;0;270.52;-4;-63.46;-16.99;0.1;16.60;75618;2836.708;-1759.406;0;144;500;508.1;100.0;100.4;0;0.0;25.4;-1.0;
01/03/2025 16:55:03;116;0;313.71;-4;-56.57;-24.46;0.2;16.70;75631;2836.708;-1759.409;0;144;500;508.1;100.0;100.4;0;-0.5;25.4;-1.0;
01/03/2025 16:55:22;116;0;311.92;-4;-46.76;-17.68;0.1;16.80;75640;2836.706;-1759.409;0;144;500;508.1;100.0;100.6;0;-0.5;25.4;-1.0;
01/03/2025 16:55:42;116;0;314.98;-4;-42.68;-8.43;0.3;16.80;75648;2836.707;-1759.412;0;144;500;509.7;100.0;100.4;0;-0.5;25.4;-1.0;
01/03/2025 16:56:02;116;0;330.52;-4;-63.21;-16.30;0.1;16.90;75664;2836.710;-1759.415;0;144;500;508.1;100.0;100.4;0;-0.5;25.4;-1.0;
01/03/2025 16:57:04;116;0;350.62;-4;-54.33;-25.84;0.4;17.10;75689;2836.715;-1759.418;0;144;500;509.7;100.0;100.4;0;-0.5;25.4;-1.0;
01/03/2025 16:58:55;116;0;291.48;-4;-49.14;2.61;0.3;17.60;75735;2836.725;-1759.420;0;144;500;508.1;100.0;100.6;0;-0.5;25.4;-1.0;
01/03/2025 17:00:11;116;0;295.40;-4;-55.15;-26.36;0.3;18.00;75767;2836.729;-1759.424;0;144;500;509.7;100.0;100.4;0;-0.5;25.4;-1.0;
01/03/2025 17:00:31;116;0;288.88;-4;-57.62;-19.77;0.3;18.10;75776;2836.731;-1759.425;0;144;500;508.1;100.0;100.4;0;0.0;25.4;-1.0;
01/03/2025 17:00:51;116;0;277.09;-4;-54.44;9.62;0.2;18.20;75776;2836.732;-1759.425;0;144;500;508.1;100.0;100.4;0;-0.5;25.4;-1.0;
01/03/2025 17:01:11;116;0;284.14;-4;-56.52;-12.92;0.2;18.30;75794;2836.733;-1759.425;0;144;500;508.1;100.0;100.6;0;-0.5;25.4;-1.0;
01/03/2025 17:01:31;116;0;288.33;-4;-51.16;-17.17;0.2;18.40;75795;2836.735;-1759.426;0;144;500;509.7;100.0;100.4;0;-0.5;25.4;-1.0;
01/03/2025 17:01:51;116;0;321.17;-4;-44.68;-9.69;0.2;18.50;75791;2836.736;-1759.428;0;144;500;508.1;100.0;100.4;0;-0.5;25.4;-1.0;
01/03/2025 17:02:11;116;0;313.18;-4;-62.40;-11.62;0.2;18.60;75810;2836.738;-1759.429;0;144;500;509.7;100.0;100.4;0;-0.5;25.4;-1.0;
01/03/2025 17:02:31;116;0;304.23;-4;-53.13;-13.97;0.3;18.70;75811;2836.739;-1759.430;0;144;500;509.7;100.0;100.4;0;0.0;25.4;-1.0;
01/03/2025 17:02:51;116;0;313.21;-4;-70.22;-4.38;0.0;18.70;75822;2836.741;-1759.430;0;144;500;508.1;100.0;100.4;0;-0.5;25.4;-1.0;
01/03/2025 17:03:11;116;0;297.53;-4;-53.64;-5.76;0.1;18.80;75821;2836.742;-1759.431;0;144;500;508.1;100.0;100.4;0;-0.5;25.4;-1.0;
01/03/2025 17:03:22;116;0;293.56;-4;-60.38;-4.38;0.1;18.80;75827;2836.742;-1759.431;0;144;500;508.1;100.0;100.6;0;-0.5;25.4;-1.0;
01/03/2025 17:03:42;116;0;301.21;-4;-48.81;-1.48;0.1;18.90;75832;2836.743;-1759.431;0;144;500;508.1;100.0;100.4;0;-0.5;25.2;-1.0;
01/03/2025 17:04:02;116;0;298.89;-4;-55.95;0.59;0.1;19.00;75846;2836.744;-1759.431;0;144;500;508.1;100.0;100.4;0;-0.5;25.4;-1.0;
01/03/2025 17:04:22;116;0;340.35;-4;-61.22;-15.27;0.1;19.10;75850;2836.744;-1759.433;0;144;500;509.7;100.0;100.6;0;0.0;25.4;-1.0;
01/03/2025 17:04:42;116;0;334.14;-4;-60.35;-10.71;0.1;19.10;75853;2836.746;-1759.433;0;144;500;508.1;100.0;100.6;0;-0.5;25.4;-1.0;
01/03/2025 17:05:02;116;0;296.16;-4;-62.32;-18.00;0.1;19.20;75854;2836.748;-1759.434;0;144;500;509.7;100.0;100.4;0;-0.5;25.4;-1.0;
01/03/2025 17:05:13;116;0;288.03;-4;-54.89;-9.88;0.2;19.20;75860;2836.748;-1759.435;0;144;500;508.1;100.0;100.6;0;-0.5;25.4;-1.0;
01/03/2025 17:05:33;116;0;286.58;-4;-53.72;-10.11;0.2;19.30;75875;2836.749;-1759.435;0;144;500;509.7;100.0;100.4;0;-0.5;25.4;-1.0;
01/03/2025 17:05:53;116;0;279.07;-4;-50.93;-3.78;0.0;19.30;75870;2836.750;-1759.435;0;144;500;509.7;100.0;100.4;0;0.0;25.4;-1.0;
01/03/2025 17:06:13;116;0;298.96;-4;-48.45;-16.05;0.2;19.40;75885;2836.751;-1759.437;0;144;500;509.7;100.0;100.4;0;-0.5;25.4;-1.0;
01/03/2025 17:06:33;116;0;324.90;-4;-58.41;-13.52;-0.0;19.40;75883;2836.752;-1759.438;0;144;500;508.1;100.0;100.6;0;-0.5;25.4;-1.0;
01/03/2025 17:06:53;116;0;312.46;-4;-55.79;-32.32;0.1;19.50;75893;2836.753;-1759.439;0;144;500;509.7;100.0;100.6;0;0.0;25.4;-1.0;
01/03/2025 17:07:13;116;0;279.04;-4;-59.10;-1.99;0.0;19.50;75881;2836.752;-1759.441;0;144;500;508.1;100.0;100.4;0;-0.5;25.4;-1.0;
01/03/2025 17:07:33;116;0;268.60;-4;-58.38;-3.76;0.1;19.60;75897;2836.752;-1759.441;0;144;500;509.7;100.0;100.4;0;-0.5;25.4;-1.0;
01/03/2025 17:07:53;116;0;272.43;-4;-53.27;-3.17;0.1;19.60;75908;2836.750;-1759.440;0;144;500;509.7;100.0;100.4;0;-0.5;25.4;-1.0;
01/03/2025 17:08:13;116;0;274.71;-4;-59.06;-11.92;0.2;19.70;75920;2836.751;-1759.441;0;144;500;508.1;100.0;100.4;0;-0.5;25.4;-1.0;
01/03/2025 17:08:24;116;0;287.72;-4;-57.31;-9.64;0.1;19.70;75907;2836.751;-1759.441;0;144;500;509.7;100.0;100.4;0;-0.5;25.4;-1.0;
01/03/2025 17:08:45;116;0;273.47;-4;-58.81;-19.71;0.2;19.70;75917;2836.752;-1759.443;0;144;500;508.1;100.0;100.4;0;-0.5;25.4;-1.0;
01/03/2025 17:09:05;116;0;258.83;-4;-49.94;-18.88;0.2;19.80;75923;2836.754;-1759.444;0;144;500;509.7;100.0;100.4;0;-0.5;25.4;-1.0;
01/03/2025 17:09:25;116;0;269.61;-4;-65.13;-32.26;0.3;19.80;75921;2836.755;-1759.447;0;144;500;509.7;100.0;100.4;0;-0.5;25.3;-1.0;
01/03/2025 17:09:45;116;0;283.73;-4;-56.94;-10.14;0.2;19.90;75930;2836.756;-1759.448;0;144;500;509.7;100.0;100.4;0;0.0;25.3;-1.0;
01/03/2025 17:10:05;116;0;262.39;-4;-53.46;-5.96;0.1;19.90;75944;2836.757;-1759.449;0;144;500;508.1;100.0;100.4;0;-0.5;25.4;-1.0;
01/03/2025 17:10:25;116;0;245.81;-4;-57.63;-21.40;0.2;19.90;75932;2836.759;-1759.451;0;144;500;509.7;100.0;100.4;0;-0.5;25.4;-1.0;
01/03/2025 17:10:45;116;0;240.99;-4;-61.82;-19.65;-0.0;20.00;75949;2836.759;-1759.451;0;144;500;509.7;100.0;100.4;0;0.0;25.4;-1.0;
01/03/2025 17:11:05;116;0;252.10;-4;-63.24;-7.86;0.1;20.00;75937;2836.759;-1759.452;0;144;500;508.1;100.0;100.4;0;-0.5;25.4;-1.0;
01/03/2025 17:11:25;116;0;264.01;-4;-56.79;-17.93;0.2;20.10;75952;2836.760;-1759.453;0;144;500;508.1;100.0;100.4;0;0.0;25.4;-1.0;
01/03/2025 17:11:45;116;0;287.98;-4;-57.82;-9.47;0.3;20.10;75953;2836.760;-1759.454;0;144;500;508.1;100.0;100.4;0;-0.5;25.4;-1.0;
01/03/2025 17:11:56;116;0;291.40;-4;-48.97;-25.75;0.1;20.10;75961;2836.761;-1759.454;0;144;500;509.7;100.0;100.4;0;-0.5;25.4;-1.0;
01/03/2025 17:12:16;116;0;253.28;-4;-58.08;0.05;0.1;20.10;75959;2836.762;-1759.455;0;144;500;508.1;100.0;100.4;0;-0.5;25.4;-1.0;
01/03/2025 17:12:29;116;0;252.87;-4;-57.58;-21.94;0.1;20.20;75968;2836.763;-1759.455;0;144;500;508.1;100.0;100.4;0;-0.5;25.4;-1.0;
01/03/2025 17:12:49;116;0;227.85;-4;-47.99;-8.70;0.1;20.20;75972;2836.765;-1759.457;0;144;500;509.7;100.0;100.6;0;-0.5;25.4;-1.0;
01/03/2025 17:13:09;116;0;222.75;-4;-57.05;-29.21;0.1;20.30;75973;2836.765;-1759.458;0;144;500;506.5;100.0;100.4;0;-0.5;25.4;-1.0;
01/03/2025 17:13:29;116;0;237.27;-4;-56.47;-28.28;0.1;20.30;75975;2836.765;-1759.459;0;144;500;509.7;100.0;100.4;0;-0.5;25.4;-1.0;
01/03/2025 17:13:49;116;0;209.40;-4;-55.17;-11.03;0.2;20.30;75973;2836.765;-1759.460;0;144;500;508.1;100.0;100.4;0;-0.5;25.4;-1.0;
01/03/2025 17:14:09;116;0;212.27;-4;-55.82;-10.41;0.2;20.30;75993;2836.765;-1759.461;0;144;500;508.1;100.0;100.4;0;0.0;25.4;-1.0;
01/03/2025 17:14:29;116;0;228.29;-4;-54.28;-25.03;0.1;20.40;75985;2836.766;-1759.463;0;144;500;508.1;100.0;100.4;0;-0.5;25.4;-1.0;
01/03/2025 17:14:48;116;0;239.57;-4;-57.86;-11.94;0.2;20.40;75991;2836.766;-1759.464;0;144;500;509.7;100.0;100.4;0;-0.5;25.4;-1.0;
01/03/2025 17:15:08;116;0;249.66;-4;-53.39;-13.52;-0.0;20.40;75997;2836.767;-1759.465;0;144;500;508.1;100.0;100.4;0;-0.5;25.4;-1.0;
01/03/2025 17:15:28;116;0;262.82;-4;-50.44;-2.59;0.2;20.40;75994;2836.766;-1759.465;0;144;500;509.7;100.0;100.4;0;-0.5;25.4;-1.0;
01/03/2025 17:15:48;116;0;266.50;-4;-53.44;-16.36;0.1;20.50;75995;2836.766;-1759.466;0;144;500;509.7;100.0;100.4;0;-0.5;25.4;-1.0;
01/03/2025 17:16:08;116;0;269.56;-4;-52.67;-12.94;-0.0;20.50;76009;2836.766;-1759.469;0;144;500;509.7;100.0;100.6;0;-0.5;25.4;-1.0;
01/03/2025 17:16:19;116;0;241.17;-4;-65.64;2.86;0.2;20.50;76006;2836.766;-1759.470;0;144;500;509.7;100.0;100.4;0;-0.5;25.4;-1.0;
01/03/2025 17:16:39;116;0;302.25;-4;-56.10;-21.70;0.0;20.60;76010;2836.767;-1759.470;0;144;500;509.7;100.0;100.4;0;-0.5;25.4;-1.0;
01/03/2025 17:16:59;116;0;314.65;-4;-56.03;-15.20;0.3;20.60;76012;2836.767;-1759.472;0;144;500;509.7;100.0;100.4;0;-0.5;25.4;-1.0;
01/03/2025 17:17:19;116;0;315.75;-4;-53.21;-14.88;0.2;20.60;76016;2836.769;-1759.474;0;144;500;509.7;100.0;100.4;0;0.0;25.4;-1.0;
01/03/2025 17:17:39;116;0;301.03;-4;-57.48;-2.43;0.2;20.60;76023;2836.770;-1759.475;0;144;500;508.1;100.0;100.4;0;-0.5;25.4;-1.0;
01/03/2025 17:17:59;116;0;303.44;-4;-54.94;-13.91;0.3;20.60;76023;2836.771;-1759.476;0;144;500;509.7;100.0;100.4;0;-0.5;25.4;-1.0;
01/03/2025 17:18:19;116;0;295.20;-4;-51.82;-2.33;0.1;20.70;76029;2836.772;-1759.478;0;144;500;508.1;100.0;100.4;0;-0.5;25.4;-1.0;
01/03/2025 17:18:38;116;0;311.21;-4;-52.13;-19.21;0.1;20.70;76031;2836.772;-1759.479;0;144;500;509.7;100.0;100.4;0;-0.5;25.4;-1.0;
01/03/2025 17:18:58;116;0;317.60;-4;-51.25;-11.09;-0.0;20.70;76038;2836.772;-1759.480;0;144;500;509.7;100.0;100.6;0;-0.5;25.2;-1.0;
01/03/2025 17:19:18;116;0;293.32;-4;-54.83;-2.02;0.3;20.80;76034;2836.773;-1759.482;0;144;500;509.7;100.0;100.4;0;0.0;25.4;-1.0;
01/03/2025 17:19:38;116;0;272.37;-4;-55.40;-19.91;0.1;20.80;76049;2836.774;-1759.484;0;144;500;508.1;100.0;100.6;0;-0.5;25.4;-1.0;
01/03/2025 17:19:58;116;0;247.89;-4;-48.58;-15.84;0.1;20.80;76047;2836.776;-1759.485;0;144;500;509.7;100.0;100.4;0;0.0;25.3;-1.0;
01/03/2025 17:20:18;116;0;292.29;-4;-59.06;-20.10;0.2;20.80;76048;2836.776;-1759.488;0;144;500;508.1;100.0;100.6;0;0.0;25.4;-1.0;
01/03/2025 17:20:38;116;0;299.51;-4;-58.44;-12.09;0.3;20.80;76050;2836.777;-1759.489;0;144;500;509.7;100.0;100.6;0;-0.5;25.4;-1.0;
01/03/2025 17:20:58;116;0;281.85;-4;-49.73;-8.70;0.2;20.90;76063;2836.777;-1759.489;0;144;500;508.1;100.0;100.6;0;-0.5;25.4;-1.0;
01/03/2025 17:21:09;116;0;262.87;-4;-57.78;-19.76;0.1;20.90;76046;2836.777;-1759.491;0;144;500;506.5;100.0;100.4;0;0.0;25.4;-1.0;
01/03/2025 17:21:29;116;0;292.39;-4;-55.49;-8.15;-0.0;20.90;76059;2836.778;-1759.493;0;144;500;509.7;100.0;100.4;0;0.0;25.4;-1.0;
01/03/2025 17:21:49;116;0;286.01;-4;-56.06;-4.76;0.1;20.90;76063;2836.778;-1759.494;0;144;500;509.7;100.0;100.6;0;0.0;25.4;-1.0;
01/03/2025 17:22:09;116;0;290.30;-4;-47.61;-13.03;0.1;20.90;76068;2836.778;-1759.496;0;144;500;509.7;100.0;100.4;0;-0.5;25.4;-1.0;
01/03/2025 17:22:29;116;0;286.60;-4;-48.43;-1.78;-0.2;20.90;76073;2836.779;-1759.498;0;144;500;509.7;100.0;100.4;0;-0.5;25.4;-1.0;
01/03/2025 17:22:49;116;0;310.70;-4;-50.96;-16.95;0.2;21.00;76074;2836.780;-1759.499;0;144;500;509.7;100.0;100.4;0;0.0;25.4;-1.0;
01/03/2025 17:23:09;116;0;279.49;-4;-64.13;3.35;0.2;21.00;76075;2836.781;-1759.502;0;144;500;509.7;100.0;100.6;0;0.0;25.4;-1.0;
01/03/2025 17:23:29;116;0;295.03;-4;-53.38;-0.55;0.1;21.00;76081;2836.781;-1759.503;0;144;500;508.1;100.0;100.4;0;-0.5;25.4;-1.0;
01/03/2025 17:23:49;116;0;276.81;-4;-50.33;-17.64;-0.0;21.00;76080;2836.783;-1759.505;0;144;500;509.7;100.0;100.4;0;0.0;25.4;-1.0;
01/03/2025 17:24:00;116;0;266.19;-4;-65.80;-13.87;0.1;21.00;76082;2836.784;-1759.506;0;144;500;509.7;100.0;100.4;0;-0.5;25.4;-1.0;
01/03/2025 17:24:20;116;0;268.18;-4;-56.13;-21.88;-0.0;21.10;76079;2836.785;-1759.507;0;144;500;508.1;100.0;100.6;0;0.0;25.4;-1.0;
01/03/2025 17:24:40;116;0;289.76;-4;-54.63;-13.88;0.1;21.10;76092;2836.785;-1759.509;0;144;500;509.7;100.0;100.4;0;0.0;25.4;-1.0;
01/03/2025 17:25:00;116;0;293.19;-4;-50.53;-12.28;0.3;21.10;76083;2836.786;-1759.510;0;144;500;508.1;100.0;100.4;0;0.0;25.4;-1.0;
01/03/2025 17:25:20;116;0;293.51;-4;-45.90;-16.77;0.1;21.10;76103;2836.787;-1759.512;0;144;500;506.5;100.0;100.6;0;-0.5;25.4;-1.0;
01/03/2025 17:25:40;116;0;304.01;-4;-53.67;-14.05;0.1;21.10;76095;2836.788;-1759.514;0;144;500;508.1;100.0;100.4;0;0.0;25.4;-1.0;
01/03/2025 17:26:00;116;0;330.40;-4;-58.12;-6.22;-0.0;21.10;76098;2836.789;-1759.517;0;144;500;508.1;100.0;100.4;0;-0.5;25.4;-1.0;
01/03/2025 17:26:19;116;0;338.72;-4;-57.91;-15.13;-0.0;21.20;76109;2836.791;-1759.519;0;144;500;508.1;100.0;100.4;0;-0.5;25.4;-1.0;
01/03/2025 17:26:39;116;0;346.93;-4;-48.27;-11.27;0.1;21.20;76102;2836.791;-1759.520;0;144;500;508.1;100.0;100.4;0;0.0;25.4;-1.0;
01/03/2025 17:26:59;116;0;327.24;-4;-59.79;-14.36;0.2;21.20;76114;2836.792;-1759.521;0;144;500;508.1;100.0;100.4;0;-0.5;25.4;-1.0;
01/03/2025 17:27:19;116;0;333.91;-4;-55.03;-17.64;0.0;21.20;76112;2836.794;-1759.523;0;144;500;508.1;100.0;100.4;0;-0.5;25.4;-1.0;
01/03/2025 17:27:39;116;0;319.84;-4;-49.40;-11.67;-0.0;21.20;76117;2836.795;-1759.524;0;144;500;509.7;100.0;100.4;0;-0.5;25.4;-1.0;
01/03/2025 17:28:00;116;0;324.86;-4;-59.44;-13.89;-0.0;21.20;76116;2836.796;-1759.526;0;144;500;508.1;100.0;100.6;0;0.0;25.4;-1.0;
01/03/2025 17:28:20;116;0;330.32;-4;-47.37;-15.50;-0.0;21.30;76117;2836.797;-1759.528;0;144;500;509.7;100.0;100.6;0;-0.5;25.4;-1.0;
01/03/2025 17:28:40;116;0;322.07;-4;-45.82;-10.06;-0.0;21.30;76126;2836.797;-1759.529;0;144;500;509.7;100.0;100.6;0;-0.5;25.4;-1.0;
01/03/2025 17:29:00;116;0;334.94;-4;-48.90;-10.88;0.1;21.30;76123;2836.799;-1759.530;0;144;500;508.1;100.0;100.4;0;0.0;25.3;-1.0;
01/03/2025 17:29:20;116;0;325.91;-4;-54.38;-18.24;-0.0;21.30;76128;2836.800;-1759.532;0;144;500;508.1;100.0;100.4;0;0.0;25.4;-1.0;
01/03/2025 17:29:40;116;0;315.87;-4;-53.18;-10.47;-0.0;21.30;76127;2836.802;-1759.534;0;144;500;508.1;100.0;100.6;0;0.0;25.4;-1.0;
01/03/2025 17:30:00;116;0;331.55;-4;-48.35;-24.20;0.1;21.30;76132;2836.804;-1759.536;0;144;500;508.1;100.0;100.4;0;0.0;25.4;-1.0;
01/03/2025 17:30:20;116;0;323.27;-4;-58.03;-6.30;0.1;21.30;76126;2836.805;-1759.538;0;144;500;506.5;100.0;100.4;0;0.0;25.4;-1.0;
01/03/2025 17:30:40;116;0;291.40;-4;-55.67;-8.19;-0.0;21.30;76128;2836.807;-1759.541;0;144;500;508.1;100.0;100.6;0;-0.5;25.4;-1.0;
01/03/2025 17:30:56;116;0;313.03;-4;-50.67;-19.97;0.1;21.30;76141;2836.808;-1759.543;0;144;500;508.1;100.0;100.4;0;0.0;25.4;-1.0;
01/03/2025 17:31:13;116;0;320.65;-4;-56.59;-23.44;0.2;21.30;76133;2836.808;-1759.543;0;144;500;508.1;100.0;100.4;0;-0.5;25.4;-1.0;
01/03/2025 17:31:34;116;0;310.67;-4;-49.48;-9.43;0.2;21.40;76145;2836.810;-1759.545;0;144;500;508.1;100.0;100.4;0;0.0;25.4;-1.0;
01/03/2025 17:31:45;116;0;314.86;-4;-57.42;-20.73;0.3;21.40;76140;2836.811;-1759.547;0;144;500;508.1;100.0;100.4;0;0.0;25.4;-1.0;
01/03/2025 17:32:05;116;0;326.16;-4;-52.96;-11.89;-0.0;21.40;76145;2836.812;-1759.548;0;144;500;508.1;100.0;100.6;0;0.0;25.4;-1.0;
01/03/2025 17:32:25;116;0;326.85;-4;-48.36;-12.05;0.1;21.40;76141;2836.814;-1759.551;0;144;500;508.1;100.0;100.4;0;-0.5;25.4;-1.0;
01/03/2025 17:32:45;116;0;305.29;-4;-60.21;-4.42;0.1;21.40;76144;2836.815;-1759.553;0;144;500;508.1;100.0;100.4;0;-0.5;25.4;-1.0;
01/03/2025 17:33:05;116;0;313.43;-4;-55.67;-7.24;0.1;21.40;76154;2836.817;-1759.555;0;144;500;508.1;100.0;100.6;0;-0.5;25.4;-1.0;
01/03/2025 17:33:25;116;0;327.01;-4;-51.80;-11.84;0.1;21.40;76151;2836.819;-1759.557;0;144;500;508.1;100.0;100.4;0;-0.5;25.4;-1.0;
01/03/2025 17:33:45;116;0;330.63;-4;-54.02;-11.20;0.2;21.40;76156;2836.822;-1759.560;0;144;500;508.1;100.0;100.6;0;-0.5;25.4;-1.0;
01/03/2025 17:34:05;116;0;349.14;-4;-51.70;-2.97;-0.1;21.50;76163;2836.823;-1759.561;0;144;500;508.1;100.0;100.6;0;0.0;25.4;-1.0;
01/03/2025 17:34:25;116;0;341.66;-4;-45.42;-6.16;0.2;21.50;76163;2836.825;-1759.562;0;144;500;509.7;100.0;100.4;0;0.0;25.4;-1.0;
01/03/2025 17:34:45;116;0;317.96;-4;-53.35;-21.05;-0.0;21.50;76166;2836.826;-1759.564;0;144;500;508.1;100.0;100.4;0;-0.5;25.4;-1.0;
01/03/2025 17:35:05;116;0;319.00;-4;-56.54;-15.79;0.1;21.50;76170;2836.827;-1759.566;0;144;500;508.1;100.0;100.6;0;-0.5;25.4;-1.0;
01/03/2025 17:35:25;116;0;324.29;-4;-47.68;-3.54;0.0;21.50;76169;2836.829;-1759.567;0;144;500;508.1;100.0;100.6;0;0.0;25.4;-1.0;
01/03/2025 17:35:45;116;0;323.85;-4;-49.65;-8.46;0.0;21.50;76166;2836.831;-1759.569;0;144;500;508.1;100.0;100.6;0;0.0;25.4;-1.0;
01/03/2025 17:36:05;116;0;321.14;-4;-49.55;-20.18;0.1;21.50;76179;2836.834;-1759.572;0;144;500;508.1;100.0;100.4;0;0.0;25.4;-1.0;
01/03/2025 17:36:25;116;0;315.11;-4;-46.37;-21.53;0.1;21.50;76170;2836.835;-1759.573;0;144;500;508.1;100.0;100.6;0;0.0;25.4;-1.0;
01/03/2025 17:36:45;116;0;309.77;-4;-51.63;-17.31;0.1;21.50;76178;2836.837;-1759.576;0;144;500;508.1;100.0;100.4;0;0.0;25.3;-1.0;
01/03/2025 17:37:05;116;0;329.66;-4;-55.07;-7.07;0.1;21.50;76178;2836.839;-1759.577;0;144;500;508.1;100.0;100.6;0;0.0;25.4;-1.0;
01/03/2025 17:37:25;116;0;342.86;-4;-45.53;-17.87;0.1;21.50;76186;2836.840;-1759.580;0;144;500;508.1;100.0;100.4;0;-0.5;25.4;-1.0;
01/03/2025 17:37:45;116;0;327.61;-4;-50.66;-19.54;0.2;21.60;76185;2836.842;-1759.582;0;144;500;508.1;100.0;100.4;0;0.0;25.4;-1.0;
01/03/2025 17:38:05;116;0;326.54;-4;-54.59;-16.67;0.2;21.50;76180;2836.844;-1759.584;0;144;500;508.1;100.0;100.6;0;0.0;25.4;-1.0;
01/03/2025 17:38:25;116;0;322.03;-4;-55.05;-7.33;0.1;21.60;76184;2836.846;-1759.587;0;144;500;508.1;100.0;100.4;0;0.0;25.4;-1.0;
01/03/2025 17:38:45;116;0;323.92;-4;-48.36;-11.11;0.3;21.60;76186;2836.848;-1759.588;0;144;500;508.1;100.0;100.6;0;0.0;25.4;-1.0;
01/03/2025 17:39:05;116;0;297.01;-4;-55.96;-8.12;0.0;21.60;76197;2836.849;-1759.590;0;144;500;508.1;100.0;100.4;0;0.0;25.4;-1.0;
01/03/2025 17:39:25;116;0;329.77;-4;-56.21;-7.70;0.0;21.60;76200;2836.852;-1759.592;0;144;500;508.1;100.0;100.6;0;0.0;25.4;-1.0;
01/03/2025 17:39:45;116;0;324.93;-4;-51.26;-7.16;0.1;21.60;76197;2836.854;-1759.594;0;144;500;508.1;100.0;100.4;0;0.0;25.3;-1.0;
01/03/2025 17:40:06;116;0;345.43;-4;-52.85;-18.63;-0.1;21.60;76202;2836.855;-1759.595;0;144;500;508.1;100.0;100.6;0;0.0;25.4;-1.0;
01/03/2025 17:40:26;116;0;315.58;-4;-56.40;-5.91;-0.0;21.60;76196;2836.858;-1759.599;0;144;500;508.1;100.0;100.6;0;0.0;25.4;-1.0;
01/03/2025 17:40:46;116;0;300.03;-4;-57.22;-13.52;0.2;21.60;76204;2836.861;-1759.601;0;144;500;508.1;100.0;100.6;0;-0.5;25.3;-1.0;
01/03/2025 17:41:06;116;0;320.34;-4;-45.54;-17.28;0.1;21.60;76199;2836.861;-1759.602;0;144;500;508.1;100.0;100.6;0;0.0;25.4;-1.0;
01/03/2025 17:41:26;116;0;316.77;-4;-57.90;-9.60;-0.0;21.60;76204;2836.864;-1759.605;0;144;500;508.1;100.0;100.4;0;0.0;25.4;-1.0;
01/03/2025 17:41:46;116;0;337.15;-4;-55.81;-17.00;0.1;21.60;76215;2836.866;-1759.608;0;144;500;508.1;100.0;100.6;0;0.0;25.4;-1.0;
01/03/2025 17:42:06;110;0;342.33;-4;-52.41;-8.45;0.1;21.70;76209;2836.866;-1759.608;0;144;-110;379.0;100.0;100.4;-8;-8.1;25.4;-1.0;
01/03/2025 17:42:16;110;0;345.86;-4;-52.89;-17.58;0.2;21.70;76566;2836.866;-1759.608;1;144;-110;233.9;100.0;100.6;-8;-8.6;25.4;-1.0;
01/03/2025 17:42:26;110;0;336.14;-4;-55.27;-18.51;0.6;21.70;76809;2836.866;-1759.608;1;144;-110;77.4;100.0;100.4;-8;-8.6;25.4;-1.0;
01/03/2025 17:42:36;110;0;334.64;-4;-69.18;-31.77;0.8;21.70;77133;2836.867;-1759.608;1;144;-110;-82.3;100.0;100.4;-8;-8.6;25.4;-1.0;
01/03/2025 17:42:46;110;0;334.12;-4;-67.93;-20.31;1.1;21.70;77481;2836.867;-1759.608;1;144;-110;-109.7;41.6;53.8;-8;-8.6;25.4;-1.0;
01/03/2025 17:42:56;110;0;328.64;-4;-54.92;-11.77;2.3;21.70;77495;2836.868;-1759.609;1;144;-110;-111.3;41.6;41.7;-8;-8.6;25.4;-1.0;
01/03/2025 17:43:16;100;0;337.69;-4;-20.88;-15.90;5.3;21.70;77487;2836.872;-1759.611;1;144;-110;-104.8;41.6;41.4;-8;-8.6;25.4;-1.0;
01/03/2025 17:43:36;100;0;346.00;-4;-17.55;-15.71;7.9;21.70;77471;2836.876;-1759.612;1;144;-110;-103.2;42.4;42.9;-70;-69.9;25.4;-1.0;
01/03/2025 17:43:56;100;0;353.28;-4;-19.12;-46.09;10.4;21.70;77465;2836.880;-1759.612;1;144;-110;-101.6;42.4;42.7;-70;-70.4;25.4;-1.0;
01/03/2025 17:44:16;100;0;4.18;-4;-19.22;-45.96;13.0;21.70;77462;2836.884;-1759.612;1;144;-110;-101.6;42.4;42.7;-70;-70.4;25.4;0.0;
01/03/2025 17:44:36;100;0;16.65;-4;-19.55;-45.46;15.5;21.70;77470;2836.887;-1759.611;1;144;-110;-101.6;42.4;42.7;-70;-70.4;25.4;0.0;
01/03/2025 17:44:56;100;0;27.60;-4;-19.48;-45.57;18.2;21.70;77459;2836.891;-1759.610;1;144;-110;-101.6;42.4;42.9;-70;-70.4;25.4;0.0;
01/03/2025 17:45:16;100;0;38.33;-4;-19.01;-45.74;20.7;21.70;77462;2836.894;-1759.608;1;144;-110;-101.6;42.4;42.7;-70;-70.4;25.4;0.0;
01/03/2025 17:45:36;100;0;50.46;-4;-19.23;-45.67;23.3;21.70;77451;2836.897;-1759.605;1;144;-110;-101.6;42.4;42.7;-70;-70.4;25.4;0.0;
01/03/2025 17:45:56;100;0;62.05;-4;-19.04;-45.62;25.8;21.70;77455;2836.899;-1759.602;1;144;-110;-101.6;42.4;42.7;-70;-70.4;25.4;0.0;
01/03/2025 17:46:16;100;0;73.25;-4;-19.23;-45.47;28.4;21.70;77459;2836.901;-1759.598;1;144;-110;-101.6;42.4;42.7;-70;-70.4;25.4;0.0;
01/03/2025 17:46:36;100;0;86.15;-4;-19.06;-45.63;31.0;21.60;77457;2836.902;-1759.594;1;144;-110;-101.6;42.4;42.7;-60;-60.0;25.4;0.0;
01/03/2025 17:46:56;100;0;98.77;-4;-18.49;-40.16;33.6;21.60;77459;2836.902;-1759.591;1;144;-110;-103.2;42.8;42.7;-44;-44.2;25.4;0.0;
01/03/2025 17:47:16;100;0;110.03;-4;-18.91;-32.24;36.2;21.60;77472;2836.901;-1759.587;1;144;-110;-101.6;43.1;43.4;-30;-29.8;25.4;0.0;
01/03/2025 17:47:36;100;0;120.10;-4;-20.14;-25.08;38.7;21.50;77466;2836.900;-1759.584;1;144;-110;-101.6;43.1;43.6;-15;-14.9;25.4;0.0;
01/03/2025 17:47:56;100;0;127.68;-4;-20.77;-17.77;41.4;21.40;77467;2836.898;-1759.581;1;144;-110;-103.2;43.1;43.6;-2;-1.8;25.4;0.0;
01/03/2025 17:48:16;100;0;132.11;-4;-21.75;-12.01;44.2;21.40;77461;2836.897;-1759.579;1;144;-110;-101.6;43.1;43.6;5;5.0;25.4;0.0;
01/03/2025 17:48:36;100;0;134.11;-4;-22.10;-8.71;47.2;21.30;77475;2836.895;-1759.576;1;144;-110;-101.6;42.5;42.6;7;7.7;25.4;0.0;
01/03/2025 17:48:56;100;0;134.87;-4;-20.47;-7.58;49.9;21.30;77469;2836.893;-1759.574;1;144;-110;-101.6;42.5;42.3;7;7.7;25.4;0.0;
01/03/2025 17:49:16;100;0;136.19;-4;-20.04;-7.52;52.5;21.20;77471;2836.891;-1759.571;1;144;-110;-101.6;42.5;42.3;9;9.0;25.4;0.0;
01/03/2025 17:49:36;100;0;137.45;-4;-19.96;-6.61;55.1;21.20;77474;2836.889;-1759.569;1;144;-110;-101.6;42.5;42.3;9;9.5;25.4;0.0;
01/03/2025 17:49:56;100;0;138.61;-4;-19.88;-6.70;57.8;21.10;77468;2836.887;-1759.566;1;144;-110;-103.2;42.5;42.3;11;10.8;25.4;0.0;
01/03/2025 17:50:16;100;0;139.25;-4;-20.01;-6.00;60.3;21.10;77464;2836.885;-1759.564;1;144;-110;-101.6;42.5;42.3;11;10.8;25.4;0.0;
01/03/2025 17:50:36;100;0;144.02;-4;-19.96;-5.98;63.1;21.00;77469;2836.883;-1759.562;1;144;-110;-101.6;42.5;42.3;13;13.1;25.4;0.0;
01/03/2025 17:50:56;100;0;149.37;-4;-20.12;-4.64;65.7;21.00;77465;2836.880;-1759.560;1;144;-110;-101.6;42.5;42.4;13;13.1;25.4;0.0;
01/03/2025 17:51:16;100;0;152.17;-4;-20.16;-4.80;68.4;20.90;77475;2836.878;-1759.559;1;144;-110;-103.2;42.5;42.3;13;13.5;25.4;0.0;
01/03/2025 17:51:36;100;0;151.95;-4;-19.96;-4.91;71.2;20.90;77464;2836.875;-1759.557;1;144;-110;-103.2;42.5;42.3;13;13.5;25.4;0.0;
01/03/2025 17:51:56;100;0;146.14;-4;-19.97;-4.89;73.8;20.90;77453;2836.873;-1759.555;1;144;-110;-101.6;42.5;42.3;13;13.5;25.4;0.0;
01/03/2025 17:52:16;100;0;139.08;-4;-19.68;-4.85;76.4;20.80;77446;2836.871;-1759.553;1;144;-110;-101.6;42.5;42.3;11;10.8;25.4;0.0;
01/03/2025 17:52:36;100;0;140.84;-4;-19.48;-6.45;79.0;20.80;77417;2836.869;-1759.550;1;144;-110;-101.6;42.5;42.4;11;10.4;25.4;0.0;
01/03/2025 17:52:56;100;0;144.31;-4;-19.37;-6.47;81.4;20.80;77410;2836.867;-1759.549;1;144;-110;-101.6;42.5;42.3;13;13.1;25.4;0.0;
01/03/2025 17:53:16;100;0;146.29;-4;-19.50;-4.90;83.8;20.70;77401;2836.865;-1759.547;1;144;-110;-101.6;42.5;42.3;13;13.5;25.4;0.0;
01/03/2025 17:53:36;100;0;147.03;-4;-19.42;-5.03;86.3;20.70;77394;2836.862;-1759.545;1;144;-110;-101.6;42.5;42.4;13;13.1;25.4;0.0;
01/03/2025 17:53:56;100;0;150.84;-4;-19.39;-5.01;88.6;20.60;77385;2836.860;-1759.543;1;144;-110;-103.2;42.5;42.3;13;13.5;25.4;0.0;
01/03/2025 17:54:16;100;0;152.94;-4;-19.37;-4.98;91.0;20.60;77370;2836.858;-1759.542;1;144;-110;-103.2;42.5;42.4;13;13.5;25.4;0.0;
01/03/2025 17:54:36;100;0;153.34;-4;-19.27;-4.99;93.4;20.50;77372;2836.856;-1759.541;1;144;-110;-101.6;42.5;42.3;13;13.5;25.4;0.0;
01/03/2025 17:54:56;100;0;155.68;-4;-19.14;-4.94;95.6;20.50;77360;2836.853;-1759.539;1;144;-110;-101.6;42.5;42.3;15;14.9;25.4;0.0;
01/03/2025 17:55:16;100;0;157.70;-4;-19.42;-4.06;98.0;20.50;77351;2836.851;-1759.538;1;144;-110;-101.6;42.5;42.3;17;17.1;25.4;0.0;
01/03/2025 17:55:36;100;0;154.12;-4;-19.58;-2.87;100.4;20.40;77335;2836.849;-1759.537;1;144;-110;-101.6;42.5;42.4;14;14.0;25.4;0.0;
01/03/2025 17:55:56;100;0;152.74;-4;-19.64;-4.82;102.8;20.40;77307;2836.847;-1759.536;1;144;-110;-101.6;42.5;42.3;14;14.0;25.4;0.0;
01/03/2025 17:56:16;100;0;154.95;-4;-19.66;-4.77;105.3;20.30;77306;2836.844;-1759.534;1;144;-110;-101.6;42.5;42.3;14;14.0;25.4;0.0;
01/03/2025 17:56:36;100;0;155.47;-4;-19.73;-4.76;107.7;20.30;77285;2836.842;-1759.533;1;144;-110;-101.6;42.5;42.4;14;14.0;25.4;0.0;
01/03/2025 17:56:56;100;0;150.71;-4;-19.15;-4.86;110.1;20.20;77283;2836.840;-1759.531;1;144;-110;-101.6;42.5;42.3;14;14.0;25.4;0.0;
01/03/2025 17:57:16;100;0;149.82;-4;-18.99;-4.80;112.4;20.20;77274;2836.838;-1759.530;1;144;-110;-101.6;42.8;42.9;14;14.0;25.4;0.0;
01/03/2025 17:57:36;100;0;150.15;-4;-20.32;-4.81;114.7;20.20;77274;2836.836;-1759.528;1;144;-110;-101.6;42.8;43.2;14;14.0;25.4;0.0;
01/03/2025 17:57:56;100;0;150.71;-4;-20.32;-4.75;117.2;20.10;77258;2836.833;-1759.527;1;144;-110;-101.6;42.8;43.2;14;14.0;25.4;0.0;
01/03/2025 17:58:16;100;0;149.67;-4;-20.44;-4.77;119.6;20.10;77251;2836.831;-1759.525;1;144;-110;-101.6;42.8;43.2;14;14.0;25.4;0.0;
01/03/2025 17:58:36;100;0;148.45;-4;-20.40;-4.76;122.1;20.00;77248;2836.829;-1759.524;1;144;-110;-101.6;42.8;43.2;14;14.0;25.4;0.0;
01/03/2025 17:58:56;100;0;147.96;-4;-20.04;-4.80;124.5;20.00;77228;2836.827;-1759.522;1;144;-110;-101.6;42.8;43.2;14;13.5;25.4;0.0;
01/03/2025 17:59:16;100;0;150.42;-4;-20.07;-4.81;126.7;20.00;77229;2836.825;-1759.520;1;144;-110;-101.6;42.8;43.2;14;14.0;25.4;0.0;
01/03/2025 17:59:36;100;0;148.69;-4;-20.74;-4.74;129.0;19.90;77225;2836.823;-1759.519;1;144;-110;-101.6;42.8;43.2;14;14.0;25.4;0.0;
01/03/2025 17:59:56;100;0;145.62;-4;-21.02;-4.72;131.5;19.90;77205;2836.821;-1759.517;1;144;-110;-101.6;42.8;43.2;14;14.0;25.4;0.0;
01/03/2025 18:00:16;100;0;151.27;-4;-19.78;-4.69;133.8;19.80;77202;2836.819;-1759.516;1;144;-110;-100.0;42.8;43.2;14;13.5;25.4;0.0;
01/03/2025 18:00:36;100;0;153.25;-4;-21.10;-4.64;136.2;19.80;77186;2836.817;-1759.515;1;144;-110;-104.8;42.8;43.2;14;14.0;25.4;0.0;
01/03/2025 18:00:56;100;0;155.68;-4;-20.88;-4.74;138.7;19.70;77179;2836.815;-1759.513;1;144;-110;-101.6;42.8;43.2;16;15.8;25.4;0.0;
01/03/2025 18:01:16;100;0;158.45;-4;-20.38;-3.69;141.3;19.70;77175;2836.812;-1759.512;1;144;-110;-100.0;42.8;43.2;18;18.1;25.4;0.0;
01/03/2025 18:01:36;100;0;156.80;-4;-20.47;-2.35;143.6;19.60;77172;2836.810;-1759.511;1;144;-110;-101.6;42.8;43.3;16;15.8;25.4;0.0;
01/03/2025 18:01:56;100;0;152.86;-4;-20.31;-3.96;145.9;19.60;77171;2836.808;-1759.510;1;144;-110;-101.6;42.8;43.3;14;14.0;25.4;0.0;
01/03/2025 18:02:16;100;0;152.86;-4;-20.32;-4.83;148.1;19.50;77149;2836.806;-1759.508;1;144;-110;-101.6;42.8;43.2;14;14.0;25.4;0.0;
01/03/2025 18:02:36;100;0;151.53;-4;-20.74;-4.75;150.4;19.50;77139;2836.804;-1759.507;1;144;-110;-101.6;42.8;43.2;14;14.0;25.4;0.0;
01/03/2025 18:02:56;100;0;147.73;-4;-20.31;-4.77;152.7;19.50;77138;2836.802;-1759.506;1;144;-110;-101.6;42.8;43.2;14;14.0;25.4;0.0;
01/03/2025 18:03:16;100;0;147.25;-4;-20.83;-4.69;154.9;19.40;77120;2836.800;-1759.504;1;144;-110;-103.2;42.8;43.2;14;14.0;25.4;0.0;
01/03/2025 18:03:36;100;0;148.80;-4;-20.84;-4.63;157.4;19.40;77132;2836.798;-1759.502;1;144;-110;-101.6;42.8;43.2;14;14.0;25.4;0.0;
01/03/2025 18:03:56;100;0;147.98;-4;-20.83;-4.68;159.8;19.40;77118;2836.796;-1759.501;1;144;-110;-103.2;42.8;43.3;14;14.0;25.4;0.0;
01/03/2025 18:04:16;100;0;146.53;-4;-20.48;-4.73;162.2;19.30;77106;2836.794;-1759.499;1;144;-110;-101.6;42.8;43.2;14;14.0;25.4;0.0;
01/03/2025 18:04:36;100;0;148.34;-4;-20.56;-4.66;164.4;19.30;77097;2836.792;-1759.498;1;144;-110;-101.6;42.8;43.3;14;13.5;25.4;0.0;
01/03/2025 18:04:56;100;0;149.38;-4;-20.21;-4.73;166.8;19.20;77088;2836.790;-1759.496;1;144;-110;-103.2;42.8;43.2;14;14.0;25.4;0.0;
01/03/2025 18:05:16;100;0;151.50;-4;-20.42;-4.79;169.0;19.20;77087;2836.788;-1759.495;1;144;-110;-101.6;42.8;43.3;14;14.0;25.4;0.0;
01/03/2025 18:05:36;100;0;152.54;-4;-20.45;-4.72;171.5;19.20;77071;2836.786;-1759.493;1;144;-110;-101.6;42.8;43.2;14;14.0;25.4;0.0;
01/03/2025 18:05:56;100;0;156.19;-4;-20.12;-4.75;173.9;19.10;77062;2836.784;-1759.492;1;144;-110;-104.8;42.8;43.2;16;15.8;25.4;0.0;
01/03/2025 18:06:16;100;0;155.99;-4;-20.25;-3.50;176.1;19.10;77044;2836.782;-1759.491;1;144;-110;-101.6;42.8;43.2;16;16.2;25.4;0.0;
01/03/2025 18:06:36;100;0;154.97;-4;-20.16;-3.55;178.4;19.00;77038;2836.780;-1759.490;1;144;-110;-101.6;42.8;43.2;16;16.2;25.4;0.0;
01/03/2025 18:06:56;100;0;152.09;-4;-20.48;-3.55;180.6;19.00;77018;2836.778;-1759.489;1;144;-110;-101.6;42.8;43.2;14;14.0;25.4;0.0;
01/03/2025 18:07:16;100;0;151.23;-4;-20.61;-4.84;183.2;18.90;77010;2836.775;-1759.487;1;144;-110;-101.6;42.8;43.3;14;13.5;25.4;0.0;
01/03/2025 18:07:36;100;0;150.79;-4;-20.59;-4.84;185.5;18.90;77001;2836.773;-1759.486;1;144;-110;-103.2;42.8;43.2;14;13.5;25.4;0.0;
01/03/2025 18:07:56;100;0;147.56;-4;-20.77;-4.88;188.1;18.80;76995;2836.771;-1759.484;1;144;-110;-103.2;42.8;43.2;14;13.5;25.4;0.0;
01/03/2025 18:08:16;100;0;145.79;-4;-20.88;-4.88;190.9;18.80;76982;2836.769;-1759.482;1;144;-110;-101.6;42.8;43.2;14;13.5;25.4;0.0;
01/03/2025 18:08:36;100;0;144.30;-4;-20.48;-4.80;193.4;18.80;76978;2836.767;-1759.480;1;144;-110;-101.6;42.8;43.2;14;13.5;25.4;0.0;
01/03/2025 18:08:56;100;0;143.35;-4;-20.66;-4.83;196.0;18.70;76974;2836.765;-1759.478;1;144;-110;-101.6;42.8;43.2;14;13.5;25.4;0.0;
01/03/2025 18:09:16;100;0;143.49;-4;-20.29;-4.76;198.9;18.70;76957;2836.762;-1759.476;1;144;-110;-101.6;42.8;43.2;14;13.5;25.4;0.0;
01/03/2025 18:09:36;100;0;143.95;-4;-20.35;-4.80;201.4;18.60;76956;2836.760;-1759.474;1;144;-110;-101.6;42.8;43.2;14;13.5;25.4;0.0;
01/03/2025 18:09:56;100;0;144.16;-4;-20.30;-4.83;204.0;18.60;76950;2836.758;-1759.472;1;144;-110;-103.2;42.8;43.2;14;13.5;25.4;0.0;
01/03/2025 18:10:16;100;0;142.83;-4;-20.92;-4.96;206.5;18.60;76951;2836.756;-1759.470;1;144;-110;-103.2;42.8;43.2;14;13.5;25.4;0.0;
01/03/2025 18:10:37;100;0;141.73;-4;-20.42;-4.85;209.5;18.50;76943;2836.754;-1759.467;1;144;-110;-101.6;42.8;43.2;14;13.5;25.4;0.0;
01/03/2025 18:10:57;100;0;140.52;-4;-20.49;-4.88;212.1;18.50;76939;2836.752;-1759.465;1;144;-110;-103.2;42.8;43.2;14;13.5;25.4;0.0;
01/03/2025 18:11:17;100;0;141.91;-4;-20.10;-4.84;214.9;18.40;76930;2836.749;-1759.463;1;144;-110;-101.6;42.8;43.2;14;13.5;25.4;0.0;
01/03/2025 18:11:37;100;0;141.34;-4;-19.96;-4.93;217.4;18.40;76928;2836.748;-1759.461;1;144;-110;-100.0;42.8;43.2;14;13.5;25.4;0.0;
01/03/2025 18:11:57;100;0;143.07;-4;-19.97;-4.92;220.1;18.40;76910;2836.745;-1759.459;1;144;-110;-101.6;42.8;43.3;14;13.5;25.4;0.0;
01/03/2025 18:12:17;100;0;140.99;-4;-19.85;-4.97;222.6;18.30;76915;2836.743;-1759.456;1;144;-110;-101.6;42.8;43.3;14;13.5;25.4;0.0;
01/03/2025 18:12:37;100;0;141.68;-4;-19.86;-4.87;225.1;18.30;76904;2836.741;-1759.454;1;144;-110;-101.6;42.8;43.3;14;13.5;25.4;0.0;
01/03/2025 18:12:57;100;0;142.15;-4;-19.85;-4.92;227.6;18.20;76890;2836.739;-1759.452;1;144;-110;-101.6;42.8;43.2;14;13.5;25.4;0.0;
01/03/2025 18:13:17;100;0;143.46;-4;-20.04;-4.93;230.0;18.20;76886;2836.737;-1759.451;1;144;-110;-101.6;42.8;43.2;14;13.5;25.4;0.0;
01/03/2025 18:13:37;100;0;144.21;-4;-19.91;-4.87;232.4;18.20;76879;2836.735;-1759.449;1;144;-110;-101.6;42.8;43.2;14;13.5;25.4;0.0;
01/03/2025 18:13:57;100;0;143.31;-4;-19.67;-4.92;235.0;18.10;76863;2836.733;-1759.447;1;144;-110;-104.8;42.8;43.2;14;13.5;25.4;0.0;
01/03/2025 18:14:17;100;0;144.08;-4;-19.64;-4.90;237.3;18.10;76870;2836.731;-1759.445;1;144;-110;-101.6;42.8;43.2;14;13.5;25.4;0.0;
01/03/2025 18:14:37;100;0;145.44;-4;-19.84;-4.90;239.5;18.00;76864;2836.730;-1759.443;1;144;-110;-101.6;42.8;43.2;14;13.5;25.4;0.0;
01/03/2025 18:14:57;100;0;145.83;-4;-19.15;-4.88;241.9;18.00;76853;2836.728;-1759.441;1;144;-110;-103.2;42.8;43.2;14;13.5;25.4;0.0;
01/03/2025 18:15:17;100;0;144.20;-4;-19.68;-5.05;244.1;18.00;76844;2836.726;-1759.440;1;144;-110;-103.2;42.8;43.2;14;13.5;25.4;0.0;
01/03/2025 18:15:37;100;0;143.13;-4;-19.82;-4.89;246.2;17.90;76826;2836.724;-1759.438;1;144;-110;-101.6;42.8;43.2;14;13.5;25.4;0.0;
01/03/2025 18:15:57;100;0;143.13;-4;-20.00;-4.96;248.5;17.90;76809;2836.722;-1759.436;1;144;-110;-103.2;42.8;43.2;14;13.5;25.4;0.0;
01/03/2025 18:16:17;100;0;142.58;-4;-19.28;-4.94;250.8;17.90;76807;2836.720;-1759.434;1;144;-110;-101.6;42.8;43.2;14;13.5;25.4;0.0;
01/03/2025 18:16:37;100;0;143.61;-4;-19.77;-4.94;253.1;17.80;76804;2836.719;-1759.433;1;144;-110;-101.6;42.8;43.2;14;13.5;25.4;0.0;
01/03/2025 18:16:57;100;0;146.46;-4;-19.41;-5.02;255.3;17.80;76808;2836.717;-1759.431;1;144;-110;-103.2;42.8;43.2;14;13.5;25.4;0.0;
01/03/2025 18:17:17;100;0;146.78;-4;-19.30;-5.00;257.6;17.80;76784;2836.715;-1759.429;1;144;-110;-101.6;42.8;43.2;14;13.5;25.4;0.0;
01/03/2025 18:17:37;100;0;145.12;-4;-19.57;-4.98;259.6;17.70;76767;2836.713;-1759.428;1;144;-130;-132.3;42.8;43.2;14;13.5;25.4;0.0;
01/03/2025 18:17:57;100;0;144.83;-4;-19.10;-4.86;261.8;17.70;76837;2836.711;-1759.426;1;144;-130;-133.9;42.8;43.2;14;13.5;25.4;0.0;
01/03/2025 18:18:17;100;0;146.36;-4;-19.11;-4.82;264.4;17.60;76827;2836.709;-1759.424;1;144;-130;-133.9;42.8;43.3;14;13.5;25.4;0.0;
01/03/2025 18:18:37;100;0;146.12;-4;-19.43;-4.78;266.8;17.60;76818;2836.707;-1759.422;1;144;-130;-132.3;42.8;43.2;14;13.5;25.4;0.0;
01/03/2025 18:18:57;100;0;147.15;-4;-19.68;-4.72;269.3;17.60;76809;2836.705;-1759.421;1;144;-130;-132.3;42.8;43.2;14;13.5;25.4;0.0;
01/03/2025 18:19:17;100;0;150.03;-4;-19.12;-4.68;272.1;17.50;76805;2836.702;-1759.419;1;144;-130;-132.3;42.8;43.2;14;13.5;25.4;0.0;
01/03/2025 18:19:37;100;0;153.55;-4;-19.27;-4.81;274.8;17.50;76793;2836.699;-1759.417;1;144;-130;-132.3;42.8;43.2;14;13.5;25.4;0.0;
01/03/2025 18:19:57;100;0;155.21;-4;-19.54;-4.73;277.6;17.40;76791;2836.697;-1759.416;1;144;-130;-133.9;42.8;43.3;14;13.5;25.4;0.0;
01/03/2025 18:20:17;100;0;156.61;-4;-19.35;-4.68;280.1;17.40;76768;2836.694;-1759.414;1;144;-130;-132.3;42.8;43.2;16;15.8;25.4;0.0;
01/03/2025 18:20:37;100;0;158.54;-4;-19.52;-3.28;282.8;17.40;76775;2836.691;-1759.413;1;144;-130;-132.3;42.8;43.2;18;18.1;25.4;0.0;
01/03/2025 18:20:57;100;0;159.69;-4;-19.54;-2.07;285.4;17.30;76769;2836.689;-1759.412;1;144;-130;-132.3;42.8;43.2;18;18.5;25.4;0.0;
01/03/2025 18:21:17;100;0;159.83;-4;-19.55;-2.19;288.0;17.30;76745;2836.686;-1759.411;1;144;-130;-132.3;42.8;43.2;20;19.9;25.4;0.0;
01/03/2025 18:21:37;100;0;161.17;-4;-19.40;-1.31;290.5;17.20;76746;2836.684;-1759.410;1;144;-130;-132.3;42.8;43.2;20;20.3;25.4;0.0;
01/03/2025 18:21:57;100;0;159.83;-4;-19.77;-1.20;293.1;17.20;76742;2836.681;-1759.409;1;144;-130;-132.3;42.8;43.3;20;20.3;25.4;0.0;
01/03/2025 18:22:17;100;0;157.19;-4;-19.85;-1.12;295.7;17.20;76724;2836.679;-1759.407;1;144;-130;-132.3;42.8;43.2;17;17.1;25.4;0.0;
01/03/2025 18:22:37;100;0;156.94;-4;-19.49;-3.09;298.2;17.10;76719;2836.676;-1759.406;1;144;-130;-133.9;42.8;43.2;17;16.7;25.4;0.0;
01/03/2025 18:22:57;100;0;156.98;-4;-19.87;-3.14;300.7;17.10;76703;2836.674;-1759.405;1;144;-130;-133.9;42.8;43.2;17;16.7;25.4;0.0;
01/03/2025 18:23:17;100;0;154.69;-4;-19.76;-3.35;303.1;17.10;76721;2836.671;-1759.404;1;144;-130;-132.3;42.8;43.2;15;14.9;25.4;0.0;
01/03/2025 18:23:37;100;0;159.49;-4;-19.34;-4.00;305.5;17.00;76706;2836.669;-1759.403;1;144;-130;-132.3;42.8;43.3;19;19.0;25.4;0.0;
01/03/2025 18:23:57;100;0;161.01;-4;-19.74;-1.79;307.9;17.00;76697;2836.666;-1759.402;1;144;-130;-132.3;42.8;43.2;21;21.2;25.4;0.0;
01/03/2025 18:24:17;100;0;160.58;-4;-19.92;-0.56;310.4;17.00;76689;2836.664;-1759.401;1;144;-130;-132.3;42.8;43.3;21;21.7;25.4;0.0;
01/03/2025 18:24:37;100;0;157.77;-4;-19.69;-0.54;313.0;16.90;76687;2836.662;-1759.399;1;144;-130;-132.3;42.8;43.2;18;18.1;25.4;0.0;
01/03/2025 18:24:57;100;0;151.64;-4;-20.01;-2.59;315.5;16.90;76674;2836.659;-1759.398;1;144;-130;-132.3;42.8;43.2;14;13.5;25.4;0.0;
01/03/2025 18:25:17;100;0;149.83;-4;-19.11;-4.96;318.1;16.90;76670;2836.657;-1759.396;1;144;-130;-132.3;42.8;43.3;14;13.5;25.4;0.0;
01/03/2025 18:25:37;100;0;149.46;-4;-19.37;-4.75;320.6;16.80;76660;2836.654;-1759.394;1;144;-130;-132.3;42.8;43.2;14;13.5;25.4;0.0;
01/03/2025 18:25:57;100;0;149.81;-4;-20.18;-5.08;323.4;16.80;76656;2836.652;-1759.393;1;144;-130;-132.3;42.8;43.2;14;13.5;25.4;0.0;
01/03/2025 18:26:17;100;0;145.78;-4;-18.49;-4.83;326.0;16.70;76652;2836.649;-1759.391;1;144;-130;-132.3;43.3;43.3;14;13.5;25.4;0.0;
01/03/2025 18:26:37;100;0;143.34;-4;-19.08;-4.60;328.5;16.70;76645;2836.647;-1759.388;1;144;-130;-133.9;43.3;43.2;14;13.5;25.4;0.0;
01/03/2025 18:26:57;100;0;140.51;-4;-19.40;-4.30;331.1;16.70;76636;2836.645;-1759.386;1;144;-130;-132.3;43.3;43.2;14;13.5;25.4;0.0;
01/03/2025 18:27:17;100;0;138.71;-4;-19.51;-5.03;333.7;16.60;76635;2836.643;-1759.384;1;144;-130;-132.3;43.3;43.3;12;12.2;25.4;0.0;
01/03/2025 18:27:37;100;0;142.09;-4;-19.95;-4.97;336.5;16.60;76631;2836.641;-1759.382;1;144;-130;-132.3;43.3;43.3;12;12.2;25.4;0.0;
01/03/2025 18:27:57;100;0;133.02;-4;-18.25;-6.04;339.4;16.60;76619;2836.639;-1759.379;1;144;-130;-135.5;43.8;43.9;6;5.9;25.4;0.0;
01/03/2025 18:28:17;100;0;134.69;-4;-19.11;-8.44;342.3;16.50;76615;2836.637;-1759.376;1;144;-130;-133.9;43.8;43.9;9;9.0;25.4;0.0;
01/03/2025 18:28:37;100;0;135.86;-4;-20.62;-6.75;345.3;16.50;76614;2836.634;-1759.373;1;144;-130;-130.6;43.8;44.0;9;9.0;25.4;0.0;
01/03/2025 18:28:57;100;0;133.57;-4;-20.79;-6.71;347.9;16.50;76596;2836.633;-1759.370;1;144;-130;-132.3;43.8;43.9;7;7.2;25.4;0.0;
01/03/2025 18:29:17;100;0;132.82;-4;-20.62;-7.93;350.8;16.40;76603;2836.631;-1759.368;1;144;-130;-132.3;43.8;43.9;7;6.8;25.4;0.0;
01/03/2025 18:29:37;100;0;132.97;-4;-20.12;-7.98;353.7;16.40;76599;2836.629;-1759.365;1;144;-130;-133.9;43.8;43.9;7;6.8;25.4;0.0;
01/03/2025 18:29:57;100;0;135.99;-4;-20.13;-8.00;356.3;16.40;76587;2836.627;-1759.362;1;144;-130;-133.9;43.8;43.9;10;9.9;25.4;0.0;
01/03/2025 18:30:17;100;0;137.73;-4;-20.40;-6.16;359.0;16.40;76582;2836.625;-1759.360;1;144;-130;-133.9;43.8;43.9;10;10.4;25.4;0.0;
01/03/2025 18:30:37;100;0;140.40;-4;-20.45;-6.10;361.7;16.30;76570;2836.623;-1759.358;1;144;-130;-132.3;43.8;43.9;13;13.1;25.4;0.0;
01/03/2025 18:30:57;100;0;140.85;-4;-20.73;-4.80;364.4;16.30;76563;2836.621;-1759.355;1;144;-130;-132.3;43.8;43.9;13;13.5;25.4;0.0;
01/03/2025 18:31:17;100;0;141.42;-4;-21.14;-4.76;367.1;16.30;76556;2836.619;-1759.353;1;144;-130;-132.3;43.8;44.0;13;13.1;25.4;0.0;
01/03/2025 18:31:37;100;0;142.31;-4;-20.88;-4.63;370.0;16.20;76551;2836.616;-1759.351;1;144;-130;-133.9;43.8;43.9;13;13.1;25.4;0.0;
01/03/2025 18:31:57;100;0;143.26;-4;-20.77;-4.78;372.9;16.20;76549;2836.614;-1759.349;1;144;-130;-133.9;43.8;43.9;13;13.1;25.4;0.0;
01/03/2025 18:32:17;100;0;144.38;-4;-20.48;-4.76;375.4;16.20;76540;2836.612;-1759.347;1;144;-130;-132.3;43.8;44.0;13;13.5;25.4;0.0;
01/03/2025 18:32:37;100;0;146.86;-4;-20.56;-4.80;378.2;16.10;76517;2836.610;-1759.345;1;144;-130;-132.3;43.8;43.9;13;13.5;25.4;0.0;
01/03/2025 18:32:57;100;0;147.99;-4;-20.74;-4.76;380.9;16.10;76516;2836.607;-1759.343;1;144;-130;-135.5;43.8;44.0;13;13.5;25.4;0.0;
01/03/2025 18:33:17;100;0;149.64;-4;-20.71;-4.70;383.6;16.10;76514;2836.605;-1759.341;1;144;-130;-132.3;43.8;44.0;13;13.5;25.4;0.0;
01/03/2025 18:33:37;100;0;149.56;-4;-20.71;-4.75;386.4;16.00;76493;2836.603;-1759.340;1;144;-130;-132.3;43.8;44.0;13;13.5;25.4;0.0;
01/03/2025 18:33:57;100;0;149.18;-4;-20.65;-4.74;389.3;16.00;76477;2836.600;-1759.338;1;144;-130;-132.3;43.8;43.9;13;13.5;25.4;0.0;
01/03/2025 18:34:17;100;0;149.39;-4;-20.64;-4.82;391.9;16.00;76484;2836.598;-1759.336;1;144;-130;-132.3;43.8;43.9;13;13.1;25.4;0.0;
01/03/2025 18:34:37;100;0;151.39;-4;-20.52;-4.77;394.8;15.90;76474;2836.595;-1759.334;1;144;-130;-132.3;43.8;44.0;13;13.1;25.4;0.0;
01/03/2025 18:34:57;100;0;152.55;-4;-20.64;-4.81;397.6;15.90;76462;2836.593;-1759.333;1;144;-130;-130.6;43.8;44.0;13;13.1;25.4;0.0;
01/03/2025 18:35:17;100;0;153.65;-4;-20.44;-4.77;400.6;15.90;76453;2836.590;-1759.331;1;144;-130;-133.9;43.8;43.9;15;15.3;25.4;0.0;
01/03/2025 18:35:37;100;0;151.32;-4;-20.80;-3.68;403.2;15.80;76447;2836.587;-1759.329;1;144;-130;-132.3;43.8;44.0;15;15.3;25.4;0.0;
01/03/2025 18:35:57;100;0;147.69;-4;-20.82;-3.71;406.3;15.80;76437;2836.585;-1759.327;1;144;-130;-132.3;43.8;44.0;15;15.3;25.4;0.0;
01/03/2025 18:36:17;100;0;145.08;-4;-20.41;-3.50;409.2;15.70;76425;2836.582;-1759.325;1;144;-130;-133.9;43.8;44.0;15;15.8;25.4;0.0;
01/03/2025 18:36:37;100;0;141.34;-4;-20.94;-3.69;412.0;15.70;76420;2836.580;-1759.323;1;144;-130;-132.3;43.8;43.9;13;12.6;25.4;0.0;
01/03/2025 18:36:57;100;0;140.56;-4;-21.23;-5.00;414.9;15.70;76416;2836.578;-1759.320;1;144;-130;-132.3;43.8;44.0;13;12.6;25.4;0.0;
01/03/2025 18:37:17;100;0;140.04;-4;-20.79;-5.16;418.1;15.60;76399;2836.575;-1759.318;1;144;-130;-133.9;43.8;43.9;13;12.6;25.4;0.0;
01/03/2025 18:37:37;100;0;138.70;-4;-20.74;-4.97;421.1;15.60;76402;2836.573;-1759.315;1;144;-130;-133.9;43.8;43.9;13;12.2;25.4;0.0;
01/03/2025 18:37:57;100;0;137.21;-4;-20.47;-5.02;424.0;15.60;76402;2836.571;-1759.312;1;144;-130;-130.6;43.8;43.9;11;10.8;25.4;0.0;
01/03/2025 18:38:17;100;0;137.79;-4;-21.02;-6.14;427.0;15.50;76386;2836.569;-1759.310;1;144;-130;-132.3;43.8;43.9;11;10.8;25.4;0.0;
01/03/2025 18:38:37;100;0;137.20;-4;-20.60;-6.03;430.0;15.50;76393;2836.567;-1759.307;1;144;-130;-133.9;43.8;43.9;11;10.4;25.4;0.0;
01/03/2025 18:38:57;100;0;136.89;-4;-20.97;-6.08;433.0;15.50;76368;2836.564;-1759.305;1;144;-130;-133.9;43.8;44.0;11;10.4;25.4;0.0;
01/03/2025 18:39:17;100;0;136.50;-4;-20.84;-6.06;436.2;15.50;76366;2836.562;-1759.302;1;144;-130;-130.6;43.8;43.9;11;10.4;25.4;0.0;
01/03/2025 18:39:37;100;0;137.57;-4;-20.08;-6.10;439.2;15.40;76359;2836.560;-1759.299;1;144;-130;-133.9;43.8;43.9;11;10.8;25.4;0.0;
01/03/2025 18:39:57;100;0;139.53;-4;-20.12;-6.20;441.9;15.40;76351;2836.558;-1759.297;1;144;-130;-133.9;43.8;43.9;11;10.8;25.4;0.0;
01/03/2025 18:40:17;100;0;141.47;-4;-19.90;-6.20;444.7;15.40;76348;2836.555;-1759.294;1;144;-130;-132.3;43.8;43.9;13;13.1;25.4;0.0;
01/03/2025 18:40:37;100;0;142.14;-4;-20.30;-4.89;447.4;15.30;76342;2836.553;-1759.292;1;144;-130;-133.9;43.8;44.0;13;13.1;25.4;0.0;
01/03/2025 18:40:57;100;0;142.40;-4;-20.10;-4.66;450.1;15.30;76322;2836.551;-1759.290;1;144;-130;-132.3;43.8;43.9;13;13.5;25.4;0.0;
01/03/2025 18:41:17;100;0;143.27;-4;-20.28;-4.84;452.9;15.30;76322;2836.549;-1759.288;1;144;-130;-133.9;43.8;43.9;13;13.1;25.4;0.0;
01/03/2025 18:41:37;100;0;144.18;-4;-20.37;-4.74;455.8;15.20;76324;2836.546;-1759.285;1;144;-130;-130.6;43.8;43.9;13;13.1;25.4;0.0;
01/03/2025 18:41:57;100;0;145.03;-4;-20.01;-4.75;458.7;15.20;76309;2836.544;-1759.283;1;144;-130;-132.3;43.8;44.0;13;13.1;25.4;0.0;
01/03/2025 18:42:17;100;0;148.16;-4;-19.99;-4.79;461.5;15.20;76299;2836.541;-1759.281;1;144;-130;-133.9;43.8;43.9;13;13.5;25.4;0.0;
01/03/2025 18:42:37;100;0;152.31;-4;-20.35;-4.75;464.3;15.10;76292;2836.539;-1759.279;1;144;-130;-133.9;43.8;44.0;13;13.1;25.4;0.0;
01/03/2025 18:42:57;100;0;152.73;-4;-20.49;-4.76;467.1;15.10;76291;2836.536;-1759.278;1;144;-130;-132.3;43.8;43.9;13;13.1;25.4;0.0;
01/03/2025 18:43:17;100;0;154.59;-4;-20.49;-4.69;470.2;15.10;76288;2836.533;-1759.276;1;144;-130;-132.3;43.8;43.9;15;14.9;25.4;0.0;
01/03/2025 18:43:37;100;0;155.19;-4;-20.52;-3.64;473.0;15.00;76277;2836.530;-1759.275;1;144;-130;-132.3;43.8;43.9;15;15.3;25.4;0.0;
01/03/2025 18:43:57;100;0;156.88;-4;-20.52;-3.62;475.9;15.00;76268;2836.527;-1759.273;1;144;-130;-133.9;43.8;43.9;15;15.3;25.4;0.0;
01/03/2025 18:44:17;100;0;156.01;-4;-20.61;-3.65;478.9;15.00;76261;2836.525;-1759.272;1;144;-130;-132.3;43.8;43.9;15;15.3;25.4;0.0;
01/03/2025 18:44:37;100;0;155.88;-4;-20.42;-3.60;481.8;14.90;76256;2836.522;-1759.270;1;144;-130;-133.9;43.8;44.0;15;15.3;25.4;0.0;
01/03/2025 18:44:57;100;0;156.12;-4;-20.50;-3.66;484.6;14.90;76252;2836.519;-1759.269;1;144;-130;-132.3;43.8;44.0;15;15.3;25.4;0.0;
01/03/2025 18:45:17;100;0;156.19;-4;-20.28;-3.63;487.4;14.90;76239;2836.516;-1759.267;1;144;-130;-132.3;43.8;43.9;15;15.3;25.4;0.0;
01/03/2025 18:45:38;100;0;156.72;-4;-20.48;-3.72;490.2;14.80;76232;2836.514;-1759.266;1;144;-130;-132.3;43.8;44.0;15;15.3;25.4;0.0;
01/03/2025 18:45:58;100;0;158.01;-4;-20.41;-3.63;493.0;14.80;76234;2836.511;-1759.265;1;144;-130;-132.3;43.8;44.0;18;18.1;25.4;0.0;
01/03/2025 18:46:18;100;0;158.73;-4;-20.19;-2.04;495.5;14.80;76229;2836.508;-1759.264;1;144;-130;-132.3;43.8;43.9;18;18.5;25.4;0.0;
01/03/2025 18:46:38;100;0;158.96;-4;-20.12;-2.07;498.0;14.80;76225;2836.506;-1759.262;1;144;-130;-133.9;43.8;44.0;18;18.5;25.4;0.0;
01/03/2025 18:46:58;100;0;158.64;-4;-20.10;-2.23;500.6;14.70;76221;2836.503;-1759.261;1;144;-130;-132.3;43.8;43.9;18;18.5;25.4;0.0;
01/03/2025 18:47:18;100;0;157.80;-4;-20.34;-2.10;503.2;14.70;76211;2836.501;-1759.260;1;144;-130;-132.3;43.8;43.9;18;18.5;25.4;0.0;
01/03/2025 18:47:38;100;0;156.70;-4;-20.12;-2.26;505.8;14.70;76204;2836.498;-1759.259;1;144;-130;-133.9;43.8;43.9;18;18.5;25.4;0.0;
01/03/2025 18:47:58;100;0;155.02;-4;-19.89;-2.14;508.2;14.60;76208;2836.496;-1759.257;1;144;-130;-133.9;43.8;44.0;15;14.9;25.4;0.0;
01/03/2025 18:48:18;100;0;154.80;-4;-19.85;-4.32;510.9;14.60;76199;2836.493;-1759.256;1;144;-130;-133.9;43.8;43.9;15;14.4;25.4;0.0;
01/03/2025 18:48:38;100;0;153.39;-4;-19.68;-4.28;513.3;14.60;76188;2836.491;-1759.255;1;144;-130;-132.3;43.8;44.0;15;14.4;25.4;0.0;
01/03/2025 18:48:58;100;0;153.44;-4;-20.25;-4.34;515.7;14.60;76190;2836.489;-1759.253;1;144;-130;-133.9;43.8;44.0;15;14.4;25.4;0.0;
01/03/2025 18:49:18;100;0;154.70;-4;-20.00;-4.24;518.1;14.60;76190;2836.487;-1759.252;1;144;-130;-132.3;43.8;43.9;15;14.4;25.4;0.0;
01/03/2025 18:49:38;100;0;156.64;-4;-19.97;-4.22;520.7;14.50;76179;2836.484;-1759.251;1;144;-130;-130.6;43.8;44.0;17;17.1;25.4;0.0;
01/03/2025 18:49:58;100;0;157.64;-4;-20.17;-2.86;523.2;14.50;76172;2836.482;-1759.250;1;144;-130;-132.3;43.8;43.9;17;17.1;25.4;0.0;
01/03/2025 18:50:18;100;0;157.95;-4;-20.25;-2.78;525.7;14.50;76165;2836.479;-1759.248;1;144;-130;-132.3;43.8;44.0;17;17.1;25.4;0.0;
01/03/2025 18:50:38;100;0;160.62;-4;-20.22;-2.81;528.1;14.40;76169;2836.477;-1759.247;1;144;-130;-132.3;43.8;43.9;21;21.2;25.4;0.0;
01/03/2025 18:50:58;100;0;159.06;-4;-20.62;-0.64;530.8;14.40;76156;2836.474;-1759.246;1;144;-130;-132.3;43.8;44.0;19;18.5;25.4;0.0;
01/03/2025 18:51:18;100;0;155.34;-4;-20.70;-2.10;533.4;14.40;76143;2836.472;-1759.245;1;144;-130;-132.3;43.8;44.0;16;15.8;25.4;0.0;
01/03/2025 18:51:38;100;0;155.19;-4;-20.54;-3.70;536.1;14.40;76142;2836.470;-1759.244;1;144;-130;-132.3;43.8;44.0;16;15.8;25.4;0.0;
01/03/2025 18:51:58;100;0;156.10;-4;-20.85;-3.85;538.7;14.30;76143;2836.467;-1759.242;1;144;-130;-133.9;43.8;43.9;16;15.8;25.4;0.0;
01/03/2025 18:52:18;100;0;153.01;-4;-21.11;-3.57;541.4;14.30;76125;2836.465;-1759.241;1;144;-130;-132.3;43.8;43.9;16;15.3;25.4;0.0;
01/03/2025 18:52:38;100;0;151.89;-4;-20.45;-3.68;544.2;14.30;76130;2836.462;-1759.239;1;144;-130;-132.3;43.8;44.0;16;15.3;25.4;0.0;
01/03/2025 18:52:58;100;0;150.48;-4;-20.08;-3.91;546.9;14.30;76125;2836.460;-1759.237;1;144;-130;-133.9;43.8;44.0;14;13.5;25.4;0.0;
01/03/2025 18:53:18;100;0;150.96;-4;-20.49;-4.92;549.7;14.20;76117;2836.457;-1759.236;1;144;-130;-133.9;43.8;43.9;14;13.5;25.4;0.0;
01/03/2025 18:53:38;100;0;149.08;-4;-20.64;-4.62;552.5;14.20;76115;2836.455;-1759.234;1;144;-130;-132.3;43.8;43.9;14;13.5;25.4;0.0;
01/03/2025 18:53:58;100;0;149.31;-4;-19.65;-4.74;555.4;14.20;76113;2836.452;-1759.232;1;144;-130;-132.3;43.8;44.0;14;13.5;25.4;0.0;
01/03/2025 18:54:18;100;0;146.61;-4;-20.19;-4.60;558.2;14.10;76103;2836.450;-1759.230;1;144;-130;-132.3;43.8;43.9;14;13.5;25.4;0.0;
01/03/2025 18:54:38;100;0;145.54;-4;-20.80;-4.48;561.0;14.10;76099;2836.447;-1759.228;1;144;-130;-132.3;43.8;44.0;14;13.5;25.4;0.0;
01/03/2025 18:54:58;100;0;144.16;-4;-20.73;-4.68;564.2;14.10;76105;2836.444;-1759.225;1;144;-130;-132.3;43.8;44.0;14;13.5;25.4;0.0;
01/03/2025 18:55:18;100;0;142.88;-4;-20.70;-4.57;567.2;14.10;76095;2836.442;-1759.223;1;144;-130;-132.3;43.8;43.9;14;13.5;25.4;0.0;
01/03/2025 18:55:38;100;0;142.51;-4;-20.24;-4.67;570.5;14.00;76089;2836.439;-1759.220;1;144;-130;-133.9;43.8;44.0;14;13.5;25.4;0.0;
01/03/2025 18:55:58;100;0;140.19;-4;-19.47;-4.76;573.5;14.00;76076;2836.437;-1759.218;1;144;-130;-132.3;43.8;44.0;14;13.5;25.4;0.0;
01/03/2025 18:56:18;100;0;140.25;-4;-19.38;-4.77;576.6;14.00;76074;2836.434;-1759.215;1;144;-130;-133.9;43.8;43.9;14;13.5;25.4;0.0;
01/03/2025 18:56:38;100;0;139.83;-4;-19.53;-4.73;579.4;14.00;76067;2836.432;-1759.212;1;144;-130;-132.3;43.8;44.0;14;13.5;25.4;0.0;
01/03/2025 18:56:58;100;0;139.68;-4;-19.71;-4.75;582.3;13.90;76052;2836.430;-1759.210;1;144;-130;-132.3;43.8;43.9;14;13.5;25.4;0.0;
01/03/2025 18:57:18;100;0;139.28;-4;-19.44;-4.81;585.3;13.90;76058;2836.427;-1759.207;1;144;-130;-132.3;43.8;44.0;14;13.5;25.4;0.0;
01/03/2025 18:57:38;100;0;139.66;-4;-19.71;-4.74;588.1;13.90;76046;2836.425;-1759.205;1;144;-130;-132.3;43.8;44.0;14;13.5;25.4;0.0;
01/03/2025 18:57:58;100;0;139.07;-4;-19.39;-4.80;591.1;13.90;76044;2836.422;-1759.202;1;144;-130;-132.3;43.8;43.9;14;13.5;25.4;0.0;
01/03/2025 18:58:18;100;0;139.23;-4;-19.34;-4.90;594.0;13.80;76040;2836.420;-1759.199;1;144;-130;-133.9;43.8;44.0;14;13.5;25.4;0.0;
01/03/2025 18:58:38;100;0;142.99;-4;-19.52;-4.79;596.9;13.80;76043;2836.418;-1759.197;1;144;-130;-132.3;43.8;44.0;14;13.5;25.4;0.0;
01/03/2025 18:58:58;100;0;148.70;-4;-19.20;-4.86;599.9;13.80;76033;2836.415;-1759.195;1;144;-130;-132.3;43.8;43.9;14;13.5;25.4;0.0;
01/03/2025 18:59:18;100;0;149.22;-4;-19.41;-4.75;602.8;13.80;76027;2836.412;-1759.193;1;144;-130;-132.3;43.8;43.9;14;13.5;25.4;0.0;
01/03/2025 18:59:38;100;0;153.61;-4;-20.51;-4.70;605.7;13.70;76019;2836.409;-1759.191;1;144;-130;-133.9;43.8;44.0;14;13.5;25.4;0.0;
01/03/2025 18:59:58;100;0;155.32;-4;-19.14;-5.13;608.9;13.70;76018;2836.406;-1759.189;1;144;-130;-133.9;43.8;43.9;17;17.1;25.4;0.0;
01/03/2025 19:00:18;100;0;155.47;-4;-19.78;-2.77;612.3;13.70;76003;2836.403;-1759.187;1;144;-130;-132.3;43.8;43.9;17;17.6;25.4;0.0;
01/03/2025 19:00:38;100;0;150.59;-4;-19.95;-2.76;615.3;13.70;76003;2836.400;-1759.186;1;144;-130;-132.3;43.8;44.0;14;14.0;25.4;0.0;
01/03/2025 19:00:58;100;0;149.36;-4;-19.76;-4.55;618.4;13.60;75995;2836.397;-1759.183;1;144;-130;-132.3;43.8;43.9;14;14.4;25.4;0.0;
01/03/2025 19:01:18;100;0;149.63;-4;-19.76;-4.45;621.8;13.60;75993;2836.394;-1759.181;1;144;-130;-132.3;43.8;44.0;14;14.0;25.4;0.0;
01/03/2025 19:01:38;100;0;152.52;-4;-19.71;-4.46;625.1;13.60;75975;2836.390;-1759.179;1;144;-130;-132.3;43.8;44.0;14;14.0;25.4;0.0;
01/03/2025 19:01:58;100;0;155.16;-4;-19.59;-4.41;628.3;13.60;75987;2836.387;-1759.177;1;144;-130;-133.9;43.8;44.0;17;17.1;25.4;0.0;
01/03/2025 19:02:18;100;0;156.98;-4;-19.84;-2.74;631.5;13.50;75983;2836.384;-1759.176;1;144;-130;-132.3;43.8;44.0;17;17.6;25.4;0.0;
01/03/2025 19:02:38;100;0;158.06;-4;-19.79;-2.65;634.7;13.50;75970;2836.381;-1759.174;1;144;-130;-133.9;43.8;43.9;19;19.4;25.4;0.0;
01/03/2025 19:02:58;100;0;157.21;-4;-20.28;-1.70;637.9;13.50;75972;2836.378;-1759.173;1;144;-130;-132.3;43.8;43.9;19;19.9;25.4;0.0;
01/03/2025 19:03:18;100;0;153.70;-4;-20.06;-1.61;641.2;13.50;75967;2836.374;-1759.171;1;144;-130;-132.3;43.8;43.9;16;15.8;25.4;0.0;
01/03/2025 19:03:38;100;0;152.94;-4;-19.49;-3.56;644.3;13.40;75955;2836.371;-1759.169;1;144;-130;-133.9;43.8;44.0;16;15.8;25.4;0.0;
01/03/2025 19:03:58;100;0;151.36;-4;-20.12;-3.65;647.7;13.40;75967;2836.368;-1759.167;1;144;-130;-132.3;43.8;43.9;16;15.8;25.4;0.0;
01/03/2025 19:04:18;100;0;150.24;-4;-19.91;-3.63;651.1;13.40;75954;2836.365;-1759.164;1;144;-130;-133.9;43.8;43.9;16;15.8;25.4;0.0;
01/03/2025 19:04:38;100;0;149.84;-4;-19.93;-3.64;654.5;13.40;75949;2836.361;-1759.162;1;144;-130;-132.3;43.8;44.0;16;15.8;25.4;0.0;
01/03/2025 19:04:58;100;0;146.57;-4;-19.73;-3.68;657.9;13.40;75937;2836.358;-1759.160;1;144;-130;-132.3;43.8;43.9;14;14.0;25.4;0.0;
01/03/2025 19:05:18;100;0;145.88;-4;-19.66;-4.55;661.4;13.30;75935;2836.355;-1759.157;1;144;-130;-133.9;43.8;43.9;14;14.0;25.4;0.0;
01/03/2025 19:05:38;100;0;144.45;-4;-19.87;-4.49;664.7;13.30;75935;2836.352;-1759.154;1;144;-130;-132.3;43.8;43.9;14;14.0;25.4;0.0;
01/03/2025 19:05:58;100;0;144.29;-4;-19.78;-4.47;668.1;13.30;75923;2836.349;-1759.152;1;144;-130;-135.5;43.8;43.9;14;14.0;25.4;0.0;
01/03/2025 19:06:18;100;0;145.75;-4;-19.72;-4.48;671.5;13.30;75924;2836.346;-1759.149;1;144;-130;-133.9;43.8;44.0;14;14.0;25.4;0.0;
01/03/2025 19:06:38;100;0;146.02;-4;-19.67;-4.56;674.9;13.30;75922;2836.343;-1759.146;1;144;-130;-132.3;43.8;44.0;14;14.0;25.4;0.0;
01/03/2025 19:06:58;100;0;145.90;-4;-19.51;-4.52;678.4;13.20;75905;2836.340;-1759.144;1;144;-130;-132.3;43.8;43.9;14;14.0;25.4;0.0;
01/03/2025 19:07:18;100;0;150.54;-4;-18.68;-4.48;681.4;13.20;75895;2836.337;-1759.142;1;144;-130;-132.3;44.2;44.2;14;14.0;25.4;0.0;
01/03/2025 19:07:38;100;0;152.17;-4;-19.80;-4.63;684.5;13.20;75895;2836.334;-1759.140;1;144;-130;-132.3;44.2;44.5;14;14.0;25.4;0.0;
01/03/2025 19:07:58;100;0;152.31;-4;-20.11;-4.73;687.4;13.10;75889;2836.331;-1759.138;1;144;-130;-132.3;44.2;44.5;14;14.0;25.4;0.0;
01/03/2025 19:08:18;100;0;153.57;-4;-20.03;-4.57;690.6;13.10;75885;2836.328;-1759.136;1;144;-130;-132.3;44.2;44.3;16;15.8;25.4;0.0;
01/03/2025 19:08:38;100;0;153.33;-4;-20.30;-3.51;693.8;13.10;75872;2836.325;-1759.134;1;144;-130;-133.9;44.2;44.5;16;16.2;25.4;0.0;
01/03/2025 19:08:58;100;0;153.62;-4;-20.44;-3.58;696.8;13.10;75881;2836.322;-1759.133;1;144;-130;-132.3;44.2;44.5;16;15.8;25.4;0.0;
01/03/2025 19:09:18;100;0;153.88;-4;-20.33;-3.51;699.8;13.00;75866;2836.319;-1759.131;1;144;-130;-132.3;44.2;44.5;16;16.2;25.4;0.0;
01/03/2025 19:09:38;100;0;153.16;-4;-20.46;-3.53;702.9;13.00;75864;2836.316;-1759.129;1;144;-130;-132.3;44.2;44.5;16;15.8;25.4;0.0;
01/03/2025 19:09:58;100;0;152.04;-4;-20.47;-3.54;706.0;13.00;75857;2836.313;-1759.127;1;144;-130;-132.3;44.2;44.6;16;15.8;25.4;0.0;
01/03/2025 19:10:18;100;0;151.80;-4;-20.67;-3.47;709.0;13.00;75850;2836.310;-1759.125;1;144;-130;-132.3;44.2;44.5;16;16.2;25.4;0.0;
01/03/2025 19:10:38;100;0;151.88;-4;-20.60;-3.58;712.0;13.00;75849;2836.308;-1759.124;1;144;-130;-132.3;44.2;44.5;16;15.8;25.4;0.0;
01/03/2025 19:10:58;100;0;150.84;-4;-20.49;-3.49;715.1;12.90;75839;2836.305;-1759.122;1;144;-130;-132.3;44.2;44.6;16;16.2;25.4;0.0;
01/03/2025 19:11:18;100;0;150.49;-4;-20.42;-3.53;718.3;12.90;75832;2836.302;-1759.120;1;144;-130;-132.3;44.2;44.5;16;15.8;25.4;0.0;
01/03/2025 19:11:38;100;0;147.46;-4;-20.16;-3.54;721.2;12.90;75838;2836.299;-1759.117;1;144;-130;-133.9;44.2;44.5;16;16.2;25.4;0.0;
01/03/2025 19:11:58;100;0;144.44;-4;-19.56;-3.57;724.2;12.90;75834;2836.297;-1759.115;1;144;-130;-133.9;44.2;44.5;16;16.2;25.4;0.0;
01/03/2025 19:12:18;100;0;144.98;-4;-20.01;-3.60;726.8;12.80;75813;2836.294;-1759.113;1;144;-130;-132.3;44.2;44.5;16;16.2;25.4;0.0;
01/03/2025 19:12:38;100;0;143.84;-4;-20.30;-3.53;729.8;12.80;75809;2836.292;-1759.111;1;144;-130;-133.9;44.2;44.5;16;16.2;25.4;0.0;
01/03/2025 19:12:58;100;0;142.88;-4;-20.62;-3.77;732.5;12.80;75807;2836.290;-1759.109;1;144;-130;-132.3;44.2;44.6;14;14.0;25.4;0.0;
01/03/2025 19:13:18;100;0;143.25;-4;-20.48;-4.76;735.4;12.80;75794;2836.287;-1759.106;1;144;-130;-132.3;44.2;44.5;14;13.5;25.4;0.0;
01/03/2025 19:13:38;100;0;143.95;-4;-20.55;-4.68;738.2;12.70;75792;2836.285;-1759.104;1;144;-130;-132.3;44.2;44.5;14;13.5;25.4;0.0;
01/03/2025 19:13:58;100;0;144.49;-4;-20.74;-4.66;741.0;12.70;75780;2836.283;-1759.102;1;144;-130;-133.9;44.2;44.5;14;13.5;25.4;0.0;
01/03/2025 19:14:18;100;0;145.09;-4;-20.68;-4.62;743.9;12.70;75778;2836.280;-1759.100;1;144;-130;-132.3;44.2;44.5;14;13.5;25.4;0.0;
01/03/2025 19:14:38;100;0;144.90;-4;-20.84;-4.64;746.9;12.70;75769;2836.278;-1759.098;1;144;-130;-133.9;44.2;44.5;14;13.5;25.4;0.0;
01/03/2025 19:14:58;100;0;144.37;-4;-20.66;-4.65;749.9;12.60;75770;2836.275;-1759.096;1;144;-130;-132.3;44.2;44.5;14;13.5;25.4;0.0;
01/03/2025 19:15:18;100;0;144.47;-4;-20.55;-4.64;752.8;12.60;75765;2836.273;-1759.093;1;144;-130;-132.3;44.2;44.5;14;13.5;25.4;0.0;
01/03/2025 19:15:38;100;0;145.59;-4;-20.55;-4.69;755.8;12.60;75760;2836.270;-1759.091;1;144;-130;-132.3;44.2;44.6;14;13.5;25.4;0.0;
01/03/2025 19:15:58;100;0;145.08;-4;-20.70;-4.70;758.7;12.60;75764;2836.268;-1759.089;1;144;-130;-132.3;44.2;44.5;14;13.5;25.4;0.0;
01/03/2025 19:16:18;100;0;145.78;-4;-20.51;-4.68;761.6;12.60;75759;2836.266;-1759.087;1;144;-130;-132.3;44.2;44.5;14;13.5;25.4;0.0;
01/03/2025 19:16:38;100;0;146.21;-4;-20.83;-4.66;764.7;12.50;75752;2836.263;-1759.085;1;144;-130;-133.9;44.2;44.6;14;13.5;25.4;0.0;
01/03/2025 19:16:58;100;0;145.10;-4;-21.10;-4.62;767.9;12.50;75753;2836.260;-1759.082;1;144;-130;-132.3;44.2;44.5;14;13.5;25.4;0.0;
01/03/2025 19:17:18;100;0;145.42;-4;-20.76;-4.61;770.9;12.50;75738;2836.258;-1759.080;1;144;-130;-132.3;44.2;44.5;14;13.5;25.4;0.0;
01/03/2025 19:17:38;100;0;146.63;-4;-20.60;-4.70;774.2;12.50;75738;2836.255;-1759.078;1;144;-130;-133.9;44.2;44.6;14;13.5;25.4;0.0;
01/03/2025 19:17:58;100;0;146.86;-4;-20.66;-4.67;777.4;12.40;75729;2836.252;-1759.076;1;144;-130;-132.3;44.2;44.5;14;13.5;25.4;0.0;
01/03/2025 19:18:18;100;0;146.35;-4;-20.47;-4.66;780.5;12.40;75737;2836.249;-1759.073;1;144;-130;-133.9;44.2;44.5;14;13.5;25.4;0.0;
01/03/2025 19:18:38;100;0;144.61;-4;-19.97;-4.75;783.8;12.40;75714;2836.246;-1759.071;1;144;-130;-133.9;44.2;44.5;14;13.5;25.4;0.0;
01/03/2025 19:18:58;100;0;146.28;-4;-19.83;-4.71;786.8;12.40;75715;2836.244;-1759.069;1;144;-130;-135.5;44.2;44.5;14;13.5;25.4;0.0;
01/03/2025 19:19:18;100;0;148.32;-4;-19.84;-4.75;789.6;12.30;75708;2836.241;-1759.067;1;144;-130;-132.3;44.2;44.5;14;13.5;25.4;0.0;
01/03/2025 19:19:38;100;0;151.30;-4;-19.67;-4.67;792.4;12.30;75698;2836.239;-1759.065;1;144;-130;-132.3;44.2;44.5;14;13.5;25.4;0.0;
01/03/2025 19:19:58;100;0;153.62;-4;-19.93;-4.83;795.2;12.30;75688;2836.236;-1759.063;1;144;-130;-132.3;44.2;44.5;16;15.8;25.4;0.0;
01/03/2025 19:20:19;100;0;154.56;-4;-19.92;-3.47;798.1;12.30;75675;2836.233;-1759.062;1;144;-130;-132.3;44.2;44.6;16;16.2;25.4;0.0;
01/03/2025 19:20:39;100;0;154.30;-4;-20.17;-3.46;800.8;12.30;75668;2836.230;-1759.060;1;144;-130;-132.3;44.2;44.5;16;16.2;25.4;0.0;
01/03/2025 19:20:59;100;0;155.24;-4;-20.26;-3.49;803.6;12.20;75653;2836.228;-1759.059;1;144;-130;-132.3;44.2;44.5;16;16.2;25.4;0.0;
01/03/2025 19:21:19;100;0;153.20;-4;-20.26;-3.43;806.4;12.20;75648;2836.225;-1759.057;1;144;-130;-132.3;44.2;44.5;16;16.2;25.4;0.0;
01/03/2025 19:21:39;100;0;151.49;-4;-19.99;-3.46;809.4;12.20;75645;2836.222;-1759.055;1;144;-130;-132.3;44.2;44.5;16;16.2;25.4;0.0;
01/03/2025 19:21:59;100;0;152.73;-4;-20.25;-3.51;812.1;12.10;75644;2836.220;-1759.054;1;144;-130;-132.3;44.2;44.5;16;16.2;25.4;0.0;
01/03/2025 19:22:19;100;0;152.97;-4;-20.37;-3.41;815.0;12.10;75625;2836.217;-1759.052;1;144;-130;-132.3;44.2;44.5;16;16.2;25.4;0.0;
01/03/2025 19:22:39;100;0;152.85;-4;-19.98;-3.47;817.8;12.10;75627;2836.214;-1759.050;1;144;-130;-132.3;44.2;44.5;16;16.2;25.4;0.0;
01/03/2025 19:22:59;100;0;152.31;-4;-20.01;-3.48;820.6;12.10;75618;2836.212;-1759.048;1;144;-130;-133.9;44.2;44.5;16;16.2;25.4;0.0;
01/03/2025 19:23:19;100;0;152.10;-4;-19.70;-3.58;823.5;12.00;75613;2836.209;-1759.047;1;144;-130;-132.3;44.2;44.5;16;16.2;25.4;0.0;
01/03/2025 19:23:39;100;0;151.48;-4;-19.95;-3.51;826.3;12.00;75616;2836.206;-1759.045;1;144;-130;-132.3;44.2;44.5;16;16.2;25.4;0.0;
01/03/2025 19:23:59;100;0;149.35;-4;-20.15;-3.69;829.0;12.00;75610;2836.204;-1759.043;1;144;-130;-135.5;44.2;44.5;16;16.2;25.4;0.0;
01/03/2025 19:24:19;100;0;147.73;-4;-20.17;-3.47;831.8;12.00;75602;2836.201;-1759.041;1;144;-130;-132.3;44.2;44.5;16;16.2;25.4;0.0;
01/03/2025 19:24:39;100;0;147.20;-4;-20.00;-3.52;834.6;11.90;75601;2836.199;-1759.039;1;144;-130;-133.9;44.2;44.6;16;16.2;25.4;0.0;
01/03/2025 19:24:59;100;0;146.57;-4;-20.01;-3.47;837.5;11.90;75583;2836.196;-1759.037;1;144;-130;-135.5;44.2;44.5;16;16.2;25.4;0.0;
01/03/2025 19:25:19;100;0;147.81;-4;-20.36;-3.49;840.4;11.90;75579;2836.194;-1759.035;1;144;-130;-133.9;44.2;44.5;16;16.2;25.4;0.0;
01/03/2025 19:25:39;100;0;147.21;-4;-19.92;-3.42;843.2;11.90;75577;2836.191;-1759.033;1;144;-130;-132.3;44.2;44.6;16;16.2;25.4;0.0;
01/03/2025 19:25:59;100;0;146.22;-4;-20.05;-3.34;846.0;11.80;75578;2836.189;-1759.031;1;144;-130;-132.3;44.2;44.6;16;16.2;25.4;0.0;
01/03/2025 19:26:19;100;0;145.25;-4;-20.50;-3.44;848.8;11.80;75569;2836.186;-1759.029;1;144;-130;-135.5;44.2;44.5;16;16.2;25.4;0.0;
01/03/2025 19:26:39;100;0;144.30;-4;-20.72;-3.47;851.6;11.80;75573;2836.184;-1759.027;1;144;-130;-133.9;44.2;44.5;16;16.2;25.4;0.0;
