Timestamp;NavState;SecurityLevel;Heading;Declination;Pitch;Roll;Depth;Temperature;Pa;Lat;Lon;DeadReckoning;DesiredH;BallastCmd;BallastPos;LinCmd;LinPos;AngCmd;AngPos;Voltage;Altitude;
28/02/2025 09:20:11;119;0;10.70;-4;-53.04;-20.13;0.1;16.70;75547;2836.822;-1801.123;0;136;500;506.5;100.0;100.6;0;0.0;25.6;-1.0;
28/02/2025 09:20:20;116;0;10.94;-4;-38.80;-2.48;0.1;16.80;75538;2836.821;-1801.140;0;136;500;506.5;100.0;100.4;0;0.0;25.6;-1.0;
28/02/2025 09:20:45;116;0;341.05;-4;-51.56;-11.31;0.1;16.80;75551;2836.824;-1801.142;0;136;500;506.5;100.0;100.4;0;0.0;25.6;-1.0;
28/02/2025 09:21:05;116;0;351.37;-4;-46.11;-11.10;0.2;16.90;75562;2836.825;-1801.142;0;136;500;504.8;100.0;100.4;0;-0.5;25.6;-1.0;
28/02/2025 09:21:25;116;0;348.16;-4;-42.46;-13.20;0.1;17.00;75573;2836.829;-1801.143;0;131;500;506.5;100.0;100.4;0;-0.5;25.6;-1.0;
28/02/2025 09:21:39;116;0;359.91;-4;-50.72;-0.80;0.1;17.00;75579;2836.831;-1801.145;0;131;500;506.5;100.0;100.4;0;-0.5;25.6;-1.0;
28/02/2025 09:22:42;116;0;10.72;-4;-50.14;-4.95;0.1;17.20;75595;2836.843;-1801.150;0;131;500;506.5;100.0;100.4;0;-0.5;25.6;-1.0;
28/02/2025 09:24:20;116;0;336.50;-4;-54.79;-8.96;0.1;17.60;75621;2836.859;-1801.159;0;131;500;506.5;100.0;100.4;0;-0.5;25.6;-1.0;
28/02/2025 09:25:56;116;0;1.63;-4;-45.42;-2.39;0.0;18.00;75668;2836.874;-1801.169;0;131;500;506.5;100.0;100.4;0;0.0;25.6;-1.0;
28/02/2025 09:26:03;110;0;338.76;-4;-43.69;-10.03;0.1;18.10;75663;2836.874;-1801.169;0;131;-90;383.9;100.0;100.4;-7;-7.2;25.6;-1.0;
28/02/2025 09:26:13;110;0;321.66;-4;-54.15;-18.83;0.2;18.10;76033;2836.875;-1801.170;1;131;-90;238.7;100.0;100.4;-7;-7.2;25.6;-1.0;
28/02/2025 09:26:23;110;0;350.57;-4;-53.01;-16.99;0.4;18.20;76268;2836.875;-1801.170;1;131;-90;87.1;100.0;100.4;-7;-7.2;25.6;-1.0;
28/02/2025 09:26:33;110;0;1.45;-4;-67.18;-17.66;0.9;18.20;76577;2836.875;-1801.170;1;131;-90;-72.6;100.0;100.6;-7;-7.2;25.6;-1.0;
28/02/2025 09:26:43;110;0;349.67;-4;-66.38;-14.45;1.2;18.30;76922;2836.876;-1801.171;1;131;-90;-88.7;42.6;53.6;-7;-7.7;25.6;-1.0;
28/02/2025 09:26:53;110;0;356.31;-4;-59.07;-17.04;2.4;18.30;76903;2836.877;-1801.171;1;131;-90;-90.3;42.6;42.6;-7;-7.7;25.6;-1.0;
28/02/2025 09:27:13;100;0;3.20;-4;-21.83;-15.44;5.3;18.40;76915;2836.880;-1801.172;1;131;-90;-85.5;42.6;42.3;-7;-7.2;25.6;-1.0;
28/02/2025 09:27:33;100;0;5.43;-4;-19.73;-16.30;8.4;18.50;76917;2836.885;-1801.172;1;131;-90;-83.9;42.6;42.0;-70;-69.9;25.6;-1.0;
28/02/2025 09:27:53;100;0;8.86;-4;-19.90;-45.63;11.3;18.50;76929;2836.889;-1801.172;1;131;-90;-82.3;42.6;42.0;-70;-70.4;25.6;-1.0;
28/02/2025 09:28:13;100;0;22.21;-4;-18.70;-45.58;14.1;18.60;76935;2836.893;-1801.171;1;131;-90;-82.3;43.0;43.0;-70;-70.4;25.6;0.0;
28/02/2025 09:28:33;100;0;29.05;-4;-20.94;-45.52;17.0;18.70;76943;2836.896;-1801.170;1;131;-90;-80.6;43.0;43.2;-70;-70.4;25.6;0.0;
28/02/2025 09:28:53;100;0;43.85;-4;-21.24;-44.90;20.0;18.70;76942;2836.899;-1801.167;1;131;-90;-82.3;43.0;43.2;-70;-70.4;25.6;0.0;
28/02/2025 09:29:13;100;0;52.01;-4;-17.91;-45.45;23.1;18.70;76946;2836.902;-1801.164;1;131;-90;-82.3;43.6;43.7;-70;-70.4;25.6;0.0;
28/02/2025 09:29:33;100;0;63.47;-4;-21.82;-45.50;25.8;18.80;76955;2836.904;-1801.162;1;131;-90;-80.6;43.6;43.9;-63;-63.2;25.6;0.0;
28/02/2025 09:29:53;100;0;78.69;-4;-21.70;-41.76;28.8;18.80;76959;2836.905;-1801.158;1;131;-90;-80.6;43.6;44.0;-46;-46.0;25.6;0.0;
28/02/2025 09:30:13;100;0;95.65;-4;-22.46;-33.40;31.7;18.80;76967;2836.905;-1801.155;1;131;-90;-82.3;42.9;42.6;-25;-24.8;25.6;0.0;
28/02/2025 09:30:33;100;0;103.44;-4;-18.55;-22.82;34.7;18.80;76976;2836.905;-1801.151;1;131;-90;-82.3;43.3;43.6;-13;-13.1;25.6;0.0;
28/02/2025 09:30:53;100;0;109.24;-4;-20.94;-17.22;37.3;18.80;76975;2836.904;-1801.148;1;131;-90;-80.6;43.3;43.7;-1;-0.9;25.6;0.0;
28/02/2025 09:31:13;100;0;110.30;-4;-22.57;-11.15;40.2;18.80;76978;2836.903;-1801.146;1;131;-90;-82.3;42.6;42.6;1;1.4;25.6;0.0;
28/02/2025 09:31:33;100;0;112.33;-4;-18.18;-11.04;42.4;18.80;76984;2836.903;-1801.143;1;131;-90;-82.3;43.1;43.3;4;4.5;25.6;0.0;
28/02/2025 09:31:53;100;0;116.02;-4;-20.63;-9.23;44.6;18.80;76995;2836.902;-1801.141;1;131;-90;-82.3;43.1;43.4;9;9.0;25.6;0.0;
28/02/2025 09:32:13;100;0;116.46;-4;-20.98;-7.18;47.0;18.80;76998;2836.901;-1801.139;1;131;-90;-82.3;43.1;43.4;9;9.5;25.6;0.0;
28/02/2025 09:32:33;100;0;119.20;-4;-21.29;-6.73;49.6;18.80;77006;2836.900;-1801.136;1;131;-90;-82.3;43.1;43.4;12;12.2;25.6;0.0;
28/02/2025 09:32:53;100;0;120.65;-4;-22.02;-5.28;51.9;18.80;77006;2836.899;-1801.134;1;131;-90;-82.3;42.5;42.6;12;12.2;25.6;0.0;
28/02/2025 09:33:13;100;0;121.55;-4;-20.48;-5.38;54.4;18.80;77015;2836.897;-1801.131;1;131;-90;-82.3;42.5;42.3;14;14.0;25.6;0.0;
28/02/2025 09:33:33;100;0;121.79;-4;-20.35;-4.55;56.7;18.90;77020;2836.896;-1801.129;1;131;-90;-80.6;42.5;42.3;14;14.0;25.6;0.0;
28/02/2025 09:33:53;100;0;123.07;-4;-20.67;-4.20;59.2;18.80;77027;2836.895;-1801.127;1;131;-90;-80.6;42.5;42.3;14;14.4;25.6;0.0;
28/02/2025 09:34:13;100;0;122.89;-4;-19.92;-4.45;61.8;18.90;77034;2836.893;-1801.124;1;131;-90;-82.3;42.5;42.3;14;14.4;25.6;0.0;
28/02/2025 09:34:33;100;0;123.26;-4;-19.81;-4.53;64.4;18.90;77043;2836.892;-1801.122;1;131;-90;-82.3;42.5;42.3;14;14.4;25.6;0.0;
28/02/2025 09:34:53;100;0;120.31;-4;-20.46;-4.20;66.9;18.90;77039;2836.891;-1801.120;1;131;-90;-80.6;42.5;42.3;14;14.4;25.6;0.0;
28/02/2025 09:35:13;100;0;116.95;-4;-19.01;-4.76;69.5;18.90;77042;2836.890;-1801.117;1;131;-90;-82.3;42.5;42.3;9;9.0;25.6;0.0;
28/02/2025 09:35:33;100;0;113.50;-4;-20.49;-7.40;71.8;18.90;77048;2836.889;-1801.114;1;131;-90;-82.3;42.5;42.3;5;5.0;25.6;0.0;
28/02/2025 09:35:53;100;0;116.12;-4;-18.93;-9.55;74.6;18.90;77039;2836.888;-1801.111;1;131;-90;-82.3;42.8;43.0;8;8.1;25.6;0.0;
28/02/2025 09:36:13;100;0;115.48;-4;-19.74;-7.49;77.2;18.90;77019;2836.887;-1801.108;1;131;-90;-82.3;42.8;43.0;8;8.6;25.6;0.0;
28/02/2025 09:36:33;100;0;116.80;-4;-19.62;-7.46;79.9;18.90;77016;2836.885;-1801.105;1;131;-90;-80.6;42.8;43.0;8;8.6;25.6;0.0;
28/02/2025 09:36:53;100;0;118.94;-4;-19.83;-7.44;82.3;18.90;76995;2836.884;-1801.103;1;131;-90;-80.6;42.8;43.0;12;12.2;25.6;0.0;
28/02/2025 09:37:13;100;0;118.59;-4;-19.96;-5.53;84.8;18.90;76990;2836.883;-1801.100;1;131;-90;-82.3;42.8;43.0;10;9.9;25.6;0.0;
28/02/2025 09:37:33;100;0;121.86;-4;-19.71;-6.88;87.3;18.80;76971;2836.882;-1801.098;1;131;-90;-82.3;42.8;43.0;13;13.5;25.6;0.0;
28/02/2025 09:37:53;100;0;122.92;-4;-20.14;-4.94;89.7;18.90;76990;2836.881;-1801.096;1;131;-90;-80.6;42.8;43.0;13;13.5;25.6;0.0;
28/02/2025 09:38:13;100;0;123.82;-4;-20.18;-4.90;92.3;18.80;76978;2836.879;-1801.093;1;131;-90;-83.9;42.8;43.0;13;13.5;25.6;0.0;
28/02/2025 09:38:33;100;0;124.59;-4;-20.06;-4.90;94.7;18.80;76972;2836.878;-1801.091;1;131;-90;-82.3;42.8;43.0;13;13.5;25.6;0.0;
28/02/2025 09:38:53;100;0;124.88;-4;-20.34;-4.93;97.3;18.80;76962;2836.876;-1801.089;1;131;-90;-80.6;42.8;43.0;13;13.5;25.6;0.0;
28/02/2025 09:39:13;100;0;130.03;-4;-19.76;-5.03;99.7;18.80;76953;2836.875;-1801.087;1;131;-90;-80.6;42.8;43.0;15;14.9;25.6;0.0;
28/02/2025 09:39:33;100;0;136.84;-4;-20.17;-4.03;102.4;18.80;76948;2836.873;-1801.085;1;131;-90;-80.6;42.8;43.0;15;15.8;25.6;0.0;
28/02/2025 09:39:53;100;0;138.20;-4;-20.85;-3.86;104.8;18.80;76932;2836.871;-1801.083;1;131;-90;-80.6;42.8;43.0;17;17.1;25.6;0.0;
28/02/2025 09:40:13;100;0;139.64;-4;-20.53;-2.96;107.2;18.80;76919;2836.869;-1801.081;1;131;-90;-80.6;42.8;43.0;17;17.1;25.6;0.0;
28/02/2025 09:40:33;100;0;142.12;-4;-20.66;-2.95;109.7;18.70;76906;2836.867;-1801.080;1;131;-90;-80.6;42.8;42.9;21;21.2;25.6;0.0;
28/02/2025 09:40:53;100;0;142.65;-4;-20.94;-0.79;112.3;18.70;76904;2836.865;-1801.078;1;131;-90;-80.6;42.8;43.0;21;21.2;25.6;0.0;
28/02/2025 09:41:13;100;0;140.99;-4;-20.35;-0.92;114.8;18.70;76888;2836.862;-1801.077;1;131;-90;-82.3;42.8;43.0;21;21.7;25.6;0.0;
28/02/2025 09:41:33;100;0;138.17;-4;-20.01;-0.95;117.1;18.70;76883;2836.861;-1801.075;1;131;-90;-80.6;42.8;43.0;17;17.1;25.6;0.0;
28/02/2025 09:41:53;100;0;138.47;-4;-19.82;-3.47;119.4;18.70;76874;2836.859;-1801.074;1;131;-90;-80.6;42.8;43.0;17;16.7;25.6;0.0;
28/02/2025 09:42:13;100;0;138.05;-4;-19.75;-3.50;121.4;18.60;76861;2836.857;-1801.072;1;131;-90;-82.3;42.8;43.0;17;16.7;25.6;0.0;
28/02/2025 09:42:33;100;0;136.14;-4;-19.96;-3.47;123.5;18.60;76859;2836.856;-1801.071;1;131;-90;-80.6;42.8;43.0;17;16.7;25.6;0.0;
28/02/2025 09:42:53;100;0;133.88;-4;-20.19;-3.49;125.7;18.60;76851;2836.854;-1801.069;1;131;-90;-82.3;42.8;43.0;15;14.9;25.6;0.0;
28/02/2025 09:43:13;100;0;135.43;-4;-20.43;-4.39;127.8;18.50;76850;2836.853;-1801.068;1;131;-90;-80.6;42.8;43.0;15;14.4;25.6;0.0;
28/02/2025 09:43:33;100;0;134.16;-4;-19.84;-4.45;130.2;18.50;76856;2836.851;-1801.066;1;131;-90;-80.6;42.8;43.0;15;14.4;25.6;0.0;
28/02/2025 09:43:53;100;0;135.01;-4;-20.14;-4.43;132.1;18.50;76841;2836.850;-1801.064;1;131;-110;-108.1;42.8;43.0;15;14.4;25.6;0.0;
28/02/2025 09:44:13;100;0;136.78;-4;-19.33;-4.44;134.3;18.50;76898;2836.848;-1801.063;1;131;-110;-111.3;42.8;43.0;17;17.1;25.6;0.0;
28/02/2025 09:44:33;100;0;133.66;-4;-19.96;-2.82;136.6;18.50;76888;2836.846;-1801.061;1;131;-110;-109.7;42.8;43.0;15;14.4;25.6;0.0;
28/02/2025 09:44:53;100;0;132.78;-4;-20.05;-4.48;139.0;18.40;76878;2836.845;-1801.059;1;131;-110;-109.7;42.8;43.0;15;14.0;25.6;0.0;
28/02/2025 09:45:13;100;0;132.43;-4;-19.75;-4.52;141.6;18.40;76879;2836.843;-1801.057;1;131;-110;-109.7;42.8;43.0;15;14.0;25.6;0.0;
28/02/2025 09:45:33;100;0;131.81;-4;-19.85;-4.32;144.1;18.40;76861;2836.841;-1801.055;1;131;-110;-111.3;42.8;43.0;15;14.0;25.6;0.0;
28/02/2025 09:45:53;100;0;132.03;-4;-19.61;-4.46;146.5;18.40;76865;2836.839;-1801.053;1;131;-110;-109.7;42.8;43.0;15;14.4;25.6;0.0;
28/02/2025 09:46:13;100;0;131.01;-4;-19.93;-4.43;148.8;18.30;76852;2836.838;-1801.051;1;131;-110;-109.7;42.8;43.0;15;14.4;25.6;0.0;
28/02/2025 09:46:33;100;0;133.25;-4;-19.49;-4.47;151.1;18.30;76859;2836.836;-1801.049;1;131;-110;-111.3;42.8;43.0;15;14.0;25.6;0.0;
28/02/2025 09:46:53;100;0;133.66;-4;-19.70;-4.37;153.3;18.30;76855;2836.834;-1801.048;1;131;-110;-111.3;42.8;43.0;15;14.0;25.6;0.0;
28/02/2025 09:47:13;100;0;137.91;-4;-19.59;-4.37;155.7;18.30;76837;2836.833;-1801.046;1;131;-110;-109.7;42.8;43.0;17;17.1;25.6;0.0;
28/02/2025 09:47:33;100;0;140.76;-4;-20.06;-2.66;158.0;18.20;76847;2836.831;-1801.045;1;131;-110;-109.7;42.8;43.0;20;19.9;25.6;0.0;
28/02/2025 09:47:53;100;0;139.24;-4;-20.20;-1.29;160.5;18.20;76839;2836.829;-1801.043;1;131;-110;-109.7;42.8;43.0;20;20.3;25.6;0.0;
28/02/2025 09:48:13;100;0;135.59;-4;-20.14;-1.30;162.7;18.20;76834;2836.827;-1801.041;1;131;-110;-109.7;42.8;43.2;16;15.8;25.6;0.0;
28/02/2025 09:48:33;100;0;134.66;-4;-19.91;-3.96;165.1;18.20;76832;2836.825;-1801.039;1;131;-110;-108.1;42.8;43.0;16;14.9;25.6;0.0;
28/02/2025 09:48:53;100;0;133.55;-4;-19.33;-3.98;167.4;18.10;76828;2836.824;-1801.037;1;131;-110;-109.7;42.8;43.0;16;15.3;25.6;0.0;
28/02/2025 09:49:13;100;0;131.62;-4;-19.18;-4.04;169.6;18.10;76829;2836.822;-1801.036;1;131;-110;-109.7;42.8;43.0;16;15.3;25.6;0.0;
28/02/2025 09:49:33;100;0;127.37;-4;-19.38;-4.05;171.7;18.10;76813;2836.821;-1801.034;1;131;-110;-109.7;42.8;43.0;16;15.3;25.6;0.0;
28/02/2025 09:49:53;100;0;125.35;-4;-19.58;-4.09;173.6;18.00;76807;2836.820;-1801.032;1;131;-130;-133.9;42.8;43.0;16;15.3;25.6;0.0;
28/02/2025 09:50:13;100;0;123.32;-4;-19.05;-4.03;175.8;18.00;76853;2836.819;-1801.030;1;131;-130;-133.9;42.8;43.0;16;14.9;25.6;0.0;
28/02/2025 09:50:33;100;0;124.62;-4;-19.05;-3.92;178.2;18.00;76854;2836.817;-1801.028;1;131;-130;-133.9;42.8;43.0;16;14.9;25.6;0.0;
28/02/2025 09:50:53;100;0;122.27;-4;-19.19;-3.99;180.5;18.00;76849;2836.816;-1801.026;1;131;-130;-133.9;42.8;43.0;14;14.0;25.6;0.0;
28/02/2025 09:51:13;100;0;122.02;-4;-18.92;-4.70;182.8;18.00;76834;2836.815;-1801.023;1;131;-130;-133.9;43.1;43.2;14;13.5;25.6;0.0;
28/02/2025 09:51:33;100;0;122.91;-4;-19.72;-4.88;185.4;17.90;76830;2836.813;-1801.021;1;131;-130;-132.3;43.1;43.3;14;13.5;25.6;0.0;
28/02/2025 09:51:53;100;0;121.25;-4;-19.92;-4.75;187.7;17.90;76820;2836.812;-1801.018;1;131;-130;-133.9;43.1;43.4;14;13.5;25.6;0.0;
28/02/2025 09:52:13;100;0;121.13;-4;-19.98;-4.69;190.3;17.80;76808;2836.811;-1801.016;1;131;-130;-135.5;43.1;43.3;14;13.5;25.6;0.0;
28/02/2025 09:52:33;100;0;123.92;-4;-19.99;-4.69;193.1;17.80;76806;2836.809;-1801.013;1;131;-130;-132.3;43.1;43.3;14;13.5;25.6;0.0;
28/02/2025 09:52:53;100;0;126.92;-4;-19.99;-4.62;195.7;17.80;76799;2836.807;-1801.011;1;131;-130;-133.9;43.1;43.6;14;13.5;25.6;0.0;
28/02/2025 09:53:13;100;0;129.23;-4;-20.15;-4.68;198.8;17.80;76789;2836.805;-1801.008;1;131;-130;-133.9;43.1;43.4;14;13.5;25.6;0.0;
28/02/2025 09:53:33;100;0;131.30;-4;-20.17;-4.63;201.7;17.80;76778;2836.803;-1801.005;1;131;-130;-133.9;43.1;43.4;14;13.5;25.6;0.0;
28/02/2025 09:53:53;100;0;133.19;-4;-20.03;-4.63;204.7;17.70;76764;2836.801;-1801.003;1;131;-130;-133.9;43.1;43.4;14;13.5;25.6;0.0;
28/02/2025 09:54:13;100;0;134.27;-4;-20.44;-4.73;207.8;17.70;76751;2836.799;-1801.000;1;131;-130;-135.5;43.1;43.4;14;13.5;25.6;0.0;
28/02/2025 09:54:33;100;0;135.48;-4;-19.85;-4.74;210.7;17.60;76738;2836.796;-1800.998;1;131;-130;-135.5;43.1;43.4;16;15.8;25.6;0.0;
28/02/2025 09:54:53;100;0;138.79;-4;-20.32;-3.46;213.8;17.60;76730;2836.794;-1800.996;1;131;-130;-133.9;43.1;43.4;16;16.2;25.6;0.0;
28/02/2025 09:55:14;100;0;141.82;-4;-20.36;-3.27;216.9;17.60;76730;2836.791;-1800.994;1;131;-130;-135.5;43.1;43.4;20;19.9;25.6;0.0;
28/02/2025 09:55:34;100;0;142.23;-4;-20.53;-1.17;220.0;17.60;76717;2836.789;-1800.992;1;131;-130;-133.9;43.1;43.4;20;20.3;25.6;0.0;
28/02/2025 09:55:54;100;0;141.14;-4;-20.86;-1.13;223.1;17.50;76712;2836.786;-1800.989;1;131;-130;-135.5;43.1;43.3;20;20.3;25.6;0.0;
28/02/2025 09:56:14;100;0;137.14;-4;-20.80;-1.16;226.0;17.50;76703;2836.784;-1800.987;1;131;-130;-133.9;43.1;43.4;17;16.7;25.6;0.0;
28/02/2025 09:56:34;100;0;134.95;-4;-20.46;-3.08;229.2;17.40;76711;2836.781;-1800.985;1;131;-130;-135.5;43.1;43.4;17;16.7;25.6;0.0;
28/02/2025 09:56:54;100;0;131.04;-4;-20.18;-3.13;232.3;17.40;76698;2836.779;-1800.982;1;131;-130;-135.5;43.1;43.3;15;14.9;25.6;0.0;
28/02/2025 09:57:14;100;0;130.69;-4;-20.02;-4.14;235.3;17.40;76688;2836.777;-1800.979;1;131;-130;-133.9;43.1;43.4;15;14.9;25.6;0.0;
28/02/2025 09:57:34;100;0;130.43;-4;-19.98;-4.14;238.2;17.40;76687;2836.775;-1800.977;1;131;-130;-133.9;43.1;43.4;15;14.9;25.6;0.0;
28/02/2025 09:57:54;100;0;128.71;-4;-19.85;-4.16;241.3;17.30;76677;2836.773;-1800.974;1;131;-130;-135.5;43.1;43.6;15;14.4;25.6;0.0;
28/02/2025 09:58:14;100;0;127.20;-4;-19.71;-4.22;244.2;17.30;76672;2836.771;-1800.971;1;131;-130;-132.3;43.1;43.4;15;14.4;25.6;0.0;
28/02/2025 09:58:34;100;0;125.10;-4;-19.70;-4.19;247.0;17.20;76655;2836.769;-1800.968;1;131;-130;-132.3;43.1;43.4;15;14.4;25.6;0.0;
28/02/2025 09:58:54;100;0;124.63;-4;-19.83;-4.02;249.7;17.20;76664;2836.768;-1800.966;1;131;-130;-133.9;43.1;43.3;15;14.9;25.6;0.0;
28/02/2025 09:59:14;100;0;125.08;-4;-19.80;-4.17;252.7;17.20;76647;2836.766;-1800.963;1;131;-130;-133.9;43.1;43.4;15;14.4;25.6;0.0;
28/02/2025 09:59:34;100;0;124.61;-4;-19.87;-4.19;255.6;17.20;76651;2836.764;-1800.960;1;131;-130;-132.3;43.1;43.4;15;14.9;25.6;0.0;
28/02/2025 09:59:54;100;0;122.82;-4;-19.67;-4.20;258.4;17.10;76639;2836.762;-1800.957;1;131;-130;-135.5;43.1;43.3;15;14.9;25.6;0.0;
28/02/2025 10:00:14;100;0;122.81;-4;-19.58;-4.15;261.3;17.10;76631;2836.761;-1800.954;1;131;-130;-133.9;43.1;43.3;15;14.4;25.6;0.0;
28/02/2025 10:00:34;100;0;120.60;-4;-19.51;-4.20;264.0;17.10;76625;2836.760;-1800.952;1;131;-130;-133.9;43.1;43.4;13;12.6;25.6;0.0;
28/02/2025 10:00:54;100;0;118.75;-4;-19.41;-5.16;266.7;17.00;76621;2836.758;-1800.949;1;131;-130;-133.9;43.1;43.3;11;10.8;25.6;0.0;
28/02/2025 10:01:14;100;0;119.86;-4;-19.31;-6.13;269.4;17.00;76608;2836.757;-1800.946;1;131;-130;-133.9;43.1;43.3;11;10.8;25.6;0.0;
28/02/2025 10:01:34;100;0;119.64;-4;-19.34;-6.16;272.1;17.00;76596;2836.755;-1800.943;1;131;-130;-133.9;43.1;43.4;11;10.8;25.6;0.0;
28/02/2025 10:01:54;100;0;120.36;-4;-19.29;-6.16;274.9;16.90;76594;2836.754;-1800.940;1;131;-130;-133.9;43.1;43.4;11;10.8;25.6;0.0;
28/02/2025 10:02:14;100;0;121.97;-4;-19.47;-6.16;277.6;16.90;76590;2836.752;-1800.937;1;131;-130;-133.9;43.1;43.3;13;13.1;25.6;0.0;
28/02/2025 10:02:34;100;0;123.52;-4;-19.51;-4.66;280.4;16.90;76581;2836.751;-1800.934;1;131;-130;-133.9;43.1;43.4;13;13.5;25.6;0.0;
28/02/2025 10:02:54;100;0;126.08;-4;-19.59;-4.63;283.2;16.90;76577;2836.749;-1800.932;1;131;-130;-135.5;43.1;43.4;15;14.9;25.6;0.0;
28/02/2025 10:03:14;100;0;125.20;-4;-19.73;-3.76;286.1;16.80;76576;2836.747;-1800.929;1;131;-130;-133.9;43.1;43.4;15;15.3;25.6;0.0;
28/02/2025 10:03:34;100;0;125.11;-4;-19.68;-3.75;289.0;16.80;76560;2836.746;-1800.926;1;131;-130;-132.3;43.1;43.4;15;15.3;25.6;0.0;
28/02/2025 10:03:54;100;0;126.57;-4;-19.62;-3.78;291.8;16.70;76545;2836.744;-1800.924;1;131;-130;-133.9;43.1;43.4;15;15.3;25.6;0.0;
28/02/2025 10:04:14;100;0;126.86;-4;-19.25;-3.81;294.4;16.70;76543;2836.742;-1800.921;1;131;-130;-135.5;43.1;43.3;15;15.3;25.6;0.0;
28/02/2025 10:04:34;100;0;126.57;-4;-19.50;-3.77;297.3;16.70;76525;2836.740;-1800.918;1;131;-130;-133.9;43.1;43.4;15;15.3;25.6;0.0;
28/02/2025 10:04:54;100;0;125.05;-4;-19.59;-3.73;300.2;16.60;76519;2836.739;-1800.915;1;131;-130;-133.9;43.1;43.4;15;15.3;25.6;0.0;
28/02/2025 10:05:14;100;0;123.45;-4;-19.72;-3.77;303.0;16.60;76518;2836.737;-1800.913;1;131;-130;-133.9;43.1;43.4;15;15.3;25.6;0.0;
28/02/2025 10:05:34;100;0;124.16;-4;-19.59;-3.78;305.9;16.60;76498;2836.735;-1800.910;1;131;-130;-133.9;43.1;43.4;15;15.3;25.6;0.0;
28/02/2025 10:05:54;100;0;126.41;-4;-19.41;-3.78;308.6;16.50;76495;2836.733;-1800.907;1;131;-130;-133.9;43.1;43.4;15;15.3;25.6;0.0;
28/02/2025 10:06:14;100;0;128.55;-4;-19.26;-3.77;311.7;16.50;76491;2836.731;-1800.904;1;131;-130;-133.9;43.1;43.4;15;15.3;25.6;0.0;
28/02/2025 10:06:34;100;0;130.47;-4;-19.51;-3.68;314.4;16.50;76489;2836.729;-1800.902;1;131;-130;-133.9;43.1;43.4;15;15.3;25.6;0.0;
28/02/2025 10:06:54;100;0;132.06;-4;-19.61;-3.76;317.3;16.50;76482;2836.727;-1800.899;1;131;-130;-133.9;43.1;43.4;15;15.3;25.6;0.0;
28/02/2025 10:07:14;100;0;134.06;-4;-19.64;-3.73;320.2;16.40;76472;2836.725;-1800.897;1;131;-130;-135.5;43.1;43.4;15;15.3;25.6;0.0;
28/02/2025 10:07:34;100;0;136.80;-4;-19.43;-3.74;323.2;16.40;76466;2836.723;-1800.895;1;131;-130;-135.5;43.1;43.4;15;15.3;25.6;0.0;
28/02/2025 10:07:54;100;0;136.63;-4;-19.43;-3.77;326.0;16.30;76451;2836.720;-1800.892;1;131;-130;-133.9;43.1;43.4;15;15.3;25.6;0.0;
28/02/2025 10:08:14;100;0;136.24;-4;-19.32;-3.78;328.9;16.30;76447;2836.718;-1800.890;1;131;-130;-133.9;43.1;43.4;15;15.3;25.6;0.0;
28/02/2025 10:08:34;100;0;137.46;-4;-19.37;-3.81;331.6;16.30;76448;2836.716;-1800.888;1;131;-130;-133.9;43.1;43.4;15;15.3;25.6;0.0;
28/02/2025 10:08:54;100;0;138.02;-4;-19.39;-3.78;334.5;16.20;76436;2836.713;-1800.886;1;131;-130;-133.9;43.1;43.3;17;17.1;25.6;0.0;
28/02/2025 10:09:14;100;0;137.56;-4;-19.41;-2.67;337.4;16.20;76426;2836.711;-1800.883;1;131;-130;-133.9;43.1;43.3;17;17.6;25.6;0.0;
28/02/2025 10:09:34;100;0;136.32;-4;-19.36;-2.67;340.2;16.20;76430;2836.708;-1800.881;1;131;-130;-135.5;43.1;43.4;17;17.6;25.6;0.0;
28/02/2025 10:09:54;100;0;136.86;-4;-19.50;-2.67;343.0;16.10;76418;2836.706;-1800.879;1;131;-130;-133.9;43.1;43.4;17;17.6;25.6;0.0;
28/02/2025 10:10:14;100;0;135.09;-4;-19.91;-2.60;345.9;16.10;76409;2836.704;-1800.876;1;131;-130;-133.9;43.1;43.4;17;17.6;25.6;0.0;
28/02/2025 10:10:34;100;0;133.42;-4;-19.62;-2.63;348.9;16.10;76400;2836.702;-1800.874;1;131;-130;-135.5;43.1;43.3;15;14.9;25.6;0.0;
28/02/2025 10:10:54;100;0;134.29;-4;-19.37;-4.13;351.8;16.00;76393;2836.699;-1800.872;1;131;-130;-135.5;43.1;43.4;15;14.4;25.6;0.0;
28/02/2025 10:11:14;100;0;134.56;-4;-19.36;-4.25;354.5;16.00;76391;2836.697;-1800.869;1;131;-130;-137.1;43.1;43.4;15;14.4;25.6;0.0;
28/02/2025 10:11:34;100;0;134.55;-4;-19.60;-4.17;357.4;16.00;76388;2836.695;-1800.867;1;131;-130;-133.9;43.1;43.4;15;14.4;25.6;0.0;
28/02/2025 10:11:54;100;0;133.44;-4;-19.80;-4.18;360.1;16.00;76388;2836.693;-1800.865;1;131;-130;-133.9;43.1;43.4;15;14.4;25.6;0.0;
28/02/2025 10:12:14;100;0;131.72;-4;-19.58;-4.12;362.9;15.90;76387;2836.691;-1800.862;1;131;-130;-133.9;43.1;43.4;15;14.4;25.6;0.0;
28/02/2025 10:12:34;100;0;130.49;-4;-19.57;-4.22;365.5;15.90;76383;2836.689;-1800.860;1;131;-130;-133.9;43.1;43.3;15;14.4;25.6;0.0;
28/02/2025 10:12:54;100;0;129.01;-4;-19.61;-4.14;368.2;15.90;76372;2836.688;-1800.858;1;131;-130;-135.5;43.1;43.4;15;14.4;25.6;0.0;
28/02/2025 10:13:14;100;0;129.68;-4;-19.54;-4.13;370.7;15.80;76373;2836.686;-1800.855;1;131;-130;-135.5;43.1;43.4;15;14.4;25.6;0.0;
28/02/2025 10:13:34;100;0;130.39;-4;-19.20;-4.22;373.4;15.80;76367;2836.684;-1800.853;1;131;-130;-133.9;43.1;43.4;15;14.4;25.6;0.0;
28/02/2025 10:13:54;100;0;131.88;-4;-19.23;-4.22;375.7;15.80;76367;2836.682;-1800.851;1;131;-130;-133.9;43.1;43.3;15;14.4;25.6;0.0;
28/02/2025 10:14:14;100;0;131.74;-4;-19.42;-4.19;378.4;15.70;76364;2836.680;-1800.849;1;131;-130;-135.5;43.1;43.4;15;14.4;25.6;0.0;
28/02/2025 10:14:34;100;0;132.09;-4;-19.42;-4.22;380.8;15.70;76356;2836.679;-1800.847;1;131;-130;-133.9;43.1;43.3;15;14.4;25.6;0.0;
28/02/2025 10:14:54;100;0;129.93;-4;-19.78;-4.15;383.4;15.70;76344;2836.677;-1800.844;1;131;-130;-133.9;43.1;43.4;15;14.4;25.6;0.0;
28/02/2025 10:15:14;100;0;130.23;-4;-19.37;-4.16;385.9;15.60;76336;2836.675;-1800.842;1;131;-130;-132.3;43.1;43.4;15;14.4;25.6;0.0;
28/02/2025 10:15:34;100;0;129.48;-4;-19.15;-4.25;388.3;15.60;76335;2836.673;-1800.840;1;131;-130;-133.9;43.1;43.4;15;14.4;25.6;0.0;
28/02/2025 10:15:54;100;0;128.23;-4;-19.26;-4.21;390.6;15.60;76334;2836.672;-1800.838;1;131;-130;-133.9;43.1;43.6;15;14.4;25.6;0.0;
28/02/2025 10:16:14;100;0;127.37;-4;-19.25;-4.24;393.1;15.60;76321;2836.670;-1800.836;1;131;-130;-133.9;43.1;43.3;15;14.4;25.6;0.0;
28/02/2025 10:16:34;100;0;126.27;-4;-19.20;-4.22;395.4;15.50;76306;2836.669;-1800.834;1;131;-130;-135.5;43.1;43.4;15;14.4;25.6;0.0;
28/02/2025 10:16:54;100;0;125.74;-4;-19.14;-4.28;397.6;15.50;76318;2836.668;-1800.831;1;131;-130;-133.9;43.1;43.4;15;14.4;25.6;0.0;
28/02/2025 10:17:14;100;0;125.10;-4;-19.06;-4.26;399.9;15.50;76308;2836.666;-1800.829;1;131;-130;-133.9;43.1;43.4;15;14.4;25.6;0.0;
28/02/2025 10:17:34;100;0;124.51;-4;-19.24;-4.26;402.1;15.40;76296;2836.665;-1800.827;1;131;-130;-133.9;43.1;43.4;15;14.4;25.6;0.0;
28/02/2025 10:17:54;100;0;121.21;-4;-19.40;-4.21;404.5;15.40;76290;2836.664;-1800.825;1;131;-130;-133.9;43.1;43.4;15;14.4;25.6;0.0;
28/02/2025 10:18:14;100;0;118.84;-4;-19.17;-4.20;406.9;15.40;76284;2836.663;-1800.822;1;131;-130;-133.9;43.1;43.4;12;12.2;25.6;0.0;
28/02/2025 10:18:34;100;0;115.94;-4;-18.84;-5.49;409.1;15.40;76272;2836.662;-1800.820;1;131;-130;-133.9;43.5;43.4;9;8.6;25.6;0.0;
28/02/2025 10:18:54;100;0;116.77;-4;-18.63;-7.15;411.4;15.30;76265;2836.661;-1800.818;1;131;-130;-135.5;43.9;43.9;9;8.6;25.6;0.0;
28/02/2025 10:19:14;100;0;120.73;-4;-20.01;-7.14;413.7;15.30;76261;2836.660;-1800.815;1;131;-130;-132.3;43.9;44.0;13;13.1;25.6;0.0;
28/02/2025 10:19:34;100;0;123.19;-4;-20.63;-4.63;416.2;15.30;76249;2836.658;-1800.813;1;131;-130;-135.5;43.9;44.0;13;13.5;25.6;0.0;
28/02/2025 10:19:54;100;0;124.29;-4;-20.63;-4.66;418.8;15.20;76258;2836.657;-1800.811;1;131;-130;-133.9;43.9;44.0;15;14.9;25.6;0.0;
28/02/2025 10:20:14;100;0;123.11;-4;-20.81;-3.75;421.6;15.20;76242;2836.655;-1800.808;1;131;-130;-133.9;43.9;44.0;15;15.3;25.6;0.0;
28/02/2025 10:20:34;100;0;119.32;-4;-20.70;-3.77;424.2;15.20;76242;2836.654;-1800.805;1;131;-130;-133.9;43.9;44.0;12;12.2;25.6;0.0;
28/02/2025 10:20:54;100;0;116.76;-4;-20.39;-5.32;427.0;15.10;76222;2836.653;-1800.802;1;131;-130;-133.9;43.9;44.2;8;8.1;25.6;0.0;
28/02/2025 10:21:14;100;0;118.32;-4;-20.28;-7.30;429.8;15.10;76234;2836.652;-1800.800;1;131;-130;-133.9;43.9;44.0;10;9.9;25.6;0.0;
28/02/2025 10:21:34;100;0;120.98;-4;-20.41;-6.30;432.6;15.10;76216;2836.650;-1800.797;1;131;-130;-135.5;43.9;44.0;12;12.6;25.6;0.0;
28/02/2025 10:21:54;100;0;121.59;-4;-20.77;-4.98;435.4;15.10;76208;2836.649;-1800.794;1;131;-130;-132.3;43.9;44.0;12;12.6;25.6;0.0;
28/02/2025 10:22:14;100;0;122.64;-4;-20.80;-4.92;438.4;15.00;76208;2836.647;-1800.791;1;131;-130;-133.9;43.9;44.0;12;12.6;25.6;0.0;
28/02/2025 10:22:34;100;0;125.44;-4;-20.55;-4.83;441.3;15.00;76198;2836.645;-1800.788;1;131;-130;-133.9;43.9;44.0;14;14.0;25.6;0.0;
28/02/2025 10:22:54;100;0;129.28;-4;-20.28;-4.19;444.2;15.00;76196;2836.644;-1800.786;1;131;-130;-133.9;43.9;44.2;14;14.4;25.6;0.0;
28/02/2025 10:23:14;100;0;132.70;-4;-20.28;-4.02;447.1;15.00;76186;2836.641;-1800.783;1;131;-130;-135.5;43.9;44.0;14;14.4;25.6;0.0;
28/02/2025 10:23:34;100;0;136.44;-4;-20.41;-4.04;450.0;14.90;76180;2836.639;-1800.781;1;131;-130;-135.5;43.9;44.0;16;15.8;25.6;0.0;
28/02/2025 10:23:54;100;0;138.89;-4;-20.46;-3.41;453.1;14.90;76178;2836.636;-1800.779;1;131;-130;-133.9;43.9;44.0;16;16.2;25.6;0.0;
28/02/2025 10:24:14;100;0;141.18;-4;-20.35;-3.51;456.2;14.90;76166;2836.634;-1800.777;1;131;-130;-133.9;43.9;44.0;19;19.0;25.6;0.0;
28/02/2025 10:24:34;100;0;143.66;-4;-20.57;-1.83;459.3;14.80;76175;2836.631;-1800.775;1;131;-130;-133.9;43.9;44.0;22;22.6;25.6;0.0;
28/02/2025 10:24:54;100;0;146.01;-4;-20.36;-0.06;462.1;14.80;76155;2836.628;-1800.773;1;131;-130;-133.9;43.9;44.2;25;24.8;25.6;0.0;
28/02/2025 10:25:14;100;0;144.92;-4;-20.14;0.93;465.1;14.80;76155;2836.626;-1800.771;1;131;-130;-133.9;43.9;44.2;25;24.8;25.6;0.0;
28/02/2025 10:25:34;100;0;138.61;-4;-20.54;0.82;467.9;14.80;76140;2836.623;-1800.769;1;131;-130;-133.9;43.9;44.0;17;17.1;25.6;0.0;
28/02/2025 10:25:54;100;0;134.42;-4;-20.74;-3.02;470.9;14.70;76135;2836.621;-1800.767;1;131;-130;-133.9;43.9;44.0;15;14.9;25.6;0.0;
28/02/2025 10:26:14;100;0;133.04;-4;-20.70;-4.10;473.8;14.70;76124;2836.619;-1800.765;1;131;-130;-133.9;43.9;44.2;15;14.9;25.6;0.0;
28/02/2025 10:26:34;100;0;131.70;-4;-20.60;-4.04;476.9;14.70;76131;2836.617;-1800.762;1;131;-130;-135.5;43.9;44.2;15;14.4;25.6;0.0;
28/02/2025 10:26:54;100;0;129.49;-4;-20.58;-4.07;479.8;14.60;76125;2836.615;-1800.759;1;131;-130;-133.9;43.9;44.2;15;14.9;25.6;0.0;
28/02/2025 10:27:14;100;0;125.43;-4;-20.32;-4.06;482.8;14.60;76118;2836.613;-1800.757;1;131;-130;-135.5;43.9;44.2;15;14.9;25.6;0.0;
28/02/2025 10:27:34;100;0;124.65;-4;-20.55;-4.06;485.7;14.60;76103;2836.612;-1800.754;1;131;-130;-133.9;43.9;44.0;15;14.9;25.6;0.0;
28/02/2025 10:27:54;100;0;121.96;-4;-20.63;-4.16;488.6;14.60;76118;2836.610;-1800.751;1;131;-130;-133.9;43.9;44.0;13;13.1;25.6;0.0;
28/02/2025 10:28:14;100;0;120.31;-4;-20.12;-5.13;491.5;14.50;76100;2836.609;-1800.748;1;131;-130;-133.9;43.9;44.2;13;12.6;25.6;0.0;
28/02/2025 10:28:34;100;0;118.52;-4;-20.37;-5.06;494.2;14.50;76093;2836.607;-1800.745;1;131;-130;-133.9;43.9;44.2;10;9.5;25.6;0.0;
28/02/2025 10:28:54;100;0;119.25;-4;-19.78;-6.74;497.0;14.50;76095;2836.606;-1800.742;1;131;-130;-133.9;43.9;44.0;10;9.5;25.6;0.0;
28/02/2025 10:29:14;100;0;119.57;-4;-19.73;-6.89;499.9;14.40;76092;2836.605;-1800.739;1;131;-130;-135.5;43.9;44.0;10;9.0;25.6;0.0;
28/02/2025 10:29:34;100;0;118.72;-4;-20.01;-6.77;502.5;14.40;76090;2836.603;-1800.737;1;131;-130;-133.9;43.9;44.0;10;9.0;25.6;0.0;
28/02/2025 10:29:54;100;0;120.33;-4;-19.63;-6.80;505.1;14.40;76076;2836.602;-1800.734;1;131;-130;-133.9;43.9;44.0;12;12.2;25.6;0.0;
28/02/2025 10:30:14;100;0;123.06;-4;-19.82;-5.20;507.7;14.40;76066;2836.601;-1800.732;1;131;-130;-132.3;43.9;44.2;12;12.2;25.6;0.0;
28/02/2025 10:30:35;100;0;121.90;-4;-20.07;-5.28;510.4;14.30;76065;2836.599;-1800.729;1;131;-130;-133.9;43.9;44.0;12;12.6;25.6;0.0;
28/02/2025 10:30:55;100;0;122.50;-4;-19.74;-5.33;513.1;14.30;76065;2836.598;-1800.726;1;131;-130;-135.5;43.9;44.0;12;12.2;25.6;0.0;
28/02/2025 10:31:15;100;0;123.85;-4;-19.64;-5.28;515.6;14.30;76053;2836.596;-1800.724;1;131;-130;-135.5;43.9;44.0;14;14.4;25.6;0.0;
28/02/2025 10:31:35;100;0;124.55;-4;-19.97;-4.16;518.2;14.30;76054;2836.595;-1800.721;1;131;-130;-133.9;43.9;44.0;14;14.4;25.6;0.0;
28/02/2025 10:31:55;100;0;125.39;-4;-19.90;-4.20;520.6;14.20;76047;2836.594;-1800.719;1;131;-130;-133.9;43.9;44.2;14;14.4;25.6;0.0;
28/02/2025 10:32:15;100;0;124.00;-4;-20.07;-4.17;523.2;14.20;76043;2836.592;-1800.717;1;131;-130;-133.9;43.9;44.2;14;14.4;25.6;0.0;
28/02/2025 10:32:35;100;0;121.96;-4;-20.17;-4.18;525.7;14.20;76025;2836.591;-1800.714;1;131;-130;-133.9;43.9;44.0;14;14.4;25.6;0.0;
28/02/2025 10:32:55;100;0;119.75;-4;-20.31;-4.13;528.2;14.20;76039;2836.590;-1800.712;1;131;-130;-133.9;43.9;44.0;12;11.7;25.6;0.0;
28/02/2025 10:33:15;100;0;117.68;-4;-20.24;-5.62;530.7;14.10;76027;2836.589;-1800.709;1;131;-130;-133.9;43.9;44.0;10;9.9;25.6;0.0;
28/02/2025 10:33:35;100;0;116.61;-4;-19.73;-6.55;533.3;14.10;76014;2836.587;-1800.706;1;131;-130;-133.9;43.9;44.2;8;8.1;25.6;0.0;
28/02/2025 10:33:55;100;0;116.99;-4;-19.74;-7.54;535.5;14.10;76016;2836.586;-1800.704;1;131;-130;-135.5;43.9;44.0;8;7.7;25.6;0.0;
28/02/2025 10:34:15;100;0;118.62;-4;-19.54;-7.60;538.0;14.00;76017;2836.585;-1800.702;1;131;-130;-132.3;43.9;44.0;11;10.8;25.6;0.0;
28/02/2025 10:34:35;100;0;118.30;-4;-19.83;-5.74;540.4;14.00;76008;2836.584;-1800.699;1;131;-130;-135.5;43.9;44.0;11;11.3;25.6;0.0;
28/02/2025 10:34:55;100;0;116.67;-4;-19.95;-5.71;542.8;14.00;76003;2836.583;-1800.697;1;131;-130;-133.9;43.9;44.0;9;9.0;25.6;0.0;
28/02/2025 10:35:15;100;0;116.78;-4;-19.74;-6.98;545.3;14.00;76005;2836.582;-1800.694;1;131;-130;-133.9;43.9;44.0;9;9.0;25.6;0.0;
28/02/2025 10:35:35;100;0;117.70;-4;-19.60;-7.01;547.7;13.90;76006;2836.581;-1800.692;1;131;-130;-137.1;43.9;44.2;9;9.0;25.6;0.0;
28/02/2025 10:35:55;100;0;118.50;-4;-19.59;-7.03;550.0;13.90;75997;2836.580;-1800.689;1;131;-130;-133.9;43.9;44.0;9;9.0;25.6;0.0;
28/02/2025 10:36:15;100;0;120.78;-4;-19.60;-7.03;552.3;13.90;75987;2836.579;-1800.687;1;131;-130;-133.9;43.9;44.2;12;12.2;25.6;0.0;
28/02/2025 10:36:35;100;0;120.59;-4;-20.37;-5.10;554.9;13.90;75987;2836.578;-1800.685;1;131;-130;-135.5;43.9;44.0;12;12.6;25.6;0.0;
28/02/2025 10:36:55;100;0;122.73;-4;-19.74;-5.06;557.5;13.90;75975;2836.576;-1800.682;1;131;-130;-133.9;43.9;44.2;12;12.6;25.6;0.0;
28/02/2025 10:37:15;100;0;125.22;-4;-19.77;-5.08;560.0;13.80;75968;2836.575;-1800.680;1;131;-130;-133.9;43.9;44.2;14;14.0;25.6;0.0;
28/02/2025 10:37:35;100;0;126.64;-4;-19.84;-4.30;562.6;13.80;75966;2836.573;-1800.677;1;131;-130;-133.9;43.9;44.2;14;14.4;25.6;0.0;
28/02/2025 10:37:55;100;0;128.03;-4;-19.78;-4.24;565.1;13.80;75967;2836.572;-1800.675;1;131;-130;-133.9;43.9;44.0;14;14.4;25.6;0.0;
28/02/2025 10:38:15;100;0;130.55;-4;-19.78;-4.20;567.5;13.80;75969;2836.570;-1800.673;1;131;-130;-135.5;43.9;44.0;14;14.4;25.6;0.0;
28/02/2025 10:38:35;100;0;133.08;-4;-19.76;-4.22;570.1;13.80;75958;2836.568;-1800.671;1;131;-130;-135.5;43.9;44.0;14;14.4;25.6;0.0;
28/02/2025 10:38:55;100;0;136.18;-4;-19.72;-4.23;572.4;13.70;75955;2836.566;-1800.669;1;131;-130;-133.9;43.9;44.2;14;14.4;25.6;0.0;
28/02/2025 10:39:15;100;0;138.03;-4;-19.90;-4.24;575.0;13.70;75958;2836.564;-1800.668;1;131;-130;-133.9;43.9;44.0;16;15.8;25.6;0.0;
28/02/2025 10:39:35;100;0;141.32;-4;-19.95;-3.47;577.6;13.70;75951;2836.562;-1800.666;1;131;-130;-133.9;43.9;44.2;18;18.1;25.6;0.0;
28/02/2025 10:39:55;100;0;141.47;-4;-20.06;-2.29;580.1;13.60;75949;2836.560;-1800.664;1;131;-130;-135.5;43.9;44.2;18;18.5;25.6;0.0;
28/02/2025 10:40:15;100;0;139.74;-4;-20.10;-2.20;582.7;13.60;75944;2836.558;-1800.662;1;131;-130;-133.9;43.9;44.2;18;18.5;25.6;0.0;
28/02/2025 10:40:35;100;0;138.53;-4;-20.28;-2.17;585.2;13.60;75932;2836.556;-1800.661;1;131;-130;-133.9;43.9;44.0;18;18.5;25.6;0.0;
28/02/2025 10:40:55;100;0;137.13;-4;-20.14;-2.29;587.7;13.60;75941;2836.554;-1800.659;1;131;-130;-133.9;43.9;44.0;16;15.8;25.6;0.0;
28/02/2025 10:41:15;100;0;138.83;-4;-20.60;-3.75;590.3;13.60;75928;2836.552;-1800.657;1;131;-130;-133.9;43.9;44.2;16;15.8;25.6;0.0;
28/02/2025 10:41:35;100;0;140.89;-4;-19.89;-3.64;592.7;13.50;75916;2836.550;-1800.656;1;131;-130;-133.9;43.9;44.0;19;19.0;25.6;0.0;
28/02/2025 10:41:55;100;0;139.70;-4;-20.34;-1.89;595.2;13.50;75917;2836.548;-1800.654;1;131;-130;-135.5;43.9;44.2;19;19.0;25.6;0.0;
28/02/2025 10:42:15;100;0;135.94;-4;-19.77;-1.85;597.5;13.50;75917;2836.546;-1800.652;1;131;-130;-133.9;43.9;44.2;15;14.9;25.6;0.0;
28/02/2025 10:42:35;100;0;137.82;-4;-19.93;-4.10;599.8;13.50;75916;2836.544;-1800.651;1;131;-130;-133.9;43.9;44.0;17;17.1;25.6;0.0;
28/02/2025 10:42:55;100;0;134.43;-4;-20.58;-2.87;602.1;13.50;75909;2836.543;-1800.649;1;131;-130;-133.9;43.9;44.0;15;14.4;25.6;0.0;
28/02/2025 10:43:15;100;0;134.94;-4;-20.57;-4.38;604.6;13.40;75910;2836.541;-1800.647;1;131;-130;-135.5;43.9;44.0;15;14.4;25.6;0.0;
28/02/2025 10:43:35;100;0;141.97;-4;-19.21;-4.39;607.0;13.40;75906;2836.539;-1800.646;1;131;-130;-135.5;43.9;44.0;21;21.7;25.6;0.0;
28/02/2025 10:43:55;100;0;140.58;-4;-19.60;-0.54;609.1;13.40;75895;2836.537;-1800.644;1;131;-130;-133.9;43.9;44.0;19;18.5;25.6;0.0;
28/02/2025 10:44:15;100;0;143.38;-4;-20.72;-2.42;611.4;13.40;75896;2836.535;-1800.643;1;131;-130;-133.9;43.9;44.0;22;22.1;25.6;0.0;
28/02/2025 10:44:35;100;0;140.81;-4;-20.12;-0.07;613.9;13.40;75887;2836.533;-1800.641;1;131;-130;-133.9;43.9;44.2;19;19.0;25.6;0.0;
28/02/2025 10:44:55;100;0;138.20;-4;-20.21;-2.17;616.3;13.30;75879;2836.531;-1800.640;1;131;-130;-133.9;43.9;44.2;17;16.7;25.6;0.0;
28/02/2025 10:45:15;100;0;136.45;-4;-19.75;-3.11;618.7;13.30;75885;2836.529;-1800.638;1;131;-130;-135.5;43.9;44.0;17;16.7;25.6;0.0;
28/02/2025 10:45:35;100;0;133.84;-4;-19.99;-3.22;621.1;13.30;75879;2836.528;-1800.636;1;131;-130;-135.5;43.9;44.0;15;14.9;25.6;0.0;
28/02/2025 10:45:55;100;0;133.62;-4;-19.27;-4.45;623.3;13.30;75872;2836.526;-1800.634;1;131;-130;-133.9;43.9;44.0;15;14.4;25.6;0.0;
28/02/2025 10:46:15;100;0;132.74;-4;-19.56;-4.40;625.7;13.30;75869;2836.524;-1800.632;1;131;-130;-135.5;43.9;44.2;15;14.4;25.6;0.0;
28/02/2025 10:46:35;100;0;133.13;-4;-19.51;-4.37;627.9;13.20;75862;2836.523;-1800.631;1;131;-130;-135.5;43.9;44.0;15;14.4;25.6;0.0;
28/02/2025 10:46:55;100;0;133.80;-4;-19.69;-4.34;630.0;13.20;75863;2836.521;-1800.629;1;131;-130;-133.9;43.9;44.0;15;14.4;25.6;0.0;
28/02/2025 10:47:15;100;0;132.32;-4;-19.61;-4.39;632.3;13.20;75853;2836.520;-1800.627;1;131;-130;-135.5;43.9;44.0;15;14.4;25.6;0.0;
28/02/2025 10:47:35;100;0;131.56;-4;-19.46;-4.41;634.7;13.20;75849;2836.518;-1800.625;1;131;-130;-133.9;43.9;44.0;15;14.4;25.6;0.0;
28/02/2025 10:47:55;100;0;128.19;-4;-19.75;-4.35;636.9;13.20;75838;2836.517;-1800.623;1;131;-130;-133.9;43.9;44.2;15;14.4;25.6;0.0;
28/02/2025 10:48:15;100;0;125.50;-4;-19.37;-4.30;639.0;13.10;75851;2836.515;-1800.621;1;131;-130;-135.5;43.9;44.0;15;14.4;25.6;0.0;
28/02/2025 10:48:35;100;0;125.83;-4;-19.66;-4.46;641.1;13.10;75842;2836.514;-1800.620;1;131;-130;-135.5;43.9;44.2;15;14.4;25.6;0.0;
28/02/2025 10:48:55;100;0;122.25;-4;-19.22;-4.48;643.2;13.10;75842;2836.513;-1800.618;1;131;-130;-133.9;43.9;44.0;15;14.4;25.6;0.0;
28/02/2025 10:49:15;100;0;120.27;-4;-19.27;-4.48;645.2;13.10;75837;2836.512;-1800.616;1;131;-150;-151.6;43.9;44.0;12;12.2;25.6;0.0;
28/02/2025 10:49:35;100;0;118.61;-4;-18.95;-5.53;647.4;13.10;75873;2836.511;-1800.613;1;131;-150;-151.6;44.2;44.2;12;11.7;25.6;0.0;
28/02/2025 10:49:55;100;0;119.50;-4;-19.23;-5.48;649.6;13.00;75875;2836.510;-1800.611;1;131;-150;-153.2;44.2;44.2;12;11.7;25.6;0.0;
28/02/2025 10:50:15;100;0;119.24;-4;-19.11;-5.49;651.8;13.00;75871;2836.509;-1800.609;1;131;-150;-151.6;44.2;44.2;12;12.2;25.6;0.0;
28/02/2025 10:50:35;100;0;121.18;-4;-19.04;-5.52;653.9;13.00;75861;2836.508;-1800.607;1;131;-150;-153.2;44.2;44.2;12;11.7;25.6;0.0;
28/02/2025 10:50:55;100;0;123.50;-4;-19.35;-5.47;656.2;13.00;75859;2836.507;-1800.605;1;131;-150;-153.2;44.2;44.2;14;14.0;25.6;0.0;
28/02/2025 10:51:15;100;0;123.26;-4;-19.25;-4.39;658.6;13.00;75846;2836.505;-1800.602;1;131;-150;-153.2;44.2;44.3;14;14.0;25.6;0.0;
28/02/2025 10:51:35;100;0;123.83;-4;-19.35;-4.21;660.7;12.90;75850;2836.504;-1800.600;1;131;-150;-153.2;44.2;44.3;14;14.0;25.6;0.0;
28/02/2025 10:51:55;100;0;124.04;-4;-19.33;-4.22;662.9;12.90;75844;2836.503;-1800.598;1;131;-150;-156.5;44.2;44.3;14;14.0;25.6;0.0;
28/02/2025 10:52:15;100;0;122.63;-4;-19.33;-4.38;665.2;12.90;75841;2836.502;-1800.596;1;131;-150;-153.2;44.2;44.3;14;14.0;25.6;0.0;
28/02/2025 10:52:35;100;0;123.87;-4;-19.45;-4.33;667.2;12.90;75829;2836.501;-1800.594;1;131;-150;-153.2;44.2;44.3;14;14.0;25.6;0.0;
28/02/2025 10:52:55;100;0;124.76;-4;-19.59;-4.31;669.4;12.90;75828;2836.499;-1800.592;1;131;-150;-151.6;44.2;44.3;14;14.0;25.6;0.0;
28/02/2025 10:53:15;100;0;126.42;-4;-19.60;-4.27;671.8;12.90;75812;2836.498;-1800.590;1;131;-150;-153.2;44.2;44.3;14;14.0;25.6;0.0;
28/02/2025 10:53:35;100;0;127.54;-4;-19.51;-4.25;674.1;12.80;75803;2836.497;-1800.588;1;131;-150;-153.2;44.2;44.2;14;14.0;25.6;0.0;
28/02/2025 10:53:55;100;0;128.35;-4;-19.50;-4.23;676.3;12.80;75807;2836.495;-1800.586;1;131;-150;-153.2;44.2;44.2;14;14.0;25.6;0.0;
28/02/2025 10:54:15;100;0;128.37;-4;-19.46;-4.25;678.6;12.80;75801;2836.494;-1800.584;1;131;-150;-151.6;44.2;44.2;14;14.4;25.6;0.0;
28/02/2025 10:54:35;100;0;129.92;-4;-19.69;-4.25;680.8;12.80;75802;2836.492;-1800.582;1;131;-150;-153.2;44.2;44.3;14;14.0;25.6;0.0;
28/02/2025 10:54:55;100;0;130.95;-4;-19.44;-4.28;683.0;12.70;75795;2836.491;-1800.580;1;131;-150;-151.6;44.2;44.3;14;14.0;25.6;0.0;
28/02/2025 10:55:15;100;0;131.12;-4;-19.55;-4.33;685.1;12.70;75796;2836.489;-1800.579;1;131;-150;-151.6;44.2;44.2;14;14.0;25.6;0.0;
28/02/2025 10:55:35;100;0;132.52;-4;-19.70;-4.34;687.2;12.70;75794;2836.488;-1800.577;1;131;-150;-153.2;44.2;44.2;14;14.0;25.6;0.0;
28/02/2025 10:55:55;100;0;134.32;-4;-19.40;-4.16;689.5;12.70;75790;2836.486;-1800.575;1;131;-150;-151.6;44.2;44.3;14;14.0;25.6;0.0;
28/02/2025 10:56:15;100;0;135.67;-4;-19.36;-4.29;691.7;12.70;75783;2836.485;-1800.574;1;131;-150;-151.6;44.2;44.2;14;14.0;25.6;0.0;
28/02/2025 10:56:35;100;0;139.35;-4;-19.56;-4.29;693.9;12.60;75775;2836.483;-1800.572;1;131;-150;-153.2;44.2;44.3;18;18.1;25.6;0.0;
28/02/2025 10:56:55;100;0;138.17;-4;-20.02;-2.18;696.1;12.60;75770;2836.481;-1800.571;1;131;-150;-153.2;44.2;44.3;18;18.5;25.6;0.0;
28/02/2025 10:57:15;100;0;136.05;-4;-19.48;-2.06;698.5;12.60;75763;2836.479;-1800.569;1;131;-150;-153.2;44.2;44.3;16;15.3;25.6;0.0;
28/02/2025 10:57:35;100;0;131.70;-4;-19.15;-3.96;700.7;12.60;75750;2836.478;-1800.567;1;131;-150;-153.2;44.2;44.2;16;15.3;25.6;0.0;
28/02/2025 10:57:55;100;0;128.70;-4;-19.58;-3.96;703.0;12.60;75748;2836.476;-1800.565;1;131;-150;-153.2;44.2;44.3;14;13.5;25.6;0.0;
28/02/2025 10:58:15;100;0;128.97;-4;-19.42;-4.67;705.4;12.50;75736;2836.475;-1800.563;1;131;-150;-154.8;44.2;44.2;14;13.5;25.6;0.0;
28/02/2025 10:58:35;100;0;129.22;-4;-19.80;-4.64;707.5;12.50;75730;2836.473;-1800.561;1;131;-150;-154.8;44.2;44.2;14;13.5;25.6;0.0;
28/02/2025 10:58:55;100;0;130.35;-4;-20.00;-4.22;710.0;12.50;75731;2836.472;-1800.559;1;131;-150;-151.6;44.2;44.3;14;13.5;25.6;0.0;
28/02/2025 10:59:15;100;0;128.84;-4;-19.19;-4.62;712.5;12.50;75727;2836.470;-1800.557;1;131;-150;-153.2;44.2;44.3;14;13.5;25.6;0.0;
28/02/2025 10:59:35;100;0;128.43;-4;-19.11;-4.65;714.8;12.40;75712;2836.468;-1800.555;1;131;-150;-153.2;44.2;44.3;14;14.0;25.6;0.0;
28/02/2025 10:59:55;100;0;130.32;-4;-19.67;-4.51;717.2;12.40;75718;2836.467;-1800.553;1;131;-150;-153.2;44.2;44.3;14;13.5;25.6;0.0;
28/02/2025 11:00:15;100;0;129.15;-4;-19.08;-4.56;719.7;12.40;75724;2836.465;-1800.550;1;131;-150;-151.6;44.2;44.2;14;13.5;25.6;0.0;
28/02/2025 11:00:35;100;0;130.79;-4;-18.76;-4.66;721.8;12.40;75709;2836.464;-1800.549;1;131;-150;-153.2;44.6;44.6;14;13.5;25.6;0.0;
28/02/2025 11:00:55;100;0;130.88;-4;-20.60;-4.52;724.2;12.40;75699;2836.462;-1800.547;1;131;-150;-151.6;44.6;44.9;14;13.5;25.6;0.0;
28/02/2025 11:01:15;100;0;127.76;-4;-19.82;-4.87;726.4;12.30;75716;2836.461;-1800.545;1;131;-150;-153.2;44.6;44.8;14;13.5;25.6;0.0;
28/02/2025 11:01:35;100;0;124.73;-4;-21.16;-4.66;728.8;12.30;75695;2836.459;-1800.543;1;131;-150;-153.2;44.6;44.9;14;14.0;25.6;0.0;
28/02/2025 11:01:55;100;0;123.31;-4;-20.85;-4.48;731.4;12.30;75699;2836.458;-1800.540;1;131;-150;-153.2;44.6;44.9;14;13.5;25.6;0.0;
28/02/2025 11:02:15;100;0;122.05;-4;-20.48;-4.56;733.9;12.30;75699;2836.457;-1800.538;1;131;-150;-153.2;44.6;44.9;14;13.5;25.6;0.0;
28/02/2025 11:02:35;100;0;122.19;-4;-20.48;-4.56;736.4;12.30;75690;2836.456;-1800.536;1;131;-150;-153.2;44.6;44.8;14;13.5;25.6;0.0;
28/02/2025 11:02:55;100;0;126.57;-4;-20.66;-4.73;738.7;12.30;75673;2836.454;-1800.534;1;131;-150;-153.2;44.6;44.9;14;13.5;25.6;0.0;
28/02/2025 11:03:15;100;0;130.81;-4;-20.59;-4.51;741.2;12.20;75665;2836.453;-1800.532;1;131;-150;-151.6;44.6;44.8;14;13.5;25.6;0.0;
28/02/2025 11:03:35;100;0;132.60;-4;-20.71;-4.43;743.7;12.20;75663;2836.451;-1800.530;1;131;-150;-153.2;44.6;44.8;14;13.5;25.6;0.0;
28/02/2025 11:03:55;100;0;134.43;-4;-20.70;-4.58;746.2;12.20;75650;2836.449;-1800.528;1;131;-150;-153.2;44.6;44.8;14;13.5;25.6;0.0;
28/02/2025 11:04:15;100;0;137.00;-4;-20.77;-4.49;748.8;12.20;75649;2836.447;-1800.526;1;131;-150;-156.5;44.6;44.9;16;15.8;25.6;0.0;
28/02/2025 11:04:35;100;0;136.01;-4;-20.64;-3.31;751.3;12.10;75649;2836.445;-1800.524;1;131;-150;-153.2;44.6;44.9;16;15.8;25.6;0.0;
28/02/2025 11:04:55;100;0;136.84;-4;-20.81;-3.38;753.8;12.10;75646;2836.443;-1800.522;1;131;-150;-151.6;44.6;44.9;16;15.8;25.6;0.0;
28/02/2025 11:05:15;100;0;138.48;-4;-20.28;-3.42;756.1;12.10;75643;2836.442;-1800.521;1;131;-150;-153.2;44.6;44.9;16;15.8;25.6;0.0;
28/02/2025 11:05:36;100;0;142.52;-4;-21.38;-3.31;758.9;12.10;75633;2836.439;-1800.519;1;131;-150;-153.2;44.6;44.9;20;19.9;25.6;0.0;
28/02/2025 11:05:56;100;0;140.23;-4;-20.95;-1.35;761.5;12.10;75632;2836.437;-1800.517;1;131;-150;-153.2;44.6;44.9;18;18.1;25.6;0.0;
28/02/2025 11:06:16;100;0;138.19;-4;-21.08;-2.25;764.0;12.00;75622;2836.435;-1800.516;1;131;-150;-153.2;44.6;44.9;18;17.6;25.6;0.0;
28/02/2025 11:06:36;100;0;137.39;-4;-20.60;-2.80;766.5;12.00;75622;2836.433;-1800.514;1;131;-150;-151.6;44.6;44.9;18;17.6;25.6;0.0;
28/02/2025 11:06:56;100;0;135.27;-4;-20.62;-2.49;769.1;12.00;75608;2836.432;-1800.512;1;131;-150;-153.2;44.6;44.9;16;15.8;25.6;0.0;
28/02/2025 11:07:16;100;0;134.23;-4;-20.35;-3.74;771.6;12.00;75605;2836.430;-1800.510;1;131;-150;-154.8;44.6;44.9;16;15.3;25.6;0.0;
28/02/2025 11:07:36;100;0;129.38;-4;-19.99;-3.88;774.1;12.00;75605;2836.428;-1800.508;1;131;-150;-151.6;44.6;44.9;16;15.3;25.6;0.0;
28/02/2025 11:07:56;100;0;129.01;-4;-20.71;-3.80;776.7;11.90;75594;2836.426;-1800.506;1;131;-150;-153.2;44.6;44.9;16;15.3;25.6;0.0;
28/02/2025 11:08:16;100;0;128.86;-4;-20.66;-3.88;778.9;11.90;75579;2836.425;-1800.504;1;131;-150;-153.2;44.6;44.9;16;15.3;25.6;0.0;
28/02/2025 11:08:36;100;0;126.95;-4;-20.68;-3.86;781.5;11.90;75577;2836.424;-1800.502;1;131;-150;-153.2;44.6;45.1;16;15.3;25.6;0.0;
28/02/2025 11:08:56;100;0;124.29;-4;-21.06;-3.76;783.8;11.90;75571;2836.422;-1800.500;1;131;-150;-153.2;44.6;44.9;14;13.5;25.6;0.0;
28/02/2025 11:09:16;100;0;124.79;-4;-20.00;-4.88;786.4;11.80;75579;2836.421;-1800.497;1;131;-150;-153.2;44.6;44.9;14;13.5;25.6;0.0;
28/02/2025 11:09:36;100;0;123.39;-4;-20.76;-4.68;788.8;11.80;75574;2836.420;-1800.495;1;131;-150;-153.2;44.6;44.9;14;13.5;25.6;0.0;
28/02/2025 11:09:56;100;0;122.69;-4;-21.21;-4.59;791.2;11.80;75573;2836.418;-1800.493;1;131;-150;-153.2;44.6;44.9;14;13.5;25.6;0.0;
28/02/2025 11:10:16;100;0;122.56;-4;-20.59;-4.66;793.7;11.80;75557;2836.417;-1800.491;1;131;-150;-153.2;44.6;44.9;14;13.5;25.6;0.0;
28/02/2025 11:10:36;100;0;123.36;-4;-20.68;-4.68;796.1;11.70;75567;2836.416;-1800.489;1;131;-150;-151.6;44.6;44.9;14;13.5;25.6;0.0;
28/02/2025 11:10:56;100;0;122.62;-4;-20.61;-4.70;798.4;11.70;75559;2836.415;-1800.486;1;131;-150;-151.6;44.6;44.9;14;13.5;25.6;0.0;
28/02/2025 11:11:16;100;0;123.08;-4;-20.60;-4.63;801.0;11.70;75557;2836.413;-1800.484;1;131;-150;-153.2;44.6;44.9;14;13.5;25.6;0.0;
28/02/2025 11:11:36;100;0;122.49;-4;-20.47;-4.60;803.3;11.70;75556;2836.412;-1800.482;1;131;-150;-153.2;44.6;44.9;14;13.5;25.6;0.0;
28/02/2025 11:11:56;100;0;120.63;-4;-20.55;-4.74;805.7;11.70;75546;2836.411;-1800.480;1;131;-150;-153.2;44.6;44.9;14;13.5;25.6;0.0;
28/02/2025 11:12:16;100;0;120.69;-4;-20.67;-4.67;808.2;11.70;75552;2836.410;-1800.477;1;131;-150;-153.2;44.6;44.9;14;13.5;25.6;0.0;
28/02/2025 11:12:36;100;0;120.01;-4;-20.84;-4.49;810.8;11.60;75542;2836.409;-1800.475;1;131;-150;-153.2;44.6;44.9;12;11.7;25.6;0.0;
28/02/2025 11:12:56;100;0;119.86;-4;-20.35;-5.63;813.0;11.60;75532;2836.408;-1800.473;1;131;-150;-153.2;44.6;44.9;12;11.7;25.6;0.0;
28/02/2025 11:13:16;100;0;119.54;-4;-20.52;-5.56;815.5;11.60;75533;2836.407;-1800.470;1;131;-150;-153.2;44.6;45.1;12;11.7;25.6;0.0;
28/02/2025 11:13:36;100;0;119.18;-4;-20.04;-5.65;817.9;11.60;75532;2836.405;-1800.468;1;131;-150;-153.2;44.6;44.9;12;11.7;25.6;0.0;
28/02/2025 11:13:56;100;0;118.41;-4;-20.35;-5.59;820.2;11.60;75540;2836.404;-1800.466;1;131;-150;-153.2;44.6;44.9;12;11.7;25.6;0.0;
28/02/2025 11:14:16;100;0;114.19;-4;-20.19;-5.66;822.5;11.50;75533;2836.404;-1800.463;1;131;-150;-153.2;44.6;44.9;6;5.9;25.6;0.0;
28/02/2025 11:14:36;100;0;117.56;-4;-20.28;-8.52;824.9;11.50;75528;2836.403;-1800.461;1;131;-150;-154.8;44.6;44.9;10;9.9;25.6;0.0;
28/02/2025 11:14:56;100;0;117.86;-4;-20.67;-6.30;827.3;11.50;75524;2836.402;-1800.458;1;131;-150;-151.6;44.6;44.9;10;10.4;25.6;0.0;
28/02/2025 11:15:16;100;0;117.95;-4;-20.75;-6.09;829.6;11.50;75527;2836.401;-1800.456;1;131;-150;-151.6;44.6;44.9;10;10.4;25.6;0.0;
28/02/2025 11:15:36;100;0;111.01;-4;-20.32;-6.29;832.0;11.50;75520;2836.400;-1800.454;1;131;-150;-153.2;44.6;44.9;1;0.5;25.6;0.0;
28/02/2025 11:15:56;100;0;113.53;-4;-19.66;-11.09;834.5;11.40;75510;2836.399;-1800.451;1;131;-150;-153.2;44.6;44.9;5;5.0;25.6;0.0;
28/02/2025 11:16:16;100;0;116.65;-4;-19.88;-8.62;836.4;11.40;75519;2836.398;-1800.449;1;131;-170;-169.4;44.6;44.9;9;9.0;25.6;0.0;
28/02/2025 11:16:36;100;0;119.34;-4;-19.99;-6.48;838.7;11.40;75545;2836.397;-1800.447;1;131;-170;-171.0;44.6;44.9;11;10.8;25.6;0.0;
28/02/2025 11:16:56;100;0;120.63;-4;-20.39;-5.56;841.1;11.40;75560;2836.396;-1800.444;1;131;-170;-171.0;44.6;44.9;11;11.3;25.6;0.0;
28/02/2025 11:17:16;100;0;126.37;-4;-19.79;-5.67;843.2;11.40;75536;2836.395;-1800.443;1;131;-170;-169.4;44.6;44.9;14;14.0;25.6;0.0;
28/02/2025 11:17:36;100;0;128.65;-4;-20.32;-4.48;845.0;11.30;75538;2836.394;-1800.441;1;131;-190;-193.5;44.6;44.9;14;14.4;25.6;0.0;
28/02/2025 11:17:56;100;0;132.11;-4;-19.68;-4.01;846.9;11.30;75590;2836.393;-1800.440;1;131;-210;-211.3;44.6;44.9;14;14.4;25.6;0.0;
28/02/2025 11:18:16;100;0;131.53;-4;-20.70;-4.26;848.9;11.30;75620;2836.391;-1800.438;1;131;-210;-212.9;44.6;44.9;14;14.4;25.6;0.0;
28/02/2025 11:18:36;100;0;130.30;-4;-19.70;-3.98;851.2;11.30;75611;2836.390;-1800.437;1;131;-210;-211.3;44.6;44.9;14;14.4;25.6;0.0;
28/02/2025 11:18:56;100;0;128.51;-4;-20.16;-4.26;853.3;11.30;75616;2836.389;-1800.435;1;131;-210;-212.9;44.6;44.9;14;14.4;25.6;0.0;
28/02/2025 11:19:16;100;0;126.28;-4;-21.05;-4.29;855.5;11.30;75609;2836.387;-1800.433;1;131;-210;-212.9;44.6;44.9;14;14.4;25.6;0.0;
28/02/2025 11:19:36;100;0;125.45;-4;-19.56;-3.60;857.8;11.30;75604;2836.386;-1800.431;1;131;-210;-214.5;44.6;44.9;14;14.4;25.6;0.0;
28/02/2025 11:19:56;100;0;123.24;-4;-19.53;-4.10;860.1;11.20;75605;2836.385;-1800.429;1;131;-210;-212.9;44.6;44.9;14;14.4;25.6;0.0;
28/02/2025 11:20:16;100;0;122.55;-4;-20.57;-4.13;862.4;11.20;75598;2836.384;-1800.427;1;131;-210;-212.9;44.6;44.9;14;14.4;25.6;0.0;
28/02/2025 11:20:36;100;0;120.28;-4;-20.81;-4.24;864.4;11.20;75601;2836.383;-1800.425;1;131;-210;-212.9;44.6;44.9;12;12.2;25.6;0.0;
28/02/2025 11:20:56;100;0;119.62;-4;-19.98;-5.32;866.5;11.20;75594;2836.382;-1800.423;1;131;-210;-212.9;44.6;44.9;12;12.2;25.6;0.0;
28/02/2025 11:21:16;100;0;125.06;-4;-20.48;-5.43;868.4;11.20;75595;2836.381;-1800.421;1;131;-230;-230.6;44.6;44.9;14;14.0;25.6;0.0;
28/02/2025 11:21:36;100;0;128.52;-4;-18.30;-4.14;870.5;11.20;75637;2836.379;-1800.419;1;131;-230;-232.3;45.1;45.1;14;14.4;25.6;0.0;
28/02/2025 11:21:56;100;0;123.39;-4;-18.87;-3.63;872.1;11.10;75625;2836.379;-1800.418;1;131;-250;-251.6;45.4;45.7;14;14.9;25.6;0.0;
28/02/2025 11:22:16;100;0;118.09;-4;-21.58;-3.56;873.7;11.10;75672;2836.378;-1800.417;1;131;-270;-271.0;45.4;45.8;11;10.8;25.6;0.0;
28/02/2025 11:22:36;100;0;117.12;-4;-24.09;-5.23;876.1;11.10;75717;2836.377;-1800.415;1;131;-270;-272.6;44.2;44.2;9;8.6;25.6;0.0;
28/02/2025 11:22:56;100;0;122.08;-4;-19.16;-6.19;879.2;11.10;75710;2836.376;-1800.411;1;131;-270;-272.6;44.2;43.9;12;12.2;25.6;0.0;
28/02/2025 11:23:16;100;0;131.34;-4;-16.44;-4.83;881.2;11.10;75706;2836.374;-1800.410;1;131;-290;-291.9;45.3;45.2;14;14.4;25.6;0.0;
28/02/2025 11:23:36;100;0;130.40;-4;-19.52;-3.64;882.8;11.10;75758;2836.373;-1800.408;1;131;-310;-311.3;45.3;45.5;14;14.4;25.6;0.0;
28/02/2025 11:23:56;100;0;130.01;-4;-19.67;-3.35;884.9;11.00;75801;2836.372;-1800.407;1;131;-310;-311.3;45.3;45.4;14;14.4;25.6;0.0;
28/02/2025 11:24:16;100;0;130.16;-4;-20.25;-3.47;887.2;11.00;75798;2836.370;-1800.405;1;131;-310;-311.3;45.3;45.5;14;14.4;25.6;0.0;
28/02/2025 11:24:36;100;0;130.39;-4;-19.24;-3.39;889.1;11.00;75791;2836.369;-1800.403;1;131;-330;-332.3;45.3;45.4;14;14.4;25.6;0.0;
28/02/2025 11:24:56;100;0;128.24;-4;-20.07;-3.43;891.0;11.00;75826;2836.368;-1800.402;1;131;-350;-350.0;45.3;45.5;14;14.4;25.6;0.0;
28/02/2025 11:25:16;100;0;126.84;-4;-19.70;-3.59;893.3;11.00;75860;2836.367;-1800.400;1;131;-350;-353.2;45.3;45.5;14;14.4;25.6;0.0;
28/02/2025 11:25:36;100;0;126.33;-4;-20.60;-3.11;895.4;11.00;75866;2836.365;-1800.398;1;131;-350;-351.6;45.3;45.5;14;14.4;25.6;0.0;
28/02/2025 11:25:56;100;0;124.10;-4;-20.71;-2.94;898.1;11.00;75861;2836.364;-1800.395;1;131;-350;-351.6;45.3;45.5;14;14.4;25.6;0.0;
28/02/2025 11:26:16;100;0;127.69;-4;-21.09;-3.22;900.8;11.00;75854;2836.362;-1800.393;1;131;-350;-353.2;45.3;45.5;14;14.4;25.6;0.0;
28/02/2025 11:26:36;100;0;125.74;-4;-20.67;-3.12;903.7;10.90;75852;2836.360;-1800.390;1;131;-350;-353.2;45.3;45.5;14;14.4;25.6;0.0;
28/02/2025 11:26:56;100;0;125.01;-4;-20.44;-3.30;906.5;10.90;75843;2836.359;-1800.388;1;131;-350;-353.2;45.3;45.5;14;14.4;25.6;0.0;
28/02/2025 11:27:16;100;0;123.69;-4;-20.36;-3.32;909.3;10.90;75840;2836.357;-1800.385;1;131;-350;-353.2;45.3;45.5;14;14.4;25.6;0.0;
28/02/2025 11:27:36;100;0;122.84;-4;-20.52;-3.41;912.1;10.90;75849;2836.356;-1800.382;1;131;-350;-353.2;45.3;45.5;12;12.2;25.6;0.0;
28/02/2025 11:27:56;100;0;123.87;-4;-21.17;-4.45;915.2;10.90;75844;2836.354;-1800.380;1;131;-350;-353.2;45.3;45.5;12;11.7;25.6;0.0;
28/02/2025 11:28:16;100;0;124.22;-4;-21.33;-4.53;918.7;10.90;75844;2836.352;-1800.376;1;131;-350;-353.2;45.3;45.5;12;11.7;25.6;0.0;
28/02/2025 11:28:36;100;0;123.34;-4;-21.55;-4.40;922.5;10.90;75839;2836.350;-1800.372;1;131;-350;-353.2;45.3;45.5;12;11.7;25.6;0.0;
28/02/2025 11:28:56;100;0;121.19;-4;-21.09;-4.53;926.6;10.80;75830;2836.348;-1800.368;1;131;-350;-353.2;45.3;45.5;12;11.7;25.6;0.0;
28/02/2025 11:29:16;100;0;117.20;-4;-22.46;-4.36;930.7;10.80;75830;2836.346;-1800.364;1;131;-350;-353.2;44.5;44.3;7;7.2;25.6;0.0;
28/02/2025 11:29:36;100;0;120.18;-4;-20.12;-7.44;935.9;10.80;75820;2836.343;-1800.358;1;131;-350;-354.8;44.5;44.2;10;9.9;25.6;0.0;
28/02/2025 11:29:56;100;0;121.32;-4;-18.51;-5.09;940.8;10.80;75815;2836.340;-1800.352;1;131;-350;-353.2;45.0;45.1;10;10.4;25.6;0.0;
28/02/2025 11:30:16;100;0;128.59;-4;-19.90;-5.45;945.6;10.80;75813;2836.336;-1800.347;1;131;-350;-353.2;45.0;45.2;13;13.1;25.6;0.0;
28/02/2025 11:30:36;100;0;126.08;-4;-17.61;-4.06;950.4;10.80;75806;2836.333;-1800.342;1;131;-350;-353.2;45.7;45.7;13;13.1;25.6;0.0;
28/02/2025 11:30:56;100;0;124.89;-4;-19.30;-3.55;954.8;10.80;75797;2836.330;-1800.337;1;131;-350;-356.5;45.7;45.8;13;13.1;25.6;0.0;
28/02/2025 11:31:16;100;0;116.72;-4;-18.87;-4.78;958.4;10.70;75793;2836.328;-1800.333;1;131;-350;-353.2;46.0;46.4;7;7.2;25.6;0.0;
28/02/2025 11:31:36;100;0;121.39;-4;-21.42;-7.92;961.7;10.70;75774;2836.326;-1800.330;1;131;-350;-353.2;46.0;46.4;11;7.2;25.6;7.4;
28/02/2025 11:31:39;118;0;118.42;-4;-20.53;-4.75;962.1;10.70;75770;2836.326;-1800.329;1;131;450;-353.2;22.6;22.7;8;8.1;25.6;5.9;
28/02/2025 11:31:49;118;0;108.43;-4;-8.89;-7.04;963.3;10.70;75753;2836.326;-1800.327;1;131;450;-235.5;22.6;22.5;8;7.7;24.1;-1.0;
28/02/2025 11:31:59;118;0;98.41;-4;8.35;-7.50;963.7;10.70;75476;2836.326;-1800.327;1;131;450;-100.0;22.6;22.2;8;8.1;24.0;-1.0;
28/02/2025 11:32:09;118;0;89.36;-4;26.10;-8.35;963.1;10.70;75218;2836.326;-1800.326;1;131;450;24.2;22.6;22.8;8;7.7;24.3;-1.0;
28/02/2025 11:32:19;118;0;87.68;-4;31.47;-8.88;962.3;10.70;74962;2836.326;-1800.326;1;131;450;146.8;22.6;22.8;8;7.7;24.1;-1.0;
28/02/2025 11:32:29;118;0;87.78;-4;28.23;-8.78;961.2;10.70;74716;2836.327;-1800.325;1;131;450;269.4;22.6;22.8;8;7.7;24.0;-1.0;
28/02/2025 11:32:39;118;0;87.47;-4;28.26;-7.51;959.7;10.70;74463;2836.327;-1800.324;1;131;450;388.7;22.6;22.8;8;7.7;24.0;-1.0;
28/02/2025 11:32:49;118;0;86.49;-4;25.61;-8.01;958.0;10.70;74228;2836.327;-1800.322;1;131;450;451.6;22.6;22.8;8;7.7;24.1;-1.0;
28/02/2025 11:32:59;118;0;112.28;-4;22.53;-7.60;955.9;10.70;74088;2836.326;-1800.320;1;131;450;451.6;22.6;22.8;8;7.7;25.6;-1.0;
28/02/2025 11:33:19;117;0;103.88;-4;18.34;-7.61;951.8;10.80;74093;2836.325;-1800.314;1;131;450;453.2;22.6;22.8;8;7.7;25.6;-1.0;
28/02/2025 11:33:39;117;0;95.47;-4;16.66;-7.15;947.9;10.90;74103;2836.325;-1800.309;1;131;450;451.6;21.6;21.4;70;69.9;25.6;-1.0;
28/02/2025 11:33:59;117;0;107.45;-4;18.02;24.96;944.8;10.90;74096;2836.324;-1800.305;1;131;450;451.6;21.0;20.8;51;51.0;25.6;-1.0;
28/02/2025 11:34:19;117;0;115.06;-4;23.40;14.39;941.4;10.90;74101;2836.323;-1800.302;1;131;450;451.6;22.1;22.2;38;37.9;25.6;-1.0;
28/02/2025 11:34:39;117;0;114.31;-4;25.17;8.31;937.1;10.90;74113;2836.322;-1800.297;1;131;450;451.6;23.6;23.6;40;40.2;25.6;-1.0;
28/02/2025 11:34:59;117;0;116.49;-4;19.84;9.44;932.7;10.90;74101;2836.320;-1800.292;1;131;450;451.6;23.6;24.0;37;37.0;25.6;-1.0;
28/02/2025 11:35:19;117;0;119.88;-4;18.70;7.37;928.9;10.90;74110;2836.317;-1800.288;1;131;450;451.6;23.2;23.0;33;32.9;25.6;-1.0;
28/02/2025 11:35:39;117;0;114.29;-4;19.66;5.15;924.7;10.90;74104;2836.316;-1800.283;1;131;450;451.6;23.2;23.3;40;40.2;25.6;-1.0;
28/02/2025 11:35:59;117;0;115.50;-4;17.41;9.01;921.3;10.90;74107;2836.314;-1800.279;1;131;450;453.2;22.5;22.4;38;37.5;25.6;-1.0;
28/02/2025 11:36:19;117;0;115.40;-4;20.02;7.61;917.8;10.90;74110;2836.312;-1800.275;1;131;450;453.2;22.5;22.1;38;37.5;25.6;-1.0;
28/02/2025 11:36:39;117;0;119.14;-4;20.53;8.16;914.2;10.90;74118;2836.311;-1800.271;1;131;450;453.2;22.5;22.5;34;33.4;25.6;-1.0;
28/02/2025 11:36:59;117;0;124.69;-4;21.45;5.97;910.8;10.90;74106;2836.309;-1800.268;1;131;450;451.6;22.5;22.7;30;29.8;25.6;-1.0;
28/02/2025 11:37:19;117;0;123.40;-4;21.46;3.96;907.3;10.80;74104;2836.307;-1800.264;1;131;450;451.6;22.5;22.5;30;29.8;25.6;-1.0;
28/02/2025 11:37:39;117;0;125.07;-4;20.18;3.77;903.7;10.80;74097;2836.304;-1800.261;1;131;450;451.6;22.5;22.5;30;29.8;25.6;-1.0;
28/02/2025 11:37:59;117;0;125.62;-4;19.72;3.93;900.5;10.80;74114;2836.302;-1800.258;1;131;450;451.6;22.5;22.5;30;29.8;25.6;-1.0;
28/02/2025 11:38:19;117;0;126.28;-4;19.83;4.32;897.4;10.80;74107;2836.300;-1800.255;1;131;450;450.0;22.5;22.5;30;29.8;25.6;-1.0;
28/02/2025 11:38:39;117;0;126.31;-4;19.99;4.05;894.1;10.80;74109;2836.298;-1800.251;1;131;450;450.0;22.5;22.7;30;29.8;25.6;-1.0;
28/02/2025 11:38:59;117;0;124.88;-4;20.56;3.39;890.8;10.80;74099;2836.296;-1800.248;1;131;450;451.6;22.5;22.5;30;29.8;25.6;-1.0;
28/02/2025 11:39:19;117;0;123.28;-4;20.13;4.05;887.3;10.80;74096;2836.294;-1800.245;1;131;450;450.0;22.5;22.5;30;29.8;25.6;-1.0;
28/02/2025 11:39:39;117;0;125.80;-4;21.03;3.97;883.6;10.80;74093;2836.292;-1800.241;1;131;450;451.6;22.5;22.5;30;29.8;25.6;-1.0;
28/02/2025 11:39:59;117;0;123.13;-4;21.13;4.53;879.7;10.80;74102;2836.290;-1800.237;1;131;450;453.2;22.5;22.7;30;29.8;25.6;-1.0;
28/02/2025 11:40:19;117;0;123.32;-4;20.40;3.67;876.0;10.70;74082;2836.287;-1800.233;1;131;450;451.6;22.5;22.5;30;29.8;25.6;-1.0;
28/02/2025 11:40:39;117;0;123.27;-4;19.61;3.97;872.4;10.70;74088;2836.285;-1800.230;1;131;450;451.6;22.5;22.5;30;29.8;25.6;-1.0;
28/02/2025 11:40:59;117;0;125.26;-4;18.91;3.56;869.0;10.70;74081;2836.283;-1800.226;1;131;450;453.2;22.1;21.9;30;29.8;25.6;-1.0;
28/02/2025 11:41:19;117;0;126.67;-4;22.22;4.10;865.4;10.70;74073;2836.281;-1800.223;1;131;450;453.2;22.8;22.8;30;29.8;25.6;-1.0;
28/02/2025 11:41:39;117;0;127.97;-4;20.70;4.08;861.5;10.70;74065;2836.278;-1800.219;1;131;450;453.2;22.8;22.8;30;29.8;25.6;-1.0;
28/02/2025 11:41:59;117;0;128.36;-4;19.19;3.60;858.0;10.70;74071;2836.276;-1800.216;1;131;450;453.2;22.8;22.8;30;29.8;25.6;-1.0;
28/02/2025 11:42:19;117;0;129.72;-4;20.25;3.59;854.7;10.70;74077;2836.274;-1800.212;1;131;450;450.0;22.8;23.0;30;29.8;25.6;-1.0;
28/02/2025 11:42:39;117;0;130.17;-4;20.19;3.94;851.1;10.70;74069;2836.271;-1800.209;1;131;450;451.6;22.8;22.8;30;29.8;25.6;-1.0;
28/02/2025 11:42:59;117;0;132.75;-4;20.04;3.91;847.6;10.60;74052;2836.268;-1800.206;1;131;450;454.8;22.8;23.0;30;29.8;25.6;-1.0;
28/02/2025 11:43:19;117;0;134.52;-4;19.72;3.71;844.1;10.60;74053;2836.266;-1800.203;1;131;450;453.2;22.8;23.0;30;29.8;25.6;-1.0;
28/02/2025 11:43:39;117;0;137.48;-4;19.94;3.93;840.6;10.60;74055;2836.263;-1800.200;1;131;450;451.6;22.8;22.8;30;29.8;25.6;-1.0;
28/02/2025 11:44:00;117;0;138.75;-4;19.80;3.97;837.1;10.60;74048;2836.260;-1800.198;1;131;450;451.6;22.8;22.8;28;28.0;25.6;-1.0;
28/02/2025 11:44:20;117;0;139.52;-4;20.15;3.47;833.7;10.60;74054;2836.257;-1800.195;1;131;450;451.6;22.8;23.0;28;28.0;25.6;-1.0;
28/02/2025 11:44:40;117;0;140.99;-4;20.32;2.66;830.2;10.60;74056;2836.254;-1800.192;1;131;450;454.8;22.8;22.8;26;26.2;25.6;-1.0;
28/02/2025 11:45:00;117;0;139.60;-4;19.44;1.83;826.8;10.60;74039;2836.251;-1800.190;1;131;450;453.2;22.8;23.0;26;25.7;25.6;-1.0;
28/02/2025 11:45:20;117;0;138.40;-4;19.01;1.58;823.2;10.60;74039;2836.247;-1800.187;1;131;450;451.6;22.8;22.8;28;28.0;25.6;-1.0;
28/02/2025 11:45:40;117;0;139.36;-4;19.26;3.29;819.9;10.60;74048;2836.245;-1800.184;1;131;450;451.6;22.8;23.0;28;28.4;25.6;-1.0;
28/02/2025 11:46:00;117;0;138.25;-4;19.41;3.14;816.5;10.50;74036;2836.242;-1800.182;1;131;450;453.2;22.8;23.0;28;28.4;25.6;-1.0;
28/02/2025 11:46:20;117;0;139.40;-4;20.57;2.83;813.0;10.50;74041;2836.239;-1800.179;1;131;450;453.2;22.8;22.8;28;28.4;25.6;-1.0;
28/02/2025 11:46:40;117;0;139.47;-4;19.30;2.63;809.4;10.50;74036;2836.235;-1800.176;1;131;450;453.2;22.8;22.8;28;28.4;25.6;-1.0;
28/02/2025 11:47:00;117;0;140.32;-4;19.32;3.02;806.2;10.50;74028;2836.233;-1800.174;1;131;450;451.6;22.8;22.8;26;26.2;25.6;-1.0;
28/02/2025 11:47:20;117;0;140.49;-4;19.94;1.86;802.8;10.50;74026;2836.230;-1800.171;1;131;450;451.6;22.8;22.8;26;25.7;25.6;-1.0;
28/02/2025 11:47:40;117;0;139.80;-4;19.41;1.84;799.4;10.50;74029;2836.226;-1800.168;1;131;450;451.6;22.8;23.0;26;25.7;25.6;-1.0;
28/02/2025 11:48:00;117;0;139.86;-4;19.48;1.86;796.2;10.50;74032;2836.224;-1800.166;1;131;450;453.2;22.8;22.8;26;25.7;25.6;-1.0;
28/02/2025 11:48:20;117;0;140.02;-4;19.67;1.82;792.7;10.50;74032;2836.221;-1800.163;1;131;450;451.6;22.8;22.8;26;25.7;25.6;-1.0;
28/02/2025 11:48:40;117;0;139.59;-4;19.06;1.90;789.5;10.50;74028;2836.218;-1800.161;1;131;450;451.6;22.8;22.8;26;25.7;25.6;-1.0;
28/02/2025 11:49:00;117;0;137.24;-4;19.25;1.91;786.1;10.50;74039;2836.215;-1800.158;1;131;450;451.6;22.8;22.8;28;28.0;25.6;-1.0;
28/02/2025 11:49:20;117;0;138.39;-4;18.96;3.40;782.9;10.50;74034;2836.212;-1800.156;1;131;450;453.2;22.5;22.5;28;28.9;25.6;-1.0;
28/02/2025 11:49:40;117;0;139.25;-4;19.45;3.58;779.9;10.50;74039;2836.209;-1800.153;1;131;450;451.6;22.5;22.5;28;28.9;25.6;-1.0;
28/02/2025 11:50:00;117;0;140.98;-4;19.09;3.45;776.7;10.50;74032;2836.206;-1800.151;1;131;450;451.6;22.5;22.4;26;25.7;25.6;-1.0;
28/02/2025 11:50:20;117;0;142.36;-4;18.78;1.67;773.7;10.50;74032;2836.204;-1800.149;1;131;450;451.6;22.1;21.9;24;23.9;25.6;-1.0;
28/02/2025 11:50:40;117;0;141.08;-4;21.27;0.93;770.5;10.50;74032;2836.201;-1800.147;1;131;450;453.2;22.1;21.5;24;23.5;25.6;-1.0;
28/02/2025 11:51:00;117;0;143.71;-4;21.26;0.60;767.4;10.50;74037;2836.198;-1800.145;1;131;450;453.2;22.1;22.2;22;22.1;25.6;-1.0;
28/02/2025 11:51:20;117;0;140.42;-4;20.18;-0.52;764.1;10.40;74022;2836.195;-1800.142;1;131;450;451.6;22.1;22.2;26;26.2;25.6;-1.0;
28/02/2025 11:51:40;117;0;140.03;-4;21.26;2.88;761.0;10.50;74032;2836.193;-1800.140;1;131;450;453.2;22.1;22.4;26;26.6;25.6;-1.0;
28/02/2025 11:52:00;117;0;139.95;-4;20.85;2.30;757.7;10.40;74030;2836.190;-1800.138;1;131;450;453.2;22.1;22.4;26;26.6;25.6;-1.0;
28/02/2025 11:52:20;117;0;140.53;-4;20.03;2.36;754.6;10.40;74027;2836.188;-1800.136;1;131;450;453.2;22.1;22.2;26;26.6;25.6;-1.0;
