Timestamp;NavState;SecurityLevel;Heading;Declination;Pitch;Roll;Depth;Temperature;Pa;Lat;Lon;DeadReckoning;DesiredH;BallastCmd;BallastPos;LinCmd;LinPos;AngCmd;AngPos;Voltage;Altitude;
01/03/2025 12:29:50;119;0;209.83;-4;-47.88;-8.99;0.3;16.40;75556;2837.525;-1800.415;0;135;500;506.5;100.0;100.4;0;-0.5;25.4;-1.0;
01/03/2025 12:30:00;116;0;224.99;-4;-61.74;-23.27;0.4;16.50;75554;2837.535;-1800.417;0;135;500;506.5;100.0;100.4;0;-0.5;25.4;-1.0;
01/03/2025 12:30:25;116;0;228.76;-4;-50.38;-1.36;0.4;16.60;75561;2837.545;-1800.419;0;135;500;506.5;100.0;100.4;0;-0.5;25.4;-1.0;
01/03/2025 12:30:51;116;0;243.55;-4;-55.30;-15.27;0.3;16.70;75588;2837.547;-1800.420;0;135;500;506.5;100.0;100.6;0;-0.5;25.4;-1.0;
01/03/2025 12:31:12;116;0;235.57;-4;-59.95;-2.73;0.3;16.70;75596;2837.551;-1800.423;0;144;500;506.5;100.0;100.4;0;-0.5;25.4;-1.0;
01/03/2025 12:31:23;116;0;243.49;-4;-55.00;-20.32;0.5;16.80;75597;2837.553;-1800.425;0;144;500;506.5;100.0;100.4;0;-0.5;25.4;-1.0;
01/03/2025 12:32:25;116;0;237.78;-4;-61.16;-5.17;0.3;17.00;75623;2837.567;-1800.431;0;144;500;506.5;100.0;100.4;0;-0.5;25.4;-1.0;
01/03/2025 12:33:55;116;0;250.30;-4;-59.08;-22.35;0.3;17.40;75667;2837.588;-1800.441;0;144;500;506.5;100.0;100.6;0;-0.5;25.4;-1.0;
01/03/2025 12:35:07;116;0;254.86;-4;-55.31;-13.11;0.3;17.80;75701;2837.604;-1800.449;0;144;500;506.5;100.0;100.4;0;-0.5;25.4;-1.0;
01/03/2025 12:35:27;116;0;241.41;-4;-50.23;-16.04;0.4;17.90;75712;2837.608;-1800.451;0;144;500;504.8;100.0;100.6;0;-0.5;25.4;-1.0;
01/03/2025 12:35:47;116;0;243.76;-4;-50.97;-20.11;0.4;18.00;75711;2837.613;-1800.453;0;144;500;504.8;100.0;100.4;0;-0.5;25.4;-1.0;
01/03/2025 12:36:07;116;0;259.16;-4;-58.15;-18.35;0.4;18.10;75728;2837.617;-1800.455;0;144;500;506.5;100.0;100.4;0;-0.5;25.5;-1.0;
01/03/2025 12:36:27;116;0;253.36;-4;-59.50;-6.93;0.4;18.20;75723;2837.622;-1800.457;0;144;500;506.5;100.0;100.4;0;-0.5;25.4;-1.0;
01/03/2025 12:36:47;116;0;261.53;-4;-58.56;-16.15;0.4;18.30;75730;2837.626;-1800.459;0;144;500;506.5;100.0;100.6;0;-0.5;25.4;-1.0;
01/03/2025 12:37:07;116;0;232.47;-4;-51.91;1.52;0.3;18.40;75742;2837.631;-1800.462;0;144;500;506.5;100.0;100.4;0;-0.5;25.4;-1.0;
01/03/2025 12:37:27;116;0;257.16;-4;-54.80;-2.43;0.3;18.40;75748;2837.638;-1800.465;0;144;500;504.8;100.0;100.6;0;-0.5;25.4;-1.0;
01/03/2025 12:37:46;116;0;226.73;-4;-46.84;-2.59;0.4;18.50;75743;2837.641;-1800.466;0;144;500;506.5;100.0;100.4;0;-0.5;25.4;-1.0;
01/03/2025 12:38:06;116;0;233.61;-4;-59.74;0.39;0.3;18.60;75755;2837.645;-1800.469;0;144;500;506.5;100.0;100.6;0;-0.5;25.4;-1.0;
01/03/2025 12:38:26;116;0;249.81;-4;-50.13;-6.84;0.4;18.70;75771;2837.649;-1800.469;0;144;500;504.8;100.0;100.6;0;-0.5;25.4;-1.0;
01/03/2025 12:38:46;116;0;243.81;-4;-48.89;-17.84;0.3;18.70;75776;2837.654;-1800.470;0;144;500;506.5;100.0;100.4;0;-0.5;25.4;-1.0;
01/03/2025 12:39:02;116;0;264.73;-4;-52.39;-26.12;0.5;18.80;75765;2837.658;-1800.472;0;144;500;506.5;100.0;100.4;0;-0.5;25.4;-1.0;
01/03/2025 12:39:22;116;0;250.38;-4;-57.83;-6.43;0.5;18.80;75781;2837.662;-1800.474;0;144;500;504.8;100.0;100.4;0;-0.5;25.4;-1.0;
01/03/2025 12:39:42;116;0;246.75;-4;-56.32;0.74;0.3;18.90;75781;2837.667;-1800.476;0;144;500;506.5;100.0;100.7;0;-0.5;25.4;-1.0;
01/03/2025 12:40:02;116;0;248.46;-4;-57.05;-24.25;0.4;19.00;75789;2837.672;-1800.478;0;144;500;504.8;100.0;100.6;0;-0.5;25.4;-1.0;
01/03/2025 12:40:22;116;0;249.71;-4;-56.26;-11.89;0.3;19.00;75793;2837.676;-1800.480;0;144;500;506.5;100.0;100.4;0;-0.5;25.4;-1.0;
01/03/2025 12:40:42;116;0;258.46;-4;-56.76;-7.26;0.4;19.10;75803;2837.680;-1800.482;0;144;500;506.5;100.0;100.4;0;-0.5;25.4;-1.0;
01/03/2025 12:41:02;116;0;263.94;-4;-54.87;-18.50;0.4;19.20;75811;2837.688;-1800.485;0;144;500;506.5;100.0;100.4;0;-0.5;25.4;-1.0;
01/03/2025 12:41:22;116;0;256.31;-4;-47.22;-7.29;0.4;19.20;75817;2837.691;-1800.486;0;144;500;506.5;100.0;100.6;0;-0.5;25.4;-1.0;
01/03/2025 12:41:33;116;0;237.65;-4;-57.88;-6.24;0.3;19.20;75818;2837.693;-1800.487;0;144;500;506.5;100.0;100.4;0;-0.5;25.4;-1.0;
01/03/2025 12:41:53;116;0;246.20;-4;-57.82;-10.40;0.3;19.30;75829;2837.696;-1800.491;0;144;500;506.5;100.0;100.6;0;-0.5;25.4;-1.0;
01/03/2025 12:42:13;116;0;256.08;-4;-54.89;-32.46;0.4;19.40;75840;2837.700;-1800.494;0;144;500;506.5;100.0;100.6;0;-0.5;25.4;-1.0;
01/03/2025 12:42:33;116;0;271.56;-4;-50.93;-9.61;0.3;19.40;75840;2837.704;-1800.495;0;144;500;506.5;100.0;100.6;0;-0.5;25.4;-1.0;
01/03/2025 12:42:53;116;0;250.79;-4;-49.75;-20.63;0.4;19.50;75838;2837.709;-1800.498;0;144;500;506.5;100.0;100.6;0;-0.5;25.3;-1.0;
01/03/2025 12:43:13;116;0;271.17;-4;-58.04;-29.53;0.2;19.50;75850;2837.713;-1800.500;0;144;500;504.8;100.0;100.4;0;-0.5;25.4;-1.0;
01/03/2025 12:43:27;116;0;248.58;-4;-58.02;-16.72;0.2;19.50;75851;2837.717;-1800.502;0;144;500;506.5;100.0;100.6;0;-0.5;25.4;-1.0;
01/03/2025 12:43:47;116;0;257.94;-4;-48.89;-10.30;0.4;19.60;75859;2837.722;-1800.503;0;144;500;506.5;100.0;100.4;0;-0.5;25.4;-1.0;
01/03/2025 12:44:07;116;0;275.82;-4;-50.28;-4.02;0.4;19.60;75863;2837.726;-1800.505;0;144;500;506.5;100.0;100.6;0;-0.5;25.4;-1.0;
01/03/2025 12:44:27;116;0;268.31;-4;-50.36;-9.49;0.2;19.70;75880;2837.731;-1800.507;0;144;500;506.5;100.0;100.6;0;-0.5;25.4;-1.0;
01/03/2025 12:44:38;116;0;261.64;-4;-55.39;-25.79;0.4;19.70;75868;2837.734;-1800.508;0;144;500;506.5;100.0;100.6;0;-0.5;25.4;-1.0;
01/03/2025 12:44:58;116;0;254.86;-4;-53.05;-15.39;0.3;19.70;75878;2837.738;-1800.510;0;144;500;504.8;100.0;100.6;0;-0.5;25.4;-1.0;
01/03/2025 12:45:18;116;0;267.50;-4;-49.84;-21.43;0.6;19.80;75883;2837.743;-1800.512;0;144;500;506.5;100.0;100.4;0;-0.5;25.4;-1.0;
01/03/2025 12:45:38;116;0;270.62;-4;-51.47;-17.53;0.3;19.80;75886;2837.748;-1800.514;0;144;500;506.5;100.0;100.6;0;-0.5;25.4;-1.0;
01/03/2025 12:45:58;116;0;253.88;-4;-52.31;-17.87;0.3;19.90;75898;2837.752;-1800.516;0;144;500;506.5;100.0;100.6;0;-0.5;25.5;-1.0;
01/03/2025 12:46:18;116;0;266.68;-4;-48.69;-11.52;0.2;19.90;75899;2837.758;-1800.517;0;144;500;506.5;100.0;100.6;0;-0.5;25.4;-1.0;
01/03/2025 12:46:38;116;0;256.55;-4;-62.09;-16.06;0.4;19.90;75897;2837.764;-1800.521;0;144;500;504.8;100.0;100.4;0;-0.5;25.4;-1.0;
01/03/2025 12:46:58;116;0;277.29;-4;-59.70;-3.54;0.2;20.00;75909;2837.767;-1800.522;0;144;500;504.8;100.0;100.6;0;-0.5;25.4;-1.0;
01/03/2025 12:47:09;116;0;266.21;-4;-42.91;-8.93;0.3;20.00;75909;2837.770;-1800.523;0;144;500;506.5;100.0;100.6;0;-0.5;25.4;-1.0;
01/03/2025 12:47:29;116;0;272.44;-4;-58.90;3.54;0.4;20.00;75907;2837.775;-1800.525;0;144;500;504.8;100.0;100.4;0;-0.5;25.3;-1.0;
01/03/2025 12:47:49;116;0;264.79;-4;-51.74;-8.61;0.3;20.10;75902;2837.780;-1800.527;0;144;500;506.5;100.0;100.6;0;-0.5;25.4;-1.0;
01/03/2025 12:48:09;116;0;260.77;-4;-48.55;-3.48;0.3;20.10;75918;2837.785;-1800.529;0;144;500;506.5;100.0;100.6;0;-0.5;25.4;-1.0;
01/03/2025 12:48:29;116;0;265.29;-4;-60.03;-14.06;0.4;20.20;75923;2837.790;-1800.531;0;144;500;506.5;100.0;100.7;0;-0.5;25.4;-1.0;
01/03/2025 12:48:49;116;0;263.35;-4;-48.29;-16.68;0.5;20.20;75934;2837.795;-1800.532;0;144;500;503.2;100.0;100.6;0;-0.5;25.4;-1.0;
01/03/2025 12:49:09;116;0;266.74;-4;-50.99;-0.85;0.3;20.20;75938;2837.802;-1800.536;0;144;500;506.5;100.0;100.6;0;-0.5;25.4;-1.0;
01/03/2025 12:49:29;116;0;267.88;-4;-53.94;-8.52;0.2;20.30;75935;2837.804;-1800.537;0;144;500;506.5;100.0;100.6;0;-0.5;25.4;-1.0;
01/03/2025 12:49:49;116;0;236.07;-4;-56.77;-6.29;0.3;20.30;75947;2837.809;-1800.539;0;144;500;506.5;100.0;100.6;0;0.0;25.4;-1.0;
01/03/2025 12:50:09;116;0;257.03;-4;-60.81;-32.23;0.2;20.30;75952;2837.814;-1800.541;0;144;500;506.5;100.0;100.4;0;-0.5;25.4;-1.0;
01/03/2025 12:50:29;116;0;252.00;-4;-46.64;-14.07;0.3;20.40;75950;2837.818;-1800.543;0;144;500;506.5;100.0;100.6;0;-0.5;25.4;-1.0;
01/03/2025 12:50:49;116;0;291.21;-4;-54.79;-18.35;0.3;20.40;75955;2837.823;-1800.545;0;144;500;506.5;100.0;100.6;0;-0.5;25.4;-1.0;
01/03/2025 12:51:09;116;0;284.97;-4;-58.66;-5.26;0.3;20.40;75959;2837.828;-1800.547;0;144;500;506.5;100.0;100.6;0;-0.5;25.4;-1.0;
01/03/2025 12:51:29;116;0;292.96;-4;-63.43;-9.77;0.3;20.40;75964;2837.834;-1800.550;0;144;500;504.8;100.0;100.6;0;-0.5;25.4;-1.0;
01/03/2025 12:51:49;116;0;309.30;-4;-41.97;-9.55;0.4;20.50;75964;2837.837;-1800.551;0;144;500;506.5;100.0;100.4;0;-0.5;25.4;-1.0;
01/03/2025 12:52:09;116;0;279.59;-4;-47.88;-11.24;0.2;20.50;75974;2837.842;-1800.553;0;144;500;506.5;100.0;100.6;0;-0.5;25.4;-1.0;
01/03/2025 12:52:29;116;0;272.12;-4;-60.71;-18.64;0.4;20.50;75977;2837.847;-1800.554;0;144;500;506.5;100.0;100.6;0;-0.5;25.4;-1.0;
01/03/2025 12:52:49;116;0;279.55;-4;-53.93;-8.04;0.2;20.50;75970;2837.852;-1800.557;0;144;500;506.5;100.0;100.6;0;-0.5;25.4;-1.0;
01/03/2025 12:53:09;116;0;280.97;-4;-49.69;0.63;0.3;20.60;75980;2837.857;-1800.559;0;144;500;506.5;100.0;100.6;0;-0.5;25.4;-1.0;
01/03/2025 12:53:30;116;0;271.91;-4;-55.36;-5.96;0.2;20.60;75976;2837.862;-1800.561;0;144;500;506.5;100.0;100.6;0;-0.5;25.4;-1.0;
01/03/2025 12:53:50;116;0;305.09;-4;-59.08;-24.27;0.3;20.60;75978;2837.867;-1800.564;0;144;500;506.5;100.0;100.4;0;-0.5;25.4;-1.0;
01/03/2025 12:54:10;116;0;306.52;-4;-50.69;-5.04;0.3;20.60;75988;2837.870;-1800.565;0;144;500;506.5;100.0;100.4;0;-0.5;25.4;-1.0;
01/03/2025 12:54:21;116;0;304.64;-4;-51.29;-11.22;0.4;20.70;75998;2837.873;-1800.567;0;144;500;506.5;100.0;100.6;0;-0.5;25.4;-1.0;
01/03/2025 12:54:41;116;0;291.31;-4;-55.91;-13.07;0.4;20.70;76008;2837.879;-1800.569;0;144;500;504.8;100.0;100.6;0;-0.5;25.4;-1.0;
01/03/2025 12:55:01;116;0;295.60;-4;-50.34;-18.20;0.7;20.70;75999;2837.884;-1800.571;0;144;500;506.5;100.0;100.6;0;-0.5;25.4;-1.0;
01/03/2025 12:55:21;116;0;289.11;-4;-57.26;-11.25;0.5;20.70;76006;2837.889;-1800.573;0;144;500;504.8;100.0;100.6;0;-0.5;25.4;-1.0;
01/03/2025 12:55:41;116;0;258.26;-4;-57.65;0.24;0.3;20.80;76011;2837.894;-1800.576;0;144;500;506.5;100.0;100.6;0;-0.5;25.4;-1.0;
01/03/2025 12:56:01;116;0;278.94;-4;-51.53;-7.69;0.3;20.80;76010;2837.898;-1800.578;0;144;500;506.5;100.0;100.4;0;-0.5;25.4;-1.0;
01/03/2025 12:56:21;116;0;265.53;-4;-55.13;-17.59;0.3;20.80;76026;2837.906;-1800.581;0;144;500;504.8;100.0;100.6;0;-0.5;25.4;-1.0;
01/03/2025 12:56:41;116;0;261.17;-4;-59.18;-8.91;0.3;20.80;76016;2837.909;-1800.583;0;144;500;506.5;100.0;100.6;0;-0.5;25.4;-1.0;
01/03/2025 12:57:01;116;0;290.64;-4;-61.79;-17.70;0.3;20.80;76021;2837.914;-1800.585;0;144;500;504.8;100.0;100.6;0;-0.5;25.4;-1.0;
01/03/2025 12:57:12;116;0;232.10;-4;-56.50;1.54;0.3;20.90;76027;2837.917;-1800.586;0;144;500;506.5;100.0;100.6;0;-0.5;25.4;-1.0;
01/03/2025 12:57:32;116;0;297.58;-4;-51.51;-3.69;0.3;20.90;76029;2837.921;-1800.589;0;144;500;506.5;100.0;100.6;0;-0.5;25.4;-1.0;
01/03/2025 12:57:52;116;0;264.39;-4;-47.38;-7.70;0.3;20.90;76036;2837.927;-1800.591;0;144;500;506.5;100.0;100.4;0;-0.5;25.4;-1.0;
01/03/2025 12:58:12;116;0;264.82;-4;-58.52;-12.52;0.4;20.90;76044;2837.931;-1800.593;0;144;500;506.5;100.0;100.6;0;-0.5;25.4;-1.0;
01/03/2025 12:58:23;116;0;280.33;-4;-49.92;-3.62;0.3;20.90;76023;2837.934;-1800.594;0;144;500;506.5;100.0;100.6;0;-0.5;25.4;-1.0;
01/03/2025 12:58:43;116;0;246.75;-4;-54.63;0.59;0.3;20.90;76029;2837.940;-1800.596;0;144;500;506.5;100.0;100.4;0;-0.5;25.4;-1.0;
01/03/2025 12:59:03;116;0;261.02;-4;-61.63;-7.38;0.3;21.00;76038;2837.946;-1800.599;0;144;500;506.5;100.0;100.6;0;-0.5;25.4;-1.0;
01/03/2025 12:59:14;116;0;275.49;-4;-50.06;-12.06;0.3;21.00;76043;2837.950;-1800.600;0;144;500;506.5;100.0;100.6;0;-0.5;25.4;-1.0;
01/03/2025 12:59:34;116;0;271.91;-4;-55.50;-12.84;0.5;21.00;76042;2837.956;-1800.602;0;144;500;506.5;100.0;100.6;0;-0.5;25.4;-1.0;
01/03/2025 12:59:45;116;0;274.71;-4;-52.27;-8.37;0.3;21.00;76052;2837.958;-1800.603;0;144;500;506.5;100.0;100.6;0;-0.5;25.4;-1.0;
01/03/2025 13:00:05;116;0;262.67;-4;-54.43;-3.52;0.3;21.00;76052;2837.964;-1800.604;0;144;500;508.1;100.0;100.4;0;-0.5;25.4;-1.0;
01/03/2025 13:00:25;116;0;253.65;-4;-61.66;-16.96;0.3;21.00;76054;2837.969;-1800.607;0;144;500;506.5;100.0;100.6;0;-0.5;25.4;-1.0;
01/03/2025 13:00:45;116;0;260.45;-4;-62.47;-22.81;0.5;21.10;76059;2837.974;-1800.609;0;144;500;506.5;100.0;100.6;0;-0.5;25.4;-1.0;
01/03/2025 13:01:05;116;0;278.38;-4;-52.38;-10.13;0.3;21.10;76069;2837.978;-1800.611;0;144;500;506.5;100.0;100.6;0;-0.5;25.4;-1.0;
01/03/2025 13:01:26;116;0;289.33;-4;-49.82;-19.94;0.5;21.10;76068;2837.983;-1800.613;0;144;500;506.5;100.0;100.6;0;-0.5;25.4;-1.0;
01/03/2025 13:01:46;116;0;251.90;-4;-55.96;-11.00;0.4;21.10;76074;2837.990;-1800.616;0;144;500;506.5;100.0;100.6;0;-0.5;25.4;-1.0;
01/03/2025 13:02:06;116;0;250.86;-4;-54.94;-14.73;0.2;21.10;76072;2837.994;-1800.618;0;144;500;508.1;100.0;100.4;0;-0.5;25.4;-1.0;
01/03/2025 13:02:17;116;0;289.51;-4;-59.14;-10.88;0.5;21.10;76072;2837.995;-1800.619;0;144;500;506.5;100.0;100.6;0;-0.5;25.4;-1.0;
01/03/2025 13:02:37;116;0;298.82;-4;-56.79;-3.82;0.3;21.20;76077;2838.000;-1800.622;0;144;500;506.5;100.0;100.6;0;-0.5;25.4;-1.0;
01/03/2025 13:02:57;116;0;315.58;-4;-61.21;-15.67;0.3;21.20;76068;2838.003;-1800.624;0;144;500;506.5;100.0;100.6;0;-0.5;25.4;-1.0;
01/03/2025 13:03:17;116;0;296.45;-4;-58.77;-24.19;0.3;21.20;76068;2838.009;-1800.625;0;144;500;504.8;100.0;100.6;0;-0.5;25.4;-1.0;
01/03/2025 13:03:37;116;0;286.94;-4;-52.86;-6.54;0.2;21.20;76083;2838.016;-1800.627;0;144;500;506.5;100.0;100.6;0;-0.5;25.4;-1.0;
01/03/2025 13:03:57;116;0;272.81;-4;-43.59;-10.43;0.4;21.20;76091;2838.021;-1800.629;0;144;500;506.5;100.0;100.6;0;-0.5;25.4;-1.0;
01/03/2025 13:04:17;116;0;295.27;-4;-57.59;-32.84;0.5;21.20;76090;2838.026;-1800.631;0;144;500;506.5;100.0;100.6;0;-0.5;25.4;-1.0;
01/03/2025 13:04:37;116;0;291.70;-4;-51.42;-28.32;0.6;21.20;76098;2838.029;-1800.633;0;144;500;506.5;100.0;100.6;0;-0.5;25.4;-1.0;
01/03/2025 13:04:49;116;0;282.79;-4;-53.54;-4.21;0.4;21.30;76092;2838.033;-1800.633;0;144;500;506.5;100.0;100.6;0;-0.5;25.4;-1.0;
01/03/2025 13:05:09;116;0;291.11;-4;-53.71;-6.98;0.3;21.20;76101;2838.038;-1800.634;0;144;500;506.5;100.0;100.6;0;-0.5;25.4;-1.0;
01/03/2025 13:05:29;116;0;278.57;-4;-51.67;-3.39;0.4;21.30;76097;2838.043;-1800.636;0;144;500;506.5;100.0;100.6;0;-0.5;25.4;-1.0;
01/03/2025 13:05:49;116;0;281.68;-4;-50.66;-4.96;0.3;21.30;76105;2838.048;-1800.639;0;144;500;506.5;100.0;100.6;0;-0.5;25.4;-1.0;
01/03/2025 13:06:09;116;0;276.59;-4;-48.10;-13.95;0.5;21.30;76103;2838.054;-1800.640;0;144;500;506.5;100.0;100.6;0;-0.5;25.4;-1.0;
01/03/2025 13:06:29;116;0;259.34;-4;-68.71;-13.26;0.3;21.30;76103;2838.059;-1800.643;0;144;500;506.5;100.0;100.6;0;-0.5;25.4;-1.0;
01/03/2025 13:06:49;116;0;319.52;-4;-57.92;-14.73;0.3;21.30;76095;2838.064;-1800.645;0;144;500;506.5;100.0;100.6;0;-0.5;25.4;-1.0;
01/03/2025 13:07:08;116;0;308.31;-4;-54.28;-23.80;0.3;21.30;76108;2838.067;-1800.646;0;144;500;506.5;100.0;100.6;0;-0.5;25.4;-1.0;
01/03/2025 13:07:28;116;0;260.19;-4;-60.63;-7.44;0.3;21.30;76119;2838.073;-1800.649;0;144;500;506.5;100.0;100.6;0;-0.5;25.4;-1.0;
01/03/2025 13:07:48;116;0;263.43;-4;-57.60;-23.19;0.3;21.40;76115;2838.079;-1800.650;0;144;500;506.5;100.0;100.6;0;-0.5;25.4;-1.0;
01/03/2025 13:08:08;116;0;279.52;-4;-45.18;-1.87;0.4;21.40;76123;2838.084;-1800.651;0;144;500;506.5;100.0;100.6;0;-0.5;25.4;-1.0;
01/03/2025 13:08:24;116;0;282.88;-4;-48.12;-31.94;0.5;21.40;76121;2838.088;-1800.652;0;144;500;506.5;100.0;100.6;0;-0.5;25.4;-1.0;
01/03/2025 13:08:44;116;0;289.72;-4;-48.83;-6.23;0.2;21.40;76131;2838.093;-1800.653;0;144;500;506.5;100.0;100.6;0;-0.5;25.4;-1.0;
01/03/2025 13:09:04;116;0;294.97;-4;-54.00;-14.64;0.4;21.40;76122;2838.098;-1800.655;0;144;500;506.5;100.0;100.4;0;-0.5;25.4;-1.0;
01/03/2025 13:09:24;116;0;278.90;-4;-54.40;-23.71;0.4;21.40;76129;2838.103;-1800.657;0;144;500;506.5;100.0;100.6;0;-0.5;25.4;-1.0;
01/03/2025 13:09:44;116;0;258.32;-4;-58.45;-13.16;0.4;21.40;76129;2838.108;-1800.660;0;144;500;506.5;100.0;100.4;0;-0.5;25.4;-1.0;
01/03/2025 13:10:04;116;0;258.85;-4;-53.89;-5.78;0.3;21.40;76139;2838.113;-1800.661;0;144;500;506.5;100.0;100.6;0;-0.5;25.4;-1.0;
01/03/2025 13:10:24;116;0;264.56;-4;-55.48;-13.71;0.2;21.40;76128;2838.120;-1800.665;0;144;500;506.5;100.0;100.6;0;-0.5;25.4;-1.0;
01/03/2025 13:10:44;116;0;284.31;-4;-45.73;-23.79;0.5;21.50;76140;2838.124;-1800.666;0;144;500;506.5;100.0;100.6;0;-0.5;25.4;-1.0;
01/03/2025 13:11:04;116;0;301.80;-4;-54.64;-12.41;0.4;21.50;76143;2838.127;-1800.667;0;144;500;506.5;100.0;100.6;0;-0.5;25.4;-1.0;
01/03/2025 13:11:25;116;0;290.47;-4;-56.20;-25.13;0.5;21.50;76144;2838.133;-1800.670;0;144;500;506.5;100.0;100.6;0;-0.5;25.4;-1.0;
01/03/2025 13:11:36;116;0;294.90;-4;-57.97;-10.31;0.6;21.50;76145;2838.135;-1800.671;0;144;500;506.5;100.0;100.6;0;-0.5;25.4;-1.0;
01/03/2025 13:11:56;116;0;286.52;-4;-54.37;-18.23;0.3;21.50;76139;2838.140;-1800.672;0;144;500;506.5;100.0;100.6;0;-0.5;25.4;-1.0;
01/03/2025 13:12:16;116;0;269.45;-4;-47.91;-10.04;0.3;21.50;76150;2838.146;-1800.674;0;144;500;506.5;100.0;100.6;0;-0.5;25.4;-1.0;
01/03/2025 13:12:36;116;0;265.92;-4;-56.36;-22.88;0.3;21.50;76152;2838.150;-1800.676;0;144;500;506.5;100.0;100.6;0;-0.5;25.4;-1.0;
01/03/2025 13:12:56;116;0;249.74;-4;-51.23;-20.93;0.4;21.50;76160;2838.156;-1800.677;0;144;500;506.5;100.0;100.6;0;0.0;25.4;-1.0;
01/03/2025 13:13:16;116;0;267.59;-4;-67.02;-13.75;0.2;21.50;76155;2838.160;-1800.680;0;144;500;504.8;100.0;100.6;0;-0.5;25.4;-1.0;
01/03/2025 13:13:36;116;0;284.09;-4;-60.68;-11.88;0.3;21.50;76157;2838.166;-1800.682;0;144;500;506.5;100.0;100.6;0;-0.5;25.4;-1.0;
01/03/2025 13:13:56;116;0;284.36;-4;-52.54;-18.75;0.5;21.50;76151;2838.170;-1800.683;0;144;500;504.8;100.0;100.6;0;-0.5;25.4;-1.0;
01/03/2025 13:14:16;116;0;265.20;-4;-62.76;-11.97;0.3;21.50;76160;2838.175;-1800.684;0;144;500;506.5;100.0;100.6;0;-0.5;25.4;-1.0;
01/03/2025 13:14:36;116;0;270.74;-4;-49.57;3.14;0.3;21.60;76167;2838.179;-1800.686;0;144;500;506.5;100.0;100.4;0;-0.5;25.4;-1.0;
01/03/2025 13:14:56;116;0;275.24;-4;-55.67;-13.21;0.3;21.60;76167;2838.184;-1800.688;0;144;500;506.5;100.0;100.6;0;-0.5;25.4;-1.0;
01/03/2025 13:15:16;116;0;274.39;-4;-54.97;-15.64;0.3;21.60;76163;2838.188;-1800.689;0;144;500;506.5;100.0;100.6;0;-0.5;25.4;-1.0;
01/03/2025 13:15:36;116;0;288.43;-4;-47.11;-8.22;0.4;21.60;76174;2838.192;-1800.691;0;144;500;506.5;100.0;100.6;0;-0.5;25.4;-1.0;
01/03/2025 13:15:57;116;0;277.21;-4;-56.56;-6.59;0.3;21.60;76179;2838.200;-1800.694;0;144;500;506.5;100.0;100.6;0;-0.5;25.4;-1.0;
01/03/2025 13:16:17;116;0;268.23;-4;-48.87;-3.50;0.4;21.60;76176;2838.202;-1800.695;0;144;500;506.5;100.0;100.6;0;-0.5;25.4;-1.0;
01/03/2025 13:16:37;116;0;282.04;-4;-44.39;-13.15;0.4;21.60;76176;2838.207;-1800.697;0;144;500;506.5;100.0;100.6;0;-0.5;25.3;-1.0;
01/03/2025 13:16:57;116;0;288.69;-4;-52.37;-10.47;0.2;21.60;76176;2838.211;-1800.699;0;144;500;506.5;100.0;100.6;0;-0.5;25.4;-1.0;
01/03/2025 13:17:17;116;0;303.72;-4;-52.50;-15.65;0.2;21.60;76189;2838.214;-1800.700;0;144;500;506.5;100.0;100.6;0;-0.5;25.4;-1.0;
01/03/2025 13:17:37;116;0;265.08;-4;-54.93;-25.92;0.5;21.60;76192;2838.219;-1800.701;0;144;500;506.5;100.0;100.6;0;-0.5;25.4;-1.0;
01/03/2025 13:17:57;116;0;249.47;-4;-54.34;-9.62;0.4;21.70;76192;2838.224;-1800.703;0;144;500;506.5;100.0;100.6;0;-0.5;25.4;-1.0;
01/03/2025 13:18:17;116;0;291.27;-4;-54.77;-14.95;0.5;21.70;76189;2838.229;-1800.704;0;144;500;508.1;100.0;100.6;0;-0.5;25.4;-1.0;
01/03/2025 13:18:37;116;0;267.00;-4;-59.41;-2.95;0.4;21.70;76186;2838.233;-1800.706;0;144;500;506.5;100.0;100.6;0;-0.5;25.4;-1.0;
01/03/2025 13:18:57;116;0;266.18;-4;-58.43;-2.80;0.3;21.70;76187;2838.238;-1800.707;0;144;500;506.5;100.0;100.6;0;-0.5;25.4;-1.0;
01/03/2025 13:19:17;116;0;292.91;-4;-56.41;-20.46;0.3;21.70;76196;2838.242;-1800.709;0;144;500;504.8;100.0;100.6;0;-0.5;25.4;-1.0;
01/03/2025 13:19:37;116;0;272.72;-4;-52.02;-3.25;0.2;21.70;76192;2838.246;-1800.710;0;144;500;508.1;100.0;100.6;0;-0.5;25.4;-1.0;
01/03/2025 13:19:57;116;0;275.51;-4;-53.29;-17.86;0.4;21.70;76203;2838.251;-1800.712;0;144;500;506.5;100.0;100.6;0;-0.5;25.4;-1.0;
01/03/2025 13:20:17;116;0;262.32;-4;-61.40;-6.00;0.4;21.70;76192;2838.256;-1800.714;0;144;500;506.5;100.0;100.6;0;-0.5;25.4;-1.0;
01/03/2025 13:20:37;116;0;272.62;-4;-55.52;-18.38;0.4;21.70;76205;2838.261;-1800.716;0;144;500;504.8;100.0;100.6;0;-0.5;25.4;-1.0;
01/03/2025 13:20:57;116;0;294.12;-4;-48.88;-3.85;0.4;21.70;76208;2838.264;-1800.718;0;144;500;504.8;100.0;100.6;0;-0.5;25.4;-1.0;
01/03/2025 13:21:17;116;0;298.59;-4;-51.77;-13.00;0.3;21.70;76213;2838.268;-1800.719;0;144;500;506.5;100.0;100.6;0;-0.5;25.4;-1.0;
01/03/2025 13:21:37;116;0;273.63;-4;-58.82;13.30;0.4;21.70;76208;2838.275;-1800.721;0;144;500;506.5;100.0;100.6;0;-0.5;25.4;-1.0;
01/03/2025 13:21:57;110;0;275.26;-4;-57.04;3.11;0.3;21.80;76215;2838.275;-1800.721;0;144;-110;380.6;100.0;100.6;-7;-7.2;25.4;-1.0;
01/03/2025 13:22:07;110;0;254.32;-4;-62.51;-30.40;0.5;21.70;76579;2838.275;-1800.722;1;144;-110;230.6;100.0;100.6;-7;-7.2;25.4;-1.0;
01/03/2025 13:22:17;110;0;242.37;-4;-60.95;-1.78;0.8;21.80;76830;2838.276;-1800.723;1;144;-110;72.6;100.0;100.4;-7;-7.7;25.4;-1.0;
01/03/2025 13:22:27;110;0;234.38;-4;-70.48;-6.74;1.1;21.70;77143;2838.276;-1800.723;1;144;-110;-82.3;100.0;100.6;-7;-7.7;25.4;-1.0;
01/03/2025 13:22:37;110;0;257.78;-4;-66.68;-11.81;1.2;21.80;77490;2838.277;-1800.724;1;144;-110;-111.3;43.5;53.9;-7;-7.2;25.4;-1.0;
01/03/2025 13:22:47;110;0;256.75;-4;-55.90;-13.07;2.3;21.80;77502;2838.278;-1800.725;1;144;-110;-109.7;43.5;43.4;-7;-7.2;25.4;-1.0;
01/03/2025 13:23:07;100;0;277.23;-4;-23.95;-14.67;5.5;21.80;77489;2838.279;-1800.729;1;144;-110;-106.5;43.5;43.2;-7;-7.2;25.4;-1.0;
01/03/2025 13:23:27;100;0;276.73;-4;-22.51;-15.78;8.7;21.80;77481;2838.281;-1800.735;1;144;-110;-104.8;42.7;42.7;70;69.9;25.4;-1.0;
01/03/2025 13:23:47;100;0;275.31;-4;-23.59;24.02;11.6;21.70;77473;2838.283;-1800.739;1;144;-110;-106.5;41.6;41.5;70;70.4;25.4;-1.0;
01/03/2025 13:24:07;100;0;261.62;-4;-21.50;24.26;14.5;21.70;77467;2838.283;-1800.744;1;144;-110;-106.5;41.6;41.4;70;70.4;25.4;0.0;
01/03/2025 13:24:27;100;0;246.63;-4;-21.00;23.88;17.2;21.60;77470;2838.283;-1800.748;1;144;-110;-106.5;41.6;41.4;70;70.4;25.4;0.0;
01/03/2025 13:24:47;100;0;233.24;-4;-20.94;23.58;19.7;21.50;77473;2838.283;-1800.752;1;144;-110;-108.1;41.6;41.5;70;70.4;25.4;0.0;
01/03/2025 13:25:07;100;0;221.51;-4;-20.99;23.63;22.2;21.50;77469;2838.282;-1800.755;1;144;-110;-106.5;41.6;41.4;70;70.4;25.4;0.0;
01/03/2025 13:25:27;100;0;206.54;-4;-20.53;23.76;24.5;21.40;77461;2838.281;-1800.758;1;144;-110;-104.8;41.6;41.4;70;70.4;25.4;0.0;
01/03/2025 13:25:47;100;0;193.08;-4;-19.99;23.88;27.1;21.40;77474;2838.279;-1800.759;1;144;-110;-106.5;41.6;41.4;70;70.4;25.4;0.0;
01/03/2025 13:26:07;100;0;179.50;-4;-20.87;23.82;29.4;21.30;77471;2838.277;-1800.760;1;144;-110;-104.8;41.6;41.4;52;51.9;25.5;0.0;
01/03/2025 13:26:27;100;0;169.09;-4;-20.13;13.88;31.6;21.30;77464;2838.276;-1800.760;1;144;-110;-104.8;41.6;41.4;35;34.7;25.4;0.0;
01/03/2025 13:26:47;100;0;162.60;-4;-19.16;5.47;33.8;21.30;77451;2838.274;-1800.760;1;144;-110;-104.8;41.6;41.4;26;26.2;25.4;0.0;
01/03/2025 13:27:07;100;0;158.65;-4;-18.82;1.22;36.0;21.20;77461;2838.273;-1800.760;1;144;-110;-104.8;42.0;42.3;19;19.0;25.4;0.0;
01/03/2025 13:27:27;100;0;156.80;-4;-19.20;-2.29;38.2;21.20;77460;2838.271;-1800.759;1;144;-110;-104.8;42.0;42.3;19;19.0;25.4;0.0;
01/03/2025 13:27:47;100;0;154.18;-4;-19.33;-2.39;40.6;21.20;77472;2838.270;-1800.759;1;144;-110;-104.8;42.0;42.3;17;16.7;25.4;0.0;
01/03/2025 13:28:07;100;0;154.15;-4;-19.41;-3.58;42.7;21.20;77454;2838.268;-1800.758;1;144;-110;-104.8;42.0;42.3;17;16.7;25.4;0.0;
01/03/2025 13:28:27;100;0;154.69;-4;-19.48;-3.51;45.2;21.10;77450;2838.267;-1800.758;1;144;-110;-108.1;42.0;42.3;17;16.7;25.4;0.0;
01/03/2025 13:28:47;100;0;155.32;-4;-19.35;-3.44;47.4;21.10;77450;2838.265;-1800.757;1;144;-110;-104.8;42.0;42.3;17;16.7;25.4;0.0;
01/03/2025 13:29:07;100;0;159.45;-4;-19.39;-3.44;49.8;21.10;77443;2838.264;-1800.757;1;144;-110;-104.8;42.0;42.3;22;22.1;25.5;0.0;
01/03/2025 13:29:27;100;0;165.74;-4;-19.54;-0.31;52.4;21.10;77430;2838.262;-1800.757;1;144;-110;-104.8;42.0;42.3;31;31.6;25.4;0.0;
01/03/2025 13:29:47;100;0;161.74;-4;-19.05;4.14;54.7;21.00;77417;2838.260;-1800.756;1;144;-110;-103.2;42.0;42.3;25;24.8;25.4;0.0;
01/03/2025 13:30:07;100;0;157.12;-4;-19.36;0.61;56.9;21.00;77391;2838.259;-1800.756;1;144;-110;-103.2;42.0;42.3;18;18.1;25.4;0.0;
01/03/2025 13:30:27;100;0;154.69;-4;-19.52;-3.00;59.3;20.90;77390;2838.257;-1800.755;1;144;-110;-104.8;42.0;42.3;18;17.6;25.4;0.0;
01/03/2025 13:30:47;100;0;146.06;-4;-17.99;-3.08;61.4;20.90;77372;2838.256;-1800.754;1;144;-110;-104.8;42.6;42.9;15;14.9;25.4;0.0;
01/03/2025 13:31:07;100;0;140.35;-4;-19.68;-4.66;63.5;20.90;77367;2838.255;-1800.753;1;144;-110;-103.2;42.6;42.9;15;14.4;25.4;0.0;
01/03/2025 13:31:27;100;0;139.93;-4;-20.16;-4.26;65.8;20.80;77357;2838.254;-1800.752;1;144;-110;-103.2;42.6;42.7;15;14.4;25.4;0.0;
01/03/2025 13:31:47;100;0;139.38;-4;-19.51;-4.34;68.1;20.80;77350;2838.253;-1800.751;1;144;-110;-104.8;42.6;42.9;13;12.6;25.4;0.0;
01/03/2025 13:32:07;100;0;142.35;-4;-20.08;-5.47;70.6;20.70;77340;2838.252;-1800.749;1;144;-110;-103.2;42.6;42.9;15;15.3;25.4;0.0;
01/03/2025 13:32:27;100;0;137.47;-4;-20.73;-4.06;73.3;20.70;77340;2838.251;-1800.748;1;144;-110;-106.5;42.6;42.9;13;13.1;25.4;0.0;
01/03/2025 13:32:47;100;0;141.08;-4;-19.54;-5.20;76.1;20.60;77325;2838.249;-1800.746;1;144;-110;-104.8;42.6;42.9;13;12.6;25.4;0.0;
01/03/2025 13:33:07;100;0;143.71;-4;-20.17;-5.27;78.6;20.60;77321;2838.248;-1800.745;1;144;-110;-104.8;42.6;42.9;15;15.3;25.4;0.0;
01/03/2025 13:33:27;100;0;143.06;-4;-20.02;-3.80;81.4;20.60;77328;2838.246;-1800.743;1;144;-110;-104.8;42.6;42.9;15;15.8;25.4;0.0;
01/03/2025 13:33:47;100;0;145.05;-4;-19.84;-3.74;84.1;20.50;77307;2838.245;-1800.742;1;144;-110;-103.2;42.6;42.9;15;15.8;25.4;0.0;
01/03/2025 13:34:07;100;0;147.63;-4;-20.18;-3.74;86.6;20.50;77304;2838.243;-1800.741;1;144;-110;-104.8;42.6;42.9;15;15.8;25.4;0.0;
01/03/2025 13:34:27;100;0;149.44;-4;-20.64;-3.74;89.4;20.50;77291;2838.242;-1800.740;1;144;-110;-103.2;42.6;42.9;15;15.3;25.4;0.0;
01/03/2025 13:34:47;100;0;152.71;-4;-20.29;-3.72;92.3;20.40;77282;2838.240;-1800.738;1;144;-110;-104.8;42.6;42.9;15;15.8;25.4;0.0;
01/03/2025 13:35:07;100;0;152.77;-4;-20.15;-3.71;95.0;20.40;77265;2838.238;-1800.738;1;144;-110;-104.8;42.6;42.9;15;15.3;25.4;0.0;
01/03/2025 13:35:27;100;0;148.24;-4;-19.91;-3.79;97.8;20.30;77249;2838.236;-1800.736;1;144;-110;-104.8;42.6;42.9;15;15.8;25.5;0.0;
01/03/2025 13:35:48;100;0;141.38;-4;-19.83;-3.82;100.5;20.30;77236;2838.235;-1800.735;1;144;-110;-103.2;42.6;42.9;15;15.8;25.4;0.0;
01/03/2025 13:36:08;100;0;135.86;-4;-19.67;-3.84;103.3;20.20;77219;2838.233;-1800.733;1;144;-110;-103.2;42.6;42.9;12;12.2;25.4;0.0;
01/03/2025 13:36:28;100;0;134.83;-4;-19.35;-5.73;106.1;20.20;77222;2838.232;-1800.731;1;144;-110;-103.2;42.6;42.9;12;12.2;25.4;0.0;
01/03/2025 13:36:48;100;0;132.18;-4;-19.59;-5.73;108.6;20.10;77210;2838.231;-1800.729;1;144;-110;-104.8;42.6;42.9;8;7.7;25.4;0.0;
01/03/2025 13:37:08;100;0;134.39;-4;-19.53;-7.95;111.5;20.10;77199;2838.230;-1800.727;1;144;-110;-104.8;42.6;42.9;10;9.9;25.4;0.0;
01/03/2025 13:37:28;100;0;136.02;-4;-19.67;-6.42;114.5;20.00;77185;2838.228;-1800.724;1;144;-110;-104.8;42.6;42.9;12;12.2;25.4;0.0;
01/03/2025 13:37:48;100;0;138.90;-4;-19.87;-5.20;117.4;20.00;77178;2838.227;-1800.723;1;144;-110;-103.2;42.6;42.9;12;12.6;25.5;0.0;
01/03/2025 13:38:08;100;0;136.62;-4;-19.78;-5.21;120.4;19.90;77171;2838.226;-1800.720;1;144;-110;-103.2;42.6;42.9;12;12.6;25.4;0.0;
01/03/2025 13:38:28;100;0;133.25;-4;-20.11;-5.18;123.5;19.90;77165;2838.224;-1800.718;1;144;-110;-103.2;42.6;42.7;9;9.0;25.4;0.0;
01/03/2025 13:38:48;100;0;132.25;-4;-19.36;-7.09;126.5;19.90;77152;2838.223;-1800.715;1;144;-110;-104.8;42.6;42.9;7;7.2;25.4;0.0;
01/03/2025 13:39:08;100;0;133.37;-4;-19.06;-8.15;129.3;19.80;77153;2838.221;-1800.713;1;144;-110;-106.5;42.6;42.9;9;9.0;25.4;0.0;
01/03/2025 13:39:28;100;0;136.61;-4;-18.93;-6.99;131.9;19.80;77140;2838.220;-1800.711;1;144;-110;-103.2;42.9;42.9;12;12.6;25.5;0.0;
01/03/2025 13:39:48;100;0;137.34;-4;-19.29;-5.23;134.7;19.70;77134;2838.219;-1800.710;1;144;-110;-104.8;42.9;42.9;12;12.6;25.5;0.0;
01/03/2025 13:40:08;100;0;138.66;-4;-19.33;-5.24;137.3;19.70;77121;2838.217;-1800.708;1;144;-110;-103.2;42.9;42.9;12;12.6;25.4;0.0;
01/03/2025 13:40:28;100;0;141.82;-4;-19.21;-5.24;139.8;19.60;77106;2838.216;-1800.706;1;144;-110;-104.8;42.9;42.9;14;14.4;25.4;0.0;
01/03/2025 13:40:48;100;0;142.98;-4;-19.41;-4.30;142.3;19.60;77115;2838.215;-1800.705;1;144;-110;-103.2;42.9;42.9;14;14.4;25.4;0.0;
01/03/2025 13:41:08;100;0;144.44;-4;-19.71;-4.25;145.0;19.50;77096;2838.213;-1800.703;1;144;-110;-103.2;42.9;42.9;14;14.4;25.4;0.0;
01/03/2025 13:41:28;100;0;144.92;-4;-19.61;-4.26;147.4;19.50;77081;2838.212;-1800.702;1;144;-110;-103.2;42.9;42.9;14;14.4;25.5;0.0;
01/03/2025 13:41:48;100;0;149.50;-4;-19.75;-4.27;150.0;19.40;77080;2838.210;-1800.701;1;144;-110;-103.2;42.9;42.9;14;14.4;25.4;0.0;
01/03/2025 13:42:08;100;0;153.41;-4;-19.30;-4.29;152.7;19.40;77067;2838.208;-1800.700;1;144;-110;-103.2;42.9;42.9;16;15.8;25.4;0.0;
01/03/2025 13:42:28;100;0;153.73;-4;-19.25;-3.66;155.2;19.40;77047;2838.207;-1800.700;1;144;-110;-103.2;42.9;42.9;16;16.2;25.5;0.0;
01/03/2025 13:42:48;100;0;155.58;-4;-19.38;-3.66;157.6;19.30;77042;2838.205;-1800.699;1;144;-110;-104.8;42.9;42.9;16;16.2;25.5;0.0;
01/03/2025 13:43:08;100;0;154.04;-4;-19.77;-3.62;160.1;19.30;77027;2838.203;-1800.698;1;144;-110;-101.6;42.9;42.9;16;16.2;25.4;0.0;
01/03/2025 13:43:28;100;0;151.75;-4;-19.92;-3.56;162.7;19.20;77011;2838.202;-1800.697;1;144;-110;-101.6;42.9;42.9;16;15.8;25.4;0.0;
01/03/2025 13:43:48;100;0;149.96;-4;-19.86;-3.59;165.7;19.10;77005;2838.200;-1800.696;1;144;-110;-101.6;42.9;42.9;16;15.8;25.4;0.0;
01/03/2025 13:44:08;100;0;151.65;-4;-19.49;-3.53;168.3;19.10;76990;2838.198;-1800.695;1;144;-110;-104.8;42.9;42.9;16;16.2;25.4;0.0;
01/03/2025 13:44:28;100;0;155.40;-4;-19.67;-3.55;171.1;19.00;76985;2838.196;-1800.694;1;144;-110;-103.2;42.9;43.0;16;15.8;25.5;0.0;
01/03/2025 13:44:48;100;0;156.91;-4;-20.02;-3.53;173.9;19.00;76981;2838.194;-1800.693;1;144;-110;-104.8;42.9;42.9;19;19.0;25.4;0.0;
01/03/2025 13:45:08;100;0;156.10;-4;-19.98;-1.94;176.6;18.90;76975;2838.192;-1800.693;1;144;-110;-103.2;42.9;42.9;19;19.4;25.4;0.0;
01/03/2025 13:45:28;100;0;154.04;-4;-19.85;-1.93;179.6;18.90;76967;2838.190;-1800.692;1;144;-110;-104.8;42.9;42.9;16;15.8;25.4;0.0;
01/03/2025 13:45:48;100;0;152.32;-4;-19.60;-3.86;182.1;18.90;76964;2838.188;-1800.691;1;144;-110;-104.8;42.9;42.7;16;15.3;25.4;0.0;
01/03/2025 13:46:08;100;0;153.68;-4;-19.08;-3.92;184.8;18.80;76952;2838.187;-1800.690;1;144;-110;-104.8;42.9;42.9;16;15.8;25.4;0.0;
01/03/2025 13:46:28;100;0;153.86;-4;-19.36;-3.90;187.3;18.80;76954;2838.185;-1800.689;1;144;-110;-103.2;42.9;42.9;16;15.8;25.4;0.0;
01/03/2025 13:46:48;100;0;154.29;-4;-19.39;-3.96;189.7;18.70;76934;2838.183;-1800.688;1;144;-110;-104.8;42.9;42.9;16;15.8;25.4;0.0;
01/03/2025 13:47:08;100;0;155.30;-4;-19.33;-3.87;192.2;18.70;76936;2838.181;-1800.688;1;144;-110;-103.2;42.9;42.9;16;15.8;25.4;0.0;
01/03/2025 13:47:28;100;0;157.90;-4;-19.38;-3.89;194.8;18.70;76918;2838.180;-1800.687;1;144;-110;-103.2;42.9;42.9;20;19.9;25.4;0.0;
01/03/2025 13:47:48;100;0;156.84;-4;-20.07;-1.47;197.2;18.60;76931;2838.178;-1800.687;1;144;-110;-103.2;42.9;42.9;20;20.3;25.4;0.0;
01/03/2025 13:48:08;100;0;155.01;-4;-19.84;-1.39;200.1;18.60;76907;2838.176;-1800.686;1;144;-110;-104.8;42.9;42.9;17;16.7;25.4;0.0;
01/03/2025 13:48:28;100;0;154.91;-4;-19.80;-3.43;202.8;18.50;76907;2838.174;-1800.685;1;144;-110;-103.2;42.9;42.9;17;16.7;25.4;0.0;
01/03/2025 13:48:48;100;0;157.09;-4;-19.55;-3.27;205.5;18.50;76907;2838.172;-1800.684;1;144;-110;-104.8;42.9;42.9;19;19.0;25.4;0.0;
01/03/2025 13:49:08;100;0;156.43;-4;-19.64;-1.91;207.9;18.50;76900;2838.171;-1800.684;1;144;-110;-104.8;42.9;42.9;19;19.4;25.4;0.0;
01/03/2025 13:49:28;100;0;155.82;-4;-19.69;-1.90;210.6;18.40;76879;2838.169;-1800.683;1;144;-110;-104.8;42.9;42.9;19;19.4;25.4;0.0;
01/03/2025 13:49:48;100;0;152.73;-4;-19.85;-1.90;213.1;18.40;76874;2838.167;-1800.682;1;144;-110;-104.8;42.9;42.9;16;15.3;25.4;0.0;
01/03/2025 13:50:08;100;0;152.23;-4;-19.70;-4.05;215.7;18.30;76869;2838.166;-1800.681;1;144;-110;-103.2;42.9;42.9;16;15.3;25.4;0.0;
01/03/2025 13:50:28;100;0;153.79;-4;-19.56;-3.96;218.3;18.30;76866;2838.164;-1800.680;1;144;-110;-103.2;42.9;42.7;16;14.9;25.5;0.0;
01/03/2025 13:50:48;100;0;153.72;-4;-19.52;-4.00;220.7;18.20;76848;2838.162;-1800.680;1;144;-110;-103.2;42.9;42.9;16;15.3;25.4;0.0;
01/03/2025 13:51:08;100;0;153.63;-4;-19.28;-4.01;223.2;18.20;76859;2838.161;-1800.679;1;144;-110;-103.2;42.9;42.9;16;15.3;25.4;0.0;
01/03/2025 13:51:28;100;0;152.58;-4;-19.26;-4.10;225.7;18.20;76839;2838.159;-1800.678;1;144;-110;-104.8;42.9;42.9;16;15.3;25.4;0.0;
01/03/2025 13:51:48;100;0;149.85;-4;-19.21;-4.04;228.4;18.10;76837;2838.157;-1800.677;1;144;-110;-103.2;42.9;42.9;16;15.3;25.5;0.0;
01/03/2025 13:52:08;100;0;147.61;-4;-19.20;-4.10;230.5;18.10;76836;2838.156;-1800.676;1;144;-110;-104.8;42.9;42.9;16;15.3;25.4;0.0;
01/03/2025 13:52:28;100;0;146.35;-4;-19.04;-4.10;232.9;18.00;76824;2838.155;-1800.675;1;144;-110;-103.2;42.9;42.9;16;15.3;25.4;0.0;
01/03/2025 13:52:48;100;0;144.28;-4;-18.89;-4.10;235.0;18.00;76814;2838.154;-1800.674;1;144;-110;-103.2;43.2;43.3;16;15.3;25.4;0.0;
01/03/2025 13:53:08;100;0;140.08;-4;-20.42;-4.08;237.3;18.00;76797;2838.153;-1800.673;1;144;-110;-103.2;43.2;43.4;14;14.0;25.4;0.0;
01/03/2025 13:53:28;100;0;138.43;-4;-20.55;-4.86;239.8;17.90;76793;2838.152;-1800.671;1;144;-110;-104.8;43.2;43.6;14;14.0;25.4;0.0;
01/03/2025 13:53:48;100;0;137.06;-4;-20.61;-4.81;242.2;17.90;76772;2838.151;-1800.670;1;144;-110;-104.8;43.2;43.7;12;11.7;25.4;0.0;
01/03/2025 13:54:08;100;0;137.25;-4;-20.33;-5.72;244.6;17.80;76777;2838.150;-1800.668;1;144;-110;-104.8;43.2;43.6;12;11.7;25.4;0.0;
01/03/2025 13:54:28;100;0;138.35;-4;-20.49;-5.81;246.9;17.80;76762;2838.149;-1800.667;1;144;-110;-103.2;43.2;43.6;12;11.7;25.4;0.0;
01/03/2025 13:54:48;100;0;137.56;-4;-20.40;-5.79;249.2;17.80;76758;2838.148;-1800.666;1;144;-110;-104.8;43.2;43.6;12;11.7;25.4;0.0;
01/03/2025 13:55:08;100;0;138.19;-4;-20.42;-5.77;251.5;17.70;76744;2838.147;-1800.664;1;144;-110;-103.2;43.2;43.6;14;14.4;25.4;0.0;
01/03/2025 13:55:28;100;0;137.01;-4;-20.54;-4.35;254.0;17.70;76719;2838.146;-1800.663;1;144;-110;-103.2;43.2;43.6;14;14.4;25.4;0.0;
01/03/2025 13:55:48;100;0;140.74;-4;-20.52;-4.25;256.3;17.60;76715;2838.145;-1800.662;1;144;-110;-104.8;43.2;43.6;14;14.4;25.4;0.0;
01/03/2025 13:56:08;100;0;146.47;-4;-20.45;-4.37;258.5;17.60;76702;2838.144;-1800.661;1;144;-110;-103.2;43.2;43.6;14;14.9;25.4;0.0;
01/03/2025 13:56:28;100;0;147.84;-4;-20.40;-4.37;260.8;17.60;76685;2838.143;-1800.660;1;144;-110;-103.2;43.2;43.6;14;14.4;25.4;0.0;
01/03/2025 13:56:48;100;0;148.92;-4;-20.47;-4.28;263.3;17.50;76687;2838.141;-1800.659;1;144;-110;-104.8;43.2;43.6;14;14.4;25.4;0.0;
01/03/2025 13:57:08;100;0;148.38;-4;-20.57;-4.29;265.6;17.50;76674;2838.140;-1800.658;1;144;-110;-104.8;43.2;43.6;14;14.4;25.4;0.0;
01/03/2025 13:57:28;100;0;148.90;-4;-20.62;-4.27;267.8;17.40;76669;2838.139;-1800.657;1;144;-110;-104.8;43.2;43.6;14;14.4;25.4;0.0;
01/03/2025 13:57:48;100;0;150.08;-4;-20.54;-4.24;270.2;17.40;76660;2838.138;-1800.656;1;144;-110;-103.2;43.2;43.6;14;14.4;25.4;0.0;
01/03/2025 13:58:08;100;0;151.35;-4;-20.34;-4.30;272.4;17.40;76658;2838.137;-1800.656;1;144;-110;-104.8;43.2;43.6;14;14.4;25.4;0.0;
01/03/2025 13:58:28;100;0;153.93;-4;-20.62;-4.27;274.6;17.30;76649;2838.136;-1800.655;1;144;-110;-103.2;43.2;43.6;16;15.8;25.4;0.0;
01/03/2025 13:58:48;100;0;155.93;-4;-20.82;-3.25;276.9;17.30;76639;2838.134;-1800.655;1;144;-110;-103.2;43.2;43.6;16;16.7;25.5;0.0;
01/03/2025 13:59:08;100;0;156.71;-4;-20.90;-3.40;279.3;17.20;76630;2838.133;-1800.654;1;144;-110;-103.2;43.2;43.6;18;18.5;25.4;0.0;
01/03/2025 13:59:28;100;0;157.60;-4;-21.02;-2.18;281.6;17.20;76623;2838.132;-1800.654;1;144;-110;-104.8;43.2;43.7;18;18.5;25.4;0.0;
01/03/2025 13:59:48;100;0;160.28;-4;-20.91;-2.21;284.2;17.20;76618;2838.130;-1800.654;1;144;-110;-104.8;43.2;43.6;23;23.0;25.4;0.0;
01/03/2025 14:00:08;100;0;160.46;-4;-21.06;0.06;286.4;17.10;76606;2838.129;-1800.654;1;144;-110;-104.8;43.2;43.6;23;23.0;25.4;0.0;
01/03/2025 14:00:28;100;0;161.42;-4;-21.07;0.00;288.7;17.10;76596;2838.127;-1800.653;1;144;-110;-103.2;43.2;43.6;23;23.0;25.4;0.0;
01/03/2025 14:00:48;100;0;160.26;-4;-21.13;0.06;290.9;17.00;76602;2838.126;-1800.653;1;144;-110;-104.8;43.2;43.6;23;23.0;25.4;0.0;
01/03/2025 14:01:08;100;0;158.38;-4;-21.15;0.04;293.2;17.00;76599;2838.125;-1800.653;1;144;-110;-104.8;43.2;43.6;20;19.9;25.4;0.0;
01/03/2025 14:01:28;100;0;155.31;-4;-21.10;-1.88;295.5;17.00;76576;2838.123;-1800.652;1;144;-110;-103.2;43.2;43.6;17;17.1;25.4;0.0;
01/03/2025 14:01:48;100;0;158.37;-4;-20.89;-2.98;297.7;16.90;76572;2838.122;-1800.652;1;144;-110;-104.8;43.2;43.6;20;19.9;25.4;0.0;
01/03/2025 14:02:08;100;0;159.29;-4;-21.31;-1.34;300.1;16.90;76565;2838.120;-1800.652;1;144;-110;-104.8;43.2;43.6;22;22.1;25.4;0.0;
01/03/2025 14:02:28;100;0;156.98;-4;-21.34;-0.20;302.4;16.80;76551;2838.119;-1800.651;1;144;-110;-103.2;43.2;43.6;19;19.0;25.4;0.0;
01/03/2025 14:02:48;100;0;154.45;-4;-21.20;-2.45;304.7;16.80;76542;2838.118;-1800.651;1;144;-110;-103.2;43.2;43.6;17;17.1;25.5;0.0;
01/03/2025 14:03:08;100;0;149.90;-4;-21.05;-3.06;307.0;16.80;76529;2838.117;-1800.650;1;144;-110;-103.2;43.2;43.6;17;17.1;25.4;0.0;
01/03/2025 14:03:28;100;0;148.23;-4;-20.60;-3.24;309.4;16.70;76531;2838.115;-1800.649;1;144;-110;-103.2;43.2;43.6;17;16.7;25.4;0.0;
01/03/2025 14:03:48;100;0;146.75;-4;-20.79;-3.25;311.7;16.70;76518;2838.114;-1800.648;1;144;-110;-104.8;43.2;43.6;17;17.1;25.4;0.0;
01/03/2025 14:04:08;100;0;144.69;-4;-20.82;-3.23;314.0;16.70;76525;2838.113;-1800.647;1;144;-110;-103.2;43.2;43.6;17;16.7;25.5;0.0;
01/03/2025 14:04:28;100;0;143.00;-4;-20.92;-3.14;316.1;16.60;76509;2838.113;-1800.646;1;144;-110;-104.8;43.2;43.6;15;14.9;25.5;0.0;
01/03/2025 14:04:48;100;0;142.36;-4;-20.65;-4.46;318.3;16.60;76507;2838.112;-1800.646;1;144;-110;-103.2;43.2;43.6;15;14.4;25.4;0.0;
01/03/2025 14:05:08;100;0;142.17;-4;-20.70;-4.49;320.7;16.50;76507;2838.111;-1800.644;1;144;-110;-103.2;43.2;43.6;15;14.4;25.4;0.0;
01/03/2025 14:05:28;100;0;141.98;-4;-20.92;-4.38;323.0;16.50;76498;2838.110;-1800.643;1;144;-110;-106.5;43.2;43.6;15;14.4;25.4;0.0;
01/03/2025 14:05:48;100;0;141.73;-4;-20.68;-4.40;325.4;16.50;76489;2838.109;-1800.642;1;144;-110;-104.8;43.2;43.6;15;14.4;25.4;0.0;
01/03/2025 14:06:08;100;0;140.01;-4;-20.59;-4.40;327.7;16.50;76482;2838.108;-1800.641;1;144;-110;-103.2;43.2;43.6;15;14.4;25.5;0.0;
01/03/2025 14:06:28;100;0;138.25;-4;-20.78;-4.46;329.9;16.40;76477;2838.107;-1800.640;1;144;-110;-104.8;43.2;43.6;13;13.1;25.4;0.0;
01/03/2025 14:06:48;100;0;136.15;-4;-20.22;-5.19;332.4;16.40;76477;2838.106;-1800.638;1;144;-110;-103.2;43.2;43.6;13;13.1;25.4;0.0;
01/03/2025 14:07:08;100;0;136.59;-4;-20.50;-5.18;334.5;16.40;76473;2838.105;-1800.637;1;144;-110;-104.8;43.2;43.6;13;13.1;25.4;0.0;
01/03/2025 14:07:28;100;0;138.30;-4;-20.48;-5.16;336.9;16.30;76460;2838.104;-1800.635;1;144;-110;-104.8;43.2;43.7;13;13.1;25.4;0.0;
01/03/2025 14:07:48;100;0;139.53;-4;-20.31;-5.24;339.2;16.30;76458;2838.103;-1800.634;1;144;-110;-103.2;43.2;43.6;13;13.1;25.4;0.0;
01/03/2025 14:08:08;100;0;140.91;-4;-20.13;-5.21;341.4;16.30;76435;2838.102;-1800.633;1;144;-110;-104.8;43.2;43.6;15;14.9;25.4;0.0;
01/03/2025 14:08:28;100;0;142.47;-4;-20.44;-3.97;343.7;16.20;76448;2838.101;-1800.632;1;144;-110;-103.2;43.2;43.6;15;15.3;25.5;0.0;
01/03/2025 14:08:48;100;0;142.93;-4;-20.56;-3.96;346.0;16.20;76430;2838.100;-1800.631;1;144;-110;-103.2;43.2;43.6;15;15.3;25.4;0.0;
01/03/2025 14:09:08;100;0;141.92;-4;-20.40;-3.99;348.3;16.20;76437;2838.099;-1800.629;1;144;-110;-104.8;43.2;43.6;15;15.3;25.5;0.0;
01/03/2025 14:09:28;100;0;140.84;-4;-20.61;-3.98;350.5;16.10;76419;2838.098;-1800.628;1;144;-110;-104.8;43.2;43.6;15;15.3;25.4;0.0;
01/03/2025 14:09:48;100;0;142.19;-4;-20.55;-3.87;352.9;16.10;76409;2838.097;-1800.627;1;144;-110;-103.2;43.2;43.6;15;15.3;25.4;0.0;
01/03/2025 14:10:08;100;0;143.01;-4;-20.55;-3.88;355.1;16.10;76408;2838.097;-1800.626;1;144;-110;-103.2;43.2;43.6;15;15.3;25.4;0.0;
01/03/2025 14:10:29;100;0;144.29;-4;-20.57;-3.98;357.5;16.00;76401;2838.095;-1800.625;1;144;-110;-103.2;43.2;43.6;15;15.3;25.4;0.0;
01/03/2025 14:10:49;100;0;145.43;-4;-20.11;-4.05;359.9;16.00;76396;2838.094;-1800.624;1;144;-110;-103.2;43.2;43.6;15;15.3;25.4;0.0;
01/03/2025 14:11:09;100;0;143.26;-4;-20.39;-4.21;362.0;16.00;76390;2838.093;-1800.623;1;144;-110;-104.8;43.2;43.6;15;15.3;25.5;0.0;
01/03/2025 14:11:29;100;0;142.01;-4;-20.03;-4.10;364.2;15.90;76391;2838.092;-1800.622;1;144;-110;-104.8;43.2;43.6;15;15.3;25.4;0.0;
01/03/2025 14:11:49;100;0;142.23;-4;-20.02;-3.99;366.5;15.90;76377;2838.091;-1800.621;1;144;-110;-103.2;43.2;43.6;15;15.3;25.4;0.0;
01/03/2025 14:12:09;100;0;139.34;-4;-19.46;-4.07;368.7;15.90;76378;2838.090;-1800.619;1;144;-110;-103.2;43.2;43.6;15;15.3;25.4;0.0;
01/03/2025 14:12:29;100;0;140.37;-4;-20.66;-3.90;370.7;15.80;76375;2838.090;-1800.618;1;144;-110;-103.2;43.2;43.6;15;15.3;25.4;0.0;
01/03/2025 14:12:49;100;0;136.91;-4;-20.08;-4.00;373.1;15.80;76370;2838.089;-1800.617;1;144;-110;-104.8;43.2;43.6;12;12.2;25.4;0.0;
01/03/2025 14:13:09;100;0;136.79;-4;-19.41;-5.89;375.2;15.80;76367;2838.088;-1800.616;1;144;-110;-103.2;43.2;43.6;12;11.7;25.5;0.0;
01/03/2025 14:13:29;100;0;138.00;-4;-20.02;-5.79;377.4;15.80;76357;2838.087;-1800.614;1;144;-110;-103.2;43.2;43.6;12;11.7;25.4;0.0;
01/03/2025 14:13:49;100;0;141.06;-4;-20.23;-5.73;379.7;15.70;76352;2838.086;-1800.613;1;144;-110;-103.2;43.2;43.6;14;14.0;25.4;0.0;
01/03/2025 14:14:09;100;0;142.11;-4;-20.21;-4.37;382.2;15.70;76353;2838.085;-1800.612;1;144;-110;-103.2;43.2;43.6;14;14.4;25.4;0.0;
01/03/2025 14:14:29;100;0;141.52;-4;-20.36;-4.34;384.6;15.70;76338;2838.084;-1800.610;1;144;-110;-104.8;43.2;43.6;14;14.4;25.4;0.0;
01/03/2025 14:14:49;100;0;139.55;-4;-20.27;-4.30;387.1;15.60;76325;2838.083;-1800.609;1;144;-110;-106.5;43.2;43.6;14;14.4;25.5;0.0;
01/03/2025 14:15:09;100;0;137.42;-4;-20.83;-4.36;389.6;15.60;76325;2838.082;-1800.608;1;144;-110;-104.8;43.2;43.7;14;14.4;25.4;0.0;
01/03/2025 14:15:29;100;0;139.43;-4;-20.82;-4.22;392.4;15.60;76306;2838.080;-1800.606;1;144;-110;-103.2;43.2;43.6;14;14.4;25.4;0.0;
01/03/2025 14:15:49;100;0;139.70;-4;-20.97;-4.35;395.2;15.60;76313;2838.079;-1800.604;1;144;-110;-103.2;43.2;43.6;14;14.4;25.5;0.0;
01/03/2025 14:16:09;100;0;139.84;-4;-20.47;-4.22;398.0;15.50;76300;2838.078;-1800.602;1;144;-110;-104.8;43.2;43.7;14;14.4;25.4;0.0;
01/03/2025 14:16:29;100;0;141.13;-4;-20.95;-3.95;400.9;15.50;76293;2838.076;-1800.601;1;144;-110;-103.2;43.2;43.6;14;14.4;25.4;0.0;
01/03/2025 14:16:49;100;0;141.03;-4;-20.80;-4.36;403.9;15.50;76288;2838.074;-1800.599;1;144;-110;-103.2;43.2;43.6;14;14.4;25.4;0.0;
01/03/2025 14:17:09;100;0;140.12;-4;-20.34;-4.24;406.7;15.40;76273;2838.073;-1800.597;1;144;-110;-104.8;43.2;43.6;14;14.4;25.4;0.0;
01/03/2025 14:17:29;100;0;139.68;-4;-20.37;-4.22;409.5;15.40;76270;2838.071;-1800.595;1;144;-110;-104.8;43.2;43.6;14;14.4;25.4;0.0;
01/03/2025 14:17:49;100;0;138.38;-4;-20.50;-4.21;412.5;15.40;76274;2838.070;-1800.593;1;144;-110;-103.2;43.2;43.6;14;14.4;25.4;0.0;
01/03/2025 14:18:09;100;0;138.24;-4;-20.70;-4.28;415.5;15.40;76266;2838.068;-1800.591;1;144;-110;-103.2;43.2;43.7;14;14.4;25.4;0.0;
01/03/2025 14:18:29;100;0;138.15;-4;-20.56;-4.21;418.4;15.30;76249;2838.067;-1800.590;1;144;-110;-104.8;43.2;43.6;14;14.4;25.4;0.0;
01/03/2025 14:18:49;100;0;136.18;-4;-20.63;-4.28;421.6;15.30;76241;2838.066;-1800.587;1;144;-110;-103.2;43.2;43.6;12;12.2;25.4;0.0;
01/03/2025 14:19:09;100;0;136.00;-4;-20.07;-5.64;424.5;15.20;76243;2838.064;-1800.585;1;144;-110;-103.2;43.2;43.7;12;11.7;25.4;0.0;
01/03/2025 14:19:29;100;0;134.49;-4;-20.11;-5.69;427.6;15.20;76226;2838.063;-1800.583;1;144;-110;-104.8;43.2;43.6;10;9.9;25.4;0.0;
01/03/2025 14:19:49;100;0;134.75;-4;-19.90;-6.69;430.6;15.20;76220;2838.061;-1800.581;1;144;-110;-103.2;43.2;43.6;10;9.5;25.4;0.0;
01/03/2025 14:20:09;100;0;135.67;-4;-19.17;-6.94;433.4;15.20;76207;2838.060;-1800.579;1;144;-110;-103.2;43.2;43.6;10;9.5;25.5;0.0;
01/03/2025 14:20:29;100;0;137.22;-4;-19.86;-6.85;436.2;15.10;76206;2838.058;-1800.577;1;144;-110;-104.8;43.2;43.6;12;12.6;25.5;0.0;
01/03/2025 14:20:49;100;0;137.42;-4;-19.59;-5.33;439.1;15.10;76205;2838.057;-1800.575;1;144;-110;-104.8;43.2;43.6;12;12.6;25.4;0.0;
01/03/2025 14:21:09;100;0;135.94;-4;-20.15;-5.39;442.0;15.10;76200;2838.056;-1800.573;1;144;-110;-104.8;43.2;43.6;12;12.6;25.4;0.0;
01/03/2025 14:21:29;100;0;138.78;-4;-20.06;-5.26;445.0;15.00;76191;2838.054;-1800.571;1;144;-110;-104.8;43.2;43.6;12;12.6;25.4;0.0;
01/03/2025 14:21:49;100;0;140.87;-4;-20.07;-5.20;447.8;15.00;76175;2838.052;-1800.569;1;144;-110;-103.2;43.2;43.6;14;14.0;25.4;0.0;
01/03/2025 14:22:09;100;0;143.30;-4;-20.15;-4.33;450.8;15.00;76177;2838.051;-1800.567;1;144;-110;-104.8;43.2;43.6;14;14.4;25.4;0.0;
01/03/2025 14:22:29;100;0;146.08;-4;-19.95;-4.34;453.7;15.00;76169;2838.049;-1800.566;1;144;-110;-103.2;43.2;43.6;14;14.4;25.4;0.0;
01/03/2025 14:22:49;100;0;145.63;-4;-19.80;-4.48;456.5;14.90;76157;2838.047;-1800.564;1;144;-110;-108.1;43.2;43.6;14;14.4;25.4;0.0;
01/03/2025 14:23:09;100;0;145.59;-4;-19.64;-4.43;459.1;14.90;76153;2838.046;-1800.563;1;144;-110;-103.2;43.2;43.6;14;14.4;25.4;0.0;
01/03/2025 14:23:29;100;0;146.67;-4;-19.61;-4.41;462.0;14.90;76155;2838.044;-1800.562;1;144;-110;-104.8;43.2;43.6;14;14.4;25.4;0.0;
01/03/2025 14:23:49;100;0;148.81;-4;-19.15;-4.33;464.4;14.90;76146;2838.042;-1800.561;1;144;-110;-104.8;43.2;43.6;14;14.4;25.4;0.0;
01/03/2025 14:24:09;100;0;149.87;-4;-19.85;-4.46;467.0;14.80;76139;2838.041;-1800.560;1;144;-110;-103.2;43.2;43.6;14;14.4;25.4;0.0;
01/03/2025 14:24:29;100;0;150.14;-4;-19.48;-4.42;469.6;14.80;76132;2838.039;-1800.559;1;144;-110;-103.2;43.2;43.6;14;14.4;25.4;0.0;
01/03/2025 14:24:49;100;0;149.67;-4;-19.57;-4.48;472.1;14.80;76128;2838.038;-1800.558;1;144;-110;-106.5;43.2;43.7;14;14.4;25.4;0.0;
01/03/2025 14:25:09;100;0;147.09;-4;-19.78;-4.45;474.5;14.70;76124;2838.036;-1800.556;1;144;-110;-103.2;43.2;43.6;14;14.4;25.4;0.0;
01/03/2025 14:25:29;100;0;147.02;-4;-19.70;-4.40;477.0;14.70;76119;2838.035;-1800.555;1;144;-110;-104.8;43.2;43.6;14;14.4;25.5;0.0;
01/03/2025 14:25:49;100;0;146.77;-4;-19.73;-4.45;479.4;14.70;76115;2838.034;-1800.554;1;144;-110;-103.2;43.2;43.6;14;14.4;25.4;0.0;
01/03/2025 14:26:09;100;0;146.40;-4;-19.73;-4.42;481.8;14.60;76105;2838.032;-1800.553;1;144;-110;-103.2;43.2;43.6;14;14.4;25.4;0.0;
01/03/2025 14:26:29;100;0;145.94;-4;-19.70;-4.44;484.4;14.60;76106;2838.031;-1800.552;1;144;-110;-103.2;43.2;43.7;14;14.4;25.4;0.0;
01/03/2025 14:26:49;100;0;145.32;-4;-19.76;-4.42;486.8;14.60;76099;2838.030;-1800.551;1;144;-110;-103.2;43.2;43.6;14;14.4;25.4;0.0;
01/03/2025 14:27:09;100;0;146.52;-4;-19.68;-4.41;489.0;14.60;76111;2838.029;-1800.550;1;144;-110;-103.2;43.2;43.6;14;14.4;25.5;0.0;
01/03/2025 14:27:29;100;0;146.63;-4;-19.88;-4.42;491.5;14.50;76088;2838.027;-1800.549;1;144;-110;-103.2;43.2;43.6;14;14.4;25.4;0.0;
01/03/2025 14:27:49;100;0;144.72;-4;-20.12;-4.42;494.0;14.50;76086;2838.026;-1800.548;1;144;-110;-103.2;43.2;43.6;14;14.4;25.5;0.0;
01/03/2025 14:28:09;100;0;143.50;-4;-20.19;-4.32;496.5;14.50;76071;2838.025;-1800.546;1;144;-110;-103.2;43.2;43.6;14;14.4;25.4;0.0;
01/03/2025 14:28:29;100;0;144.74;-4;-19.78;-4.40;499.0;14.40;76058;2838.023;-1800.545;1;144;-110;-104.8;43.2;43.6;14;14.4;25.4;0.0;
01/03/2025 14:28:49;100;0;144.72;-4;-19.86;-4.41;501.3;14.40;76060;2838.022;-1800.544;1;144;-110;-104.8;43.2;43.6;14;14.4;25.4;0.0;
01/03/2025 14:29:09;100;0;145.20;-4;-19.71;-4.35;503.8;14.40;76052;2838.021;-1800.543;1;144;-110;-104.8;43.2;43.6;14;14.4;25.4;0.0;
01/03/2025 14:29:29;100;0;145.33;-4;-19.79;-4.37;506.3;14.40;76056;2838.019;-1800.542;1;144;-110;-103.2;43.2;43.6;14;14.4;25.4;0.0;
01/03/2025 14:29:49;100;0;146.30;-4;-19.92;-4.40;508.7;14.30;76030;2838.018;-1800.541;1;144;-110;-103.2;43.2;43.6;14;14.4;25.4;0.0;
01/03/2025 14:30:09;100;0;145.78;-4;-19.93;-4.35;511.1;14.30;76040;2838.017;-1800.540;1;144;-110;-104.8;43.2;43.6;14;14.4;25.4;0.0;
01/03/2025 14:30:29;100;0;145.33;-4;-19.89;-4.42;513.7;14.30;76032;2838.015;-1800.538;1;144;-110;-103.2;43.2;43.6;14;14.4;25.5;0.0;
01/03/2025 14:30:49;100;0;145.68;-4;-19.94;-4.35;516.1;14.30;76032;2838.014;-1800.537;1;144;-110;-103.2;43.2;43.6;14;14.4;25.4;0.0;
01/03/2025 14:31:09;100;0;145.38;-4;-19.95;-4.33;518.4;14.20;76030;2838.013;-1800.536;1;144;-110;-104.8;43.2;43.6;14;14.4;25.4;0.0;
01/03/2025 14:31:29;100;0;146.88;-4;-19.59;-4.32;520.8;14.20;76015;2838.012;-1800.535;1;144;-110;-103.2;43.2;43.6;14;14.4;25.4;0.0;
01/03/2025 14:31:49;100;0;149.10;-4;-20.34;-4.39;523.1;14.20;76015;2838.010;-1800.534;1;144;-110;-104.8;43.2;43.6;14;14.4;25.4;0.0;
01/03/2025 14:32:09;100;0;150.61;-4;-20.01;-4.35;525.6;14.20;76014;2838.009;-1800.533;1;144;-110;-103.2;43.2;43.6;14;14.4;25.4;0.0;
01/03/2025 14:32:29;100;0;150.51;-4;-19.79;-4.33;528.1;14.20;76014;2838.008;-1800.532;1;144;-110;-103.2;43.2;43.6;14;14.4;25.4;0.0;
01/03/2025 14:32:49;100;0;148.38;-4;-19.85;-4.39;530.5;14.10;76005;2838.006;-1800.531;1;144;-110;-103.2;43.2;43.6;14;14.4;25.4;0.0;
01/03/2025 14:33:09;100;0;148.12;-4;-19.87;-4.36;532.9;14.10;76000;2838.005;-1800.530;1;144;-110;-104.8;43.2;43.6;14;14.4;25.4;0.0;
01/03/2025 14:33:29;100;0;149.09;-4;-19.87;-4.37;535.3;14.10;76002;2838.003;-1800.530;1;144;-110;-104.8;43.2;43.6;14;14.4;25.4;0.0;
01/03/2025 14:33:49;100;0;150.72;-4;-20.08;-4.29;537.6;14.00;75995;2838.002;-1800.529;1;144;-110;-103.2;43.2;43.7;14;14.4;25.4;0.0;
01/03/2025 14:34:09;100;0;155.38;-4;-19.82;-4.32;540.0;14.00;75986;2838.001;-1800.528;1;144;-110;-103.2;43.2;43.7;17;17.1;25.4;0.0;
01/03/2025 14:34:29;100;0;157.98;-4;-19.89;-2.76;542.6;14.00;75982;2837.999;-1800.528;1;144;-110;-104.8;43.2;43.6;19;19.4;25.4;0.0;
01/03/2025 14:34:49;100;0;154.24;-4;-19.69;-1.77;544.8;14.00;75964;2837.998;-1800.527;1;144;-110;-103.2;43.2;43.6;16;15.3;25.5;0.0;
01/03/2025 14:35:09;100;0;150.71;-4;-19.69;-4.08;547.2;13.90;75958;2837.996;-1800.526;1;144;-110;-103.2;43.2;43.6;16;15.3;25.4;0.0;
01/03/2025 14:35:29;100;0;148.65;-4;-19.18;-4.16;549.5;13.90;75955;2837.995;-1800.525;1;144;-110;-106.5;43.2;43.6;14;14.0;25.4;0.0;
01/03/2025 14:35:49;100;0;147.55;-4;-19.56;-4.78;551.4;13.90;75946;2837.994;-1800.525;1;144;-130;-132.3;43.2;43.6;14;13.5;25.4;0.0;
01/03/2025 14:36:09;100;0;146.90;-4;-18.85;-4.64;553.6;13.90;76010;2837.993;-1800.524;1;144;-130;-133.9;43.6;43.6;14;14.0;25.4;0.0;
01/03/2025 14:36:29;100;0;145.12;-4;-18.57;-4.78;556.0;13.80;76017;2837.992;-1800.523;1;144;-130;-133.9;44.0;44.2;14;13.5;25.4;0.0;
01/03/2025 14:36:49;100;0;144.92;-4;-20.25;-4.90;558.3;13.80;76012;2837.990;-1800.522;1;144;-130;-132.3;44.0;44.3;14;13.5;25.4;0.0;
01/03/2025 14:37:09;100;0;142.85;-4;-19.93;-4.78;560.7;13.80;75995;2837.989;-1800.520;1;144;-130;-132.3;44.0;44.3;14;14.0;25.4;0.0;
01/03/2025 14:37:29;100;0;141.17;-4;-20.56;-4.67;563.1;13.80;75991;2837.988;-1800.519;1;144;-130;-133.9;44.0;44.3;14;14.0;25.4;0.0;
01/03/2025 14:37:49;100;0;139.73;-4;-20.23;-4.66;565.5;13.70;76002;2837.987;-1800.518;1;144;-130;-133.9;44.0;44.3;14;14.0;25.4;0.0;
01/03/2025 14:38:09;100;0;140.96;-4;-20.24;-4.69;567.9;13.70;75988;2837.986;-1800.516;1;144;-130;-132.3;44.0;44.3;14;14.0;25.4;0.0;
01/03/2025 14:38:29;100;0;141.61;-4;-20.13;-4.72;570.2;13.70;75978;2837.985;-1800.515;1;144;-130;-132.3;44.0;44.3;14;14.0;25.4;0.0;
01/03/2025 14:38:49;100;0;138.27;-4;-20.09;-4.69;572.7;13.70;75982;2837.984;-1800.514;1;144;-130;-132.3;44.0;44.3;14;14.0;25.4;0.0;
01/03/2025 14:39:09;100;0;138.44;-4;-20.43;-4.70;575.2;13.60;75970;2837.983;-1800.512;1;144;-130;-132.3;44.0;44.3;14;14.0;25.4;0.0;
01/03/2025 14:39:29;100;0;141.19;-4;-20.27;-4.54;577.5;13.60;75959;2837.982;-1800.511;1;144;-130;-133.9;44.0;44.3;14;13.5;25.5;0.0;
01/03/2025 14:39:49;100;0;144.30;-4;-20.03;-4.66;579.9;13.60;75972;2837.981;-1800.510;1;144;-130;-133.9;44.0;44.3;14;14.0;25.4;0.0;
01/03/2025 14:40:09;100;0;146.43;-4;-19.92;-4.63;582.1;13.60;75953;2837.980;-1800.509;1;144;-130;-133.9;44.0;44.3;14;14.0;25.4;0.0;
01/03/2025 14:40:29;100;0;146.81;-4;-19.99;-4.73;584.4;13.60;75951;2837.978;-1800.508;1;144;-130;-133.9;44.0;44.3;14;14.0;25.4;0.0;
01/03/2025 14:40:49;100;0;144.07;-4;-20.10;-4.70;586.8;13.50;75958;2837.977;-1800.507;1;144;-130;-133.9;44.0;44.3;14;14.0;25.4;0.0;
01/03/2025 14:41:09;100;0;145.49;-4;-20.08;-4.64;588.8;13.50;75951;2837.976;-1800.506;1;144;-150;-151.6;44.0;44.3;14;14.0;25.4;0.0;
01/03/2025 14:41:29;100;0;147.71;-4;-20.24;-4.65;591.0;13.50;75984;2837.975;-1800.505;1;144;-150;-153.2;44.0;44.3;14;14.0;25.4;0.0;
01/03/2025 14:41:49;100;0;148.53;-4;-20.32;-4.49;593.7;13.40;75966;2837.974;-1800.504;1;144;-150;-153.2;44.0;44.3;14;14.0;25.4;0.0;
01/03/2025 14:42:09;100;0;149.33;-4;-20.27;-4.39;596.2;13.40;75969;2837.972;-1800.503;1;144;-150;-153.2;44.0;44.3;14;14.0;25.4;0.0;
01/03/2025 14:42:29;100;0;149.30;-4;-19.93;-4.60;598.7;13.40;75957;2837.971;-1800.502;1;144;-150;-153.2;44.0;44.3;14;14.0;25.4;0.0;
01/03/2025 14:42:49;100;0;150.28;-4;-19.75;-4.65;601.1;13.40;75955;2837.969;-1800.501;1;144;-150;-153.2;44.0;44.2;14;13.5;25.4;0.0;
01/03/2025 14:43:09;100;0;151.31;-4;-19.72;-4.59;603.4;13.30;75929;2837.968;-1800.500;1;144;-150;-153.2;44.0;44.3;14;14.0;25.4;0.0;
01/03/2025 14:43:29;100;0;153.30;-4;-19.75;-4.52;605.7;13.30;75935;2837.967;-1800.500;1;144;-150;-153.2;44.0;44.2;16;15.8;25.4;0.0;
01/03/2025 14:43:49;100;0;153.78;-4;-20.03;-3.40;608.1;13.30;75931;2837.965;-1800.499;1;144;-150;-153.2;44.0;44.3;16;16.2;25.4;0.0;
01/03/2025 14:44:09;100;0;152.97;-4;-20.13;-3.40;610.4;13.30;75912;2837.964;-1800.498;1;144;-150;-153.2;44.0;44.3;16;15.8;25.4;0.0;
01/03/2025 14:44:29;100;0;152.99;-4;-20.42;-3.31;612.7;13.20;75909;2837.962;-1800.498;1;144;-150;-153.2;44.0;44.3;16;16.2;25.4;0.0;
01/03/2025 14:44:49;100;0;153.24;-4;-20.65;-3.37;615.3;13.20;75899;2837.961;-1800.497;1;144;-150;-153.2;44.0;44.3;16;16.2;25.4;0.0;
01/03/2025 14:45:09;100;0;151.66;-4;-20.47;-3.36;617.8;13.20;75887;2837.959;-1800.496;1;144;-150;-151.6;44.0;44.3;16;16.2;25.4;0.0;
01/03/2025 14:45:29;100;0;149.08;-4;-20.32;-3.37;620.2;13.20;75883;2837.958;-1800.495;1;144;-150;-153.2;44.0;44.3;16;15.8;25.4;0.0;
01/03/2025 14:45:49;100;0;145.39;-4;-20.32;-3.47;622.6;13.10;75876;2837.957;-1800.494;1;144;-150;-153.2;44.0;44.3;14;14.0;25.4;0.0;
01/03/2025 14:46:09;100;0;144.00;-4;-20.16;-4.61;624.8;13.10;75868;2837.956;-1800.493;1;144;-150;-153.2;44.0;44.3;14;13.5;25.4;0.0;
01/03/2025 14:46:30;100;0;143.96;-4;-19.82;-4.83;627.2;13.10;75861;2837.955;-1800.492;1;144;-150;-153.2;44.0;44.3;14;13.5;25.4;0.0;
01/03/2025 14:46:50;100;0;142.56;-4;-19.76;-4.80;629.2;13.10;75863;2837.954;-1800.491;1;144;-150;-153.2;44.0;44.3;14;13.5;25.4;0.0;
01/03/2025 14:47:10;100;0;142.72;-4;-19.51;-4.63;631.4;13.00;75855;2837.953;-1800.490;1;144;-150;-153.2;44.0;44.3;14;13.5;25.4;0.0;
01/03/2025 14:47:30;100;0;143.78;-4;-19.77;-4.73;633.5;13.00;75843;2837.952;-1800.489;1;144;-150;-153.2;44.0;44.3;14;13.5;25.4;0.0;
01/03/2025 14:47:50;100;0;143.07;-4;-19.68;-4.71;635.7;13.00;75841;2837.951;-1800.488;1;144;-150;-153.2;44.0;44.3;14;13.5;25.5;0.0;
01/03/2025 14:48:10;100;0;143.80;-4;-20.02;-4.69;638.0;13.00;75832;2837.950;-1800.487;1;144;-150;-153.2;44.0;44.3;14;13.5;25.4;0.0;
01/03/2025 14:48:30;100;0;144.45;-4;-19.95;-4.73;640.2;12.90;75822;2837.949;-1800.486;1;144;-150;-151.6;44.0;44.3;14;13.5;25.4;0.0;
01/03/2025 14:48:50;100;0;145.37;-4;-19.91;-4.62;642.2;12.90;75807;2837.948;-1800.485;1;144;-170;-171.0;44.0;44.3;14;13.5;25.4;0.0;
01/03/2025 14:49:10;100;0;145.28;-4;-19.83;-4.76;644.7;12.90;75858;2837.947;-1800.484;1;144;-170;-172.6;44.0;44.3;14;13.5;25.4;0.0;
01/03/2025 14:49:30;100;0;146.36;-4;-20.03;-4.44;647.0;12.90;75850;2837.945;-1800.483;1;144;-170;-171.0;44.0;44.5;14;13.5;25.5;0.0;
01/03/2025 14:49:50;100;0;150.33;-4;-19.10;-4.52;649.2;12.80;75850;2837.944;-1800.482;1;144;-170;-171.0;44.0;44.3;14;13.5;25.4;0.0;
01/03/2025 14:50:10;100;0;150.71;-4;-20.00;-4.55;651.6;12.80;75843;2837.943;-1800.481;1;144;-170;-172.6;44.0;44.3;14;13.5;25.4;0.0;
01/03/2025 14:50:30;100;0;149.64;-4;-20.99;-4.66;653.9;12.80;75835;2837.942;-1800.480;1;144;-170;-172.6;44.0;44.3;14;13.5;25.4;0.0;
01/03/2025 14:50:50;100;0;149.57;-4;-18.34;-4.06;656.6;12.70;75826;2837.940;-1800.479;1;144;-170;-171.0;44.5;44.5;14;13.5;25.4;0.0;
01/03/2025 14:51:10;100;0;148.10;-4;-19.60;-4.57;658.5;12.70;75833;2837.939;-1800.479;1;144;-190;-191.9;44.5;44.6;14;13.5;25.4;0.0;
01/03/2025 14:51:30;100;0;147.99;-4;-20.64;-4.71;660.8;12.70;75860;2837.938;-1800.478;1;144;-190;-191.9;44.5;44.6;14;13.5;25.4;0.0;
01/03/2025 14:51:50;100;0;147.98;-4;-19.17;-4.46;663.3;12.70;75850;2837.936;-1800.477;1;144;-190;-193.5;44.5;44.6;14;13.5;25.4;0.0;
01/03/2025 14:52:10;100;0;153.92;-4;-19.80;-4.70;666.1;12.60;75846;2837.934;-1800.476;1;144;-190;-193.5;44.5;44.6;16;15.8;25.4;0.0;
01/03/2025 14:52:30;100;0;156.28;-4;-19.40;-3.35;668.6;12.60;75841;2837.933;-1800.475;1;144;-190;-193.5;44.5;44.6;18;18.1;25.4;0.0;
01/03/2025 14:52:50;100;0;155.09;-4;-20.62;-2.20;671.1;12.60;75840;2837.931;-1800.474;1;144;-190;-193.5;44.5;44.6;18;18.5;25.4;0.0;
01/03/2025 14:53:10;100;0;152.05;-4;-21.02;-2.08;673.8;12.60;75836;2837.929;-1800.474;1;144;-190;-193.5;44.5;44.8;15;14.4;25.4;0.0;
01/03/2025 14:53:30;100;0;152.05;-4;-20.59;-3.98;676.7;12.50;75823;2837.927;-1800.473;1;144;-190;-193.5;44.5;44.6;15;14.4;25.4;0.0;
01/03/2025 14:53:50;100;0;150.16;-4;-20.48;-4.05;679.6;12.50;75829;2837.926;-1800.471;1;144;-190;-193.5;44.5;44.8;15;14.4;25.4;0.0;
01/03/2025 14:54:10;100;0;150.38;-4;-20.59;-3.96;682.5;12.50;75819;2837.924;-1800.470;1;144;-190;-193.5;44.5;44.8;15;14.4;25.4;0.0;
01/03/2025 14:54:30;100;0;149.45;-4;-20.47;-4.01;685.3;12.50;75810;2837.922;-1800.469;1;144;-190;-193.5;44.5;44.6;15;14.4;25.4;0.0;
01/03/2025 14:54:50;100;0;148.47;-4;-20.61;-3.92;688.4;12.40;75814;2837.920;-1800.468;1;144;-190;-193.5;44.5;44.8;15;14.4;25.4;0.0;
01/03/2025 14:55:10;100;0;148.25;-4;-20.42;-4.13;691.3;12.40;75801;2837.918;-1800.466;1;144;-190;-193.5;44.5;44.8;15;14.4;25.4;0.0;
01/03/2025 14:55:30;100;0;147.00;-4;-20.46;-4.11;694.3;12.40;75789;2837.916;-1800.465;1;144;-190;-193.5;44.5;44.6;15;14.4;25.4;0.0;
01/03/2025 14:55:50;100;0;145.97;-4;-20.32;-4.01;697.2;12.40;75782;2837.914;-1800.463;1;144;-190;-193.5;44.5;44.6;15;14.4;25.4;0.0;
01/03/2025 14:56:10;100;0;145.26;-4;-20.48;-4.03;700.2;12.30;75780;2837.912;-1800.462;1;144;-190;-193.5;44.5;44.6;15;14.4;25.4;0.0;
01/03/2025 14:56:30;100;0;144.34;-4;-20.57;-4.07;703.2;12.30;75781;2837.911;-1800.460;1;144;-190;-195.2;44.5;44.6;15;14.4;25.4;0.0;
01/03/2025 14:56:50;100;0;143.39;-4;-20.34;-3.95;706.3;12.30;75779;2837.909;-1800.458;1;144;-190;-193.5;44.5;44.8;15;14.4;25.4;0.0;
01/03/2025 14:57:10;100;0;142.63;-4;-20.54;-3.99;709.3;12.30;75780;2837.907;-1800.456;1;144;-190;-193.5;44.5;44.6;15;14.4;25.4;0.0;
01/03/2025 14:57:30;100;0;143.03;-4;-20.19;-3.97;712.4;12.20;75768;2837.905;-1800.455;1;144;-190;-193.5;44.5;44.6;15;14.4;25.4;0.0;
01/03/2025 14:57:50;100;0;142.99;-4;-19.94;-3.98;715.3;12.20;75772;2837.904;-1800.453;1;144;-190;-193.5;44.5;44.8;15;14.4;25.4;0.0;
01/03/2025 14:58:10;100;0;145.13;-4;-20.66;-4.08;718.3;12.20;75752;2837.902;-1800.451;1;144;-190;-193.5;44.5;44.8;15;14.4;25.4;0.0;
01/03/2025 14:58:30;100;0;141.07;-4;-19.50;-4.09;721.2;12.20;75750;2837.900;-1800.450;1;144;-190;-191.9;44.5;44.8;15;14.4;25.4;0.0;
01/03/2025 14:58:50;100;0;142.90;-4;-19.62;-4.19;724.2;12.20;75759;2837.898;-1800.448;1;144;-190;-193.5;44.5;44.8;15;14.4;25.4;0.0;
01/03/2025 14:59:10;100;0;141.29;-4;-20.55;-3.85;727.1;12.10;75752;2837.897;-1800.446;1;144;-190;-191.9;44.5;44.6;15;14.4;25.4;0.0;
01/03/2025 14:59:30;100;0;141.63;-4;-20.23;-3.94;730.1;12.10;75750;2837.895;-1800.444;1;144;-190;-193.5;44.5;44.8;15;14.4;25.4;0.0;
01/03/2025 14:59:50;100;0;141.76;-4;-20.11;-3.97;733.1;12.10;75736;2837.893;-1800.443;1;144;-190;-193.5;44.5;44.6;15;14.4;25.4;0.0;
01/03/2025 15:00:10;100;0;141.22;-4;-20.06;-4.10;736.0;12.10;75738;2837.892;-1800.441;1;144;-190;-193.5;44.5;44.6;15;14.4;25.4;0.0;
01/03/2025 15:00:30;100;0;141.80;-4;-19.94;-4.09;738.7;12.00;75725;2837.890;-1800.439;1;144;-190;-193.5;44.5;44.8;15;14.4;25.4;0.0;
01/03/2025 15:00:50;100;0;140.90;-4;-19.88;-4.15;741.5;12.00;75729;2837.889;-1800.438;1;144;-190;-193.5;44.5;44.8;15;14.4;25.4;0.0;
01/03/2025 15:01:10;100;0;138.87;-4;-20.52;-4.03;744.3;12.00;75719;2837.888;-1800.436;1;144;-190;-193.5;44.5;44.6;13;12.6;25.4;0.0;
