Timestamp;NavState;SecurityLevel;Heading;Declination;Pitch;Roll;Depth;Temperature;Pa;Lat;Lon;DeadReckoning;DesiredH;BallastCmd;BallastPos;LinCmd;LinPos;AngCmd;AngPos;Voltage;Altitude;
27/02/2025 05:28:09;119;0;336.95;-4;-42.94;-17.92;-0.0;16.50;75518;2835.502;-1759.592;0;315;500;506.5;100.0;100.4;0;0.0;25.9;-1.0;
27/02/2025 05:28:19;116;0;354.99;-4;-58.56;-19.21;0.1;16.60;75519;2835.504;-1759.601;0;315;500;504.8;100.0;100.4;0;0.0;25.9;-1.0;
27/02/2025 05:28:44;116;0;50.58;-4;-58.18;-12.46;0.1;16.70;75525;2835.511;-1759.605;0;315;500;504.8;100.0;100.4;0;0.0;25.9;-1.0;
27/02/2025 05:29:11;116;0;68.65;-4;-55.97;-10.40;0.1;16.80;75543;2835.515;-1759.607;0;315;500;504.8;100.0;100.3;0;0.0;25.8;-1.0;
27/02/2025 05:29:31;116;0;66.04;-4;-52.48;-12.96;0.1;16.80;75550;2835.520;-1759.607;0;321;500;506.5;100.0;100.4;0;0.0;25.9;-1.0;
27/02/2025 05:29:43;116;0;74.90;-4;-57.27;-7.14;0.1;16.90;75553;2835.522;-1759.606;0;321;500;508.1;100.0;100.4;0;0.0;25.9;-1.0;
27/02/2025 05:30:46;116;0;50.27;-4;-52.25;-4.65;0.1;17.10;75584;2835.531;-1759.603;0;321;500;506.5;100.0;100.4;0;0.0;25.9;-1.0;
27/02/2025 05:31:13;116;0;50.71;-4;-52.96;-7.87;0.0;17.20;75592;2835.534;-1759.602;0;321;500;506.5;100.0;100.4;0;-0.5;25.7;-1.0;
27/02/2025 05:32:16;116;0;38.05;-4;-54.64;-13.50;-0.1;17.50;75614;2835.544;-1759.599;0;321;500;506.5;100.0;100.4;0;0.0;25.9;-1.0;
27/02/2025 05:33:27;116;0;53.93;-4;-56.80;-5.84;0.1;17.80;75640;2835.555;-1759.596;0;321;500;506.5;100.0;100.4;0;-0.5;25.9;-1.0;
27/02/2025 05:33:47;110;0;63.08;-4;-52.44;-9.63;-0.0;17.90;75648;2835.555;-1759.596;0;321;-90;383.9;100.0;100.4;-6;-5.9;25.8;-1.0;
27/02/2025 05:33:58;110;0;70.80;-4;-56.93;-20.24;0.1;18.00;76014;2835.554;-1759.595;1;321;-90;237.1;100.0;100.4;-6;-6.3;25.8;-1.0;
27/02/2025 05:34:08;110;0;61.72;-4;-58.07;-22.94;0.6;18.00;76249;2835.554;-1759.595;1;321;-90;80.6;100.0;100.4;-6;-6.3;25.8;-1.0;
27/02/2025 05:34:18;110;0;56.85;-4;-68.90;-16.14;0.9;18.00;76573;2835.554;-1759.595;1;321;-90;-75.8;100.0;100.4;-6;-5.9;25.8;-1.0;
27/02/2025 05:34:28;110;0;45.30;-4;-62.94;-18.85;1.0;18.10;76909;2835.554;-1759.594;1;321;-90;-90.3;42.4;53.6;-6;-6.3;25.8;-1.0;
27/02/2025 05:34:38;110;0;43.72;-4;-55.60;-17.10;2.1;18.10;76882;2835.554;-1759.594;1;321;-90;-90.3;42.4;42.4;-6;-6.3;25.8;-1.0;
27/02/2025 05:34:58;100;0;50.62;-4;-21.70;-14.59;5.0;18.20;76901;2835.556;-1759.590;1;321;-90;-83.9;42.4;42.0;-6;-5.9;25.8;-1.0;
27/02/2025 05:35:18;100;0;58.45;-4;-19.31;-14.42;7.5;18.20;76905;2835.557;-1759.586;1;321;-90;-83.9;42.4;42.1;70;69.9;25.9;-1.0;
27/02/2025 05:35:38;100;0;52.71;-4;-22.42;23.86;10.0;18.30;76920;2835.558;-1759.583;1;321;-90;-82.3;41.7;41.7;70;70.4;25.9;-1.0;
27/02/2025 05:35:58;100;0;44.90;-4;-21.61;23.56;12.6;18.30;76914;2835.560;-1759.580;1;321;-90;-83.9;41.7;41.4;70;69.9;25.9;-1.0;
27/02/2025 05:36:18;100;0;35.86;-4;-21.77;24.04;15.2;18.30;76918;2835.562;-1759.578;1;321;-90;-82.3;41.7;41.5;70;70.4;25.9;0.0;
27/02/2025 05:36:38;100;0;25.88;-4;-21.27;23.69;17.8;18.30;76934;2835.564;-1759.576;1;321;-90;-82.3;41.7;41.5;70;70.4;25.9;0.0;
27/02/2025 05:36:58;100;0;14.46;-4;-21.06;23.82;20.4;18.30;76936;2835.567;-1759.574;1;321;-90;-83.9;41.7;41.4;70;69.9;25.9;0.0;
27/02/2025 05:37:18;100;0;5.29;-4;-21.26;23.79;22.8;18.40;76933;2835.570;-1759.573;1;321;-90;-83.9;41.7;41.4;68;68.1;25.9;0.0;
27/02/2025 05:37:38;100;0;354.53;-4;-20.38;22.21;25.4;18.40;76949;2835.572;-1759.573;1;321;-90;-82.3;41.7;41.4;54;54.2;25.9;0.0;
27/02/2025 05:37:58;100;0;344.86;-4;-20.19;15.03;27.7;18.40;76951;2835.575;-1759.574;1;321;-90;-82.3;41.7;41.4;39;38.8;25.9;0.0;
27/02/2025 05:38:18;100;0;337.50;-4;-19.74;7.26;30.1;18.40;76953;2835.577;-1759.575;1;321;-90;-82.3;41.7;41.4;27;27.1;25.9;0.0;
27/02/2025 05:38:38;100;0;333.04;-4;-18.97;1.52;32.4;18.40;76947;2835.579;-1759.576;1;321;-90;-82.3;42.0;42.1;21;20.8;25.9;0.0;
27/02/2025 05:38:58;100;0;332.37;-4;-19.36;-1.54;34.6;18.40;76957;2835.581;-1759.577;1;321;-90;-83.9;42.0;42.1;21;20.3;25.9;0.0;
27/02/2025 05:39:18;100;0;331.11;-4;-19.53;-1.37;37.1;18.50;76959;2835.584;-1759.578;1;321;-90;-83.9;42.0;42.1;19;19.0;25.9;0.0;
27/02/2025 05:39:38;100;0;326.17;-4;-20.01;-2.57;39.4;18.50;76964;2835.586;-1759.579;1;321;-90;-82.3;42.0;42.1;16;15.8;25.9;0.0;
27/02/2025 05:39:58;100;0;324.19;-4;-19.47;-4.16;42.0;18.50;76960;2835.588;-1759.581;1;321;-90;-83.9;42.0;42.1;16;15.3;25.9;0.0;
27/02/2025 05:40:18;100;0;323.55;-4;-19.29;-4.14;44.4;18.50;76964;2835.590;-1759.583;1;321;-90;-85.5;42.0;42.1;16;15.3;25.9;0.0;
27/02/2025 05:40:38;100;0;322.77;-4;-19.05;-4.16;46.8;18.50;76973;2835.592;-1759.585;1;321;-90;-83.9;42.0;42.1;16;15.3;25.9;0.0;
27/02/2025 05:40:58;100;0;323.49;-4;-18.86;-4.17;49.2;18.60;76982;2835.594;-1759.586;1;321;-90;-82.3;42.3;42.6;16;15.3;25.9;0.0;
27/02/2025 05:41:18;100;0;323.38;-4;-19.97;-4.14;51.5;18.60;76982;2835.596;-1759.588;1;321;-90;-82.3;42.3;42.7;16;15.3;25.9;0.0;
27/02/2025 05:41:38;100;0;323.14;-4;-20.22;-4.15;54.0;18.60;76987;2835.598;-1759.590;1;321;-90;-82.3;42.3;42.7;16;15.3;25.9;0.0;
27/02/2025 05:41:58;100;0;325.27;-4;-19.94;-4.13;56.4;18.60;76989;2835.600;-1759.591;1;321;-90;-83.9;42.3;42.7;16;15.3;25.9;0.0;
27/02/2025 05:42:18;100;0;328.30;-4;-19.97;-4.16;58.9;18.60;76995;2835.602;-1759.593;1;321;-90;-82.3;42.3;42.7;16;15.3;25.9;0.0;
27/02/2025 05:42:38;100;0;329.34;-4;-20.02;-4.15;61.2;18.60;77005;2835.604;-1759.594;1;321;-90;-83.9;42.3;42.7;18;18.1;25.9;0.0;
27/02/2025 05:42:58;100;0;327.10;-4;-20.11;-2.62;63.8;18.60;77005;2835.607;-1759.595;1;321;-90;-83.9;42.3;42.7;18;18.1;25.9;0.0;
27/02/2025 05:43:18;100;0;326.27;-4;-20.32;-2.56;66.2;18.60;77002;2835.609;-1759.597;1;321;-90;-83.9;42.3;42.7;16;15.8;25.9;0.0;
27/02/2025 05:43:38;100;0;327.17;-4;-20.25;-4.03;68.8;18.60;76993;2835.611;-1759.598;1;321;-90;-82.3;42.3;42.7;16;15.3;25.9;0.0;
27/02/2025 05:43:58;100;0;328.39;-4;-20.00;-3.97;71.2;18.70;77011;2835.613;-1759.600;1;321;-90;-82.3;42.3;42.7;16;15.3;25.9;0.0;
27/02/2025 05:44:18;100;0;320.77;-4;-19.89;-4.14;73.3;18.70;77003;2835.615;-1759.601;1;321;-90;-83.9;42.3;42.7;16;15.3;25.9;0.0;
27/02/2025 05:44:38;100;0;311.41;-4;-19.70;-4.06;75.7;18.70;76978;2835.616;-1759.603;1;321;-90;-82.3;42.3;42.7;13;13.1;25.9;0.0;
27/02/2025 05:44:58;100;0;312.14;-4;-19.88;-5.30;78.0;18.70;76961;2835.618;-1759.605;1;321;-90;-83.9;42.3;42.7;13;12.6;25.9;0.0;
27/02/2025 05:45:18;100;0;315.91;-4;-19.88;-5.29;80.1;18.60;76936;2835.619;-1759.607;1;321;-90;-82.3;42.3;42.7;15;14.9;25.8;0.0;
27/02/2025 05:45:38;100;0;318.82;-4;-20.10;-3.97;82.3;18.70;76932;2835.621;-1759.609;1;321;-90;-83.9;42.3;42.7;15;15.3;25.9;0.0;
27/02/2025 05:45:58;100;0;320.90;-4;-19.84;-4.06;84.7;18.60;76917;2835.623;-1759.610;1;321;-90;-83.9;42.3;42.7;15;15.3;25.8;0.0;
27/02/2025 05:46:18;100;0;323.52;-4;-19.67;-3.98;86.9;18.60;76908;2835.624;-1759.612;1;321;-90;-83.9;42.3;42.7;15;15.3;25.9;0.0;
27/02/2025 05:46:38;100;0;325.51;-4;-19.82;-3.93;89.1;18.60;76903;2835.626;-1759.613;1;321;-90;-82.3;42.3;42.7;15;15.3;25.9;0.0;
27/02/2025 05:46:58;100;0;329.57;-4;-20.10;-3.90;91.3;18.60;76897;2835.628;-1759.614;1;321;-90;-82.3;42.3;42.7;18;18.5;25.9;0.0;
27/02/2025 05:47:18;100;0;328.27;-4;-19.90;-2.30;93.5;18.60;76890;2835.630;-1759.616;1;321;-90;-82.3;42.3;42.7;18;19.0;25.9;0.0;
27/02/2025 05:47:38;100;0;323.00;-4;-20.15;-2.33;95.8;18.50;76878;2835.632;-1759.617;1;321;-90;-82.3;42.3;42.7;16;15.8;25.9;0.0;
27/02/2025 05:47:58;100;0;319.80;-4;-19.87;-4.05;97.9;18.50;76872;2835.633;-1759.619;1;321;-90;-83.9;42.3;42.9;16;15.8;25.9;0.0;
27/02/2025 05:48:18;100;0;320.30;-4;-20.11;-4.04;100.0;18.50;76867;2835.635;-1759.620;1;321;-90;-82.3;42.3;42.7;16;15.3;25.9;0.0;
27/02/2025 05:48:38;100;0;321.35;-4;-19.58;-3.98;102.1;18.50;76855;2835.637;-1759.622;1;321;-90;-83.9;42.3;42.9;16;15.8;25.9;0.0;
27/02/2025 05:48:58;100;0;319.51;-4;-19.73;-4.13;104.2;18.50;76841;2835.638;-1759.623;1;321;-90;-82.3;42.3;42.9;16;15.8;25.9;0.0;
27/02/2025 05:49:18;100;0;318.06;-4;-18.88;-4.35;106.1;18.50;76840;2835.640;-1759.624;1;321;-110;-109.7;42.7;42.7;16;15.3;25.9;0.0;
27/02/2025 05:49:38;100;0;322.20;-4;-18.98;-3.88;108.2;18.40;76900;2835.641;-1759.626;1;321;-110;-112.9;43.0;43.0;16;15.3;25.9;0.0;
27/02/2025 05:49:58;100;0;323.28;-4;-20.54;-3.90;110.3;18.40;76898;2835.643;-1759.627;1;321;-110;-111.3;43.0;43.3;16;15.3;25.9;0.0;
27/02/2025 05:50:18;100;0;324.44;-4;-20.36;-3.73;112.9;18.40;76895;2835.645;-1759.629;1;321;-110;-111.3;43.0;43.3;16;15.3;25.9;0.0;
27/02/2025 05:50:38;100;0;324.95;-4;-20.58;-3.80;115.2;18.40;76885;2835.647;-1759.630;1;321;-110;-111.3;43.0;43.3;16;15.3;25.9;0.0;
27/02/2025 05:50:58;100;0;324.69;-4;-20.54;-3.85;117.4;18.40;76876;2835.649;-1759.632;1;321;-110;-111.3;43.0;43.2;16;15.3;25.9;0.0;
27/02/2025 05:51:18;100;0;323.10;-4;-20.65;-3.81;119.8;18.30;76863;2835.651;-1759.633;1;321;-110;-111.3;43.0;43.2;16;15.8;25.9;0.0;
27/02/2025 05:51:38;100;0;323.25;-4;-20.22;-3.74;122.1;18.30;76864;2835.652;-1759.635;1;321;-110;-111.3;43.0;43.3;16;15.8;25.9;0.0;
27/02/2025 05:51:58;100;0;322.29;-4;-20.57;-3.53;124.4;18.30;76865;2835.654;-1759.636;1;321;-110;-112.9;43.0;43.3;16;15.3;25.9;0.0;
27/02/2025 05:52:18;100;0;319.50;-4;-20.43;-3.80;126.6;18.30;76861;2835.656;-1759.638;1;321;-110;-112.9;43.0;43.3;16;15.3;25.9;0.0;
27/02/2025 05:52:38;100;0;317.07;-4;-19.57;-3.92;128.7;18.30;76866;2835.657;-1759.640;1;321;-110;-112.9;43.0;43.3;16;15.3;25.9;0.0;
27/02/2025 05:52:58;100;0;318.98;-4;-19.96;-3.84;131.1;18.20;76849;2835.659;-1759.641;1;321;-110;-112.9;43.0;43.3;16;15.3;25.9;0.0;
27/02/2025 05:53:18;100;0;321.69;-4;-20.25;-3.79;133.4;18.20;76847;2835.661;-1759.643;1;321;-110;-111.3;43.0;43.3;16;15.8;25.9;0.0;
27/02/2025 05:53:38;100;0;323.65;-4;-20.30;-3.87;135.8;18.20;76850;2835.663;-1759.645;1;321;-110;-112.9;43.0;43.3;16;15.8;25.9;0.0;
27/02/2025 05:53:58;100;0;324.77;-4;-20.48;-3.81;138.2;18.20;76837;2835.665;-1759.646;1;321;-110;-114.5;43.0;43.3;16;15.3;25.8;0.0;
27/02/2025 05:54:18;100;0;325.54;-4;-20.32;-3.87;140.6;18.20;76836;2835.667;-1759.648;1;321;-110;-112.9;43.0;43.3;16;15.3;25.9;0.0;
27/02/2025 05:54:38;100;0;326.87;-4;-20.61;-3.75;143.0;18.10;76826;2835.669;-1759.649;1;321;-110;-112.9;43.0;43.3;16;15.3;25.9;0.0;
27/02/2025 05:54:58;100;0;328.47;-4;-20.43;-3.80;145.4;18.10;76826;2835.671;-1759.650;1;321;-110;-112.9;43.0;43.3;16;15.3;25.8;0.0;
27/02/2025 05:55:18;100;0;330.60;-4;-20.32;-3.83;147.7;18.10;76810;2835.673;-1759.652;1;321;-110;-111.3;43.0;43.3;19;19.0;25.9;0.0;
27/02/2025 05:55:38;100;0;331.17;-4;-20.67;-1.80;150.1;18.10;76800;2835.675;-1759.653;1;321;-110;-112.9;43.0;43.3;19;19.4;25.9;0.0;
27/02/2025 05:55:58;100;0;329.23;-4;-20.78;-1.78;152.4;18.00;76796;2835.677;-1759.654;1;321;-110;-111.3;43.0;43.3;19;19.4;25.9;0.0;
27/02/2025 05:56:18;100;0;325.51;-4;-20.81;-1.83;154.7;18.00;76797;2835.679;-1759.655;1;321;-110;-112.9;43.0;43.3;16;15.8;25.9;0.0;
27/02/2025 05:56:38;100;0;321.90;-4;-20.65;-3.77;157.1;18.00;76795;2835.681;-1759.657;1;321;-110;-111.3;43.0;43.3;16;15.8;25.9;0.0;
27/02/2025 05:56:58;100;0;315.36;-4;-20.55;-3.79;159.4;18.00;76783;2835.682;-1759.659;1;321;-110;-111.3;43.0;43.3;16;15.8;25.9;0.0;
27/02/2025 05:57:18;100;0;311.54;-4;-20.88;-3.71;161.9;17.90;76770;2835.684;-1759.661;1;321;-110;-111.3;43.0;43.3;13;13.1;25.9;0.0;
27/02/2025 05:57:38;100;0;305.98;-4;-20.55;-5.39;164.3;17.90;76758;2835.685;-1759.663;1;321;-110;-114.5;43.0;43.3;7;7.2;25.9;0.0;
27/02/2025 05:57:58;100;0;304.23;-4;-20.45;-8.18;166.6;17.90;76763;2835.686;-1759.665;1;321;-110;-112.9;43.0;43.3;5;4.5;25.9;0.0;
27/02/2025 05:58:18;100;0;304.51;-4;-19.61;-9.35;169.1;17.90;76741;2835.688;-1759.668;1;321;-110;-111.3;43.0;43.3;5;4.5;25.9;0.0;
27/02/2025 05:58:38;100;0;304.68;-4;-19.54;-9.38;171.4;17.80;76739;2835.689;-1759.670;1;321;-110;-111.3;43.0;43.3;5;4.5;25.9;0.0;
27/02/2025 05:58:58;100;0;305.87;-4;-19.82;-9.41;173.8;17.80;76741;2835.690;-1759.673;1;321;-110;-111.3;43.0;43.3;7;7.2;25.9;0.0;
27/02/2025 05:59:18;100;0;306.99;-4;-19.69;-7.65;176.3;17.80;76729;2835.692;-1759.675;1;321;-110;-112.9;43.0;43.3;7;7.7;25.9;0.0;
27/02/2025 05:59:38;100;0;309.16;-4;-19.73;-7.67;178.5;17.70;76704;2835.693;-1759.677;1;321;-110;-112.9;43.0;43.3;11;11.3;25.8;0.0;
27/02/2025 05:59:58;100;0;308.35;-4;-19.99;-5.73;180.9;17.70;76720;2835.694;-1759.679;1;321;-110;-111.3;43.0;43.3;11;11.7;25.8;0.0;
27/02/2025 06:00:18;100;0;312.16;-4;-20.03;-5.72;183.5;17.70;76705;2835.696;-1759.682;1;321;-110;-112.9;43.0;43.3;14;14.0;25.9;0.0;
27/02/2025 06:00:38;100;0;312.81;-4;-20.34;-4.30;186.1;17.60;76692;2835.698;-1759.684;1;321;-110;-112.9;43.0;43.3;14;14.4;25.9;0.0;
27/02/2025 06:00:58;100;0;312.04;-4;-20.30;-4.23;188.5;17.60;76685;2835.699;-1759.686;1;321;-110;-112.9;43.0;43.3;14;14.4;25.9;0.0;
27/02/2025 06:01:18;100;0;309.62;-4;-20.11;-4.31;191.2;17.60;76680;2835.701;-1759.689;1;321;-110;-112.9;43.0;43.3;11;10.8;25.9;0.0;
27/02/2025 06:01:38;100;0;308.37;-4;-20.00;-6.21;193.7;17.50;76674;2835.703;-1759.691;1;321;-110;-112.9;43.0;43.3;11;10.8;25.9;0.0;
27/02/2025 06:01:58;100;0;309.48;-4;-19.76;-6.06;196.2;17.50;76661;2835.704;-1759.693;1;321;-110;-112.9;43.0;43.3;11;10.8;25.9;0.0;
27/02/2025 06:02:18;100;0;311.68;-4;-19.88;-6.19;198.8;17.50;76673;2835.706;-1759.696;1;321;-110;-112.9;43.0;43.3;13;13.5;25.9;0.0;
27/02/2025 06:02:38;100;0;311.60;-4;-20.24;-4.59;201.3;17.50;76658;2835.707;-1759.698;1;321;-110;-111.3;43.0;43.4;13;13.5;25.9;0.0;
27/02/2025 06:02:58;100;0;312.86;-4;-19.76;-4.63;203.8;17.40;76640;2835.709;-1759.700;1;321;-110;-111.3;43.0;43.3;13;14.0;25.9;0.0;
27/02/2025 06:03:18;100;0;314.79;-4;-19.90;-4.64;206.6;17.40;76644;2835.711;-1759.703;1;321;-110;-112.9;43.0;43.3;15;14.9;25.9;0.0;
27/02/2025 06:03:38;100;0;315.34;-4;-20.05;-3.94;209.0;17.40;76627;2835.713;-1759.704;1;321;-110;-111.3;43.0;43.3;15;15.3;25.8;0.0;
27/02/2025 06:03:58;100;0;316.36;-4;-19.50;-3.95;211.5;17.30;76626;2835.715;-1759.707;1;321;-110;-112.9;43.0;43.3;15;15.3;25.8;0.0;
27/02/2025 06:04:18;100;0;315.25;-4;-19.78;-4.03;214.0;17.30;76621;2835.716;-1759.709;1;321;-110;-112.9;43.0;43.4;15;15.3;25.9;0.0;
27/02/2025 06:04:38;100;0;316.61;-4;-20.08;-4.02;216.5;17.30;76617;2835.718;-1759.711;1;321;-110;-111.3;43.0;43.3;15;15.3;25.9;0.0;
27/02/2025 06:04:58;100;0;318.29;-4;-20.06;-3.95;219.0;17.30;76612;2835.720;-1759.713;1;321;-110;-112.9;43.0;43.3;15;15.3;25.9;0.0;
27/02/2025 06:05:18;100;0;319.08;-4;-20.17;-3.91;221.8;17.20;76603;2835.722;-1759.715;1;321;-110;-111.3;43.0;43.3;15;15.3;25.8;0.0;
27/02/2025 06:05:38;100;0;316.79;-4;-20.13;-3.94;224.5;17.20;76583;2835.724;-1759.717;1;321;-110;-112.9;43.0;43.3;15;15.3;25.9;0.0;
27/02/2025 06:05:58;100;0;314.50;-4;-20.30;-3.96;227.3;17.20;76581;2835.726;-1759.720;1;321;-110;-112.9;43.0;43.4;15;15.3;25.9;0.0;
27/02/2025 06:06:18;100;0;312.45;-4;-20.13;-3.96;230.0;17.10;76583;2835.728;-1759.722;1;321;-110;-111.3;43.0;43.3;13;13.1;25.8;0.0;
27/02/2025 06:06:38;100;0;312.06;-4;-20.02;-5.32;232.9;17.10;76569;2835.730;-1759.725;1;321;-110;-111.3;43.0;43.3;13;12.2;25.9;0.0;
27/02/2025 06:06:58;100;0;312.98;-4;-19.95;-5.34;235.5;17.10;76565;2835.732;-1759.727;1;321;-110;-112.9;43.0;43.3;13;12.2;25.9;0.0;
27/02/2025 06:07:18;100;0;312.68;-4;-20.07;-5.32;238.2;17.00;76562;2835.734;-1759.729;1;321;-110;-112.9;43.0;43.3;13;12.6;25.9;0.0;
27/02/2025 06:07:38;100;0;312.34;-4;-19.55;-5.61;241.0;17.00;76559;2835.736;-1759.732;1;321;-110;-112.9;43.0;43.4;13;12.6;25.9;0.0;
27/02/2025 06:07:58;100;0;313.47;-4;-19.57;-5.35;243.6;17.00;76547;2835.738;-1759.734;1;321;-110;-112.9;43.0;43.3;13;12.6;25.8;0.0;
27/02/2025 06:08:18;100;0;314.30;-4;-19.84;-5.40;246.3;17.00;76551;2835.740;-1759.736;1;321;-110;-112.9;43.0;43.3;13;12.2;25.8;0.0;
27/02/2025 06:08:39;100;0;315.00;-4;-19.65;-5.42;248.9;16.90;76539;2835.741;-1759.739;1;321;-110;-111.3;43.0;43.3;13;12.6;25.9;0.0;
27/02/2025 06:08:59;100;0;317.85;-4;-19.87;-5.37;251.4;16.90;76543;2835.743;-1759.741;1;321;-110;-112.9;43.0;43.3;15;14.9;25.9;0.0;
27/02/2025 06:09:19;100;0;319.74;-4;-20.10;-3.80;254.2;16.80;76528;2835.746;-1759.743;1;321;-110;-112.9;43.0;43.3;15;15.3;25.9;0.0;
27/02/2025 06:09:39;100;0;321.40;-4;-20.07;-3.98;256.9;16.80;76532;2835.748;-1759.745;1;321;-110;-114.5;43.0;43.3;15;15.3;25.9;0.0;
27/02/2025 06:09:59;100;0;322.89;-4;-20.30;-3.87;259.7;16.80;76530;2835.750;-1759.747;1;321;-110;-112.9;43.0;43.4;15;15.3;25.9;0.0;
27/02/2025 06:10:19;100;0;318.00;-4;-20.05;-3.90;262.6;16.80;76524;2835.752;-1759.749;1;321;-110;-111.3;43.0;43.3;15;15.3;25.9;0.0;
27/02/2025 06:10:39;100;0;317.53;-4;-19.92;-3.84;265.3;16.70;76516;2835.754;-1759.751;1;321;-110;-112.9;43.0;43.3;15;15.3;25.9;0.0;
27/02/2025 06:10:59;100;0;317.46;-4;-19.89;-3.89;268.2;16.70;76506;2835.757;-1759.754;1;321;-110;-116.1;43.0;43.3;15;15.3;25.9;0.0;
27/02/2025 06:11:19;100;0;314.40;-4;-19.74;-3.80;270.8;16.70;76495;2835.759;-1759.756;1;321;-110;-111.3;43.0;43.4;15;15.3;25.8;0.0;
27/02/2025 06:11:39;100;0;311.86;-4;-19.64;-3.78;273.5;16.70;76492;2835.760;-1759.758;1;321;-110;-111.3;43.0;43.3;12;12.2;25.9;0.0;
27/02/2025 06:11:59;100;0;312.81;-4;-19.58;-5.72;276.1;16.60;76485;2835.762;-1759.761;1;321;-110;-112.9;43.0;43.4;12;11.7;25.9;0.0;
27/02/2025 06:12:19;100;0;315.26;-4;-19.39;-5.74;278.6;16.60;76486;2835.764;-1759.763;1;321;-110;-111.3;43.0;43.3;14;14.4;25.8;0.0;
27/02/2025 06:12:39;100;0;319.06;-4;-19.66;-4.29;281.3;16.60;76479;2835.766;-1759.765;1;321;-110;-111.3;43.0;43.3;14;14.4;25.9;0.0;
27/02/2025 06:12:59;100;0;322.26;-4;-19.65;-4.26;284.1;16.50;76469;2835.768;-1759.767;1;321;-110;-111.3;43.0;43.3;14;14.4;25.9;0.0;
27/02/2025 06:13:19;100;0;320.59;-4;-19.47;-4.17;286.5;16.50;76452;2835.770;-1759.769;1;321;-110;-111.3;43.0;43.3;14;14.4;25.9;0.0;
27/02/2025 06:13:39;100;0;321.52;-4;-19.49;-4.19;288.9;16.50;76452;2835.772;-1759.771;1;321;-110;-111.3;43.0;43.3;14;14.4;25.9;0.0;
27/02/2025 06:13:59;100;0;318.10;-4;-19.55;-4.17;291.3;16.50;76448;2835.774;-1759.773;1;321;-110;-111.3;43.0;43.3;14;14.4;25.9;0.0;
27/02/2025 06:14:19;100;0;316.24;-4;-19.66;-4.27;293.7;16.40;76443;2835.776;-1759.775;1;321;-110;-112.9;43.0;43.3;14;14.4;25.9;0.0;
27/02/2025 06:14:39;100;0;316.78;-4;-19.58;-4.21;296.3;16.40;76432;2835.778;-1759.777;1;321;-110;-112.9;43.0;43.3;14;14.4;25.9;0.0;
27/02/2025 06:14:59;100;0;317.20;-4;-19.71;-4.20;298.7;16.40;76424;2835.780;-1759.779;1;321;-110;-112.9;43.0;43.3;14;14.4;25.9;0.0;
27/02/2025 06:15:19;100;0;314.85;-4;-19.52;-4.24;301.0;16.30;76409;2835.781;-1759.780;1;321;-110;-111.3;43.0;43.3;14;14.4;25.9;0.0;
27/02/2025 06:15:39;100;0;315.36;-4;-20.14;-4.16;303.5;16.30;76410;2835.783;-1759.783;1;321;-110;-111.3;43.0;43.4;14;14.4;25.9;0.0;
27/02/2025 06:15:59;100;0;315.03;-4;-19.98;-4.13;306.0;16.30;76403;2835.785;-1759.785;1;321;-110;-112.9;43.0;43.4;14;14.4;25.9;0.0;
27/02/2025 06:16:19;100;0;315.30;-4;-19.77;-4.31;308.3;16.20;76396;2835.786;-1759.787;1;321;-110;-112.9;43.0;43.3;14;14.4;25.9;0.0;
27/02/2025 06:16:39;100;0;314.36;-4;-19.82;-4.19;310.8;16.20;76392;2835.788;-1759.789;1;321;-110;-111.3;43.0;43.3;14;14.4;25.9;0.0;
27/02/2025 06:16:59;100;0;315.98;-4;-19.71;-4.38;313.2;16.20;76383;2835.790;-1759.791;1;321;-110;-111.3;43.0;43.4;14;14.4;25.9;0.0;
27/02/2025 06:17:19;100;0;313.59;-4;-20.23;-4.37;315.6;16.20;76385;2835.791;-1759.793;1;321;-110;-112.9;43.0;43.3;14;14.4;25.8;0.0;
27/02/2025 06:17:39;100;0;314.45;-4;-19.90;-4.13;318.1;16.10;76380;2835.793;-1759.795;1;321;-110;-111.3;43.0;43.3;14;14.4;25.9;0.0;
27/02/2025 06:17:59;100;0;315.24;-4;-19.90;-4.20;320.4;16.10;76377;2835.795;-1759.797;1;321;-110;-111.3;43.0;43.3;14;14.4;25.9;0.0;
27/02/2025 06:18:19;100;0;315.96;-4;-20.02;-4.17;322.8;16.10;76372;2835.796;-1759.799;1;321;-110;-112.9;43.0;43.3;14;14.4;25.9;0.0;
27/02/2025 06:18:39;100;0;316.48;-4;-20.03;-4.18;325.4;16.00;76371;2835.798;-1759.801;1;321;-110;-112.9;43.0;43.3;14;14.4;25.9;0.0;
27/02/2025 06:18:59;100;0;315.38;-4;-20.14;-4.23;327.7;16.00;76358;2835.800;-1759.803;1;321;-110;-112.9;43.0;43.3;14;14.4;25.9;0.0;
27/02/2025 06:19:19;100;0;313.44;-4;-20.10;-4.20;330.2;16.00;76360;2835.802;-1759.805;1;321;-110;-111.3;43.0;43.3;14;14.9;25.9;0.0;
27/02/2025 06:19:39;100;0;311.30;-4;-20.00;-4.24;332.7;16.00;76366;2835.803;-1759.807;1;321;-110;-112.9;43.0;43.3;12;12.2;25.8;0.0;
27/02/2025 06:19:59;100;0;309.28;-4;-19.84;-5.59;335.1;15.90;76342;2835.805;-1759.809;1;321;-110;-112.9;43.0;43.3;10;9.9;25.9;0.0;
27/02/2025 06:20:19;100;0;309.38;-4;-19.41;-6.69;337.4;15.90;76341;2835.806;-1759.812;1;321;-110;-112.9;43.0;43.3;10;9.5;25.8;0.0;
27/02/2025 06:20:39;100;0;309.29;-4;-19.49;-6.82;339.5;15.90;76335;2835.807;-1759.814;1;321;-110;-111.3;43.0;43.3;10;9.5;25.9;0.0;
27/02/2025 06:20:59;100;0;310.83;-4;-19.47;-6.78;342.0;15.80;76327;2835.809;-1759.816;1;321;-110;-111.3;43.0;43.3;10;9.5;25.9;0.0;
27/02/2025 06:21:19;100;0;311.53;-4;-19.30;-6.79;344.2;15.80;76323;2835.811;-1759.818;1;321;-110;-112.9;43.0;43.3;12;12.2;25.9;0.0;
27/02/2025 06:21:39;100;0;310.73;-4;-19.46;-5.33;346.4;15.80;76316;2835.812;-1759.820;1;321;-110;-111.3;43.0;43.3;12;12.6;25.8;0.0;
27/02/2025 06:21:59;100;0;311.13;-4;-19.73;-5.33;348.8;15.80;76317;2835.813;-1759.822;1;321;-110;-112.9;43.0;43.3;12;12.6;25.9;0.0;
27/02/2025 06:22:19;100;0;312.65;-4;-19.46;-5.30;351.1;15.70;76313;2835.815;-1759.824;1;321;-110;-111.3;43.0;43.3;12;12.6;25.9;0.0;
27/02/2025 06:22:39;100;0;315.11;-4;-19.17;-5.28;353.2;15.70;76303;2835.817;-1759.826;1;321;-110;-112.9;43.0;43.3;12;12.6;25.9;0.0;
27/02/2025 06:22:59;100;0;317.58;-4;-19.13;-5.31;355.3;15.70;76296;2835.818;-1759.828;1;321;-110;-111.3;43.0;43.3;14;14.0;25.9;0.0;
27/02/2025 06:23:19;100;0;319.47;-4;-19.28;-4.44;357.5;15.60;76288;2835.820;-1759.829;1;321;-110;-111.3;43.0;43.3;14;14.4;25.9;0.0;
27/02/2025 06:23:39;100;0;321.36;-4;-19.08;-4.31;359.8;15.60;76289;2835.822;-1759.831;1;321;-110;-112.9;43.0;43.3;14;14.4;25.9;0.0;
27/02/2025 06:23:59;100;0;322.33;-4;-19.43;-4.40;361.9;15.60;76280;2835.823;-1759.833;1;321;-110;-114.5;43.0;43.4;14;14.4;25.9;0.0;
27/02/2025 06:24:19;100;0;323.08;-4;-19.37;-4.37;364.2;15.60;76279;2835.825;-1759.834;1;321;-110;-112.9;43.0;43.3;14;14.4;25.9;0.0;
27/02/2025 06:24:39;100;0;323.56;-4;-19.14;-4.41;366.4;15.50;76274;2835.827;-1759.836;1;321;-110;-111.3;43.0;43.3;14;14.4;25.9;0.0;
27/02/2025 06:24:59;100;0;324.21;-4;-19.26;-4.36;368.6;15.50;76278;2835.829;-1759.837;1;321;-110;-112.9;43.0;43.3;14;14.4;25.8;0.0;
27/02/2025 06:25:19;100;0;323.09;-4;-19.43;-4.45;370.8;15.50;76277;2835.831;-1759.839;1;321;-110;-112.9;43.0;43.3;14;14.4;25.9;0.0;
27/02/2025 06:25:39;100;0;320.77;-4;-19.06;-4.39;373.1;15.50;76267;2835.833;-1759.840;1;321;-110;-112.9;43.0;43.3;14;14.4;25.9;0.0;
27/02/2025 06:25:59;100;0;321.21;-4;-19.26;-4.41;375.2;15.40;76268;2835.835;-1759.842;1;321;-110;-112.9;43.0;43.4;14;14.4;25.8;0.0;
27/02/2025 06:26:19;100;0;319.92;-4;-19.32;-4.34;377.4;15.40;76255;2835.836;-1759.844;1;321;-110;-112.9;43.0;43.4;14;14.4;25.8;0.0;
27/02/2025 06:26:39;100;0;319.50;-4;-19.43;-4.38;379.7;15.40;76253;2835.838;-1759.845;1;321;-110;-111.3;43.0;43.3;14;14.4;25.9;0.0;
27/02/2025 06:26:59;100;0;319.62;-4;-19.45;-4.41;381.9;15.40;76252;2835.840;-1759.847;1;321;-110;-114.5;43.0;43.3;14;14.4;25.9;0.0;
27/02/2025 06:27:19;100;0;320.40;-4;-19.48;-4.41;384.3;15.30;76243;2835.842;-1759.849;1;321;-110;-111.3;43.0;43.4;14;14.4;25.9;0.0;
27/02/2025 06:27:39;100;0;319.59;-4;-19.47;-4.46;386.8;15.30;76234;2835.844;-1759.851;1;321;-110;-112.9;43.0;43.3;14;14.4;25.9;0.0;
27/02/2025 06:27:59;100;0;318.50;-4;-19.46;-4.37;389.1;15.30;76232;2835.846;-1759.853;1;321;-110;-112.9;43.0;43.3;14;14.4;25.9;0.0;
27/02/2025 06:28:19;100;0;321.19;-4;-19.46;-4.42;391.5;15.30;76236;2835.848;-1759.854;1;321;-110;-112.9;43.0;43.3;14;14.4;25.9;0.0;
27/02/2025 06:28:39;100;0;324.18;-4;-19.40;-4.36;394.0;15.20;76228;2835.850;-1759.856;1;321;-110;-112.9;43.0;43.3;14;14.4;25.9;0.0;
27/02/2025 06:28:59;100;0;324.12;-4;-19.48;-4.38;396.3;15.20;76222;2835.852;-1759.858;1;321;-110;-111.3;43.0;43.3;14;14.4;25.9;0.0;
27/02/2025 06:29:19;100;0;324.30;-4;-19.52;-4.37;399.0;15.20;76223;2835.854;-1759.860;1;321;-110;-111.3;43.0;43.3;14;14.4;25.9;0.0;
27/02/2025 06:29:39;100;0;323.26;-4;-19.39;-4.37;401.5;15.20;76218;2835.856;-1759.861;1;321;-110;-114.5;43.0;43.3;14;14.4;25.9;0.0;
27/02/2025 06:29:59;100;0;322.46;-4;-19.37;-4.37;403.9;15.10;76208;2835.858;-1759.863;1;321;-110;-112.9;43.0;43.3;14;14.4;25.8;0.0;
27/02/2025 06:30:19;100;0;321.96;-4;-19.21;-4.40;406.4;15.10;76204;2835.860;-1759.865;1;321;-110;-112.9;43.0;43.4;14;14.4;25.9;0.0;
27/02/2025 06:30:39;100;0;321.59;-4;-19.52;-4.39;408.8;15.10;76196;2835.862;-1759.867;1;321;-110;-112.9;43.0;43.3;14;14.4;25.9;0.0;
27/02/2025 06:30:59;100;0;323.08;-4;-19.37;-4.41;411.4;15.10;76192;2835.865;-1759.869;1;321;-110;-111.3;43.0;43.3;14;14.4;25.8;0.0;
27/02/2025 06:31:19;100;0;323.75;-4;-19.38;-4.37;413.9;15.00;76180;2835.867;-1759.870;1;321;-110;-112.9;43.0;43.4;14;14.4;25.8;0.0;
27/02/2025 06:31:39;100;0;324.51;-4;-19.29;-4.40;416.4;15.00;76183;2835.869;-1759.872;1;321;-110;-112.9;43.0;43.3;14;14.4;25.9;0.0;
27/02/2025 06:31:59;100;0;325.19;-4;-19.33;-4.38;418.8;15.00;76182;2835.871;-1759.874;1;321;-110;-112.9;43.0;43.3;14;14.4;25.8;0.0;
27/02/2025 06:32:19;100;0;327.47;-4;-19.20;-4.36;421.5;15.00;76177;2835.874;-1759.875;1;321;-110;-111.3;43.0;43.3;14;14.4;25.9;0.0;
27/02/2025 06:32:39;100;0;330.83;-4;-19.07;-4.38;423.8;15.00;76172;2835.876;-1759.877;1;321;-110;-112.9;43.0;43.3;17;17.1;25.9;0.0;
27/02/2025 06:32:59;100;0;331.00;-4;-19.53;-2.73;426.2;14.90;76160;2835.878;-1759.878;1;321;-110;-112.9;43.0;43.3;17;17.6;25.9;0.0;
27/02/2025 06:33:19;100;0;330.41;-4;-19.38;-2.77;428.7;14.90;76160;2835.880;-1759.879;1;321;-110;-112.9;43.0;43.3;17;17.6;25.9;0.0;
27/02/2025 06:33:39;100;0;331.05;-4;-19.53;-2.76;431.3;14.90;76153;2835.883;-1759.881;1;321;-110;-112.9;43.0;43.4;17;17.6;25.9;0.0;
27/02/2025 06:33:59;100;0;331.35;-4;-19.32;-2.77;433.9;14.90;76148;2835.885;-1759.882;1;321;-110;-111.3;43.0;43.3;17;17.6;25.9;0.0;
27/02/2025 06:34:19;100;0;331.68;-4;-19.30;-2.79;436.5;14.80;76145;2835.888;-1759.883;1;321;-110;-111.3;43.0;43.3;17;17.6;25.9;0.0;
27/02/2025 06:34:39;100;0;331.66;-4;-19.25;-2.79;439.0;14.80;76133;2835.890;-1759.885;1;321;-110;-112.9;43.0;43.3;17;17.6;25.9;0.0;
27/02/2025 06:34:59;100;0;333.15;-4;-19.29;-2.77;441.5;14.80;76128;2835.893;-1759.886;1;321;-110;-112.9;43.0;43.3;20;19.9;25.8;0.0;
27/02/2025 06:35:19;100;0;331.77;-4;-19.17;-1.45;444.0;14.80;76127;2835.895;-1759.887;1;321;-110;-111.3;43.0;43.3;18;18.1;25.9;0.0;
27/02/2025 06:35:39;100;0;328.46;-4;-19.59;-2.85;446.6;14.70;76119;2835.897;-1759.889;1;321;-110;-112.9;43.0;43.3;16;15.8;25.8;0.0;
27/02/2025 06:35:59;100;0;326.63;-4;-19.50;-3.77;449.2;14.70;76117;2835.900;-1759.890;1;321;-110;-112.9;43.0;43.3;16;15.8;25.9;0.0;
27/02/2025 06:36:19;100;0;325.15;-4;-19.35;-3.76;451.9;14.70;76113;2835.902;-1759.892;1;321;-110;-111.3;43.0;43.3;16;15.8;25.9;0.0;
27/02/2025 06:36:39;100;0;323.59;-4;-19.33;-3.76;454.6;14.70;76111;2835.905;-1759.894;1;321;-110;-111.3;43.0;43.4;16;15.8;25.9;0.0;
27/02/2025 06:36:59;100;0;321.83;-4;-19.34;-3.73;457.3;14.60;76102;2835.907;-1759.896;1;321;-110;-112.9;43.0;43.3;16;15.8;25.9;0.0;
27/02/2025 06:37:19;100;0;320.84;-4;-19.36;-3.78;460.2;14.60;76098;2835.909;-1759.899;1;321;-110;-112.9;43.0;43.3;16;15.8;25.9;0.0;
27/02/2025 06:37:39;100;0;319.72;-4;-19.22;-3.71;463.0;14.60;76099;2835.912;-1759.901;1;321;-110;-111.3;43.0;43.3;16;15.8;25.9;0.0;
27/02/2025 06:37:59;100;0;318.38;-4;-19.28;-3.73;465.8;14.60;76100;2835.914;-1759.903;1;321;-110;-111.3;43.0;43.3;16;15.8;25.9;0.0;
27/02/2025 06:38:19;100;0;317.94;-4;-19.48;-3.76;468.7;14.60;76098;2835.916;-1759.906;1;321;-110;-111.3;43.0;43.3;16;15.8;25.9;0.0;
27/02/2025 06:38:39;100;0;317.19;-4;-19.42;-3.72;471.5;14.50;76079;2835.919;-1759.908;1;321;-110;-111.3;43.0;43.4;14;14.0;25.8;0.0;
27/02/2025 06:38:59;100;0;315.28;-4;-19.17;-4.76;474.5;14.50;76067;2835.921;-1759.911;1;321;-110;-111.3;43.0;43.3;14;13.5;25.9;0.0;
27/02/2025 06:39:19;100;0;313.38;-4;-19.00;-4.80;477.4;14.50;76068;2835.923;-1759.913;1;321;-110;-111.3;43.3;43.3;14;13.5;25.8;0.0;
27/02/2025 06:39:39;100;0;311.13;-4;-19.07;-4.81;480.3;14.50;76074;2835.925;-1759.916;1;321;-110;-112.9;43.3;43.3;12;12.2;25.9;0.0;
27/02/2025 06:39:59;100;0;310.11;-4;-18.90;-5.82;483.1;14.40;76064;2835.927;-1759.919;1;321;-110;-109.7;43.6;43.7;12;11.7;25.9;0.0;
27/02/2025 06:40:19;100;0;310.53;-4;-19.66;-5.80;486.0;14.40;76049;2835.929;-1759.922;1;321;-110;-111.3;43.6;43.9;12;11.7;25.8;0.0;
27/02/2025 06:40:39;100;0;308.14;-4;-19.91;-5.81;489.1;14.40;76049;2835.931;-1759.925;1;321;-110;-111.3;43.6;43.9;8;8.1;25.9;0.0;
27/02/2025 06:40:59;100;0;305.88;-4;-19.72;-7.77;492.1;14.40;76041;2835.933;-1759.928;1;321;-110;-111.3;43.6;43.9;5;4.5;25.9;0.0;
27/02/2025 06:41:19;100;0;307.02;-4;-19.61;-9.39;495.1;14.40;76046;2835.934;-1759.931;1;321;-110;-112.9;43.6;43.9;7;7.2;25.9;0.0;
27/02/2025 06:41:39;100;0;308.90;-4;-19.73;-7.73;498.1;14.30;76042;2835.936;-1759.934;1;321;-110;-111.3;43.6;43.9;9;9.0;25.9;0.0;
27/02/2025 06:41:59;100;0;311.83;-4;-19.91;-6.80;501.2;14.30;76030;2835.939;-1759.937;1;321;-110;-112.9;43.6;43.9;12;12.2;25.9;0.0;
27/02/2025 06:42:19;100;0;313.77;-4;-19.86;-5.21;504.3;14.30;76026;2835.941;-1759.940;1;321;-110;-111.3;43.6;43.9;12;12.6;25.8;0.0;
27/02/2025 06:42:39;100;0;314.69;-4;-20.00;-5.01;507.4;14.30;76029;2835.943;-1759.942;1;321;-110;-111.3;43.6;43.9;12;12.6;25.9;0.0;
27/02/2025 06:42:59;100;0;315.31;-4;-20.15;-5.23;510.4;14.20;76022;2835.945;-1759.945;1;321;-110;-111.3;43.6;43.9;14;14.0;25.9;0.0;
27/02/2025 06:43:19;100;0;315.84;-4;-20.12;-4.31;513.7;14.20;76018;2835.948;-1759.948;1;321;-110;-114.5;43.6;43.9;14;14.4;25.9;0.0;
27/02/2025 06:43:40;100;0;316.96;-4;-20.18;-4.30;516.9;14.20;76027;2835.950;-1759.951;1;321;-110;-112.9;43.6;43.9;14;14.4;25.9;0.0;
27/02/2025 06:44:00;100;0;318.15;-4;-20.33;-4.33;520.2;14.20;76010;2835.953;-1759.953;1;321;-110;-111.3;43.6;43.9;14;14.4;25.8;0.0;
27/02/2025 06:44:20;100;0;319.75;-4;-20.37;-4.30;523.5;14.10;76015;2835.956;-1759.956;1;321;-110;-112.9;43.6;43.9;14;14.4;25.9;0.0;
27/02/2025 06:44:40;100;0;318.56;-4;-20.12;-4.31;526.8;14.10;76007;2835.958;-1759.959;1;321;-110;-112.9;43.6;44.0;14;14.4;25.9;0.0;
27/02/2025 06:45:00;100;0;315.63;-4;-19.98;-4.34;530.2;14.10;75996;2835.961;-1759.962;1;321;-110;-111.3;43.6;43.9;14;14.4;25.9;0.0;
27/02/2025 06:45:20;100;0;315.39;-4;-19.89;-4.29;533.5;14.10;75986;2835.964;-1759.964;1;321;-110;-112.9;43.6;43.9;14;14.4;25.9;0.0;
27/02/2025 06:45:40;100;0;317.58;-4;-20.17;-4.28;536.7;14.10;75994;2835.966;-1759.967;1;321;-110;-111.3;43.6;43.9;14;14.4;25.8;0.0;
27/02/2025 06:46:00;100;0;320.10;-4;-20.13;-4.25;540.0;14.00;75981;2835.969;-1759.970;1;321;-110;-111.3;43.6;43.9;14;14.4;25.9;0.0;
27/02/2025 06:46:20;100;0;322.42;-4;-20.11;-4.29;543.4;14.00;75984;2835.972;-1759.972;1;321;-110;-112.9;43.6;43.9;14;14.4;25.9;0.0;
27/02/2025 06:46:40;100;0;323.78;-4;-19.77;-4.35;546.7;14.00;75971;2835.975;-1759.975;1;321;-110;-111.3;43.6;43.9;14;14.4;25.9;0.0;
27/02/2025 06:47:00;100;0;325.11;-4;-19.68;-4.28;549.9;14.00;75967;2835.978;-1759.977;1;321;-110;-112.9;43.6;43.9;14;14.4;25.9;0.0;
27/02/2025 06:47:20;100;0;326.61;-4;-19.77;-4.34;553.2;13.90;75976;2835.981;-1759.979;1;321;-110;-112.9;43.6;43.9;14;14.4;25.8;0.0;
27/02/2025 06:47:40;100;0;327.47;-4;-20.11;-4.38;556.4;13.90;75961;2835.984;-1759.981;1;321;-110;-111.3;43.6;43.9;14;14.4;25.9;0.0;
27/02/2025 06:48:00;100;0;330.69;-4;-19.56;-4.38;559.7;13.90;75956;2835.987;-1759.983;1;321;-110;-111.3;43.6;43.9;17;17.1;25.8;0.0;
27/02/2025 06:48:20;100;0;331.96;-4;-19.79;-2.79;562.8;13.90;75955;2835.990;-1759.985;1;321;-110;-112.9;43.6;43.9;17;17.6;25.9;0.0;
27/02/2025 06:48:40;100;0;330.92;-4;-19.78;-2.87;566.0;13.90;75953;2835.993;-1759.986;1;321;-110;-112.9;43.6;43.9;17;17.6;25.8;0.0;
27/02/2025 06:49:00;100;0;329.53;-4;-19.76;-2.89;569.2;13.80;75948;2835.996;-1759.988;1;321;-110;-112.9;43.6;43.9;17;17.6;25.9;0.0;
27/02/2025 06:49:20;100;0;329.95;-4;-19.90;-2.88;572.4;13.80;75941;2835.999;-1759.990;1;321;-110;-112.9;43.6;43.9;17;17.6;25.9;0.0;
27/02/2025 06:49:40;100;0;330.40;-4;-19.71;-2.83;575.5;13.80;75939;2836.002;-1759.992;1;321;-110;-111.3;43.6;43.9;17;17.6;25.8;0.0;
27/02/2025 06:50:00;100;0;331.34;-4;-19.74;-2.82;578.7;13.80;75930;2836.005;-1759.994;1;321;-110;-114.5;43.6;43.9;17;17.6;25.9;0.0;
27/02/2025 06:50:20;100;0;332.27;-4;-19.83;-2.89;581.9;13.80;75941;2836.008;-1759.995;1;321;-110;-111.3;43.6;43.9;19;19.0;25.9;0.0;
27/02/2025 06:50:40;100;0;329.94;-4;-20.00;-1.93;584.9;13.70;75927;2836.011;-1759.997;1;321;-110;-112.9;43.6;43.9;17;17.1;25.9;0.0;
27/02/2025 06:51:00;100;0;329.62;-4;-19.75;-3.30;588.2;13.70;75927;2836.014;-1759.999;1;321;-110;-111.3;43.6;43.9;17;16.7;25.9;0.0;
27/02/2025 06:51:20;100;0;329.22;-4;-19.66;-3.33;591.2;13.70;75911;2836.017;-1800.001;1;321;-110;-112.9;43.6;44.0;17;16.7;25.8;0.0;
27/02/2025 06:51:40;100;0;329.69;-4;-20.06;-3.35;594.1;13.70;75917;2836.020;-1800.003;1;321;-110;-111.3;43.6;43.9;17;16.7;25.8;0.0;
27/02/2025 06:52:00;100;0;329.42;-4;-20.15;-3.27;597.2;13.60;75908;2836.023;-1800.004;1;321;-110;-112.9;43.6;43.9;17;16.7;25.9;0.0;
27/02/2025 06:52:20;100;0;329.69;-4;-20.26;-3.19;600.3;13.60;75903;2836.026;-1800.006;1;321;-110;-112.9;43.6;43.9;17;16.7;25.9;0.0;
27/02/2025 06:52:40;100;0;328.35;-4;-20.22;-3.31;603.3;13.60;75895;2836.028;-1800.008;1;321;-110;-111.3;43.6;43.9;17;16.7;25.9;0.0;
27/02/2025 06:53:00;100;0;327.67;-4;-20.00;-3.24;606.3;13.60;75884;2836.031;-1800.010;1;321;-110;-111.3;43.6;44.0;17;16.7;25.9;0.0;
27/02/2025 06:53:20;100;0;326.17;-4;-20.01;-3.24;609.1;13.50;75893;2836.034;-1800.012;1;321;-110;-112.9;43.6;44.0;15;14.4;25.9;0.0;
27/02/2025 06:53:40;100;0;325.41;-4;-19.89;-4.44;612.1;13.50;75893;2836.036;-1800.014;1;321;-110;-114.5;43.6;44.0;15;14.4;25.9;0.0;
27/02/2025 06:54:00;100;0;324.99;-4;-19.93;-4.48;614.9;13.50;75886;2836.039;-1800.016;1;321;-110;-112.9;43.6;43.9;15;14.4;25.9;0.0;
27/02/2025 06:54:20;100;0;323.79;-4;-19.92;-4.48;617.7;13.50;75888;2836.041;-1800.018;1;321;-110;-112.9;43.6;43.9;15;14.4;25.8;0.0;
27/02/2025 06:54:40;100;0;322.81;-4;-19.76;-4.46;620.6;13.50;75888;2836.044;-1800.020;1;321;-110;-111.3;43.6;43.9;15;14.4;25.8;0.0;
27/02/2025 06:55:00;100;0;321.92;-4;-19.76;-4.49;623.3;13.40;75879;2836.046;-1800.022;1;321;-110;-112.9;43.6;43.9;15;14.4;25.9;0.0;
27/02/2025 06:55:20;100;0;319.94;-4;-19.83;-4.52;626.0;13.40;75877;2836.048;-1800.024;1;321;-110;-112.9;43.6;43.9;15;14.4;25.9;0.0;
27/02/2025 06:55:40;100;0;316.25;-4;-19.77;-4.55;628.8;13.40;75878;2836.050;-1800.026;1;321;-110;-112.9;43.6;43.9;15;14.4;25.9;0.0;
27/02/2025 06:56:00;100;0;310.72;-4;-20.96;-4.84;631.6;13.40;75879;2836.052;-1800.029;1;321;-110;-112.9;43.6;44.0;11;10.8;25.9;0.0;
27/02/2025 06:56:20;100;0;310.38;-4;-19.59;-6.27;634.4;13.40;75871;2836.054;-1800.031;1;321;-110;-111.3;43.6;43.9;11;10.8;25.8;0.0;
27/02/2025 06:56:40;100;0;304.55;-4;-19.78;-6.29;637.0;13.40;75870;2836.055;-1800.034;1;321;-110;-114.5;43.6;43.9;4;4.1;25.9;0.0;
27/02/2025 06:57:00;100;0;308.22;-4;-18.97;-9.61;639.6;13.30;75865;2836.057;-1800.036;1;321;-110;-112.9;43.9;43.9;9;9.0;25.9;0.0;
27/02/2025 06:57:20;100;0;308.63;-4;-19.47;-7.03;642.3;13.30;75861;2836.058;-1800.039;1;321;-110;-112.9;43.9;44.0;9;9.5;25.8;0.0;
27/02/2025 06:57:40;100;0;309.87;-4;-18.35;-6.99;645.0;13.30;75856;2836.060;-1800.042;1;321;-110;-112.9;44.4;44.5;9;9.5;25.9;0.0;
27/02/2025 06:58:00;100;0;308.22;-4;-20.87;-6.79;647.5;13.30;75868;2836.062;-1800.044;1;321;-110;-111.3;44.4;44.6;9;9.5;25.9;0.0;
27/02/2025 06:58:20;100;0;310.69;-4;-20.70;-6.58;650.2;13.30;75860;2836.063;-1800.047;1;321;-110;-111.3;44.4;44.6;11;10.8;25.9;0.0;
27/02/2025 06:58:40;100;0;315.57;-4;-20.49;-5.97;652.9;13.20;75839;2836.065;-1800.049;1;321;-110;-112.9;44.4;44.8;14;14.0;25.9;0.0;
27/02/2025 06:59:00;100;0;318.84;-4;-20.82;-4.31;655.6;13.20;75843;2836.067;-1800.051;1;321;-110;-111.3;44.4;44.6;14;14.4;25.9;0.0;
27/02/2025 06:59:20;100;0;320.15;-4;-20.87;-4.32;658.4;13.20;75822;2836.069;-1800.053;1;321;-110;-111.3;44.4;44.6;14;14.4;25.8;0.0;
27/02/2025 06:59:40;100;0;321.46;-4;-20.77;-4.33;661.0;13.20;75825;2836.072;-1800.055;1;321;-110;-112.9;44.4;44.6;14;14.4;25.9;0.0;
27/02/2025 07:00:00;100;0;323.84;-4;-20.74;-4.39;663.7;13.20;75815;2836.074;-1800.056;1;321;-110;-111.3;44.4;44.6;14;14.4;25.9;0.0;
27/02/2025 07:00:20;100;0;325.54;-4;-21.01;-4.48;666.4;13.10;75810;2836.076;-1800.058;1;321;-110;-111.3;44.4;44.6;14;14.4;25.9;0.0;
27/02/2025 07:00:40;100;0;327.06;-4;-21.00;-4.32;668.9;13.10;75806;2836.078;-1800.060;1;321;-110;-112.9;44.4;44.6;14;14.4;25.8;0.0;
27/02/2025 07:01:00;100;0;329.81;-4;-20.46;-4.40;671.5;13.10;75804;2836.080;-1800.061;1;321;-110;-112.9;44.4;44.6;17;17.1;25.9;0.0;
27/02/2025 07:01:20;100;0;332.67;-4;-21.07;-2.88;674.1;13.10;75794;2836.083;-1800.062;1;321;-110;-112.9;44.4;44.6;19;19.0;25.9;0.0;
27/02/2025 07:01:40;100;0;333.69;-4;-21.41;-2.06;676.9;13.10;75791;2836.085;-1800.063;1;321;-110;-112.9;44.4;44.6;19;19.4;25.9;0.0;
27/02/2025 07:02:00;100;0;335.44;-4;-21.34;-1.90;679.6;13.00;75788;2836.088;-1800.065;1;321;-110;-111.3;44.4;44.6;23;23.0;25.9;0.0;
27/02/2025 07:02:20;100;0;332.95;-4;-21.32;0.07;682.4;13.00;75785;2836.091;-1800.066;1;321;-110;-112.9;44.4;44.6;20;19.9;25.9;0.0;
27/02/2025 07:02:40;100;0;330.92;-4;-21.11;-1.83;685.0;13.00;75785;2836.093;-1800.067;1;321;-110;-111.3;44.4;44.6;18;17.6;25.9;0.0;
27/02/2025 07:03:00;100;0;331.63;-4;-21.23;-2.71;687.8;13.00;75769;2836.095;-1800.069;1;321;-110;-112.9;44.4;44.6;18;18.1;25.8;0.0;
27/02/2025 07:03:20;100;0;332.53;-4;-21.28;-2.68;690.6;13.00;75764;2836.098;-1800.070;1;321;-110;-111.3;44.4;44.8;18;18.1;25.9;0.0;
27/02/2025 07:03:40;100;0;329.79;-4;-21.01;-2.87;693.5;12.90;75755;2836.101;-1800.072;1;321;-110;-112.9;44.4;44.6;18;18.1;25.9;0.0;
27/02/2025 07:04:00;100;0;325.37;-4;-21.05;-2.78;696.3;12.90;75755;2836.103;-1800.073;1;321;-110;-111.3;44.4;44.6;15;14.9;25.8;0.0;
27/02/2025 07:04:20;100;0;323.12;-4;-21.02;-4.51;699.0;12.90;75743;2836.105;-1800.075;1;321;-110;-111.3;44.4;44.6;15;14.4;25.8;0.0;
27/02/2025 07:04:40;100;0;321.39;-4;-21.32;-4.56;702.1;12.90;75747;2836.108;-1800.077;1;321;-110;-111.3;44.4;44.8;15;14.4;25.9;0.0;
27/02/2025 07:05:00;100;0;320.05;-4;-21.27;-4.36;705.0;12.80;75743;2836.110;-1800.079;1;321;-110;-111.3;44.4;44.6;15;14.4;25.9;0.0;
27/02/2025 07:05:20;100;0;318.54;-4;-21.22;-4.41;708.0;12.80;75731;2836.112;-1800.082;1;321;-110;-112.9;44.4;44.6;15;14.4;25.9;0.0;
27/02/2025 07:05:40;100;0;315.90;-4;-21.04;-4.45;710.8;12.80;75729;2836.114;-1800.084;1;321;-110;-112.9;44.4;44.8;15;14.4;25.9;0.0;
27/02/2025 07:06:00;100;0;313.10;-4;-21.20;-4.32;713.7;12.80;75719;2836.116;-1800.087;1;321;-110;-112.9;44.4;44.6;13;13.1;25.8;0.0;
27/02/2025 07:06:20;100;0;313.76;-4;-20.96;-5.13;716.7;12.80;75719;2836.118;-1800.089;1;321;-110;-111.3;44.4;44.6;13;13.1;25.9;0.0;
27/02/2025 07:06:40;100;0;312.20;-4;-21.03;-5.15;719.6;12.70;75715;2836.120;-1800.092;1;321;-110;-112.9;44.4;44.6;13;13.1;25.8;0.0;
27/02/2025 07:07:00;100;0;305.98;-4;-20.73;-5.18;722.6;12.70;75711;2836.122;-1800.095;1;321;-110;-112.9;44.4;44.6;6;5.9;25.9;0.0;
27/02/2025 07:07:20;100;0;305.52;-4;-20.28;-8.98;725.5;12.70;75693;2836.123;-1800.098;1;321;-110;-111.3;44.4;44.8;6;5.0;25.9;0.0;
27/02/2025 07:07:40;100;0;308.35;-4;-20.07;-9.03;728.3;12.70;75694;2836.125;-1800.100;1;321;-110;-111.3;44.4;44.6;9;9.0;25.8;0.0;
27/02/2025 07:08:00;100;0;311.67;-4;-20.29;-6.95;731.0;12.60;75687;2836.127;-1800.103;1;321;-110;-111.3;44.4;44.6;12;12.2;25.9;0.0;
27/02/2025 07:08:20;100;0;313.94;-4;-20.45;-5.36;733.8;12.60;75670;2836.129;-1800.105;1;321;-110;-112.9;44.4;44.6;12;12.2;25.8;0.0;
27/02/2025 07:08:40;100;0;315.28;-4;-20.65;-5.40;736.6;12.60;75666;2836.131;-1800.108;1;321;-110;-112.9;44.4;44.6;14;14.4;25.9;0.0;
27/02/2025 07:09:00;100;0;316.68;-4;-20.48;-4.31;739.5;12.60;75667;2836.133;-1800.110;1;321;-110;-112.9;44.4;44.6;14;14.9;25.9;0.0;
27/02/2025 07:09:20;100;0;317.48;-4;-20.89;-4.37;742.4;12.50;75658;2836.135;-1800.112;1;321;-110;-111.3;44.4;44.6;14;14.9;25.8;0.0;
27/02/2025 07:09:40;100;0;318.73;-4;-20.46;-4.23;745.1;12.50;75661;2836.137;-1800.114;1;321;-110;-109.7;44.4;44.6;14;14.9;25.9;0.0;
27/02/2025 07:10:00;100;0;319.90;-4;-20.78;-4.28;748.1;12.50;75651;2836.140;-1800.117;1;321;-110;-112.9;44.4;44.6;14;14.9;25.8;0.0;
27/02/2025 07:10:20;100;0;321.20;-4;-20.72;-4.25;750.9;12.50;75646;2836.142;-1800.119;1;321;-110;-111.3;44.4;44.6;14;14.9;25.9;0.0;
27/02/2025 07:10:40;100;0;323.23;-4;-20.59;-4.24;753.8;12.50;75641;2836.144;-1800.121;1;321;-110;-111.3;44.4;44.6;14;14.9;25.9;0.0;
27/02/2025 07:11:00;100;0;325.31;-4;-20.51;-4.26;756.8;12.40;75643;2836.147;-1800.123;1;321;-110;-112.9;44.4;44.6;14;14.9;25.9;0.0;
27/02/2025 07:11:20;100;0;325.92;-4;-20.94;-4.29;759.6;12.40;75627;2836.149;-1800.124;1;321;-110;-111.3;44.4;44.6;14;14.9;25.8;0.0;
27/02/2025 07:11:40;100;0;324.27;-4;-20.90;-4.30;762.6;12.40;75624;2836.152;-1800.126;1;321;-110;-112.9;44.4;44.6;14;14.9;25.9;0.0;
27/02/2025 07:12:00;100;0;320.46;-4;-21.01;-4.32;765.6;12.40;75600;2836.154;-1800.129;1;321;-110;-111.3;44.4;44.6;14;14.9;25.9;0.0;
27/02/2025 07:12:20;100;0;319.04;-4;-20.78;-4.26;768.5;12.30;75599;2836.156;-1800.131;1;321;-110;-111.3;44.4;44.6;14;14.9;25.9;0.0;
27/02/2025 07:12:40;100;0;317.83;-4;-20.78;-4.30;771.5;12.30;75600;2836.158;-1800.133;1;321;-110;-111.3;44.4;44.8;14;14.9;25.8;0.0;
27/02/2025 07:13:00;100;0;317.28;-4;-20.73;-4.17;774.2;12.30;75588;2836.160;-1800.135;1;321;-110;-112.9;44.4;44.6;14;14.9;25.8;0.0;
27/02/2025 07:13:20;100;0;316.16;-4;-20.59;-4.29;777.1;12.30;75594;2836.162;-1800.138;1;321;-110;-111.3;44.4;44.6;14;14.9;25.9;0.0;
27/02/2025 07:13:40;100;0;314.75;-4;-20.91;-4.28;779.8;12.20;75585;2836.164;-1800.140;1;321;-110;-112.9;44.4;44.6;14;14.9;25.9;0.0;
27/02/2025 07:14:00;100;0;313.99;-4;-20.57;-4.28;782.5;12.20;75573;2836.166;-1800.142;1;321;-110;-112.9;44.4;44.6;14;14.9;25.9;0.0;
27/02/2025 07:14:20;100;0;312.00;-4;-20.66;-4.32;785.2;12.20;75578;2836.168;-1800.144;1;321;-110;-111.3;44.4;44.6;12;12.2;25.9;0.0;
27/02/2025 07:14:40;100;0;308.62;-4;-20.38;-5.85;787.9;12.20;75572;2836.170;-1800.147;1;321;-110;-111.3;44.4;44.6;9;9.0;25.9;0.0;
27/02/2025 07:15:00;100;0;308.64;-4;-20.17;-7.15;790.5;12.10;75559;2836.171;-1800.149;1;321;-110;-112.9;44.4;44.6;9;9.0;25.9;0.0;
27/02/2025 07:15:20;100;0;309.29;-4;-20.33;-7.21;793.0;12.10;75555;2836.173;-1800.152;1;321;-110;-112.9;44.4;44.6;9;9.0;25.9;0.0;
27/02/2025 07:15:40;100;0;312.80;-4;-20.27;-7.18;795.7;12.10;75558;2836.175;-1800.154;1;321;-110;-111.3;44.4;44.6;12;12.2;25.9;0.0;
27/02/2025 07:16:00;100;0;316.93;-4;-20.58;-5.40;798.2;12.10;75548;2836.176;-1800.156;1;321;-110;-112.9;44.4;44.6;14;14.0;25.9;0.0;
27/02/2025 07:16:20;100;0;315.09;-4;-21.22;-4.39;800.9;12.10;75530;2836.178;-1800.158;1;321;-110;-112.9;44.4;44.6;14;14.4;25.8;0.0;
27/02/2025 07:16:40;100;0;316.43;-4;-20.48;-4.50;803.8;12.00;75525;2836.180;-1800.161;1;321;-110;-111.3;44.4;44.6;14;14.0;25.9;0.0;
27/02/2025 07:17:00;100;0;318.60;-4;-20.84;-4.21;806.3;12.00;75516;2836.182;-1800.163;1;321;-110;-111.3;44.4;44.6;14;14.4;25.8;0.0;
27/02/2025 07:17:20;100;0;317.91;-4;-20.93;-4.84;808.9;12.00;75507;2836.184;-1800.165;1;321;-110;-111.3;44.4;44.6;14;14.4;25.8;0.0;
27/02/2025 07:17:40;100;0;326.65;-4;-19.42;-4.51;811.6;11.90;75490;2836.187;-1800.166;1;321;-110;-111.3;44.4;44.6;14;14.4;25.9;0.0;
27/02/2025 07:18:00;100;0;326.20;-4;-20.76;-4.57;814.1;11.90;75499;2836.189;-1800.168;1;321;-110;-111.3;44.4;44.6;14;14.0;25.9;0.0;
27/02/2025 07:18:20;100;0;328.93;-4;-20.32;-4.59;816.8;11.90;75481;2836.191;-1800.169;1;321;-110;-112.9;44.4;44.6;16;15.8;25.9;0.0;
27/02/2025 07:18:41;100;0;329.07;-4;-20.59;-3.46;819.3;11.90;75485;2836.193;-1800.171;1;321;-110;-112.9;44.4;44.6;16;16.7;25.9;0.0;
27/02/2025 07:19:01;100;0;329.21;-4;-20.52;-3.54;822.0;11.80;75484;2836.196;-1800.172;1;321;-110;-111.3;44.4;44.6;16;16.2;25.9;0.0;
27/02/2025 07:19:21;100;0;328.27;-4;-20.46;-3.47;824.5;11.80;75472;2836.198;-1800.174;1;321;-110;-111.3;44.4;44.6;16;16.7;25.9;0.0;
27/02/2025 07:19:41;100;0;327.99;-4;-20.44;-3.23;827.2;11.80;75476;2836.200;-1800.175;1;321;-110;-111.3;44.4;44.6;16;16.2;25.9;0.0;
27/02/2025 07:20:01;100;0;325.80;-4;-20.29;-3.54;829.9;11.80;75484;2836.203;-1800.177;1;321;-110;-112.9;44.4;44.8;16;16.7;25.9;0.0;
27/02/2025 07:20:21;100;0;325.22;-4;-20.47;-3.45;832.5;11.80;75472;2836.205;-1800.179;1;321;-110;-111.3;44.4;44.6;16;16.2;25.9;0.0;
27/02/2025 07:20:41;100;0;323.49;-4;-20.45;-3.54;835.1;11.70;75465;2836.207;-1800.181;1;321;-110;-112.9;44.4;44.6;14;14.0;25.9;0.0;
27/02/2025 07:21:01;100;0;322.79;-4;-20.35;-4.71;837.8;11.70;75466;2836.209;-1800.182;1;321;-110;-112.9;44.4;44.6;14;14.0;25.8;0.0;
27/02/2025 07:21:21;100;0;323.28;-4;-20.15;-4.70;840.5;11.70;75465;2836.212;-1800.184;1;321;-110;-111.3;44.4;44.6;14;14.0;25.9;0.0;
27/02/2025 07:21:41;100;0;325.14;-4;-20.31;-4.71;843.1;11.70;75455;2836.214;-1800.186;1;321;-110;-111.3;44.4;44.6;14;14.0;25.9;0.0;
27/02/2025 07:22:01;100;0;326.89;-4;-20.36;-4.66;845.8;11.70;75455;2836.216;-1800.188;1;321;-110;-112.9;44.4;44.6;14;14.0;25.8;0.0;
27/02/2025 07:22:21;100;0;329.46;-4;-20.23;-4.55;848.4;11.60;75448;2836.219;-1800.189;1;321;-110;-112.9;44.4;44.8;16;15.8;25.8;0.0;
27/02/2025 07:22:41;100;0;329.15;-4;-20.54;-3.56;851.2;11.60;75450;2836.221;-1800.191;1;321;-110;-111.3;44.4;44.6;16;16.2;25.9;0.0;
27/02/2025 07:23:01;100;0;330.87;-4;-20.30;-3.55;853.9;11.60;75440;2836.224;-1800.192;1;321;-110;-112.9;44.4;44.6;18;18.1;25.9;0.0;
27/02/2025 07:23:21;100;0;330.64;-4;-20.36;-2.52;856.7;11.50;75435;2836.226;-1800.194;1;321;-110;-112.9;44.4;44.6;18;18.5;25.9;0.0;
27/02/2025 07:23:41;100;0;330.77;-4;-20.30;-2.57;859.4;11.50;75436;2836.229;-1800.195;1;321;-110;-112.9;44.4;44.6;18;18.1;25.9;0.0;
27/02/2025 07:24:01;100;0;330.22;-4;-20.34;-2.54;862.2;11.50;75429;2836.231;-1800.197;1;321;-110;-111.3;44.4;44.6;18;18.5;25.9;0.0;
27/02/2025 07:24:21;100;0;328.31;-4;-20.24;-2.53;864.7;11.50;75433;2836.234;-1800.198;1;321;-110;-112.9;44.4;44.6;16;15.3;25.9;0.0;
27/02/2025 07:24:41;100;0;329.17;-4;-20.26;-4.09;867.5;11.50;75416;2836.236;-1800.200;1;321;-110;-111.3;44.4;44.6;16;15.3;25.8;0.0;
27/02/2025 07:25:01;100;0;329.02;-4;-20.30;-4.01;870.2;11.40;75408;2836.239;-1800.201;1;321;-110;-112.9;44.4;44.6;16;15.3;25.9;0.0;
27/02/2025 07:25:21;100;0;327.92;-4;-20.19;-4.01;872.8;11.40;75414;2836.241;-1800.203;1;321;-110;-112.9;44.4;44.8;16;15.3;25.9;0.0;
27/02/2025 07:25:41;100;0;327.80;-4;-20.20;-3.95;875.3;11.40;75404;2836.243;-1800.204;1;321;-110;-114.5;44.4;44.8;16;15.3;25.8;0.0;
27/02/2025 07:26:01;100;0;325.68;-4;-20.42;-3.99;877.7;11.40;75398;2836.245;-1800.206;1;321;-110;-112.9;44.4;44.8;16;15.3;25.9;0.0;
27/02/2025 07:26:21;100;0;322.65;-4;-20.26;-3.98;880.0;11.30;75391;2836.247;-1800.207;1;321;-110;-111.3;44.4;44.8;16;15.3;25.9;0.0;
27/02/2025 07:26:41;100;0;319.55;-4;-20.53;-4.08;882.3;11.30;75386;2836.249;-1800.209;1;321;-110;-112.9;44.4;44.6;16;15.3;25.8;0.0;
27/02/2025 07:27:01;100;0;318.07;-4;-20.58;-4.02;884.5;11.30;75382;2836.250;-1800.211;1;321;-110;-111.3;44.4;44.6;16;15.3;25.9;0.0;
27/02/2025 07:27:21;100;0;312.90;-4;-20.07;-4.07;886.6;11.30;75380;2836.252;-1800.212;1;321;-110;-114.5;44.4;44.6;13;13.1;25.8;0.0;
27/02/2025 07:27:41;100;0;308.09;-4;-19.85;-5.22;889.0;11.30;75376;2836.253;-1800.215;1;321;-110;-111.3;44.4;44.6;9;9.0;25.8;0.0;
27/02/2025 07:28:01;100;0;303.58;-4;-19.63;-7.45;891.0;11.20;75369;2836.254;-1800.217;1;321;-130;-130.6;44.4;44.6;2;1.8;25.9;0.0;
27/02/2025 07:28:21;100;0;299.32;-4;-19.96;-10.83;893.1;11.20;75413;2836.255;-1800.219;1;321;-130;-133.9;44.4;44.6;-5;-5.0;25.9;0.0;
27/02/2025 07:28:41;100;0;305.44;-4;-19.45;-14.22;895.7;11.20;75406;2836.256;-1800.221;1;321;-130;-132.3;44.4;44.6;5;5.4;25.9;0.0;
27/02/2025 07:29:01;100;0;312.06;-4;-20.08;-8.70;898.2;11.20;75401;2836.258;-1800.224;1;321;-130;-130.6;44.4;44.6;12;12.2;25.9;0.0;
27/02/2025 07:29:21;100;0;315.42;-4;-20.06;-5.50;901.0;11.20;75398;2836.260;-1800.226;1;321;-130;-133.9;44.4;44.6;14;14.0;25.8;0.0;
27/02/2025 07:29:41;100;0;313.30;-4;-20.23;-4.22;903.5;11.10;75391;2836.262;-1800.228;1;321;-130;-132.3;44.4;44.6;14;14.4;25.8;0.0;
27/02/2025 07:30:01;100;0;316.63;-4;-20.86;-4.43;906.2;11.10;75392;2836.264;-1800.230;1;321;-130;-133.9;44.4;44.8;14;14.4;25.9;0.0;
27/02/2025 07:30:21;100;0;318.92;-4;-21.52;-4.44;908.9;11.10;75387;2836.266;-1800.232;1;321;-130;-133.9;44.4;44.6;14;14.4;25.8;0.0;
27/02/2025 07:30:41;100;0;317.95;-4;-19.88;-4.66;912.2;11.10;75369;2836.268;-1800.235;1;321;-130;-133.9;44.4;44.6;14;14.4;25.9;0.0;
27/02/2025 07:31:01;100;0;315.63;-4;-17.57;-4.13;914.8;11.10;75367;2836.270;-1800.238;1;321;-130;-133.9;45.1;45.2;14;14.4;25.8;0.0;
27/02/2025 07:31:21;100;0;313.37;-4;-20.87;-4.46;917.0;11.00;75373;2836.272;-1800.239;1;321;-130;-132.3;45.1;45.4;14;14.4;25.9;0.0;
27/02/2025 07:31:41;100;0;314.82;-4;-21.32;-4.39;919.4;11.00;75361;2836.273;-1800.241;1;321;-130;-133.9;45.1;45.4;14;14.0;25.9;0.0;
27/02/2025 07:32:01;100;0;315.15;-4;-21.27;-4.36;922.1;11.00;75362;2836.275;-1800.243;1;321;-130;-133.9;45.1;45.4;14;14.4;25.9;0.0;
27/02/2025 07:32:21;100;0;312.41;-4;-21.73;-4.51;924.8;11.00;75355;2836.277;-1800.246;1;321;-130;-133.9;45.1;45.5;12;12.2;25.8;0.0;
27/02/2025 07:32:41;100;0;312.06;-4;-21.42;-5.60;927.5;10.90;75351;2836.278;-1800.248;1;321;-130;-133.9;45.1;45.4;12;12.2;25.9;0.0;
27/02/2025 07:33:01;100;0;313.27;-4;-23.01;-5.16;930.2;10.90;75342;2836.280;-1800.250;1;321;-130;-135.5;44.2;44.2;12;12.2;25.9;0.0;
27/02/2025 07:33:21;100;0;313.22;-4;-19.29;-5.50;932.9;10.90;75347;2836.282;-1800.253;1;321;-130;-137.1;44.2;44.0;12;11.7;25.9;0.0;
27/02/2025 07:33:41;100;0;315.28;-4;-19.11;-5.91;935.5;10.90;75349;2836.284;-1800.255;1;321;-130;-133.9;44.2;44.0;14;14.0;25.9;0.0;
27/02/2025 07:34:01;100;0;313.84;-4;-18.35;-4.66;938.0;10.90;75341;2836.286;-1800.257;1;321;-130;-132.3;44.7;44.8;14;14.9;25.8;0.0;
27/02/2025 07:34:21;100;0;317.77;-4;-20.17;-4.28;940.4;10.80;75337;2836.288;-1800.259;1;321;-130;-132.3;44.7;45.1;14;14.4;25.9;0.0;
27/02/2025 07:34:41;100;0;320.44;-4;-20.24;-4.21;943.2;10.80;75334;2836.290;-1800.261;1;321;-130;-132.3;44.7;44.9;14;14.4;25.9;0.0;
27/02/2025 07:35:01;100;0;320.88;-4;-21.20;-4.30;945.9;10.80;75336;2836.292;-1800.263;1;321;-130;-132.3;44.7;45.1;14;14.4;25.9;0.0;
27/02/2025 07:35:21;100;0;322.95;-4;-20.47;-4.37;948.7;10.80;75325;2836.294;-1800.265;1;321;-130;-132.3;44.7;45.1;14;14.4;25.9;0.0;
27/02/2025 07:35:41;100;0;323.19;-4;-20.53;-4.22;951.3;10.80;75326;2836.296;-1800.267;1;321;-130;-133.9;44.7;45.1;14;14.4;25.8;0.0;
27/02/2025 07:36:01;100;0;326.43;-4;-20.08;-4.25;954.0;10.80;75319;2836.299;-1800.269;1;321;-130;-133.9;44.7;45.1;14;14.4;25.9;0.0;
27/02/2025 07:36:21;100;0;327.06;-4;-19.85;-4.37;956.6;10.70;75314;2836.301;-1800.270;1;321;-130;-133.9;44.7;45.1;14;14.4;25.8;0.0;
27/02/2025 07:36:41;100;0;328.83;-4;-19.97;-4.23;959.0;10.70;75307;2836.303;-1800.272;1;321;-130;-133.9;44.7;45.1;16;15.8;25.9;0.0;
27/02/2025 07:37:01;100;0;327.42;-4;-22.20;-3.46;961.6;10.70;75300;2836.305;-1800.273;1;321;-130;-133.9;44.1;44.0;16;16.2;25.8;0.0;
27/02/2025 07:37:21;100;0;327.68;-4;-19.00;-3.53;964.2;10.70;75301;2836.308;-1800.275;1;321;-130;-132.3;44.1;43.9;16;16.2;25.8;0.0;
27/02/2025 07:37:41;100;0;322.07;-4;-17.23;-3.96;966.8;10.70;75288;2836.310;-1800.277;1;321;-130;-132.3;44.9;45.1;14;14.0;25.8;0.0;
27/02/2025 07:38:01;100;0;323.08;-4;-19.71;-4.46;968.9;10.60;75292;2836.312;-1800.278;1;321;-130;-133.9;44.9;45.2;14;13.5;25.8;0.0;
27/02/2025 07:38:21;100;0;326.99;-4;-21.12;-4.69;971.3;10.60;75288;2836.314;-1800.279;1;321;-130;-133.9;44.9;45.4;14;14.0;25.9;0.0;
27/02/2025 07:38:41;100;0;330.25;-4;-20.70;-4.69;974.0;10.60;75283;2836.316;-1800.281;1;321;-130;-132.3;44.9;45.4;17;17.1;25.8;0.0;
27/02/2025 07:39:01;100;0;333.04;-4;-20.56;-2.61;976.8;10.60;75276;2836.319;-1800.282;1;321;-130;-133.9;44.9;45.4;20;19.9;25.9;0.0;
27/02/2025 07:39:21;100;0;331.17;-4;-21.01;-1.67;979.5;10.60;75284;2836.321;-1800.283;1;321;-130;-133.9;44.9;45.4;18;18.1;25.9;44.0;
27/02/2025 07:39:41;100;0;331.33;-4;-20.02;-2.77;982.2;10.50;75275;2836.324;-1800.285;1;321;-130;-137.1;44.9;45.2;18;17.6;25.9;41.1;
27/02/2025 07:40:01;100;0;327.05;-4;-20.83;-2.61;984.9;10.50;75270;2836.326;-1800.286;1;321;-130;-133.9;44.9;45.4;15;14.9;25.9;38.3;
27/02/2025 07:40:21;100;0;327.46;-4;-20.22;-4.68;987.4;10.50;75268;2836.328;-1800.288;1;321;-130;-133.9;44.9;45.4;15;14.4;25.9;35.7;
27/02/2025 07:40:41;100;0;331.60;-4;-22.71;-4.14;990.3;10.50;75264;2836.331;-1800.289;1;321;-130;-133.9;44.1;44.0;18;18.5;25.9;32.8;
27/02/2025 07:40:54;118;0;336.24;-4;-17.64;-2.59;992.6;10.50;75272;2836.333;-1800.290;1;321;450;-129.0;21.6;21.5;7;7.2;25.8;30.5;
27/02/2025 07:41:04;118;0;40.14;-4;-3.61;-9.03;993.5;10.50;75254;2836.334;-1800.290;1;321;450;-3.2;21.6;21.4;7;7.2;24.3;-1.0;
27/02/2025 07:41:14;118;0;43.29;-4;22.54;-9.04;993.6;10.50;74979;2836.334;-1800.289;1;321;450;119.4;21.6;21.6;7;6.8;24.4;-1.0;
27/02/2025 07:41:24;118;0;39.76;-4;26.43;-9.09;993.1;10.40;74725;2836.334;-1800.289;1;321;450;243.5;21.6;21.8;7;6.8;24.4;-1.0;
27/02/2025 07:41:34;118;0;39.11;-4;28.94;-8.99;992.3;10.50;74481;2836.334;-1800.288;1;321;450;366.1;21.6;21.8;7;7.2;24.4;-1.0;
27/02/2025 07:41:44;118;0;37.31;-4;27.33;-9.28;991.2;10.50;74226;2836.335;-1800.287;1;321;450;451.6;21.6;21.8;7;7.2;24.2;-1.0;
27/02/2025 07:41:54;118;0;336.15;-4;23.05;-4.64;989.7;10.50;74051;2836.336;-1800.288;1;321;450;453.2;21.6;21.6;7;7.2;25.8;-1.0;
27/02/2025 07:42:04;118;0;330.70;-4;21.38;-8.07;988.5;10.50;74062;2836.337;-1800.288;1;321;450;451.6;21.6;21.8;7;7.2;25.8;-1.0;
27/02/2025 07:42:24;117;0;322.20;-4;22.22;-7.36;985.9;10.50;74047;2836.339;-1800.290;1;321;450;450.0;21.6;21.8;7;7.2;25.8;-1.0;
27/02/2025 07:42:44;117;0;312.28;-4;19.59;-8.30;982.6;10.60;74055;2836.341;-1800.293;1;321;450;454.8;21.6;21.8;30;29.8;25.8;-1.0;
27/02/2025 07:43:04;117;0;314.52;-4;20.87;4.82;980.3;10.60;74049;2836.343;-1800.295;1;321;450;453.2;21.6;21.9;30;30.2;25.8;-1.0;
27/02/2025 07:43:24;117;0;310.85;-4;22.76;4.21;977.0;10.60;74048;2836.345;-1800.297;1;321;450;451.6;22.4;22.4;30;30.2;25.8;-1.0;
27/02/2025 07:43:44;117;0;308.72;-4;21.98;4.29;973.3;10.60;74038;2836.347;-1800.301;1;321;450;451.6;22.4;22.5;33;32.9;25.8;-1.0;
27/02/2025 07:44:04;117;0;312.76;-4;20.37;4.38;969.5;10.60;74054;2836.350;-1800.305;1;321;450;453.2;22.4;22.5;30;29.8;25.8;-1.0;
27/02/2025 07:44:24;117;0;312.35;-4;23.67;2.98;965.8;10.60;74046;2836.352;-1800.307;1;321;450;451.6;23.5;23.6;30;29.3;25.8;-1.0;
27/02/2025 07:44:44;117;0;314.88;-4;18.90;3.97;962.1;10.60;74036;2836.355;-1800.311;1;321;450;451.6;23.2;23.1;30;29.3;25.8;-1.0;
27/02/2025 07:45:04;117;0;314.35;-4;18.61;3.86;959.0;10.60;74036;2836.357;-1800.314;1;321;450;451.6;22.8;22.8;30;29.3;25.8;-1.0;
27/02/2025 07:45:24;117;0;314.24;-4;21.19;3.75;955.6;10.60;74032;2836.360;-1800.317;1;321;450;451.6;22.8;22.2;30;29.3;25.8;-1.0;
27/02/2025 07:45:44;117;0;314.17;-4;22.36;3.68;951.6;10.50;74030;2836.363;-1800.320;1;321;450;453.2;23.5;23.6;30;29.3;25.8;-1.0;
27/02/2025 07:46:04;117;0;315.74;-4;19.41;3.21;947.3;10.50;74033;2836.366;-1800.324;1;321;450;453.2;23.5;23.7;30;29.3;25.8;-1.0;
27/02/2025 07:46:24;117;0;316.23;-4;20.26;3.76;944.3;10.50;74032;2836.369;-1800.327;1;321;450;453.2;23.5;23.9;30;29.3;25.8;-1.0;
27/02/2025 07:46:44;117;0;323.41;-4;19.80;4.07;941.8;10.50;74041;2836.371;-1800.328;1;321;450;453.2;23.5;23.7;28;28.0;25.8;-1.0;
27/02/2025 07:47:04;117;0;324.96;-4;19.17;1.87;938.5;10.50;74037;2836.374;-1800.331;1;321;450;453.2;23.5;23.7;28;27.5;25.8;-1.0;
27/02/2025 07:47:24;117;0;325.32;-4;16.34;3.10;935.9;10.50;74026;2836.376;-1800.333;1;321;450;453.2;22.4;22.2;28;27.5;25.8;-1.0;
27/02/2025 07:47:44;117;0;328.06;-4;20.39;3.73;933.0;10.50;74037;2836.379;-1800.335;1;321;450;453.2;22.4;21.6;28;27.5;25.8;-1.0;
27/02/2025 07:48:04;117;0;328.63;-4;20.26;3.23;929.3;10.50;74034;2836.383;-1800.337;1;321;450;450.0;22.4;21.8;28;27.5;25.8;-1.0;
27/02/2025 07:48:24;117;0;329.64;-4;21.51;2.98;926.0;10.40;74036;2836.385;-1800.339;1;321;450;451.6;22.4;22.4;26;26.2;25.8;-1.0;
27/02/2025 07:48:44;117;0;329.02;-4;19.89;2.13;922.4;10.40;74028;2836.389;-1800.341;1;321;450;453.2;22.4;22.5;26;26.2;25.9;-1.0;
27/02/2025 07:49:04;117;0;328.00;-4;19.96;2.02;919.0;10.40;74019;2836.392;-1800.343;1;321;450;453.2;22.4;22.7;26;26.2;25.8;-1.0;
27/02/2025 07:49:24;117;0;327.43;-4;20.41;2.29;915.9;10.40;74022;2836.395;-1800.345;1;321;450;453.2;22.4;22.5;26;26.2;25.8;-1.0;
27/02/2025 07:49:44;117;0;328.66;-4;20.61;1.82;912.8;10.40;74007;2836.398;-1800.347;1;321;450;453.2;22.4;22.5;26;26.2;25.8;-1.0;
27/02/2025 07:50:04;117;0;327.94;-4;20.76;2.38;909.6;10.40;74009;2836.401;-1800.349;1;321;450;451.6;22.4;22.7;26;26.2;25.8;-1.0;
27/02/2025 07:50:24;117;0;326.25;-4;19.61;2.36;906.4;10.30;74007;2836.404;-1800.351;1;321;450;453.2;22.4;22.5;26;26.2;25.8;-1.0;
27/02/2025 07:50:44;117;0;325.99;-4;19.30;1.79;903.7;10.30;74005;2836.406;-1800.353;1;321;450;451.6;22.4;22.5;26;26.2;25.8;-1.0;
27/02/2025 07:51:04;117;0;322.87;-4;20.07;2.17;901.2;10.30;74015;2836.408;-1800.354;1;321;450;450.0;22.4;22.5;28;28.0;25.9;-1.0;
27/02/2025 07:51:24;117;0;322.69;-4;20.42;3.22;898.5;10.30;74012;2836.410;-1800.356;1;321;450;454.8;22.4;22.5;28;28.4;25.8;-1.0;
27/02/2025 07:51:45;117;0;324.24;-4;20.06;3.37;895.6;10.30;74016;2836.413;-1800.358;1;321;450;451.6;22.4;22.5;28;28.9;25.8;-1.0;
27/02/2025 07:52:05;117;0;325.60;-4;20.55;3.31;892.7;10.30;74013;2836.415;-1800.360;1;321;450;453.2;22.4;22.7;28;28.4;25.9;-1.0;
27/02/2025 07:52:25;117;0;326.47;-4;20.48;3.46;889.7;10.30;74017;2836.418;-1800.362;1;321;450;453.2;22.4;22.5;28;28.4;25.9;-1.0;
27/02/2025 07:52:45;117;0;329.38;-4;20.38;3.20;886.9;10.30;74003;2836.421;-1800.364;1;321;450;453.2;22.4;22.7;26;26.2;25.8;-1.0;
27/02/2025 07:53:05;117;0;329.21;-4;19.91;2.02;884.0;10.30;74022;2836.423;-1800.365;1;321;450;453.2;22.4;22.5;26;26.2;25.8;-1.0;
27/02/2025 07:53:25;117;0;329.56;-4;19.89;1.89;881.3;10.30;74009;2836.426;-1800.367;1;321;450;453.2;22.4;22.5;26;25.7;25.8;-1.0;
27/02/2025 07:53:45;117;0;329.38;-4;19.71;2.01;878.8;10.30;74023;2836.428;-1800.368;1;321;450;453.2;22.4;22.5;26;26.2;25.8;-1.0;
27/02/2025 07:54:05;117;0;329.82;-4;20.14;1.94;876.2;10.30;74012;2836.430;-1800.370;1;321;450;453.2;22.4;22.5;26;26.2;25.9;-1.0;
27/02/2025 07:54:25;117;0;329.06;-4;20.22;2.05;873.5;10.20;74007;2836.433;-1800.371;1;321;450;453.2;22.4;22.5;26;26.2;25.8;-1.0;
27/02/2025 07:54:45;117;0;328.79;-4;20.23;1.93;870.7;10.20;74016;2836.436;-1800.373;1;321;450;451.6;22.4;22.7;26;26.2;25.8;-1.0;
27/02/2025 07:55:05;117;0;326.70;-4;19.99;2.08;867.7;10.20;74019;2836.438;-1800.375;1;321;450;453.2;22.4;22.7;26;26.2;25.8;-1.0;
27/02/2025 07:55:25;117;0;325.53;-4;19.98;2.02;864.9;10.20;74027;2836.441;-1800.377;1;321;450;453.2;22.4;22.5;26;26.2;25.8;-1.0;
27/02/2025 07:55:45;117;0;324.72;-4;19.99;1.98;861.8;10.20;74020;2836.443;-1800.379;1;321;450;453.2;22.4;22.7;26;26.2;25.8;-1.0;
27/02/2025 07:56:05;117;0;323.92;-4;20.11;2.11;858.9;10.20;74020;2836.446;-1800.381;1;321;450;451.6;22.4;22.5;26;26.2;25.8;-1.0;
27/02/2025 07:56:25;117;0;323.78;-4;19.96;1.87;855.8;10.20;74026;2836.449;-1800.383;1;321;450;453.2;22.4;22.7;26;26.2;25.8;-1.0;
27/02/2025 07:56:45;117;0;323.64;-4;19.74;1.91;852.7;10.20;74022;2836.451;-1800.385;1;321;450;453.2;22.4;22.5;26;26.2;25.8;-1.0;
27/02/2025 07:57:05;117;0;323.06;-4;20.20;2.04;849.5;10.20;74020;2836.454;-1800.388;1;321;450;453.2;22.4;22.7;26;26.2;25.9;-1.0;
27/02/2025 07:57:25;117;0;321.89;-4;19.95;2.01;846.3;10.20;74015;2836.457;-1800.390;1;321;450;453.2;22.4;22.5;26;26.2;25.8;-1.0;
27/02/2025 07:57:45;117;0;320.57;-4;19.97;2.06;843.1;10.20;74013;2836.460;-1800.393;1;321;450;453.2;22.4;22.5;26;26.2;25.9;-1.0;
27/02/2025 07:58:05;117;0;319.95;-4;19.90;1.85;839.8;10.20;74002;2836.462;-1800.395;1;321;450;451.6;22.4;22.5;26;25.7;25.8;-1.0;
27/02/2025 07:58:25;117;0;319.46;-4;20.36;1.83;836.6;10.20;74010;2836.465;-1800.398;1;321;450;453.2;22.4;22.7;26;26.2;25.9;-1.0;
27/02/2025 07:58:45;117;0;318.02;-4;19.72;1.95;833.2;10.20;74010;2836.468;-1800.401;1;321;450;453.2;22.4;22.5;26;26.2;25.8;-1.0;
27/02/2025 07:59:05;117;0;317.44;-4;20.31;1.82;830.0;10.20;74010;2836.470;-1800.403;1;321;450;454.8;22.4;22.7;28;28.0;25.9;-1.0;
27/02/2025 07:59:25;117;0;316.97;-4;19.83;3.43;826.6;10.20;74013;2836.473;-1800.406;1;321;450;453.2;22.4;22.5;28;28.4;25.8;-1.0;
27/02/2025 07:59:45;117;0;316.54;-4;19.96;3.47;823.3;10.20;74008;2836.475;-1800.409;1;321;450;451.6;22.4;22.7;28;28.4;25.8;-1.0;
27/02/2025 08:00:05;117;0;317.01;-4;19.85;3.26;819.9;10.20;74008;2836.478;-1800.412;1;321;450;453.2;22.4;22.5;28;28.4;25.8;-1.0;
