Timestamp;NavState;SecurityLevel;Heading;Declination;Pitch;Roll;Depth;Temperature;Pa;Lat;Lon;DeadReckoning;DesiredH;BallastCmd;BallastPos;LinCmd;LinPos;AngCmd;AngPos;Voltage;Altitude;
05/03/2025 12:18:53;119;0;159.86;-4;-54.58;7.41;0.1;20.70;76669;2837.931;-1757.995;0;200;500;504.8;100.0;100.9;0;-0.5;24.7;-1.0;
05/03/2025 12:19:03;116;0;158.98;-4;-42.22;-5.19;0.0;20.70;76670;2837.939;-1757.999;0;200;500;504.8;100.0;100.7;0;-0.5;24.7;-1.0;
05/03/2025 12:19:28;116;0;150.82;-4;-56.50;-8.57;0.0;20.80;76677;2837.942;-1758.000;0;200;500;504.8;100.0;100.7;0;-0.5;24.7;-1.0;
05/03/2025 12:19:46;116;0;128.87;-4;-50.86;-9.63;0.1;20.80;76676;2837.943;-1758.000;0;200;500;506.5;100.0;100.9;0;-0.5;24.7;-1.0;
05/03/2025 12:20:06;116;0;115.88;-4;-54.57;-14.44;0.0;20.80;76684;2837.947;-1758.001;0;200;500;506.5;100.0;100.9;0;0.0;24.7;-1.0;
05/03/2025 12:20:27;116;0;113.12;-4;-52.71;-8.67;0.1;20.80;76692;2837.952;-1758.004;0;200;500;504.8;100.0;100.9;0;-0.5;24.7;-1.0;
05/03/2025 12:20:47;116;0;124.73;-4;-54.75;-22.18;0.1;20.80;76693;2837.956;-1758.005;0;200;500;506.5;100.0;100.9;0;-0.5;24.7;-1.0;
05/03/2025 12:21:07;116;0;132.84;-4;-50.79;-5.20;0.4;20.90;76693;2837.960;-1758.006;0;200;500;506.5;100.0;100.9;0;-0.5;24.7;-1.0;
05/03/2025 12:21:27;116;0;131.96;-4;-64.62;-9.84;0.3;20.90;76708;2837.964;-1758.007;0;200;500;503.2;100.0;100.9;0;-0.5;24.7;-1.0;
05/03/2025 12:21:40;116;0;133.54;-4;-56.65;-12.72;0.3;20.90;76704;2837.967;-1758.008;0;200;500;506.5;100.0;100.9;0;-0.5;24.6;-1.0;
05/03/2025 12:22:00;116;0;137.46;-4;-58.47;-23.98;0.2;20.90;76707;2837.970;-1758.010;0;200;500;504.8;100.0;100.9;0;-0.5;24.7;-1.0;
05/03/2025 12:22:20;116;0;129.47;-4;-59.12;-7.80;0.4;21.00;76709;2837.975;-1758.011;0;200;500;504.8;100.0;100.9;0;-0.5;24.7;-1.0;
05/03/2025 12:22:31;116;0;128.80;-4;-52.52;-11.06;0.3;21.00;76711;2837.977;-1758.012;0;200;500;506.5;100.0;100.9;0;-0.5;24.7;-1.0;
05/03/2025 12:22:42;116;0;127.43;-4;-55.82;-11.38;0.3;21.00;76713;2837.979;-1758.013;0;200;500;506.5;100.0;100.7;0;-0.5;24.7;-1.0;
05/03/2025 12:23:02;110;0;131.13;-4;-47.99;-5.93;-0.1;21.10;76711;2837.979;-1758.013;0;200;-500;388.7;100.0;99.9;-13;-13.1;24.7;-1.0;
05/03/2025 12:23:12;110;0;131.67;-4;-55.76;-14.84;0.1;21.10;77067;2837.980;-1758.014;1;200;-500;240.3;100.0;99.9;-13;-13.1;24.6;-1.0;
05/03/2025 12:23:22;110;0;132.84;-4;-60.67;-17.38;0.5;21.10;77317;2837.981;-1758.014;1;200;-500;82.3;100.0;99.9;-13;-13.1;24.6;-1.0;
05/03/2025 12:23:32;110;0;148.63;-4;-61.40;-15.18;0.8;21.10;77648;2837.982;-1758.015;1;200;-500;-77.4;100.0;99.9;-13;-13.1;24.6;-1.0;
05/03/2025 12:23:43;110;0;161.02;-4;-65.95;-10.82;1.0;21.10;77987;2837.983;-1758.016;1;200;-500;-253.2;51.6;54.3;-13;-13.1;24.6;-1.0;
05/03/2025 12:23:53;110;0;168.59;-4;-55.63;-20.14;2.6;21.20;78378;2837.984;-1758.017;1;200;-500;-480.6;51.6;51.5;-13;-13.1;24.6;-1.0;
05/03/2025 12:24:03;110;0;181.54;-4;-41.57;-16.35;5.9;21.20;78892;2837.983;-1758.018;1;200;-500;-498.4;51.6;51.3;-13;-13.1;24.6;-1.0;
05/03/2025 12:24:13;110;0;188.89;-4;-37.78;-14.86;10.5;21.20;78880;2837.981;-1758.020;1;200;-500;-501.6;51.6;51.3;-13;-13.1;24.7;-1.0;
05/03/2025 12:24:33;100;0;198.48;-4;-36.41;-13.78;21.1;21.20;78867;2837.977;-1758.025;1;200;-500;-501.6;51.6;51.4;-13;-13.1;24.7;0.0;
05/03/2025 12:24:53;100;0;205.53;-4;-34.04;-14.21;31.7;21.20;78870;2837.972;-1758.031;1;200;-500;-501.6;51.6;51.3;34;33.8;24.7;0.0;
05/03/2025 12:25:13;100;0;194.53;-4;-34.13;8.59;41.3;21.20;78871;2837.967;-1758.035;1;200;-500;-503.2;51.6;51.3;21;21.2;24.7;0.0;
05/03/2025 12:25:33;100;0;182.91;-4;-34.62;2.27;50.5;21.20;78879;2837.963;-1758.037;1;200;-500;-501.6;51.6;51.3;13;13.1;24.7;0.0;
05/03/2025 12:25:53;100;0;175.87;-4;-35.02;-2.01;60.1;21.20;78877;2837.958;-1758.038;1;200;-500;-503.2;51.6;51.4;13;12.6;24.7;0.0;
05/03/2025 12:26:13;100;0;169.41;-4;-36.07;-1.66;70.0;21.20;78879;2837.954;-1758.039;1;200;-500;-503.2;51.6;51.3;9;9.0;24.7;0.0;
05/03/2025 12:26:33;100;0;164.31;-4;-36.28;-3.24;80.5;21.20;78874;2837.949;-1758.038;1;200;-500;-504.8;51.6;51.3;1;0.9;24.7;0.0;
05/03/2025 12:26:53;100;0;166.40;-4;-35.40;-8.05;90.5;21.20;78868;2837.944;-1758.038;1;200;-500;-506.5;51.6;51.3;4;4.1;24.7;0.0;
05/03/2025 12:27:13;100;0;164.12;-4;-35.65;-5.55;100.9;21.20;78858;2837.939;-1758.038;1;200;-500;-504.8;51.6;51.3;1;0.9;24.7;0.0;
05/03/2025 12:27:33;100;0;164.87;-4;-35.23;-7.33;111.1;21.20;78855;2837.935;-1758.038;1;200;-500;-503.2;51.6;51.3;1;0.9;24.7;0.0;
05/03/2025 12:27:53;100;0;164.59;-4;-34.91;-7.46;121.0;21.20;78842;2837.930;-1758.038;1;200;-500;-503.2;51.6;51.3;3;3.2;24.7;0.0;
05/03/2025 12:28:13;100;0;163.32;-4;-35.86;-6.03;130.9;21.20;78848;2837.926;-1758.037;1;200;-500;-504.8;51.6;51.3;1;0.9;24.7;0.0;
05/03/2025 12:28:33;100;0;166.20;-4;-35.89;-7.35;141.3;21.10;78841;2837.921;-1758.037;1;200;-500;-503.2;51.6;51.3;4;4.5;24.7;0.0;
05/03/2025 12:28:48;118;0;167.09;-4;-35.93;-6.21;149.2;21.10;78838;2837.917;-1758.037;1;200;500;-503.2;14.0;14.6;13;13.5;24.7;0.0;
05/03/2025 12:28:58;118;0;147.22;-4;-30.35;-2.43;153.1;21.10;78821;2837.915;-1758.036;1;200;500;-379.0;14.0;14.0;13;13.5;24.3;-1.0;
05/03/2025 12:29:08;118;0;143.32;-4;-9.09;-2.59;156.5;21.10;78540;2837.912;-1758.033;1;200;500;-246.8;14.0;13.7;13;13.5;24.3;-1.0;
05/03/2025 12:29:18;118;0;138.88;-4;12.94;-4.05;157.4;21.10;78254;2837.912;-1758.033;1;200;500;-119.4;14.0;13.4;13;13.5;24.3;-1.0;
05/03/2025 12:29:28;118;0;137.16;-4;34.67;-5.23;156.9;21.10;77975;2837.913;-1758.033;1;200;500;4.8;14.0;14.0;13;13.5;24.3;-1.0;
05/03/2025 12:29:38;118;0;136.06;-4;43.36;-6.00;156.6;21.10;77708;2837.914;-1758.034;1;200;500;124.2;14.0;14.3;13;13.5;24.2;-1.0;
05/03/2025 12:29:48;118;0;132.18;-4;41.72;-5.96;156.5;21.10;77443;2837.915;-1758.035;1;200;500;251.6;14.0;14.1;13;13.5;24.3;-1.0;
05/03/2025 12:29:58;118;0;130.12;-4;42.97;-6.51;156.2;21.10;77177;2837.916;-1758.036;1;200;500;372.6;14.0;14.1;13;13.5;24.3;-1.0;
05/03/2025 12:30:08;118;0;128.57;-4;40.89;-5.38;155.1;21.10;76921;2837.917;-1758.036;1;200;500;479.0;14.0;14.1;13;13.5;24.3;-1.0;
05/03/2025 12:30:18;118;0;127.18;-4;38.74;-4.62;153.1;21.00;76671;2837.918;-1758.036;1;200;500;503.2;14.0;14.0;13;13.5;24.2;-1.0;
05/03/2025 12:30:28;118;0;152.25;-4;36.86;-4.69;150.4;21.10;76647;2837.917;-1758.036;1;200;500;503.2;14.0;14.1;13;13.5;24.7;-1.0;
05/03/2025 12:30:48;117;0;141.13;-4;35.59;-3.76;144.3;21.10;76639;2837.916;-1758.035;1;200;500;504.8;14.0;14.1;13;13.5;24.7;-1.0;
05/03/2025 12:31:08;117;0;127.55;-4;34.64;-4.09;137.3;21.00;76649;2837.916;-1758.033;1;200;500;504.8;14.0;14.1;70;69.9;24.6;-1.0;
05/03/2025 12:31:28;117;0;131.58;-4;36.14;28.58;130.7;21.00;76644;2837.915;-1758.030;1;200;500;504.8;14.0;14.1;70;70.4;24.7;-1.0;
05/03/2025 12:31:48;117;0;136.48;-4;37.15;29.24;123.4;21.00;76645;2837.914;-1758.028;1;200;500;504.8;14.6;14.6;70;70.4;24.7;-1.0;
05/03/2025 12:32:08;117;0;140.19;-4;37.10;28.76;115.8;21.00;76638;2837.912;-1758.027;1;200;500;504.8;15.3;15.3;70;70.4;24.7;-1.0;
05/03/2025 12:32:28;117;0;144.68;-4;34.79;28.59;108.6;20.90;76641;2837.910;-1758.025;1;200;500;504.8;15.3;15.3;68;68.1;24.7;-1.0;
05/03/2025 12:32:48;117;0;149.73;-4;34.60;26.44;101.8;20.90;76643;2837.909;-1758.024;1;200;500;504.8;15.3;15.5;57;56.4;24.7;-1.0;
05/03/2025 12:33:08;117;0;151.07;-4;34.84;19.88;95.2;20.90;76645;2837.907;-1758.023;1;200;500;503.2;15.3;15.5;53;52.8;24.7;-1.0;
05/03/2025 12:33:28;117;0;152.95;-4;34.63;17.56;88.6;20.90;76654;2837.905;-1758.023;1;200;500;503.2;15.3;15.5;49;49.2;24.7;-1.0;
05/03/2025 12:33:48;117;0;153.99;-4;34.47;15.22;82.0;20.90;76657;2837.903;-1758.022;1;200;500;504.8;15.3;15.3;52;51.9;24.7;-1.0;
05/03/2025 12:34:08;117;0;154.51;-4;34.13;17.28;75.6;20.90;76661;2837.901;-1758.022;1;200;500;504.8;15.3;15.5;48;47.4;24.7;-1.0;
05/03/2025 12:34:28;117;0;157.48;-4;33.71;14.21;69.4;20.90;76673;2837.899;-1758.022;1;200;500;504.8;14.9;14.6;42;42.0;24.7;-1.0;
05/03/2025 12:34:48;117;0;157.45;-4;34.71;11.59;63.4;20.80;76667;2837.897;-1758.022;1;200;500;504.8;14.9;14.6;42;41.1;24.7;-1.0;
05/03/2025 12:35:08;117;0;157.59;-4;35.81;10.85;57.1;20.80;76667;2837.896;-1758.022;1;200;500;504.8;14.9;14.6;42;41.1;24.7;-1.0;
05/03/2025 12:35:28;117;0;156.36;-4;35.43;11.14;50.4;20.80;76662;2837.893;-1758.021;1;200;500;504.8;14.9;14.6;46;46.0;24.7;-1.0;
05/03/2025 12:35:48;117;0;156.59;-4;35.44;14.20;43.9;20.80;76649;2837.891;-1758.021;1;200;500;504.8;14.9;14.6;46;46.5;24.7;-1.0;
05/03/2025 12:36:08;117;0;157.50;-4;35.41;14.22;37.2;20.80;76663;2837.889;-1758.021;1;200;500;504.8;14.9;14.6;44;44.2;24.6;-1.0;
05/03/2025 12:36:28;117;0;159.47;-4;34.48;12.72;30.5;20.80;76655;2837.887;-1758.021;1;200;500;504.8;14.9;14.6;44;43.8;24.7;-1.0;
05/03/2025 12:36:48;117;0;160.08;-4;34.97;12.41;23.9;20.80;76652;2837.885;-1758.021;1;200;500;504.8;14.9;14.6;42;42.0;24.7;-1.0;
05/03/2025 12:37:08;117;0;160.61;-4;35.60;11.29;17.1;20.80;76647;2837.883;-1758.021;1;200;500;504.8;14.9;14.6;42;41.5;24.7;-1.0;
05/03/2025 12:37:28;117;0;160.37;-4;34.41;11.28;10.4;20.80;76647;2837.880;-1758.021;1;200;500;504.8;14.9;14.6;42;41.5;24.7;-1.0;
05/03/2025 12:37:48;117;0;160.28;-4;35.66;11.19;3.9;20.80;76647;2837.878;-1758.021;1;200;500;504.8;14.9;14.6;40;41.5;24.7;-1.0;
05/03/2025 12:37:51;115;0;161.40;-4;34.11;10.33;2.8;20.80;76647;2837.878;-1758.021;1;200;500;504.8;100.0;50.5;0;-0.5;24.7;-1.0;
05/03/2025 12:38:01;115;0;153.80;-4;23.16;-10.28;0.4;20.80;76639;2837.876;-1758.021;1;200;500;504.8;100.0;100.0;0;-0.5;24.6;-1.0;
05/03/2025 12:38:11;115;0;147.60;-4;-27.98;-12.79;-0.1;20.80;76655;2837.877;-1758.021;1;200;500;503.2;100.0;100.3;0;-0.5;24.7;-1.0;
05/03/2025 12:38:31;119;0;134.85;-4;-37.88;-4.89;-0.6;20.80;76672;2837.877;-1758.021;1;200;500;504.8;100.0;100.7;0;-0.5;24.7;-1.0;
05/03/2025 12:38:41;119;0;139.01;-4;-61.70;-13.37;-0.4;20.80;76661;2837.878;-1758.000;0;200;500;504.8;100.0;100.7;0;-0.5;24.7;-1.0;
