Timestamp;NavState;SecurityLevel;Heading;Declination;Pitch;Roll;Depth;Temperature;Pa;Lat;Lon;DeadReckoning;DesiredH;BallastCmd;BallastPos;LinCmd;LinPos;AngCmd;AngPos;Voltage;Altitude;
13/02/2025 23:12:36;119;0;235.28;-4;-58.25;-8.80;0.2;17.90;75988;2839.269;-1759.753;0;159;500;509.7;100.0;100.7;0;-0.5;28.6;-1.0;
13/02/2025 23:12:46;116;0;227.38;-4;-52.54;-12.41;0.1;18.00;75982;2839.271;-1759.751;0;159;500;509.7;100.0;100.7;0;-0.5;28.7;-1.0;
13/02/2025 23:13:11;116;0;198.66;-4;-55.19;-18.62;0.1;18.00;75993;2839.272;-1759.750;0;159;500;509.7;100.0;100.7;0;-0.5;28.7;-1.0;
13/02/2025 23:13:37;116;0;163.64;-4;-57.16;-16.55;0.1;18.10;75999;2839.274;-1759.750;0;159;500;509.7;100.0;100.7;0;-0.5;28.7;-1.0;
13/02/2025 23:13:49;116;0;131.33;-4;-54.45;-12.75;0.1;18.20;76001;2839.275;-1759.750;0;159;500;509.7;100.0;100.7;0;-0.5;28.7;-1.0;
13/02/2025 23:14:52;116;0;65.66;-4;-53.96;-2.91;0.2;18.30;76036;2839.282;-1759.746;0;159;500;509.7;100.0;100.7;0;-0.5;28.7;-1.0;
13/02/2025 23:14:55;116;0;68.24;-4;-54.61;-10.81;0.2;18.40;76033;2839.282;-1759.746;0;160;500;509.7;100.0;100.7;0;-0.5;28.7;-1.0;
13/02/2025 23:15:58;116;0;108.06;-4;-52.53;-9.89;0.1;18.60;76060;2839.288;-1759.742;0;160;500;509.7;100.0;100.7;0;-0.5;28.7;-1.0;
13/02/2025 23:16:13;116;0;108.00;-4;-52.07;-12.78;0.2;18.70;76062;2839.288;-1759.741;0;160;500;509.7;100.0;100.7;0;-0.5;28.6;-1.0;
13/02/2025 23:16:24;116;0;95.72;-4;-52.73;-14.23;0.2;18.70;76062;2839.289;-1759.741;0;160;500;508.1;100.0;100.7;0;-0.5;28.7;-1.0;
13/02/2025 23:16:44;110;0;106.41;-4;-52.58;-19.53;0.1;18.80;76065;2839.289;-1759.741;0;160;-100;395.2;100.0;99.7;-14;-14.0;28.7;-1.0;
13/02/2025 23:16:54;110;0;108.95;-4;-55.48;-26.25;0.2;18.80;76407;2839.290;-1759.742;1;160;-100;246.8;100.0;99.9;-14;-14.4;28.6;-1.0;
13/02/2025 23:17:04;110;0;102.48;-4;-61.02;-24.64;0.7;18.90;76660;2839.290;-1759.742;1;160;-100;85.5;100.0;99.9;-14;-14.4;28.6;-1.0;
13/02/2025 23:17:14;110;0;91.92;-4;-73.12;-26.33;0.9;18.90;76986;2839.291;-1759.742;1;160;-100;-72.6;100.0;99.9;-14;-14.4;28.6;-1.0;
13/02/2025 23:17:24;110;0;96.27;-4;-67.25;-19.80;1.2;19.00;77347;2839.291;-1759.742;1;160;-100;-100.0;49.2;49.2;-14;-14.4;28.6;-1.0;
13/02/2025 23:17:34;110;0;100.90;-4;-53.78;-19.33;3.0;19.00;77345;2839.292;-1759.741;1;160;-100;-101.6;49.2;49.0;-14;-14.4;28.7;-1.0;
13/02/2025 23:17:54;100;0;115.53;-4;-32.10;-18.63;7.6;19.10;77361;2839.291;-1759.738;1;160;-100;-96.8;49.2;48.9;-14;-14.0;28.6;-1.0;
13/02/2025 23:18:14;100;0;125.07;-4;-29.94;-18.39;12.6;19.10;77361;2839.290;-1759.735;1;161;-100;-96.8;49.2;48.9;-28;-28.0;28.7;-1.0;
13/02/2025 23:18:34;100;0;133.06;-4;-29.75;-25.40;17.3;19.20;77359;2839.289;-1759.732;1;161;-100;-98.4;49.2;48.7;-16;-15.8;28.6;0.0;
13/02/2025 23:18:54;100;0;143.06;-4;-30.25;-18.74;21.7;19.20;77361;2839.287;-1759.730;1;161;-100;-96.8;49.2;48.7;1;0.9;28.7;0.0;
13/02/2025 23:19:14;100;0;149.41;-4;-30.70;-10.78;26.1;19.20;77363;2839.285;-1759.728;1;161;-100;-96.8;49.2;48.7;8;8.1;28.6;0.0;
13/02/2025 23:19:34;100;0;149.92;-4;-30.47;-7.11;30.6;19.30;77368;2839.283;-1759.727;1;161;-100;-96.8;49.2;48.7;8;8.6;28.7;0.0;
13/02/2025 23:19:54;100;0;150.60;-4;-31.57;-7.43;35.1;19.30;77372;2839.281;-1759.725;1;161;-100;-96.8;49.2;48.9;8;8.6;28.6;0.0;
13/02/2025 23:20:14;100;0;158.59;-4;-32.11;-7.17;39.7;19.30;77363;2839.278;-1759.724;1;161;-100;-96.8;48.6;48.3;11;10.8;28.7;0.0;
13/02/2025 23:20:34;100;0;159.04;-4;-30.64;-5.74;44.4;19.30;77375;2839.276;-1759.723;1;161;-100;-96.8;48.6;48.3;11;10.8;28.7;0.0;
13/02/2025 23:20:54;100;0;157.28;-4;-30.91;-5.94;48.9;19.30;77377;2839.274;-1759.722;1;161;-100;-96.8;48.6;48.5;11;11.3;28.7;0.0;
13/02/2025 23:21:14;100;0;156.18;-4;-31.18;-5.87;53.3;19.30;77376;2839.271;-1759.721;1;161;-100;-96.8;48.6;48.3;11;11.3;28.7;0.0;
13/02/2025 23:21:34;100;0;155.17;-4;-30.56;-5.75;57.7;19.40;77390;2839.269;-1759.720;1;161;-100;-96.8;48.6;48.3;11;11.3;28.7;0.0;
13/02/2025 23:21:54;100;0;154.06;-4;-30.64;-5.91;62.2;19.40;77389;2839.267;-1759.719;1;161;-100;-96.8;48.6;48.3;11;10.8;28.7;0.0;
13/02/2025 23:22:14;100;0;152.81;-4;-30.75;-5.85;66.6;19.40;77389;2839.265;-1759.718;1;161;-100;-95.2;48.6;48.3;11;11.3;28.7;0.0;
13/02/2025 23:22:34;100;0;152.91;-4;-30.55;-5.84;70.9;19.40;77389;2839.263;-1759.716;1;161;-100;-96.8;48.6;48.3;11;10.8;28.6;0.0;
13/02/2025 23:22:54;100;0;153.56;-4;-30.50;-5.93;75.4;19.40;77402;2839.261;-1759.715;1;161;-100;-96.8;48.6;48.3;11;10.8;28.7;0.0;
13/02/2025 23:23:14;100;0;153.06;-4;-30.47;-5.91;79.7;19.40;77398;2839.259;-1759.714;1;161;-100;-95.2;48.6;48.3;11;11.3;28.7;0.0;
13/02/2025 23:23:34;100;0;151.36;-4;-30.36;-5.93;83.9;19.40;77410;2839.257;-1759.712;1;161;-100;-100.0;48.6;48.5;11;11.3;28.7;0.0;
13/02/2025 23:23:54;100;0;150.19;-4;-30.32;-5.79;88.2;19.40;77413;2839.255;-1759.711;1;161;-100;-96.8;48.6;48.3;9;9.0;28.7;0.0;
13/02/2025 23:24:14;100;0;148.39;-4;-31.63;-7.23;92.2;19.40;77403;2839.253;-1759.710;1;161;-100;-96.8;48.6;48.3;7;7.2;28.6;0.0;
13/02/2025 23:24:34;100;0;148.31;-4;-31.26;-8.27;97.0;19.40;77395;2839.251;-1759.708;1;162;-100;-95.2;48.6;48.3;7;6.8;28.7;0.0;
13/02/2025 23:24:54;100;0;148.88;-4;-31.05;-8.20;101.5;19.50;77391;2839.249;-1759.706;1;162;-100;-96.8;48.6;48.3;7;6.8;28.6;0.0;
13/02/2025 23:25:14;100;0;151.34;-4;-30.94;-8.32;106.0;19.40;77391;2839.247;-1759.705;1;162;-100;-96.8;48.6;48.3;9;9.0;28.6;0.0;
13/02/2025 23:25:34;100;0;155.22;-4;-31.42;-6.65;110.7;19.50;77403;2839.244;-1759.703;1;162;-100;-96.8;48.6;48.3;9;9.5;28.6;0.0;
13/02/2025 23:25:54;100;0;152.45;-4;-30.26;-6.64;115.1;19.40;77398;2839.242;-1759.702;1;162;-100;-96.8;48.6;48.3;9;9.5;28.7;0.0;
13/02/2025 23:26:14;100;0;153.51;-4;-30.00;-6.86;119.3;19.40;77380;2839.240;-1759.701;1;162;-100;-96.8;48.6;48.3;9;9.5;28.7;0.0;
13/02/2025 23:26:34;100;0;154.52;-4;-30.12;-6.93;123.3;19.40;77353;2839.238;-1759.700;1;162;-100;-96.8;48.6;48.3;9;9.5;28.7;0.0;
13/02/2025 23:26:54;100;0;153.43;-4;-30.00;-6.74;127.4;19.40;77316;2839.236;-1759.699;1;162;-100;-96.8;48.6;48.3;9;9.0;28.7;0.0;
13/02/2025 23:27:14;100;0;152.42;-4;-30.38;-6.86;131.4;19.40;77297;2839.234;-1759.697;1;162;-100;-96.8;48.6;48.3;9;9.5;28.7;0.0;
13/02/2025 23:27:35;100;0;154.27;-4;-30.22;-6.64;135.8;19.40;77275;2839.232;-1759.696;1;162;-100;-96.8;48.6;48.3;9;9.5;28.6;0.0;
13/02/2025 23:27:55;100;0;154.46;-4;-30.19;-6.59;140.0;19.40;77260;2839.230;-1759.695;1;162;-100;-96.8;48.6;48.3;9;9.5;28.7;0.0;
13/02/2025 23:28:15;100;0;156.57;-4;-30.54;-6.81;144.4;19.30;77261;2839.227;-1759.694;1;162;-100;-96.8;48.6;48.3;11;10.8;28.6;0.0;
13/02/2025 23:28:35;100;0;156.49;-4;-30.71;-5.56;148.8;19.30;77244;2839.225;-1759.693;1;162;-100;-96.8;48.6;48.3;11;11.7;28.7;0.0;
13/02/2025 23:28:55;100;0;153.20;-4;-29.65;-5.81;153.0;19.30;77219;2839.223;-1759.692;1;162;-100;-96.8;48.6;48.3;11;11.3;28.7;0.0;
13/02/2025 23:29:15;100;0;152.38;-4;-28.79;-5.83;156.8;19.30;77189;2839.221;-1759.690;1;162;-100;-96.8;49.0;48.9;11;11.7;28.7;0.0;
13/02/2025 23:29:35;100;0;152.84;-4;-29.60;-5.82;160.5;19.20;77156;2839.220;-1759.689;1;162;-100;-96.8;49.0;49.2;11;11.7;28.6;0.0;
13/02/2025 23:29:55;100;0;150.92;-4;-29.48;-5.97;164.5;19.20;77142;2839.218;-1759.688;1;162;-100;-96.8;49.0;49.2;9;9.0;28.7;0.0;
13/02/2025 23:30:15;100;0;149.49;-4;-29.57;-7.43;168.4;19.20;77108;2839.216;-1759.687;1;162;-100;-96.8;49.0;49.2;9;8.6;28.7;0.0;
13/02/2025 23:30:35;100;0;150.85;-4;-30.44;-7.51;172.3;19.10;77082;2839.214;-1759.685;1;162;-100;-96.8;49.0;49.2;9;8.6;28.7;0.0;
13/02/2025 23:30:55;100;0;157.09;-4;-30.54;-7.29;176.5;19.10;77069;2839.212;-1759.684;1;162;-100;-96.8;49.0;49.2;9;8.6;28.7;0.0;
13/02/2025 23:31:15;100;0;156.00;-4;-31.06;-7.38;180.9;19.00;77046;2839.210;-1759.683;1;162;-100;-96.8;49.0;49.0;9;8.6;28.7;0.0;
13/02/2025 23:31:35;100;0;154.19;-4;-30.23;-7.33;185.3;19.00;77020;2839.208;-1759.682;1;162;-100;-95.2;49.0;49.0;9;8.6;28.7;0.0;
13/02/2025 23:31:55;100;0;152.36;-4;-30.60;-7.32;189.6;18.90;77016;2839.206;-1759.681;1;162;-100;-95.2;49.0;49.2;9;8.6;28.7;0.0;
13/02/2025 23:32:15;100;0;152.14;-4;-30.92;-7.25;194.0;18.90;77000;2839.204;-1759.680;1;162;-100;-96.8;49.0;49.0;9;8.6;28.6;0.0;
13/02/2025 23:32:35;100;0;158.70;-4;-29.80;-7.28;198.5;18.80;76969;2839.201;-1759.679;1;162;-100;-98.4;49.0;49.2;9;8.6;28.7;0.0;
13/02/2025 23:32:55;100;0;163.69;-4;-30.00;-7.35;202.9;18.80;76950;2839.199;-1759.678;1;162;-100;-96.8;49.0;49.2;9;8.6;28.7;0.0;
13/02/2025 23:33:15;100;0;163.39;-4;-30.08;-7.32;207.0;18.80;76939;2839.196;-1759.677;1;162;-100;-96.8;49.0;49.2;11;10.8;28.7;0.0;
13/02/2025 23:33:35;100;0;159.53;-4;-30.88;-5.44;211.6;18.70;76924;2839.194;-1759.677;1;162;-100;-96.8;49.0;49.2;11;11.3;28.7;0.0;
13/02/2025 23:33:55;100;0;155.85;-4;-31.20;-5.87;216.2;18.70;76912;2839.192;-1759.675;1;162;-100;-95.2;49.0;49.2;11;11.3;28.7;0.0;
13/02/2025 23:34:15;100;0;154.79;-4;-30.54;-5.88;220.8;18.60;76900;2839.189;-1759.674;1;162;-100;-95.2;49.0;49.2;11;11.3;28.6;0.0;
13/02/2025 23:34:35;100;0;153.95;-4;-30.14;-5.79;225.2;18.60;76894;2839.187;-1759.673;1;162;-100;-96.8;49.0;49.2;9;8.6;28.7;0.0;
13/02/2025 23:34:55;100;0;156.34;-4;-28.95;-7.32;229.3;18.50;76878;2839.185;-1759.672;1;162;-100;-96.8;49.3;49.3;9;8.6;28.7;0.0;
13/02/2025 23:35:15;100;0;156.65;-4;-30.28;-7.43;233.2;18.40;76864;2839.183;-1759.671;1;163;-100;-96.8;49.3;49.5;9;8.6;28.7;0.0;
13/02/2025 23:35:35;100;0;157.19;-4;-30.89;-7.23;237.1;18.40;76850;2839.181;-1759.670;1;163;-100;-96.8;49.3;49.5;9;8.1;28.6;0.0;
13/02/2025 23:35:55;100;0;160.34;-4;-30.15;-7.54;241.3;18.30;76834;2839.179;-1759.669;1;163;-100;-96.8;49.3;49.5;9;8.6;28.7;0.0;
13/02/2025 23:36:15;100;0;165.52;-4;-30.06;-7.44;245.3;18.30;76822;2839.177;-1759.669;1;162;-100;-98.4;49.3;49.5;11;10.8;28.7;0.0;
13/02/2025 23:36:35;100;0;164.03;-4;-31.30;-5.98;249.1;18.30;76815;2839.175;-1759.669;1;162;-100;-96.8;49.3;49.6;11;10.8;28.7;0.0;
13/02/2025 23:36:55;100;0;159.46;-4;-32.06;-5.95;253.2;18.20;76793;2839.173;-1759.668;1;162;-100;-96.8;48.7;48.6;11;11.3;28.7;0.0;
13/02/2025 23:37:15;100;0;157.83;-4;-30.13;-6.12;257.4;18.10;76776;2839.171;-1759.667;1;162;-100;-96.8;48.7;48.5;11;10.8;28.7;0.0;
13/02/2025 23:37:35;100;0;157.22;-4;-29.48;-5.92;261.5;18.10;76782;2839.168;-1759.666;1;162;-100;-96.8;48.7;48.5;11;11.3;28.6;0.0;
13/02/2025 23:37:55;100;0;155.69;-4;-29.55;-5.96;265.6;18.00;76772;2839.166;-1759.665;1;163;-100;-96.8;48.7;48.5;11;11.3;28.7;0.0;
13/02/2025 23:38:15;100;0;153.61;-4;-30.18;-6.19;269.6;18.00;76775;2839.165;-1759.664;1;163;-100;-96.8;48.7;48.5;9;9.0;28.7;0.0;
13/02/2025 23:38:35;100;0;153.22;-4;-29.23;-7.21;273.6;17.90;76748;2839.162;-1759.663;1;163;-100;-95.2;48.7;48.5;9;8.6;28.7;0.0;
13/02/2025 23:38:55;100;0;151.86;-4;-29.92;-7.12;277.6;17.90;76739;2839.161;-1759.661;1;163;-100;-96.8;48.7;48.5;9;9.0;28.6;0.0;
13/02/2025 23:39:15;100;0;151.26;-4;-29.51;-7.29;281.7;17.80;76724;2839.159;-1759.660;1;163;-100;-98.4;48.7;48.6;9;9.0;28.7;0.0;
13/02/2025 23:39:35;100;0;153.40;-4;-29.48;-7.21;285.9;17.80;76718;2839.156;-1759.659;1;163;-100;-96.8;48.7;48.5;9;9.0;28.7;0.0;
13/02/2025 23:39:55;100;0;155.62;-4;-29.63;-7.21;290.1;17.70;76710;2839.154;-1759.658;1;163;-100;-96.8;48.7;48.5;9;9.0;28.7;0.0;
13/02/2025 23:40:15;100;0;156.29;-4;-29.93;-7.25;294.5;17.70;76699;2839.152;-1759.656;1;163;-100;-96.8;48.7;48.5;9;9.0;28.7;0.0;
13/02/2025 23:40:35;100;0;158.33;-4;-29.54;-7.22;298.8;17.60;76684;2839.150;-1759.656;1;163;-100;-96.8;48.7;48.5;9;8.6;28.7;0.0;
13/02/2025 23:40:55;100;0;160.49;-4;-29.10;-7.24;303.0;17.60;76669;2839.147;-1759.655;1;163;-100;-96.8;48.7;48.5;9;8.6;28.7;0.0;
13/02/2025 23:41:15;100;0;161.43;-4;-29.30;-7.26;307.2;17.50;76660;2839.145;-1759.654;1;163;-100;-96.8;48.7;48.5;9;9.0;28.6;0.0;
13/02/2025 23:41:35;100;0;162.66;-4;-28.99;-7.23;311.2;17.50;76662;2839.143;-1759.653;1;163;-100;-95.2;49.0;49.0;9;8.6;28.7;0.0;
13/02/2025 23:41:55;100;0;164.21;-4;-30.16;-7.17;315.3;17.40;76645;2839.140;-1759.653;1;163;-100;-96.8;49.0;49.2;9;8.6;28.7;0.0;
13/02/2025 23:42:15;100;0;162.66;-4;-31.89;-7.18;319.6;17.40;76630;2839.138;-1759.652;1;163;-100;-96.8;49.0;49.2;9;8.6;28.7;0.0;
13/02/2025 23:42:35;100;0;163.79;-4;-29.37;-7.24;324.0;17.30;76612;2839.136;-1759.652;1;163;-100;-96.8;49.0;49.2;9;8.6;28.7;0.0;
13/02/2025 23:42:55;100;0;166.86;-4;-29.98;-7.13;328.3;17.30;76597;2839.133;-1759.651;1;163;-100;-96.8;49.0;49.2;11;10.8;28.6;0.0;
13/02/2025 23:43:15;100;0;165.83;-4;-30.10;-6.03;332.5;17.20;76604;2839.131;-1759.651;1;163;-100;-96.8;49.0;49.3;11;10.8;28.6;0.0;
13/02/2025 23:43:35;100;0;164.71;-4;-30.29;-6.05;336.7;17.20;76580;2839.128;-1759.651;1;163;-100;-96.8;49.0;49.2;11;10.8;28.7;0.0;
13/02/2025 23:43:55;100;0;168.60;-4;-29.73;-6.13;340.9;17.10;76569;2839.126;-1759.650;1;163;-100;-98.4;49.0;49.2;11;10.8;28.7;0.0;
13/02/2025 23:44:15;100;0;169.75;-4;-30.33;-6.33;345.0;17.10;76553;2839.124;-1759.650;1;162;-100;-95.2;49.0;49.2;14;14.0;28.6;0.0;
13/02/2025 23:44:35;100;0;168.88;-4;-30.01;-4.39;349.1;17.00;76552;2839.121;-1759.650;1;162;-100;-96.8;49.0;49.3;14;14.4;28.7;0.0;
13/02/2025 23:44:55;100;0;168.12;-4;-30.43;-4.41;353.1;17.00;76541;2839.119;-1759.650;1;162;-100;-96.8;49.0;49.2;14;14.4;28.7;0.0;
13/02/2025 23:45:15;100;0;164.66;-4;-31.55;-4.36;357.2;16.90;76528;2839.117;-1759.650;1;162;-100;-96.8;49.0;49.3;11;10.8;28.7;0.0;
13/02/2025 23:45:35;100;0;166.85;-4;-30.55;-6.12;361.4;16.90;76515;2839.115;-1759.649;1;162;-100;-96.8;49.0;49.3;11;10.8;28.7;0.0;
13/02/2025 23:45:55;100;0;166.86;-4;-31.13;-6.19;365.5;16.80;76506;2839.113;-1759.649;1;162;-100;-96.8;49.0;49.3;11;10.8;28.7;0.0;
13/02/2025 23:46:15;100;0;163.36;-4;-31.40;-6.29;369.9;16.80;76488;2839.111;-1759.649;1;162;-100;-96.8;49.0;49.3;11;10.8;28.7;0.0;
13/02/2025 23:46:35;100;0;162.99;-4;-30.75;-6.21;374.3;16.70;76487;2839.108;-1759.648;1;162;-100;-96.8;49.0;49.3;11;10.8;28.7;0.0;
13/02/2025 23:46:55;100;0;163.26;-4;-30.13;-6.15;378.6;16.70;76486;2839.106;-1759.647;1;162;-100;-96.8;49.0;49.2;11;10.8;28.7;0.0;
13/02/2025 23:47:15;100;0;161.32;-4;-29.46;-5.88;382.8;16.60;76459;2839.103;-1759.647;1;162;-100;-96.8;49.0;49.5;11;10.8;28.7;0.0;
13/02/2025 23:47:35;100;0;160.43;-4;-29.56;-6.06;386.8;16.60;76453;2839.101;-1759.646;1;162;-100;-96.8;49.0;49.3;11;10.8;28.7;0.0;
13/02/2025 23:47:55;100;0;159.35;-4;-30.25;-6.12;390.8;16.50;76444;2839.099;-1759.645;1;162;-100;-98.4;49.0;49.2;11;10.8;28.7;0.0;
13/02/2025 23:48:15;100;0;158.52;-4;-30.42;-6.25;394.8;16.50;76438;2839.097;-1759.644;1;162;-100;-96.8;49.0;49.3;11;10.8;28.7;0.0;
13/02/2025 23:48:35;100;0;156.83;-4;-29.98;-6.25;398.9;16.40;76428;2839.095;-1759.644;1;162;-100;-98.4;49.0;49.3;11;10.8;28.7;0.0;
13/02/2025 23:48:55;100;0;157.71;-4;-29.91;-6.14;402.8;16.40;76420;2839.093;-1759.643;1;162;-100;-96.8;49.0;49.2;11;10.8;28.7;0.0;
13/02/2025 23:49:15;100;0;157.98;-4;-30.04;-6.11;406.8;16.30;76411;2839.091;-1759.642;1;162;-100;-96.8;49.0;49.3;11;11.3;28.7;0.0;
13/02/2025 23:49:35;100;0;159.85;-4;-30.00;-6.04;410.8;16.30;76405;2839.089;-1759.641;1;162;-100;-96.8;49.0;49.3;11;10.8;28.7;0.0;
13/02/2025 23:49:55;100;0;158.03;-4;-30.30;-6.21;415.0;16.30;76398;2839.087;-1759.640;1;162;-100;-96.8;49.0;49.3;11;10.8;28.7;0.0;
13/02/2025 23:50:15;100;0;154.09;-4;-30.21;-6.23;419.2;16.20;76379;2839.085;-1759.639;1;162;-100;-96.8;49.0;49.3;11;10.8;28.7;0.0;
13/02/2025 23:50:35;100;0;153.32;-4;-30.40;-6.12;423.5;16.10;76365;2839.083;-1759.638;1;162;-100;-96.8;49.0;49.3;11;10.8;28.7;0.0;
13/02/2025 23:50:55;100;0;156.18;-4;-30.16;-6.15;428.0;16.10;76353;2839.080;-1759.637;1;162;-100;-96.8;49.0;49.3;11;11.3;28.6;0.0;
13/02/2025 23:51:15;100;0;153.60;-4;-30.39;-6.16;432.5;16.10;76344;2839.078;-1759.635;1;162;-100;-96.8;49.0;49.2;9;9.0;28.7;0.0;
13/02/2025 23:51:35;100;0;153.55;-4;-30.73;-7.12;437.3;16.00;76326;2839.075;-1759.634;1;162;-100;-96.8;49.0;49.2;9;9.0;28.7;0.0;
13/02/2025 23:51:55;100;0;154.64;-4;-30.30;-7.23;442.0;16.00;76309;2839.073;-1759.632;1;162;-100;-96.8;49.0;49.3;9;8.6;28.6;0.0;
13/02/2025 23:52:15;100;0;154.68;-4;-29.85;-7.17;446.6;15.90;76308;2839.070;-1759.631;1;162;-100;-96.8;49.0;49.3;9;9.0;28.7;0.0;
13/02/2025 23:52:35;100;0;151.35;-4;-29.93;-7.30;451.4;15.90;76295;2839.068;-1759.629;1;163;-100;-96.8;49.0;49.3;9;8.6;28.7;0.0;
13/02/2025 23:52:55;100;0;150.85;-4;-29.84;-7.28;455.9;15.80;76286;2839.066;-1759.628;1;163;-100;-96.8;49.0;49.3;9;9.0;28.7;0.0;
13/02/2025 23:53:15;100;0;154.23;-4;-29.49;-7.30;460.3;15.80;76266;2839.063;-1759.627;1;163;-100;-96.8;49.0;49.2;9;9.0;28.7;0.0;
13/02/2025 23:53:35;100;0;154.09;-4;-29.14;-7.33;464.6;15.70;76265;2839.061;-1759.625;1;163;-100;-96.8;49.0;49.2;9;9.0;28.6;0.0;
13/02/2025 23:53:55;100;0;156.32;-4;-29.33;-7.18;468.8;15.70;76256;2839.059;-1759.624;1;163;-100;-96.8;49.0;49.3;9;9.0;28.7;0.0;
13/02/2025 23:54:15;100;0;154.99;-4;-28.91;-7.34;472.9;15.60;76250;2839.057;-1759.623;1;163;-100;-96.8;49.3;49.3;9;8.6;28.7;0.0;
13/02/2025 23:54:35;100;0;153.75;-4;-29.12;-7.25;476.8;15.60;76229;2839.055;-1759.622;1;163;-100;-96.8;49.3;49.3;9;8.6;28.7;0.0;
13/02/2025 23:54:55;100;0;153.76;-4;-29.84;-7.21;480.9;15.50;76218;2839.053;-1759.621;1;163;-100;-96.8;49.3;49.2;9;9.0;28.7;0.0;
13/02/2025 23:55:15;100;0;155.78;-4;-30.44;-7.04;485.1;15.50;76211;2839.050;-1759.620;1;163;-100;-96.8;49.3;49.2;9;8.6;28.6;0.0;
13/02/2025 23:55:35;100;0;160.78;-4;-30.33;-7.25;489.5;15.40;76205;2839.048;-1759.619;1;163;-100;-96.8;49.3;49.2;9;9.0;28.7;0.0;
13/02/2025 23:55:55;100;0;158.69;-4;-30.36;-7.23;493.7;15.40;76196;2839.046;-1759.618;1;163;-100;-96.8;49.3;49.2;9;9.0;28.6;0.0;
13/02/2025 23:56:15;100;0;161.05;-4;-30.55;-7.21;498.2;15.30;76190;2839.043;-1759.617;1;163;-100;-96.8;49.3;49.3;9;8.6;28.7;0.0;
13/02/2025 23:56:35;100;0;160.70;-4;-29.95;-7.27;502.7;15.30;76184;2839.041;-1759.616;1;163;-100;-96.8;49.3;49.3;9;8.6;28.7;0.0;
13/02/2025 23:56:55;100;0;162.34;-4;-29.61;-7.48;507.0;15.20;76174;2839.039;-1759.616;1;163;-100;-96.8;49.3;49.3;9;9.0;28.7;0.0;
13/02/2025 23:57:15;100;0;164.28;-4;-29.47;-7.23;511.0;15.20;76171;2839.036;-1759.615;1;163;-100;-96.8;49.3;49.3;9;8.6;28.7;0.0;
13/02/2025 23:57:35;100;0;166.03;-4;-29.88;-7.14;514.9;15.20;76165;2839.034;-1759.615;1;163;-100;-96.8;49.3;49.3;11;10.8;28.6;0.0;
13/02/2025 23:57:55;100;0;165.39;-4;-29.49;-5.93;519.1;15.10;76163;2839.032;-1759.614;1;163;-100;-95.2;49.3;49.3;11;11.3;28.7;0.0;
13/02/2025 23:58:15;100;0;164.00;-4;-29.97;-5.88;523.1;15.10;76141;2839.029;-1759.614;1;163;-100;-96.8;49.3;49.2;11;11.7;28.7;0.0;
13/02/2025 23:58:35;100;0;164.91;-4;-30.00;-5.57;527.2;15.00;76141;2839.027;-1759.614;1;163;-100;-96.8;49.3;49.3;11;11.3;28.6;0.0;
13/02/2025 23:58:55;100;0;166.55;-4;-29.72;-5.71;531.4;15.00;76138;2839.025;-1759.613;1;163;-100;-95.2;49.3;49.3;11;11.3;28.7;0.0;
13/02/2025 23:59:15;100;0;163.35;-4;-29.16;-6.15;535.7;15.00;76134;2839.022;-1759.613;1;163;-100;-96.8;49.3;49.2;11;11.3;28.7;0.0;
13/02/2025 23:59:35;100;0;164.24;-4;-29.30;-5.67;539.9;14.90;76130;2839.020;-1759.612;1;163;-100;-96.8;49.3;49.2;11;11.7;28.7;0.0;
13/02/2025 23:59:55;100;0;162.64;-4;-27.98;-5.23;543.8;14.90;76118;2839.018;-1759.611;1;163;-100;-96.8;49.9;50.1;11;11.3;28.7;0.0;
14/02/2025 00:00:15;100;0;164.38;-4;-30.17;-5.57;547.6;14.80;76115;2839.016;-1759.611;1;162;-100;-96.8;49.9;50.2;11;11.3;28.7;0.0;
14/02/2025 00:00:35;100;0;167.44;-4;-31.02;-5.55;551.7;14.80;76105;2839.013;-1759.611;1;162;-100;-95.2;49.9;50.2;11;11.3;28.7;0.0;
14/02/2025 00:00:55;100;0;166.80;-4;-31.04;-5.65;556.0;14.80;76110;2839.011;-1759.611;1;162;-100;-96.8;49.9;50.4;11;11.7;28.7;0.0;
14/02/2025 00:01:15;100;0;167.37;-4;-31.17;-5.90;560.3;14.70;76101;2839.009;-1759.610;1;162;-100;-96.8;49.9;50.2;11;11.3;28.7;0.0;
14/02/2025 00:01:35;100;0;165.73;-4;-31.11;-5.94;564.7;14.70;76097;2839.006;-1759.610;1;162;-100;-96.8;49.9;50.2;11;11.3;28.7;0.0;
14/02/2025 00:01:55;100;0;164.45;-4;-31.38;-5.87;569.1;14.60;76093;2839.004;-1759.609;1;162;-100;-96.8;49.9;50.2;11;11.7;28.6;0.0;
14/02/2025 00:02:15;100;0;165.41;-4;-31.13;-5.83;573.6;14.60;76097;2839.002;-1759.609;1;162;-100;-98.4;49.9;50.2;11;11.3;28.7;0.0;
14/02/2025 00:02:36;100;0;167.67;-4;-30.98;-5.94;578.0;14.60;76077;2838.999;-1759.609;1;162;-100;-98.4;49.9;50.2;13;13.1;28.6;0.0;
14/02/2025 00:02:56;100;0;169.34;-4;-31.60;-4.93;582.4;14.50;76065;2838.997;-1759.609;1;162;-100;-96.8;49.9;50.2;13;13.5;28.7;0.0;
14/02/2025 00:03:16;100;0;166.51;-4;-31.91;-4.93;586.9;14.50;76064;2838.994;-1759.608;1;162;-100;-96.8;49.9;50.4;13;13.5;28.7;0.0;
14/02/2025 00:03:36;100;0;165.00;-4;-31.84;-4.96;591.5;14.50;76054;2838.992;-1759.608;1;162;-100;-96.8;49.9;50.4;11;10.8;28.7;0.0;
14/02/2025 00:03:56;100;0;164.19;-4;-31.58;-6.01;596.1;14.40;76051;2838.990;-1759.607;1;162;-100;-96.8;49.9;50.2;11;11.3;28.7;0.0;
14/02/2025 00:04:16;100;0;164.65;-4;-31.59;-5.95;600.6;14.40;76042;2838.987;-1759.607;1;162;-100;-96.8;49.9;50.2;11;10.8;28.6;0.0;
14/02/2025 00:04:36;100;0;162.27;-4;-31.38;-6.18;605.2;14.30;76022;2838.985;-1759.606;1;162;-100;-95.2;49.9;50.2;11;11.3;28.7;0.0;
14/02/2025 00:04:56;100;0;163.89;-4;-30.91;-6.03;609.5;14.30;76031;2838.982;-1759.606;1;161;-100;-96.8;49.9;50.2;11;11.3;28.7;0.0;
14/02/2025 00:05:16;100;0;161.54;-4;-29.74;-6.07;613.7;14.30;76022;2838.980;-1759.605;1;161;-100;-96.8;49.9;50.4;11;11.3;28.6;0.0;
14/02/2025 00:05:36;100;0;162.40;-4;-30.12;-6.33;617.4;14.30;76015;2838.978;-1759.605;1;161;-100;-96.8;49.9;50.4;11;11.3;28.7;0.0;
14/02/2025 00:05:56;100;0;165.53;-4;-31.23;-6.13;621.1;14.20;75982;2838.977;-1759.604;1;161;-100;-96.8;49.9;50.2;11;11.3;28.7;0.0;
14/02/2025 00:06:16;100;0;167.90;-4;-30.86;-6.07;625.2;14.20;75984;2838.974;-1759.604;1;161;-100;-96.8;49.9;50.4;13;13.1;28.6;0.0;
14/02/2025 00:06:36;100;0;165.08;-4;-31.12;-4.87;629.1;14.20;75984;2838.972;-1759.604;1;161;-100;-96.8;49.9;50.2;13;13.5;28.7;0.0;
14/02/2025 00:06:56;100;0;167.38;-4;-31.23;-4.90;633.0;14.10;75970;2838.970;-1759.604;1;161;-100;-96.8;49.9;50.4;13;13.1;28.7;0.0;
14/02/2025 00:07:16;100;0;163.10;-4;-31.99;-4.88;637.1;14.10;75967;2838.968;-1759.603;1;161;-100;-96.8;49.9;50.2;11;10.8;28.7;0.0;
14/02/2025 00:07:36;100;0;166.03;-4;-32.02;-6.35;641.1;14.00;75961;2838.966;-1759.603;1;161;-100;-96.8;49.3;49.3;11;11.3;28.7;0.0;
14/02/2025 00:07:56;100;0;167.58;-4;-28.94;-5.37;645.3;14.00;75940;2838.964;-1759.603;1;161;-100;-96.8;49.6;49.9;13;13.1;28.6;0.0;
14/02/2025 00:08:16;100;0;165.37;-4;-31.03;-5.38;649.1;14.00;75927;2838.962;-1759.602;1;161;-100;-96.8;49.6;49.9;13;14.0;28.7;0.0;
14/02/2025 00:08:36;100;0;163.53;-4;-30.21;-4.71;653.1;13.90;75929;2838.960;-1759.602;1;161;-100;-96.8;49.6;50.1;11;10.8;28.6;0.0;
14/02/2025 00:08:56;100;0;163.32;-4;-30.65;-5.98;656.8;13.90;75926;2838.958;-1759.602;1;161;-100;-96.8;49.6;49.9;11;10.8;28.7;0.0;
14/02/2025 00:09:16;100;0;160.12;-4;-30.44;-6.17;660.5;13.90;75919;2838.956;-1759.601;1;161;-100;-96.8;49.6;49.9;11;10.8;28.7;0.0;
14/02/2025 00:09:36;100;0;160.87;-4;-30.12;-6.29;664.2;13.80;75909;2838.954;-1759.600;1;161;-100;-96.8;49.6;50.2;11;10.8;28.7;0.0;
14/02/2025 00:09:56;100;0;160.55;-4;-30.29;-5.48;667.8;13.80;75911;2838.953;-1759.600;1;161;-100;-96.8;49.6;49.9;11;10.8;28.6;0.0;
14/02/2025 00:10:16;100;0;156.91;-4;-29.60;-6.49;671.6;13.70;75896;2838.951;-1759.599;1;161;-100;-96.8;49.6;50.1;11;10.8;28.7;0.0;
14/02/2025 00:10:36;100;0;163.98;-4;-31.32;-6.78;675.3;13.70;75888;2838.949;-1759.599;1;161;-100;-96.8;49.6;50.1;11;10.8;28.7;0.0;
14/02/2025 00:10:56;100;0;160.66;-4;-32.67;-6.64;679.2;13.70;75888;2838.947;-1759.598;1;160;-100;-98.4;48.8;48.7;11;10.8;28.6;0.0;
14/02/2025 00:11:16;100;0;161.99;-4;-31.51;-5.40;683.4;13.70;75885;2838.945;-1759.598;1;160;-100;-96.8;48.8;48.5;11;10.8;28.7;0.0;
14/02/2025 00:11:36;100;0;164.64;-4;-28.90;-6.27;687.3;13.60;75889;2838.943;-1759.597;1;160;-100;-96.8;49.1;49.3;11;10.8;28.7;0.0;
14/02/2025 00:11:56;100;0;159.85;-4;-28.46;-6.63;691.6;13.60;75877;2838.940;-1759.596;1;160;-100;-96.8;49.6;49.6;11;10.8;28.7;0.0;
14/02/2025 00:12:16;100;0;155.67;-4;-28.75;-6.03;695.7;13.60;75870;2838.938;-1759.595;1;160;-100;-96.8;50.0;49.9;11;10.8;28.7;0.0;
14/02/2025 00:12:36;100;0;153.32;-4;-30.23;-6.32;699.6;13.50;75872;2838.936;-1759.594;1;160;-100;-96.8;50.0;50.1;11;10.8;28.7;40.4;
14/02/2025 00:12:56;100;0;153.01;-4;-31.34;-6.42;703.9;13.50;75855;2838.934;-1759.593;1;161;-100;-96.8;50.0;50.2;11;10.8;28.6;38.3;
14/02/2025 00:13:16;100;0;148.41;-4;-30.74;-5.64;708.4;13.50;75855;2838.932;-1759.591;1;161;-100;-95.2;50.0;50.1;7;7.2;28.7;33.3;
14/02/2025 00:13:27;118;0;152.32;-4;-30.82;-8.19;710.8;13.50;75851;2838.931;-1759.590;1;161;220;-91.9;22.0;22.1;14;14.4;28.7;31.0;
14/02/2025 00:13:37;118;0;123.96;-4;-16.92;-5.02;712.5;13.40;75825;2838.930;-1759.588;1;161;220;37.1;22.0;21.8;14;14.4;27.8;-1.0;
14/02/2025 00:13:47;118;0;113.20;-4;11.23;-4.74;713.1;13.40;75563;2838.931;-1759.588;1;161;220;161.3;22.0;22.1;14;14.4;27.8;-1.0;
14/02/2025 00:13:57;118;0;107.97;-4;25.86;-5.43;712.6;13.40;75301;2838.931;-1759.588;1;161;220;222.6;22.0;22.2;14;14.4;27.8;-1.0;
14/02/2025 00:14:07;118;0;151.61;-4;27.02;-5.30;711.4;13.40;75193;2838.931;-1759.587;1;161;220;222.6;22.0;22.2;14;14.4;28.6;-1.0;
14/02/2025 00:14:27;117;0;145.26;-4;28.54;-5.44;708.9;13.40;75198;2838.930;-1759.586;1;161;220;222.6;22.0;22.2;14;14.4;28.6;-1.0;
14/02/2025 00:14:47;117;0;143.17;-4;28.27;-5.36;705.6;13.40;75188;2838.929;-1759.585;1;162;220;222.6;21.5;21.4;49;49.2;28.6;-1.0;
14/02/2025 00:15:07;117;0;146.48;-4;31.52;13.98;703.0;13.30;75182;2838.928;-1759.584;1;162;220;222.6;21.5;21.2;44;44.2;28.6;-1.0;
14/02/2025 00:15:27;117;0;148.57;-4;32.12;10.94;699.9;13.30;75186;2838.927;-1759.583;1;162;220;221.0;22.2;22.2;42;41.5;28.6;-1.0;
14/02/2025 00:15:47;117;0;147.45;-4;33.37;9.55;697.0;13.30;75187;2838.927;-1759.583;1;162;220;221.0;23.2;23.1;42;41.5;28.7;-1.0;
14/02/2025 00:16:07;117;0;149.81;-4;29.41;9.16;694.0;13.30;75181;2838.926;-1759.582;1;162;220;221.0;23.2;23.3;42;41.5;28.6;-1.0;
14/02/2025 00:16:27;117;0;153.36;-4;28.73;8.85;691.3;13.20;75171;2838.925;-1759.581;1;162;220;222.6;22.8;22.8;40;39.7;28.6;-1.0;
14/02/2025 00:16:47;117;0;153.11;-4;26.89;9.23;688.8;13.20;75165;2838.924;-1759.581;1;162;220;221.0;21.9;21.8;40;39.7;28.6;-1.0;
14/02/2025 00:17:07;117;0;157.00;-4;32.72;8.71;686.3;13.20;75160;2838.923;-1759.580;1;162;220;222.6;22.7;22.7;40;39.7;28.7;-1.0;
14/02/2025 00:17:27;117;0;155.36;-4;29.84;8.47;683.4;13.20;75159;2838.922;-1759.580;1;162;220;222.6;22.7;23.0;40;39.7;28.7;-1.0;
14/02/2025 00:17:47;117;0;162.31;-4;28.04;8.20;680.8;13.10;75150;2838.921;-1759.580;1;162;220;222.6;22.1;22.1;40;39.7;28.7;-1.0;
14/02/2025 00:18:07;117;0;164.01;-4;32.64;8.20;678.5;13.10;75156;2838.920;-1759.580;1;162;220;222.6;22.9;23.0;38;37.5;28.6;-1.0;
14/02/2025 00:18:27;117;0;160.06;-4;30.48;6.80;675.7;13.10;75152;2838.919;-1759.579;1;162;220;222.6;22.9;23.0;40;40.2;28.7;-1.0;
14/02/2025 00:18:47;117;0;161.42;-4;28.51;9.01;673.1;13.10;75145;2838.918;-1759.579;1;162;220;222.6;22.4;22.4;40;40.6;28.6;-1.0;
14/02/2025 00:19:07;117;0;163.08;-4;29.59;8.75;670.7;13.00;75146;2838.917;-1759.579;1;162;220;222.6;22.4;22.2;40;40.6;28.7;-1.0;
14/02/2025 00:19:27;117;0;164.73;-4;31.70;8.90;668.4;13.00;75144;2838.917;-1759.579;1;162;220;222.6;22.4;22.2;38;37.9;28.6;-1.0;
14/02/2025 00:19:47;117;0;164.98;-4;31.05;7.51;666.1;13.00;75149;2838.916;-1759.579;1;162;220;222.6;22.4;22.2;38;37.5;28.6;-1.0;
14/02/2025 00:20:07;117;0;165.14;-4;31.67;6.29;663.7;13.00;75138;2838.916;-1759.579;1;162;220;222.6;22.4;22.2;38;37.5;28.6;-1.0;
14/02/2025 00:20:27;117;0;172.11;-4;31.06;6.88;661.0;13.00;75139;2838.915;-1759.580;1;161;220;222.6;22.4;22.1;30;29.8;28.7;-1.0;
14/02/2025 00:20:47;117;0;162.44;-4;27.27;2.30;658.7;12.90;75126;2838.914;-1759.580;1;161;220;224.2;21.6;21.4;39;38.8;28.6;-1.0;
14/02/2025 00:21:07;117;0;169.77;-4;34.72;7.66;656.5;12.90;75133;2838.913;-1759.580;1;161;220;224.2;23.0;23.0;32;31.6;28.7;-1.0;
14/02/2025 00:21:27;117;0;168.71;-4;26.86;4.54;653.8;12.90;75114;2838.912;-1759.580;1;161;220;224.2;22.1;21.9;36;36.1;28.6;-1.0;
14/02/2025 00:21:47;117;0;163.13;-4;35.20;4.56;652.1;12.90;75119;2838.912;-1759.580;1;161;240;243.5;23.6;23.7;36;36.1;28.7;-1.0;
14/02/2025 00:22:07;117;0;163.92;-4;29.90;7.60;650.0;12.90;75073;2838.911;-1759.580;1;161;240;241.9;23.6;23.9;38;37.9;28.6;-1.0;
14/02/2025 00:22:27;117;0;168.26;-4;31.88;7.00;647.3;12.90;75074;2838.910;-1759.580;1;161;240;241.9;23.6;23.9;35;34.7;28.7;-1.0;
14/02/2025 00:22:47;117;0;170.51;-4;27.02;5.80;644.4;12.80;75078;2838.909;-1759.581;1;161;240;243.5;22.7;22.7;35;34.7;28.7;-1.0;
14/02/2025 00:23:07;117;0;176.22;-4;39.18;4.52;641.1;12.80;75054;2838.908;-1759.581;1;161;240;243.5;25.5;25.6;24;23.9;28.6;-1.0;
14/02/2025 00:23:27;117;0;160.42;-4;25.36;0.84;636.5;12.80;75057;2838.905;-1759.580;1;161;240;243.5;24.1;24.0;39;38.8;28.6;-1.0;
14/02/2025 00:23:47;117;0;143.63;-4;21.41;9.19;634.0;12.80;75078;2838.903;-1759.578;1;161;240;243.5;21.5;21.2;47;47.4;28.6;-1.0;
14/02/2025 00:24:07;117;0;143.21;-4;31.75;12.51;631.5;12.80;75065;2838.903;-1759.578;1;161;240;243.5;21.5;21.1;47;47.4;28.7;-1.0;
14/02/2025 00:24:27;117;0;158.92;-4;33.53;14.89;627.7;12.80;75076;2838.902;-1759.577;1;161;240;243.5;22.6;22.7;39;38.8;28.6;-1.0;
14/02/2025 00:24:47;117;0;157.08;-4;27.88;7.76;623.7;12.70;75069;2838.899;-1759.576;1;161;240;243.5;22.0;21.8;39;38.4;28.7;-1.0;
14/02/2025 00:25:07;117;0;154.93;-4;29.18;6.70;620.6;12.70;75069;2838.898;-1759.575;1;161;240;243.5;22.0;21.5;39;38.4;28.7;-1.0;
14/02/2025 00:25:27;117;0;143.18;-4;35.44;7.53;616.6;12.70;75066;2838.897;-1759.574;1;161;240;243.5;23.6;23.9;48;47.8;28.7;-1.0;
14/02/2025 00:25:47;117;0;143.33;-4;29.27;12.51;612.3;12.70;75074;2838.895;-1759.572;1;162;240;243.5;23.6;23.9;51;51.0;28.7;-1.0;
14/02/2025 00:26:07;117;0;146.34;-4;27.36;14.50;608.8;12.70;75090;2838.893;-1759.571;1;162;240;243.5;22.8;22.5;45;45.1;28.6;-1.0;
14/02/2025 00:26:27;117;0;148.69;-4;28.71;11.67;605.6;12.70;75089;2838.892;-1759.569;1;162;240;243.5;22.4;22.2;42;42.0;28.6;-1.0;
14/02/2025 00:26:47;117;0;146.93;-4;29.39;9.55;602.5;12.70;75078;2838.891;-1759.568;1;162;240;243.5;22.4;22.2;45;45.1;28.6;-1.0;
14/02/2025 00:27:07;117;0;147.85;-4;29.12;11.63;599.3;12.70;75084;2838.890;-1759.567;1;162;240;243.5;22.4;22.2;45;45.6;28.6;-1.0;
14/02/2025 00:27:27;117;0;150.35;-4;29.52;11.26;596.2;12.70;75078;2838.889;-1759.566;1;162;240;243.5;22.4;22.2;42;41.5;28.6;-1.0;
14/02/2025 00:27:47;117;0;149.51;-4;30.48;8.99;593.3;12.70;75085;2838.888;-1759.565;1;162;240;243.5;22.4;22.2;42;41.1;28.6;-1.0;
14/02/2025 00:28:07;117;0;145.94;-4;30.36;9.08;590.1;12.70;75087;2838.886;-1759.564;1;163;240;243.5;22.4;22.2;46;46.5;28.6;-1.0;
14/02/2025 00:28:27;117;0;143.85;-4;30.56;12.07;587.0;12.60;75080;2838.886;-1759.563;1;163;240;243.5;22.4;22.2;49;49.2;28.7;-1.0;
14/02/2025 00:28:47;117;0;145.35;-4;30.44;13.66;584.1;12.70;75093;2838.885;-1759.562;1;163;240;243.5;22.4;22.2;47;46.5;28.6;-1.0;
14/02/2025 00:29:07;117;0;144.25;-4;30.42;11.96;580.8;12.60;75089;2838.884;-1759.561;1;163;240;241.9;22.4;22.2;47;46.5;28.7;-1.0;
14/02/2025 00:29:27;117;0;145.10;-4;30.17;11.90;577.9;12.60;75100;2838.883;-1759.560;1;163;240;241.9;22.4;22.2;47;46.5;28.6;-1.0;
14/02/2025 00:29:47;117;0;147.70;-4;29.97;11.85;574.6;12.60;75086;2838.881;-1759.559;1;163;240;243.5;22.4;22.2;44;44.2;28.6;-1.0;
14/02/2025 00:30:07;117;0;146.44;-4;30.52;10.12;571.6;12.60;75080;2838.881;-1759.558;1;164;240;245.2;22.4;22.2;44;43.8;28.7;-1.0;
14/02/2025 00:30:27;117;0;146.58;-4;30.32;10.34;568.3;12.60;75081;2838.879;-1759.557;1;164;240;243.5;22.4;22.2;47;46.9;28.7;-1.0;
14/02/2025 00:30:47;117;0;147.15;-4;30.30;12.60;565.0;12.60;75084;2838.878;-1759.556;1;164;240;243.5;22.4;22.2;47;47.4;28.7;-1.0;
14/02/2025 00:31:07;117;0;146.91;-4;30.34;12.34;561.9;12.60;75087;2838.877;-1759.555;1;164;240;243.5;22.4;22.2;45;45.1;28.6;-1.0;
14/02/2025 00:31:27;117;0;147.56;-4;30.48;10.91;558.8;12.60;75082;2838.876;-1759.554;1;164;240;245.2;22.4;22.2;45;44.2;28.7;-1.0;
14/02/2025 00:31:47;117;0;148.77;-4;29.75;11.43;555.9;12.60;75081;2838.875;-1759.553;1;164;240;243.5;22.4;22.2;43;42.4;28.6;-1.0;
14/02/2025 00:32:07;117;0;147.88;-4;30.86;9.79;552.8;12.60;75079;2838.874;-1759.552;1;165;240;243.5;22.4;22.2;45;45.1;28.6;-1.0;
14/02/2025 00:32:27;117;0;150.27;-4;30.49;11.48;549.6;12.60;75082;2838.873;-1759.551;1;165;240;243.5;22.4;22.2;43;42.9;28.7;-1.0;
14/02/2025 00:32:47;117;0;150.11;-4;31.67;9.28;546.3;12.60;75082;2838.872;-1759.550;1;165;240;241.9;22.4;22.4;43;42.4;28.6;-1.0;
14/02/2025 00:33:07;117;0;149.36;-4;30.11;9.71;542.8;12.60;75093;2838.870;-1759.549;1;165;240;243.5;22.4;22.2;45;45.1;28.6;-1.0;
14/02/2025 00:33:27;117;0;152.01;-4;32.26;11.54;539.6;12.60;75087;2838.869;-1759.548;1;165;240;243.5;23.1;23.1;42;41.5;28.6;-1.0;
14/02/2025 00:33:47;117;0;153.80;-4;29.14;8.75;536.1;12.60;75085;2838.868;-1759.547;1;165;240;243.5;23.1;23.1;42;41.5;28.6;-1.0;
14/02/2025 00:34:07;117;0;157.72;-4;27.35;8.06;533.1;12.60;75074;2838.866;-1759.546;1;165;240;243.5;22.3;22.2;40;39.7;28.7;-1.0;
14/02/2025 00:34:27;117;0;159.25;-4;29.77;8.75;529.9;12.60;75085;2838.865;-1759.546;1;165;240;241.9;22.3;21.9;40;39.7;28.7;-1.0;
14/02/2025 00:34:47;117;0;161.31;-4;30.68;7.94;526.7;12.60;75091;2838.863;-1759.546;1;165;240;243.5;22.3;22.1;40;39.7;28.7;-1.0;
14/02/2025 00:35:07;117;0;161.04;-4;30.09;8.11;523.4;12.60;75082;2838.862;-1759.545;1;165;240;243.5;22.3;22.1;40;39.7;28.7;-1.0;
14/02/2025 00:35:27;117;0;156.70;-4;30.40;8.38;520.2;12.60;75081;2838.861;-1759.545;1;165;240;243.5;22.3;21.9;40;39.3;28.6;-1.0;
14/02/2025 00:35:47;117;0;160.16;-4;30.13;7.98;517.1;12.60;75088;2838.859;-1759.544;1;165;240;243.5;22.3;22.1;40;39.7;28.7;-1.0;
14/02/2025 00:36:07;117;0;161.08;-4;29.94;8.47;514.0;12.60;75077;2838.858;-1759.544;1;165;240;243.5;22.3;22.1;40;39.3;28.7;-1.0;
14/02/2025 00:36:28;117;0;160.67;-4;29.69;7.78;510.9;12.60;75074;2838.857;-1759.543;1;165;240;243.5;22.3;22.1;40;39.3;28.7;-1.0;
14/02/2025 00:36:48;117;0;159.33;-4;30.08;8.08;508.1;12.60;75077;2838.855;-1759.543;1;165;240;243.5;22.3;22.1;40;39.7;28.7;-1.0;
14/02/2025 00:37:08;117;0;161.74;-4;29.81;8.17;505.0;12.60;75085;2838.854;-1759.543;1;165;240;243.5;22.3;21.9;40;39.3;28.7;-1.0;
14/02/2025 00:37:28;117;0;165.58;-4;30.02;8.00;501.9;12.60;75077;2838.853;-1759.543;1;165;240;243.5;22.3;22.1;40;39.3;28.7;-1.0;
14/02/2025 00:37:48;117;0;167.36;-4;30.71;8.01;498.7;12.60;75085;2838.851;-1759.543;1;165;240;243.5;22.3;21.9;40;39.3;28.6;-1.0;
14/02/2025 00:38:08;117;0;166.06;-4;29.74;8.23;495.4;12.60;75090;2838.850;-1759.543;1;165;240;243.5;22.3;22.1;40;39.3;28.6;-1.0;
14/02/2025 00:38:28;117;0;166.31;-4;29.85;7.96;492.2;12.60;75085;2838.848;-1759.542;1;165;240;243.5;22.3;22.1;40;39.3;28.6;-1.0;
14/02/2025 00:38:48;117;0;165.85;-4;30.18;8.13;489.0;12.60;75098;2838.847;-1759.542;1;165;240;243.5;22.3;22.1;40;39.3;28.6;-1.0;
14/02/2025 00:39:08;117;0;166.97;-4;30.24;8.13;485.7;12.60;75087;2838.845;-1759.542;1;165;240;243.5;22.3;22.1;40;39.7;28.7;-1.0;
14/02/2025 00:39:28;117;0;168.43;-4;30.09;8.09;482.5;12.60;75090;2838.843;-1759.542;1;164;240;243.5;22.3;22.1;38;37.5;28.6;-1.0;
14/02/2025 00:39:48;117;0;168.00;-4;29.52;6.77;479.3;12.60;75092;2838.842;-1759.542;1;164;240;243.5;22.3;21.9;38;37.0;28.7;-1.0;
14/02/2025 00:40:08;117;0;169.82;-4;29.88;6.92;476.1;12.60;75090;2838.840;-1759.542;1;164;240;243.5;22.3;22.1;38;37.0;28.7;-1.0;
14/02/2025 00:40:28;117;0;172.64;-4;29.67;6.79;473.1;12.60;75106;2838.839;-1759.543;1;164;240;243.5;22.3;21.9;33;32.9;28.7;-1.0;
14/02/2025 00:40:48;117;0;170.11;-4;28.72;4.50;470.0;12.60;75114;2838.838;-1759.543;1;164;240;243.5;21.9;21.9;37;37.0;28.6;-1.0;
14/02/2025 00:41:08;117;0;170.72;-4;29.33;7.11;467.4;12.70;75125;2838.836;-1759.543;1;164;240;243.5;21.9;21.9;35;35.2;28.6;-1.0;
14/02/2025 00:41:28;117;0;170.99;-4;29.55;6.02;464.6;12.70;75133;2838.835;-1759.543;1;163;240;243.5;21.9;21.9;35;35.6;28.7;-1.0;
14/02/2025 00:41:48;117;0;171.62;-4;29.62;6.04;461.9;12.70;75138;2838.834;-1759.543;1;163;240;241.9;21.9;21.9;33;32.9;28.6;-1.0;
14/02/2025 00:42:08;117;0;171.14;-4;29.79;5.49;459.2;12.70;75148;2838.833;-1759.544;1;163;240;243.5;21.9;21.9;33;34.3;28.7;-1.0;
14/02/2025 00:42:28;117;0;171.14;-4;29.68;5.41;456.3;12.70;75135;2838.832;-1759.544;1;163;240;243.5;21.9;22.1;33;34.3;28.6;-1.0;
14/02/2025 00:42:48;117;0;172.02;-4;29.75;5.27;453.4;12.70;75145;2838.830;-1759.544;1;163;240;241.9;21.9;22.1;33;34.3;28.7;-1.0;
14/02/2025 00:43:08;117;0;173.38;-4;29.41;5.46;450.5;12.70;75142;2838.829;-1759.544;1;162;240;243.5;21.9;21.9;30;29.8;28.6;-1.0;
14/02/2025 00:43:28;117;0;173.67;-4;29.37;2.79;447.7;12.70;75153;2838.828;-1759.545;1;162;240;243.5;21.9;22.1;30;29.3;28.6;-1.0;
14/02/2025 00:43:48;117;0;177.38;-4;28.87;3.12;444.8;12.70;75159;2838.826;-1759.545;1;162;240;243.5;21.6;21.4;24;23.9;28.6;-1.0;
14/02/2025 00:44:08;117;0;176.98;-4;29.96;-0.66;441.9;12.70;75157;2838.825;-1759.546;1;161;240;245.2;21.6;21.4;24;23.5;28.6;-1.0;
14/02/2025 00:44:28;117;0;173.06;-4;30.52;-0.42;439.0;12.70;75161;2838.824;-1759.546;1;161;240;243.5;21.6;21.4;31;31.1;28.6;-1.0;
14/02/2025 00:44:48;117;0;171.27;-4;31.45;3.90;435.7;12.80;75160;2838.822;-1759.546;1;161;240;245.2;21.6;21.4;33;32.9;28.7;-1.0;
14/02/2025 00:45:08;117;0;175.72;-4;29.69;4.90;432.4;12.80;75166;2838.821;-1759.547;1;161;240;243.5;21.6;21.4;26;25.7;28.6;-1.0;
14/02/2025 00:45:28;117;0;170.38;-4;31.30;1.13;429.4;12.80;75158;2838.819;-1759.547;1;160;240;243.5;21.6;21.4;33;32.9;28.6;-1.0;
14/02/2025 00:45:48;117;0;165.37;-4;28.66;5.06;426.4;12.80;75157;2838.818;-1759.547;1;160;240;243.5;21.2;20.8;38;37.9;28.6;-1.0;
14/02/2025 00:46:08;117;0;164.02;-4;32.40;7.83;423.6;12.80;75159;2838.817;-1759.547;1;160;240;243.5;21.9;21.9;38;38.4;28.7;-1.0;
14/02/2025 00:46:28;117;0;166.05;-4;30.01;7.52;420.9;12.80;75172;2838.816;-1759.547;1;160;240;243.5;21.9;22.1;38;38.4;28.7;-1.0;
14/02/2025 00:46:48;117;0;164.15;-4;30.32;7.72;418.5;12.80;75161;2838.815;-1759.547;1;160;240;243.5;21.9;22.1;38;38.4;28.6;-1.0;
14/02/2025 00:47:08;117;0;159.74;-4;30.67;7.81;415.9;12.80;75166;2838.814;-1759.546;1;160;240;243.5;21.9;22.1;38;38.4;28.7;-1.0;
14/02/2025 00:47:28;117;0;158.95;-4;30.76;7.72;413.2;12.80;75168;2838.813;-1759.546;1;160;240;243.5;21.9;22.1;38;38.4;28.6;-1.0;
14/02/2025 00:47:48;117;0;156.46;-4;30.41;7.71;410.5;12.80;75171;2838.812;-1759.546;1;160;240;245.2;21.9;22.2;38;38.4;28.7;-1.0;
14/02/2025 00:48:08;117;0;154.00;-4;30.29;7.73;407.4;12.80;75171;2838.811;-1759.545;1;160;240;241.9;21.9;22.1;38;38.4;28.7;-1.0;
14/02/2025 00:48:28;117;0;151.82;-4;30.56;7.81;404.5;12.90;75183;2838.810;-1759.544;1;160;240;241.9;21.9;22.1;40;40.2;28.7;-1.0;
14/02/2025 00:48:48;117;0;149.86;-4;30.96;8.84;401.3;12.90;75177;2838.809;-1759.543;1;160;240;243.5;21.9;22.2;40;40.2;28.7;-1.0;
14/02/2025 00:49:08;117;0;148.74;-4;30.12;8.88;398.0;12.90;75182;2838.808;-1759.542;1;160;240;241.9;21.9;22.2;42;42.0;28.6;-1.0;
14/02/2025 00:49:28;117;0;150.58;-4;30.16;9.92;394.6;12.90;75184;2838.806;-1759.541;1;160;240;243.5;21.9;22.1;42;42.4;28.6;-1.0;
14/02/2025 00:49:48;117;0;151.33;-4;30.03;9.93;391.4;12.90;75186;2838.805;-1759.540;1;161;240;245.2;21.9;22.2;40;40.2;28.7;-1.0;
14/02/2025 00:50:08;117;0;153.78;-4;29.62;8.35;388.2;12.90;75173;2838.804;-1759.540;1;161;240;243.5;21.9;22.2;40;39.7;28.7;-1.0;
14/02/2025 00:50:28;117;0;154.57;-4;30.16;8.36;385.1;12.90;75183;2838.803;-1759.539;1;161;240;243.5;21.9;22.1;40;39.7;28.7;-1.0;
14/02/2025 00:50:48;117;0;156.52;-4;29.77;8.44;382.0;12.90;75177;2838.801;-1759.538;1;161;240;243.5;21.9;22.1;40;39.7;28.7;-1.0;
14/02/2025 00:51:08;117;0;157.18;-4;29.98;8.47;379.0;12.90;75185;2838.800;-1759.538;1;161;240;243.5;21.9;22.1;40;39.7;28.6;-1.0;
14/02/2025 00:51:28;117;0;159.87;-4;30.04;8.39;376.1;12.90;75176;2838.799;-1759.538;1;161;240;243.5;21.9;22.2;40;40.2;28.6;-1.0;
14/02/2025 00:51:48;117;0;162.98;-4;29.99;8.57;373.1;13.00;75186;2838.798;-1759.537;1;161;240;245.2;21.9;22.2;40;39.7;28.6;-1.0;
14/02/2025 00:52:08;117;0;165.63;-4;30.19;8.41;370.1;13.00;75192;2838.796;-1759.537;1;160;240;243.5;21.9;22.2;37;34.7;28.6;-1.0;
14/02/2025 00:52:28;117;0;167.98;-4;30.16;6.67;367.1;13.00;75192;2838.795;-1759.537;1;160;240;243.5;21.9;22.1;35;34.3;28.6;-1.0;
14/02/2025 00:52:48;117;0;167.66;-4;30.20;5.83;364.1;13.00;75202;2838.794;-1759.537;1;160;240;243.5;21.9;22.1;35;35.2;28.7;-1.0;
14/02/2025 00:53:08;117;0;170.42;-4;29.41;5.89;361.1;13.00;75202;2838.792;-1759.537;1;160;240;243.5;21.9;22.1;32;32.0;28.6;-1.0;
14/02/2025 00:53:28;117;0;172.61;-4;29.46;4.06;358.2;13.00;75214;2838.791;-1759.538;1;159;240;243.5;21.9;22.2;29;28.4;28.6;-1.0;
14/02/2025 00:53:48;117;0;172.71;-4;29.33;2.99;355.4;13.00;75208;2838.789;-1759.538;1;159;240;245.2;21.9;22.1;29;29.8;28.6;-1.0;
14/02/2025 00:54:08;117;0;173.36;-4;29.30;2.90;352.5;13.00;75205;2838.788;-1759.538;1;159;240;243.5;21.9;22.2;29;29.8;28.6;-1.0;
14/02/2025 00:54:28;117;0;172.53;-4;29.28;3.07;349.6;13.00;75218;2838.787;-1759.539;1;158;240;241.9;21.9;22.1;29;30.2;28.7;-1.0;
14/02/2025 00:54:48;117;0;170.17;-4;28.94;3.11;346.9;13.10;75212;2838.785;-1759.539;1;158;240;243.5;21.6;21.5;31;31.6;28.6;-1.0;
14/02/2025 00:55:08;117;0;170.19;-4;30.01;3.89;344.1;13.10;75214;2838.784;-1759.539;1;158;240;245.2;21.6;21.4;31;31.6;28.7;-1.0;
14/02/2025 00:55:28;117;0;170.47;-4;30.61;3.95;341.3;13.10;75226;2838.783;-1759.539;1;157;240;243.5;21.6;21.4;31;31.6;28.6;-1.0;
14/02/2025 00:55:48;117;0;168.79;-4;30.87;3.89;338.3;13.10;75226;2838.782;-1759.539;1;157;240;243.5;21.6;21.2;33;33.4;28.7;-1.0;
14/02/2025 00:56:08;117;0;165.57;-4;31.07;5.10;335.1;13.10;75231;2838.781;-1759.539;1;157;240;245.2;21.6;21.2;36;36.1;28.6;-1.0;
14/02/2025 00:56:28;117;0;165.75;-4;30.90;6.55;332.0;13.10;75238;2838.779;-1759.539;1;157;240;243.5;21.6;21.4;36;36.1;28.7;-1.0;
14/02/2025 00:56:48;117;0;164.07;-4;31.03;6.66;328.9;13.10;75244;2838.778;-1759.539;1;156;240;243.5;21.6;21.4;36;36.1;28.7;-1.0;
14/02/2025 00:57:08;117;0;162.01;-4;31.19;6.63;325.8;13.10;75257;2838.777;-1759.539;1;156;240;243.5;21.6;21.2;38;37.9;28.6;-1.0;
14/02/2025 00:57:28;117;0;161.47;-4;31.03;7.72;322.6;13.20;75248;2838.775;-1759.538;1;156;240;243.5;21.6;21.2;38;38.8;28.7;-1.0;
14/02/2025 00:57:48;117;0;162.55;-4;31.33;7.67;319.3;13.20;75258;2838.774;-1759.538;1;156;240;243.5;21.6;21.2;38;38.8;28.7;-1.0;
14/02/2025 00:58:08;117;0;161.94;-4;30.93;7.72;316.1;13.20;75262;2838.772;-1759.538;1;156;240;241.9;21.6;21.2;38;38.8;28.6;-1.0;
14/02/2025 00:58:28;117;0;161.15;-4;31.04;7.70;312.8;13.20;75280;2838.771;-1759.537;1;155;240;243.5;21.6;21.2;38;38.8;28.7;-1.0;
14/02/2025 00:58:48;117;0;164.06;-4;30.90;7.59;309.5;13.20;75280;2838.770;-1759.537;1;155;240;243.5;21.6;21.2;36;36.1;28.7;-1.0;
14/02/2025 00:59:08;117;0;164.74;-4;30.65;6.54;306.4;13.30;75292;2838.768;-1759.537;1;155;240;245.2;21.6;21.2;36;36.6;28.7;-1.0;
14/02/2025 00:59:28;117;0;164.96;-4;30.61;6.45;303.2;13.30;75300;2838.767;-1759.537;1;155;240;243.5;21.6;21.4;36;36.6;28.7;-1.0;
14/02/2025 00:59:48;117;0;161.69;-4;30.14;6.10;300.2;13.30;75305;2838.766;-1759.537;1;154;240;243.5;21.6;21.2;38;38.4;28.6;-1.0;
14/02/2025 01:00:08;117;0;158.90;-4;31.17;7.82;297.5;13.30;75321;2838.765;-1759.536;1;154;240;243.5;21.6;21.2;38;38.8;28.6;-1.0;
14/02/2025 01:00:28;117;0;157.92;-4;31.18;7.81;294.5;13.30;75331;2838.764;-1759.536;1;154;240;243.5;21.6;21.4;38;38.8;28.6;-1.0;
14/02/2025 01:00:48;117;0;157.85;-4;31.22;7.85;291.5;13.30;75339;2838.762;-1759.535;1;154;240;243.5;21.6;21.4;38;38.8;28.7;-1.0;
14/02/2025 01:01:08;117;0;158.11;-4;30.67;7.72;288.5;13.40;75337;2838.761;-1759.535;1;154;240;243.5;21.6;21.2;38;38.8;28.7;-1.0;
14/02/2025 01:01:28;117;0;158.48;-4;31.50;7.92;285.6;13.40;75345;2838.760;-1759.535;1;154;240;243.5;21.6;21.2;38;38.8;28.6;-1.0;
14/02/2025 01:01:48;117;0;158.73;-4;31.50;7.60;282.5;13.40;75349;2838.759;-1759.534;1;154;240;243.5;21.6;21.2;38;38.8;28.7;-1.0;
14/02/2025 01:02:08;117;0;155.31;-4;31.40;8.30;279.6;13.40;75351;2838.758;-1759.534;1;154;240;243.5;21.6;21.4;38;38.8;28.7;-1.0;
14/02/2025 01:02:28;117;0;148.77;-4;30.88;7.49;276.5;13.40;75356;2838.757;-1759.533;1;154;240;243.5;21.6;21.4;38;38.8;28.6;-1.0;
14/02/2025 01:02:48;117;0;147.87;-4;30.93;7.77;273.2;13.50;75360;2838.756;-1759.532;1;154;240;245.2;21.6;21.4;38;38.8;28.6;-1.0;
14/02/2025 01:03:08;117;0;147.59;-4;30.95;7.78;270.0;13.50;75362;2838.755;-1759.531;1;154;240;243.5;21.6;21.2;38;38.8;28.6;-1.0;
14/02/2025 01:03:28;117;0;146.02;-4;30.93;7.84;266.5;13.50;75370;2838.754;-1759.530;1;155;240;243.5;21.6;21.2;41;41.5;28.7;-1.0;
14/02/2025 01:03:48;117;0;145.99;-4;30.89;9.38;263.2;13.50;75376;2838.753;-1759.528;1;155;240;245.2;21.6;21.2;41;41.5;28.6;-1.0;
14/02/2025 01:04:08;117;0;147.38;-4;31.27;9.45;259.8;13.50;75378;2838.752;-1759.527;1;155;240;241.9;21.6;21.4;41;41.5;28.6;-1.0;
14/02/2025 01:04:28;117;0;151.66;-4;31.47;9.47;256.4;13.60;75396;2838.750;-1759.526;1;156;240;241.9;21.6;21.2;39;38.8;28.7;-1.0;
14/02/2025 01:04:48;117;0;154.84;-4;30.59;7.82;253.0;13.60;75396;2838.749;-1759.526;1;156;240;245.2;21.6;21.2;39;38.4;28.6;-1.0;
14/02/2025 01:05:08;117;0;159.83;-4;31.47;7.60;249.4;13.60;75386;2838.747;-1759.525;1;155;240;245.2;21.6;21.2;39;38.4;28.7;-1.0;
14/02/2025 01:05:28;117;0;161.41;-4;31.21;7.57;245.7;13.60;75393;2838.745;-1759.525;1;155;240;243.5;21.6;21.2;39;38.4;28.6;-1.0;
14/02/2025 01:05:48;117;0;161.40;-4;31.00;7.48;241.9;13.70;75408;2838.744;-1759.524;1;155;240;243.5;21.6;21.2;39;38.4;28.6;-1.0;
14/02/2025 01:06:08;117;0;161.68;-4;30.78;7.58;238.1;13.70;75415;2838.742;-1759.524;1;154;240;243.5;21.6;21.2;37;34.7;28.7;-1.0;
14/02/2025 01:06:28;117;0;163.88;-4;30.66;6.88;234.3;13.70;75412;2838.740;-1759.523;1;154;240;245.2;21.6;21.4;35;33.4;28.6;-1.0;
14/02/2025 01:06:48;117;0;162.05;-4;30.40;6.20;230.6;13.70;75422;2838.738;-1759.523;1;154;240;243.5;21.6;21.2;37;37.0;28.6;-1.0;
14/02/2025 01:07:08;117;0;163.50;-4;30.82;7.22;226.9;13.80;75431;2838.736;-1759.522;1;153;240;245.2;21.6;21.4;37;37.9;28.7;-1.0;
14/02/2025 01:07:28;117;0;164.33;-4;30.76;7.21;223.2;13.80;75431;2838.734;-1759.522;1;153;240;245.2;21.6;21.2;35;34.7;28.6;-1.0;
14/02/2025 01:07:48;117;0;166.22;-4;30.83;6.43;219.5;13.80;75427;2838.733;-1759.522;1;152;240;245.2;21.6;21.2;32;32.0;28.6;-1.0;
14/02/2025 01:08:08;117;0;166.61;-4;30.66;5.84;215.7;13.80;75439;2838.731;-1759.522;1;151;240;243.5;21.6;21.4;32;34.7;28.7;-1.0;
14/02/2025 01:08:28;117;0;167.09;-4;30.89;5.82;212.0;13.80;75442;2838.729;-1759.522;1;150;240;243.5;21.6;21.2;29;28.9;28.7;-1.0;
14/02/2025 01:08:48;117;0;166.04;-4;30.34;3.18;208.2;13.90;75459;2838.727;-1759.521;1;149;240;243.5;21.6;21.2;29;30.2;28.6;-1.0;
14/02/2025 01:09:08;117;0;163.06;-4;30.37;3.26;204.6;13.90;75467;2838.725;-1759.521;1;149;240;243.5;21.6;21.2;34;33.8;28.6;-1.0;
14/02/2025 01:09:28;117;0;162.76;-4;30.74;5.30;201.0;13.90;75466;2838.723;-1759.520;1;148;240;245.2;21.6;21.2;34;34.3;28.6;-1.0;
14/02/2025 01:09:48;117;0;159.64;-4;30.13;5.38;197.3;13.90;75473;2838.722;-1759.520;1;147;240;245.2;21.6;21.2;34;33.8;28.6;-1.0;
14/02/2025 01:10:09;117;0;161.28;-4;30.29;5.25;193.8;14.00;75490;2838.720;-1759.519;1;147;240;245.2;21.6;21.2;34;34.3;28.6;-1.0;
14/02/2025 01:10:29;117;0;161.66;-4;30.20;5.26;190.3;14.00;75513;2838.718;-1759.519;1;146;240;243.5;21.6;21.2;34;34.3;28.6;-1.0;
14/02/2025 01:10:49;117;0;159.01;-4;30.19;5.35;186.9;14.00;75513;2838.717;-1759.518;1;145;240;245.2;21.6;21.2;36;36.1;28.6;-1.0;
14/02/2025 01:11:09;117;0;159.80;-4;30.43;6.68;183.6;14.00;75514;2838.715;-1759.518;1;145;240;245.2;21.6;21.4;36;36.6;28.6;-1.0;
14/02/2025 01:11:29;117;0;161.57;-4;30.72;6.72;180.2;14.10;75528;2838.714;-1759.517;1;144;240;243.5;21.6;21.2;32;32.0;28.6;-1.0;
14/02/2025 01:11:49;117;0;161.42;-4;30.27;4.59;176.7;14.10;75535;2838.712;-1759.517;1;143;240;243.5;21.6;21.2;32;32.5;28.6;-1.0;
14/02/2025 01:12:09;117;0;157.57;-4;30.37;4.59;173.5;14.10;75550;2838.711;-1759.516;1;142;240;243.5;21.6;21.2;35;35.2;28.7;-1.0;
14/02/2025 01:12:29;117;0;155.96;-4;30.33;6.34;170.3;14.20;75558;2838.709;-1759.516;1;141;240;245.2;21.6;21.2;35;36.1;28.7;-1.0;
14/02/2025 01:12:49;117;0;156.38;-4;30.35;6.30;167.2;14.20;75556;2838.708;-1759.515;1;141;240;243.5;21.6;21.2;35;36.1;28.7;-1.0;
14/02/2025 01:13:09;117;0;157.34;-4;30.48;6.37;164.0;14.20;75563;2838.707;-1759.515;1;140;240;245.2;21.6;21.2;35;36.1;28.7;-1.0;
14/02/2025 01:13:29;117;0;159.75;-4;30.57;6.32;160.7;14.30;75590;2838.705;-1759.514;1;139;240;245.2;21.6;21.4;32;31.1;28.7;-1.0;
14/02/2025 01:13:49;117;0;163.48;-4;29.95;4.20;157.4;14.30;75608;2838.704;-1759.514;1;137;240;245.2;21.6;21.2;23;22.6;28.7;-1.0;
14/02/2025 01:14:09;117;0;160.16;-4;29.82;-1.04;154.3;14.30;75614;2838.702;-1759.514;1;136;240;245.2;21.6;21.2;29;29.3;28.7;-1.0;
14/02/2025 01:14:29;117;0;156.73;-4;29.67;2.72;151.2;14.40;75629;2838.701;-1759.513;1;135;240;245.2;21.6;21.2;33;33.4;28.7;-1.0;
14/02/2025 01:14:49;117;0;155.16;-4;30.03;5.24;148.2;14.40;75631;2838.700;-1759.512;1;134;240;243.5;21.6;21.2;33;33.8;28.6;-1.0;
14/02/2025 01:15:09;117;0;155.68;-4;30.59;5.15;145.0;14.40;75629;2838.699;-1759.512;1;132;240;243.5;21.6;21.2;33;33.8;28.6;-1.0;
14/02/2025 01:15:29;117;0;153.25;-4;30.35;5.52;141.9;14.40;75647;2838.697;-1759.511;1;131;240;245.2;21.6;21.2;33;33.8;28.7;-1.0;
14/02/2025 01:15:49;117;0;148.48;-4;30.16;5.30;138.8;14.50;75653;2838.696;-1759.510;1;131;240;245.2;21.6;21.2;37;37.0;28.7;-1.0;
14/02/2025 01:16:09;117;0;150.19;-4;30.57;7.13;135.6;14.50;75663;2838.695;-1759.509;1;130;240;245.2;21.6;21.2;37;37.5;28.7;-1.0;
14/02/2025 01:16:29;117;0;147.73;-4;30.76;7.23;132.5;14.60;75671;2838.694;-1759.508;1;129;240;243.5;21.6;21.2;37;37.5;28.6;-1.0;
14/02/2025 01:16:49;117;0;149.01;-4;30.56;7.22;129.2;14.60;75682;2838.693;-1759.507;1;128;240;243.5;21.6;21.2;37;37.5;28.6;-1.0;
14/02/2025 01:17:09;117;0;147.99;-4;30.65;7.15;126.0;14.60;75691;2838.692;-1759.506;1;127;240;243.5;21.6;21.2;37;37.5;28.6;-1.0;
14/02/2025 01:17:29;117;0;147.04;-4;30.85;7.21;122.9;14.60;75709;2838.691;-1759.505;1;126;240;245.2;21.6;21.4;37;37.5;28.7;-1.0;
14/02/2025 01:17:49;117;0;143.58;-4;30.74;7.39;119.8;14.70;75715;2838.690;-1759.504;1;125;240;245.2;21.6;21.2;37;37.5;28.7;-1.0;
14/02/2025 01:18:09;117;0;132.66;-4;30.23;7.58;116.8;14.70;75738;2838.689;-1759.502;1;127;240;245.2;21.6;21.2;39;38.8;28.7;-1.0;
14/02/2025 01:18:29;117;0;131.61;-4;29.91;8.02;114.1;14.80;75783;2838.689;-1759.501;1;129;240;245.2;21.6;21.4;43;42.9;28.7;-1.0;
14/02/2025 01:18:49;117;0;132.05;-4;30.26;10.26;111.5;14.80;75815;2838.689;-1759.500;1;132;240;243.5;21.6;21.2;43;43.3;28.6;-1.0;
14/02/2025 01:19:09;117;0;133.84;-4;30.64;10.38;108.8;14.90;75843;2838.689;-1759.499;1;134;240;245.2;21.6;21.4;43;43.3;28.6;-1.0;
14/02/2025 01:19:29;117;0;139.27;-4;29.98;10.26;106.0;14.90;75853;2838.688;-1759.497;1;136;240;243.5;21.6;21.2;38;37.5;28.6;-1.0;
14/02/2025 01:19:49;117;0;143.37;-4;30.39;7.04;103.3;15.00;75883;2838.687;-1759.496;1;137;240;245.2;21.6;21.2;38;37.5;28.6;-1.0;
14/02/2025 01:20:09;117;0;145.26;-4;30.33;7.06;100.4;15.00;75906;2838.686;-1759.495;1;138;240;243.5;21.6;21.2;38;37.5;28.6;-1.0;
14/02/2025 01:20:29;117;0;147.14;-4;30.20;7.08;97.5;15.10;75933;2838.685;-1759.494;1;138;240;245.2;21.6;21.2;38;37.5;28.6;-1.0;
14/02/2025 01:20:49;117;0;147.26;-4;29.94;7.07;94.6;15.20;75960;2838.685;-1759.494;1;138;240;245.2;21.6;21.2;38;37.5;28.6;-1.0;
14/02/2025 01:21:09;117;0;139.01;-4;29.88;7.10;91.8;15.20;75980;2838.684;-1759.492;1;147;240;245.2;21.6;21.2;43;42.9;28.7;-1.0;
14/02/2025 01:21:29;117;0;137.92;-4;30.83;10.46;88.9;15.30;76016;2838.683;-1759.491;1;174;240;245.2;21.6;21.2;65;65.4;28.7;-1.0;
14/02/2025 01:21:49;117;0;146.29;-4;31.39;22.94;85.7;15.30;76048;2838.682;-1759.490;1;249;240;245.2;21.6;21.2;70;70.4;28.7;-1.0;
14/02/2025 01:22:09;117;0;150.61;-4;31.19;26.16;82.5;15.40;76080;2838.681;-1759.489;1;298;240;245.2;21.6;21.4;70;70.4;28.6;-1.0;
14/02/2025 01:22:29;117;0;157.17;-4;32.07;25.40;79.4;15.40;76111;2838.680;-1759.489;1;315;240;243.5;22.2;22.2;70;70.4;28.7;-1.0;
14/02/2025 01:22:49;117;0;164.85;-4;31.04;25.88;76.4;15.50;76127;2838.679;-1759.489;1;327;240;246.8;22.2;22.4;70;70.4;28.6;-1.0;
14/02/2025 01:23:09;117;0;171.26;-4;30.69;25.65;73.4;15.60;76136;2838.678;-1759.489;1;338;240;245.2;22.2;22.4;70;70.4;28.6;-1.0;
14/02/2025 01:23:29;117;0;178.49;-4;30.47;25.86;70.4;15.60;76153;2838.676;-1759.489;1;347;240;243.5;22.2;22.4;70;70.4;28.7;-1.0;
14/02/2025 01:23:49;117;0;186.10;-4;30.68;26.00;67.4;15.70;76176;2838.675;-1759.490;1;356;240;243.5;22.2;22.2;-70;-69.9;28.6;-1.0;
14/02/2025 01:24:09;117;0;173.79;-4;22.62;-48.88;64.4;15.80;76188;2838.673;-1759.491;1;358;240;245.2;20.0;20.0;-70;-70.4;28.6;-1.0;
14/02/2025 01:24:29;117;0;167.36;-4;25.43;-48.84;61.6;15.90;76204;2838.671;-1759.491;1;358;240;246.8;18.6;18.6;-70;-70.4;28.7;-1.0;
14/02/2025 01:24:49;117;0;160.18;-4;28.57;-49.27;58.6;16.00;76220;2838.670;-1759.490;1;357;240;246.8;18.2;18.0;-70;-70.4;28.7;-1.0;
14/02/2025 01:25:09;117;0;151.92;-4;29.62;-49.36;55.3;16.00;76233;2838.668;-1759.489;1;354;240;245.2;18.2;17.8;-70;-70.4;28.7;-1.0;
14/02/2025 01:25:29;117;0;143.97;-4;29.99;-49.30;52.0;16.10;76235;2838.667;-1759.488;1;350;240;246.8;18.2;17.8;-70;-70.4;28.7;-1.0;
14/02/2025 01:25:49;117;0;136.59;-4;29.92;-49.03;48.6;16.20;76253;2838.666;-1759.486;1;345;240;245.2;18.2;18.0;-70;-70.4;28.6;-1.0;
14/02/2025 01:26:09;117;0;130.28;-4;29.91;-49.34;45.2;16.20;76251;2838.666;-1759.484;1;340;240;245.2;18.2;17.8;-70;-70.4;28.6;-1.0;
14/02/2025 01:26:29;117;0;122.37;-4;29.93;-49.24;41.8;16.30;76269;2838.665;-1759.482;1;335;240;246.8;18.2;17.8;-70;-70.4;28.7;-1.0;
14/02/2025 01:26:49;117;0;114.97;-4;29.75;-49.25;38.3;16.40;76280;2838.665;-1759.480;1;329;240;245.2;18.2;18.0;-70;-70.4;28.6;-1.0;
14/02/2025 01:27:09;117;0;106.95;-4;29.55;-49.32;34.8;16.50;76288;2838.665;-1759.477;1;323;240;245.2;18.2;17.8;-70;-70.4;28.6;-1.0;
14/02/2025 01:27:29;117;0;99.07;-4;29.55;-49.05;31.4;16.50;76301;2838.666;-1759.474;1;317;240;245.2;18.2;17.8;-70;-70.4;28.6;-1.0;
14/02/2025 01:27:49;117;0;91.85;-4;29.68;-49.09;28.1;16.60;76307;2838.667;-1759.471;1;311;240;245.2;18.2;17.8;-70;-70.4;28.6;-1.0;
14/02/2025 01:28:09;117;0;83.27;-4;28.79;-49.47;24.7;16.70;76310;2838.669;-1759.469;1;304;240;245.2;17.8;17.8;-70;-70.4;28.6;-1.0;
14/02/2025 01:28:29;117;0;72.19;-4;29.70;-49.37;21.4;16.70;76337;2838.671;-1759.466;1;296;240;246.8;17.8;18.0;-70;-70.4;28.6;-1.0;
14/02/2025 01:28:49;117;0;63.92;-4;29.07;-49.61;18.1;16.80;76332;2838.674;-1759.464;1;289;240;246.8;17.8;17.8;-70;-70.4;28.6;-1.0;
14/02/2025 01:29:09;117;0;55.84;-4;29.49;-49.08;14.8;16.90;76343;2838.677;-1759.461;1;282;240;245.2;17.8;17.8;-70;-70.4;28.6;-1.0;
14/02/2025 01:29:29;117;0;47.94;-4;29.82;-48.81;11.4;16.90;76354;2838.680;-1759.460;1;274;240;245.2;17.8;17.8;-70;-70.4;28.7;-1.0;
14/02/2025 01:29:49;117;0;39.67;-4;29.56;-49.22;8.1;17.00;76363;2838.683;-1759.458;1;267;240;246.8;17.8;17.8;-70;-70.8;28.7;-1.0;
14/02/2025 01:30:09;117;0;32.12;-4;30.13;-49.06;4.7;17.00;76384;2838.687;-1759.457;1;260;240;246.8;17.8;17.8;-70;-70.4;28.7;-1.0;
14/02/2025 01:30:18;115;0;26.08;-4;29.14;-48.66;3.1;17.10;76382;2838.689;-1759.457;1;257;500;253.2;100.0;61.4;0;0.5;28.7;-1.0;
14/02/2025 01:30:28;115;0;36.68;-4;14.66;-11.63;2.0;17.10;76355;2838.691;-1759.456;1;254;500;372.6;100.0;100.0;0;0.9;28.4;-1.0;
14/02/2025 01:30:38;115;0;37.14;-4;-58.73;-15.64;2.3;17.10;76113;2838.692;-1759.456;1;253;500;480.6;100.0;100.6;0;0.5;28.4;-1.0;
14/02/2025 01:30:48;115;0;5.36;-4;-67.37;-5.93;2.0;17.10;75860;2838.692;-1759.456;1;251;500;506.5;100.0;100.6;0;0.9;28.4;-1.0;
14/02/2025 01:30:58;115;0;3.82;-4;-27.42;-11.55;0.0;17.20;75838;2838.695;-1759.456;1;247;500;506.5;100.0;100.6;0;0.9;28.6;-1.0;
14/02/2025 01:31:18;119;0;37.01;-4;-59.31;-3.67;0.3;17.30;75851;2838.695;-1759.456;1;247;500;508.1;100.0;100.6;0;0.9;28.6;-1.0;
14/02/2025 01:31:28;119;0;53.88;-4;-51.54;-12.49;0.1;17.30;75848;2838.732;-1759.273;0;247;500;509.7;100.0;100.6;0;0.9;28.6;-1.0;
