Timestamp;NavState;SecurityLevel;Heading;Declination;Pitch;Roll;Depth;Temperature;Pa;Lat;Lon;DeadReckoning;DesiredH;BallastCmd;BallastPos;LinCmd;LinPos;AngCmd;AngPos;Voltage;Altitude;
23/02/2025 11:09:47;119;0;61.32;-4;-54.77;-10.56;-0.1;17.50;75682;2835.370;-1758.770;0;143;500;508.1;100.0;100.6;0;-0.5;26.9;-1.0;
23/02/2025 11:09:57;116;0;64.52;-4;-49.51;-16.93;0.0;17.50;75672;2835.367;-1758.781;0;143;500;509.7;100.0;100.6;0;0.0;26.9;-1.0;
23/02/2025 11:10:30;116;0;34.95;-4;-47.92;-5.49;-0.0;17.60;75692;2835.369;-1758.782;0;143;500;508.1;100.0;100.6;0;0.0;26.9;-1.0;
23/02/2025 11:10:48;116;0;47.29;-4;-50.38;-11.82;-0.1;17.60;75699;2835.369;-1758.782;0;143;500;508.1;100.0;100.6;0;-0.5;26.9;-1.0;
23/02/2025 11:11:09;116;0;32.20;-4;-52.87;-13.85;0.2;17.70;75708;2835.370;-1758.783;0;140;500;509.7;100.0;100.6;0;0.0;26.9;-1.0;
23/02/2025 11:11:23;116;0;41.51;-4;-53.61;-10.67;0.0;17.70;75709;2835.371;-1758.785;0;140;500;509.7;100.0;100.6;0;-0.5;26.9;-1.0;
23/02/2025 11:12:26;116;0;55.49;-4;-53.50;-6.18;0.1;17.90;75746;2835.372;-1758.790;0;140;500;508.1;100.0;100.6;0;-0.5;26.9;-1.0;
23/02/2025 11:14:28;116;0;44.80;-4;-54.06;-9.48;0.1;18.40;75790;2835.381;-1758.798;0;140;500;509.7;100.0;100.6;0;0.0;26.9;-1.0;
23/02/2025 11:15:45;116;0;72.73;-4;-52.09;-12.03;0.0;18.80;75807;2835.390;-1758.804;0;140;500;508.1;100.0;100.6;0;0.0;26.9;-1.0;
23/02/2025 11:15:56;116;0;63.98;-4;-52.97;-19.05;-0.0;18.80;75823;2835.391;-1758.805;0;140;500;508.1;100.0;100.6;0;0.0;26.9;-1.0;
23/02/2025 11:16:16;110;0;65.32;-4;-54.96;-10.41;0.1;18.90;75819;2835.391;-1758.805;0;140;-70;391.9;100.0;100.6;-7;-7.2;26.9;-1.0;
23/02/2025 11:16:26;110;0;67.38;-4;-53.87;-6.55;0.2;18.90;76174;2835.391;-1758.805;1;140;-70;238.7;100.0;100.6;-7;-7.7;26.9;-1.0;
23/02/2025 11:16:36;110;0;70.32;-4;-64.08;-11.94;0.7;19.00;76418;2835.392;-1758.805;1;140;-70;79.0;100.0;100.6;-7;-7.7;26.9;-1.0;
23/02/2025 11:16:46;110;0;95.59;-4;-67.30;-40.19;0.9;19.00;76749;2835.392;-1758.805;1;140;-70;-67.7;100.0;100.6;-7;-7.7;26.9;-1.0;
23/02/2025 11:16:56;110;0;100.81;-4;-71.03;-10.99;1.1;19.10;77061;2835.392;-1758.805;1;140;-70;-67.7;43.4;43.4;-7;-7.7;26.9;-1.0;
23/02/2025 11:17:16;100;0;108.65;-4;-30.69;-15.96;4.3;19.10;77010;2835.392;-1758.802;1;140;-70;-66.1;43.4;43.2;-7;-7.7;26.9;-1.0;
23/02/2025 11:17:36;100;0;113.77;-4;-22.12;-15.95;7.3;19.20;77024;2835.392;-1758.799;1;140;-70;-62.9;42.8;42.6;-21;-21.2;26.9;-1.0;
23/02/2025 11:17:56;100;0;124.16;-4;-18.09;-22.91;9.9;19.20;77023;2835.390;-1758.796;1;140;-70;-61.3;43.4;43.6;-4;-3.6;26.9;-1.0;
23/02/2025 11:18:16;100;0;127.55;-4;-20.57;-13.57;12.2;19.30;77047;2835.389;-1758.793;1;140;-70;-61.3;43.4;43.6;0;0.0;26.9;-1.0;
23/02/2025 11:18:36;100;0;127.81;-4;-21.55;-11.47;14.6;19.30;77037;2835.388;-1758.791;1;140;-70;-61.3;43.4;43.6;0;0.5;26.9;0.0;
23/02/2025 11:18:56;100;0;133.41;-4;-21.53;-11.42;17.2;19.30;77034;2835.387;-1758.789;1;140;-70;-61.3;43.4;43.6;8;8.1;26.9;0.0;
23/02/2025 11:19:16;100;0;135.04;-4;-21.49;-7.32;19.9;19.30;77047;2835.385;-1758.786;1;140;-70;-62.9;43.4;43.6;11;10.8;26.9;0.0;
23/02/2025 11:19:36;100;0;135.67;-4;-21.76;-5.90;22.6;19.30;77054;2835.383;-1758.784;1;140;-70;-61.3;43.4;43.7;11;11.3;26.9;0.0;
23/02/2025 11:19:56;100;0;138.79;-4;-21.61;-5.73;25.4;19.30;77051;2835.382;-1758.782;1;140;-70;-61.3;43.4;43.6;13;13.1;26.9;0.0;
23/02/2025 11:20:16;100;0;140.14;-4;-22.38;-4.73;28.2;19.30;77057;2835.380;-1758.780;1;140;-70;-61.3;42.7;42.7;13;13.5;26.9;0.0;
23/02/2025 11:20:36;100;0;139.95;-4;-20.05;-4.77;31.0;19.30;77054;2835.378;-1758.777;1;140;-70;-62.9;42.7;42.6;13;13.5;26.9;0.0;
23/02/2025 11:20:56;100;0;138.56;-4;-20.23;-4.82;33.6;19.30;77068;2835.376;-1758.775;1;140;-70;-61.3;42.7;42.6;13;13.5;26.9;0.0;
23/02/2025 11:21:16;100;0;138.37;-4;-19.91;-4.73;36.1;19.40;77073;2835.374;-1758.773;1;140;-70;-61.3;42.7;42.6;13;13.5;26.9;0.0;
23/02/2025 11:21:36;100;0;138.64;-4;-20.54;-4.84;38.6;19.30;77076;2835.373;-1758.771;1;140;-70;-61.3;42.7;42.6;13;13.5;26.9;0.0;
23/02/2025 11:21:56;100;0;137.51;-4;-20.15;-4.74;41.2;19.40;77073;2835.371;-1758.768;1;140;-70;-61.3;42.7;42.6;13;13.5;26.9;0.0;
23/02/2025 11:22:16;100;0;137.56;-4;-20.06;-4.79;43.8;19.40;77076;2835.369;-1758.766;1;140;-70;-61.3;42.7;42.6;13;13.5;26.9;0.0;
23/02/2025 11:22:36;100;0;137.04;-4;-19.62;-4.74;46.3;19.40;77087;2835.367;-1758.764;1;140;-70;-61.3;42.7;42.6;13;13.5;26.9;0.0;
23/02/2025 11:22:56;100;0;136.72;-4;-20.07;-4.74;48.8;19.40;77070;2835.366;-1758.761;1;140;-70;-61.3;42.7;42.6;13;13.5;26.9;0.0;
23/02/2025 11:23:16;100;0;135.62;-4;-19.72;-4.77;51.2;19.40;77081;2835.364;-1758.759;1;140;-70;-61.3;42.7;42.6;11;10.8;26.9;0.0;
23/02/2025 11:23:36;100;0;135.60;-4;-19.63;-6.47;53.7;19.40;77087;2835.363;-1758.757;1;140;-70;-61.3;42.7;42.6;11;10.4;26.9;0.0;
23/02/2025 11:23:56;100;0;136.51;-4;-19.71;-6.60;56.1;19.40;77092;2835.361;-1758.755;1;140;-70;-61.3;42.7;42.6;11;10.4;26.9;0.0;
23/02/2025 11:24:16;100;0;137.49;-4;-19.59;-6.52;58.5;19.40;77087;2835.360;-1758.752;1;140;-70;-61.3;42.7;42.6;11;9.9;26.9;0.0;
23/02/2025 11:24:36;100;0;138.05;-4;-19.56;-6.58;60.8;19.40;77103;2835.358;-1758.750;1;140;-70;-62.9;42.7;42.6;11;10.4;26.9;0.0;
23/02/2025 11:24:56;100;0;139.74;-4;-19.59;-6.56;63.2;19.40;77100;2835.356;-1758.748;1;140;-70;-61.3;42.7;42.6;13;13.1;26.9;0.0;
23/02/2025 11:25:16;100;0;140.43;-4;-19.67;-4.91;65.6;19.40;77103;2835.355;-1758.746;1;140;-70;-61.3;42.7;42.4;13;13.5;26.9;0.0;
23/02/2025 11:25:36;100;0;139.39;-4;-20.04;-4.94;67.9;19.40;77109;2835.353;-1758.744;1;140;-70;-61.3;42.7;42.6;13;13.5;26.9;0.0;
23/02/2025 11:25:56;100;0;139.58;-4;-19.46;-4.96;70.3;19.40;77112;2835.351;-1758.742;1;140;-70;-61.3;42.7;42.4;13;13.5;26.9;0.0;
23/02/2025 11:26:16;100;0;139.86;-4;-19.61;-4.92;72.5;19.40;77115;2835.350;-1758.740;1;140;-70;-61.3;42.7;42.4;13;13.5;26.9;0.0;
23/02/2025 11:26:36;100;0;141.20;-4;-19.74;-4.91;74.7;19.40;77117;2835.348;-1758.739;1;140;-70;-61.3;42.7;42.6;13;13.5;26.9;0.0;
23/02/2025 11:26:56;100;0;141.46;-4;-19.44;-4.96;77.1;19.40;77119;2835.347;-1758.737;1;140;-70;-61.3;42.7;42.4;13;13.5;26.9;0.0;
23/02/2025 11:27:16;100;0;141.54;-4;-19.81;-4.90;79.3;19.40;77119;2835.345;-1758.735;1;140;-70;-61.3;42.7;42.6;13;13.5;26.9;0.0;
23/02/2025 11:27:36;100;0;141.80;-4;-19.55;-4.87;81.6;19.40;77125;2835.344;-1758.733;1;140;-70;-61.3;42.7;42.4;13;13.5;26.9;0.0;
23/02/2025 11:27:56;100;0;142.08;-4;-19.73;-4.95;83.8;19.40;77119;2835.342;-1758.731;1;140;-70;-61.3;42.7;42.6;13;13.1;26.9;0.0;
23/02/2025 11:28:16;100;0;141.92;-4;-19.66;-4.89;86.1;19.40;77125;2835.340;-1758.729;1;140;-70;-61.3;42.7;42.6;13;13.5;26.9;0.0;
23/02/2025 11:28:36;100;0;141.26;-4;-19.70;-4.94;88.4;19.40;77134;2835.339;-1758.728;1;140;-70;-61.3;42.7;42.6;13;13.5;26.9;0.0;
23/02/2025 11:28:56;100;0;139.15;-4;-19.46;-4.89;90.7;19.40;77139;2835.337;-1758.726;1;140;-70;-62.9;42.7;42.4;13;13.5;26.9;0.0;
23/02/2025 11:29:16;100;0;140.72;-4;-19.59;-4.85;92.9;19.40;77134;2835.336;-1758.724;1;140;-70;-64.5;42.7;42.6;13;13.5;26.9;0.0;
23/02/2025 11:29:36;100;0;148.58;-4;-19.41;-5.05;95.2;19.40;77125;2835.334;-1758.722;1;140;-70;-61.3;42.7;42.6;13;13.5;26.9;0.0;
23/02/2025 11:29:56;100;0;154.78;-4;-19.61;-4.97;97.3;19.40;77113;2835.332;-1758.721;1;140;-70;-62.9;42.7;42.6;15;14.9;26.9;0.0;
23/02/2025 11:30:16;100;0;154.99;-4;-19.59;-4.02;99.4;19.40;77107;2835.330;-1758.720;1;140;-70;-61.3;42.7;42.6;15;15.3;26.9;0.0;
23/02/2025 11:30:36;100;0;158.35;-4;-19.21;-4.08;101.7;19.40;77099;2835.328;-1758.719;1;140;-70;-61.3;42.7;42.4;19;19.0;26.9;0.0;
23/02/2025 11:30:56;100;0;159.54;-4;-20.11;-2.20;103.9;19.30;77075;2835.326;-1758.718;1;140;-70;-61.3;42.7;42.6;19;19.4;26.9;0.0;
23/02/2025 11:31:16;100;0;154.49;-4;-19.68;-2.02;106.1;19.30;77079;2835.324;-1758.717;1;140;-70;-61.3;42.7;42.6;15;14.9;26.9;0.0;
23/02/2025 11:31:36;100;0;154.02;-4;-19.59;-4.31;108.2;19.30;77070;2835.323;-1758.716;1;140;-70;-61.3;42.7;42.4;15;14.9;26.9;0.0;
23/02/2025 11:31:56;100;0;155.36;-4;-19.81;-4.32;110.3;19.30;77054;2835.321;-1758.715;1;140;-70;-62.9;42.7;42.4;15;14.9;26.9;0.0;
23/02/2025 11:32:16;100;0;153.47;-4;-19.73;-4.26;112.5;19.30;77047;2835.319;-1758.713;1;140;-70;-62.9;42.7;42.6;15;14.9;26.9;0.0;
23/02/2025 11:32:36;100;0;156.99;-4;-19.27;-4.37;114.7;19.30;77032;2835.317;-1758.712;1;140;-70;-61.3;42.7;42.4;18;18.1;26.9;0.0;
23/02/2025 11:32:56;100;0;158.88;-4;-19.31;-2.48;116.7;19.20;77022;2835.315;-1758.712;1;140;-70;-61.3;42.7;42.6;20;19.9;27.0;0.0;
23/02/2025 11:33:16;100;0;159.72;-4;-19.06;-1.48;118.7;19.20;76999;2835.314;-1758.711;1;140;-90;-90.3;42.7;42.4;20;20.3;26.9;0.0;
23/02/2025 11:33:36;100;0;154.95;-4;-18.71;-1.44;120.7;19.20;77062;2835.312;-1758.710;1;140;-90;-91.9;43.0;43.3;16;15.3;26.9;0.0;
23/02/2025 11:33:56;100;0;154.91;-4;-19.31;-3.98;122.8;19.10;77035;2835.310;-1758.708;1;140;-90;-93.5;43.0;43.2;16;15.3;26.9;0.0;
23/02/2025 11:34:16;100;0;151.80;-4;-19.21;-3.99;125.1;19.10;77037;2835.308;-1758.707;1;140;-90;-93.5;43.0;43.2;14;14.0;26.9;0.0;
23/02/2025 11:34:36;100;0;149.84;-4;-19.01;-4.83;127.3;19.10;77023;2835.306;-1758.706;1;140;-90;-91.9;43.0;43.2;14;13.5;26.9;0.0;
23/02/2025 11:34:56;100;0;151.01;-4;-19.35;-4.81;129.4;19.10;77024;2835.304;-1758.704;1;140;-90;-90.3;43.0;43.2;14;13.5;26.9;0.0;
23/02/2025 11:35:16;100;0;153.32;-4;-19.32;-4.77;131.6;19.00;77008;2835.302;-1758.703;1;140;-90;-91.9;43.0;43.2;14;13.5;26.9;0.0;
23/02/2025 11:35:36;100;0;156.25;-4;-19.81;-4.77;134.0;19.00;77001;2835.300;-1758.702;1;140;-90;-93.5;43.0;43.2;18;18.1;26.9;0.0;
23/02/2025 11:35:56;100;0;157.75;-4;-20.23;-2.49;136.5;19.00;76988;2835.298;-1758.701;1;140;-90;-91.9;43.0;43.2;20;19.9;26.9;0.0;
23/02/2025 11:36:16;100;0;161.00;-4;-20.36;-1.32;139.2;19.00;76980;2835.295;-1758.700;1;140;-90;-93.5;43.0;43.3;24;23.9;26.9;0.0;
23/02/2025 11:36:37;100;0;160.20;-4;-20.29;0.56;142.1;18.90;76978;2835.293;-1758.698;1;140;-90;-91.9;43.0;43.3;24;23.9;26.9;0.0;
23/02/2025 11:36:57;100;0;158.40;-4;-20.26;0.65;145.0;18.90;76972;2835.290;-1758.697;1;140;-90;-91.9;43.0;43.2;21;21.2;26.9;0.0;
23/02/2025 11:37:17;100;0;160.24;-4;-20.15;-1.15;147.9;18.90;76970;2835.287;-1758.696;1;140;-90;-93.5;43.0;43.2;25;24.8;26.9;0.0;
23/02/2025 11:37:37;100;0;153.19;-4;-19.56;1.10;150.8;18.80;76966;2835.285;-1758.694;1;140;-90;-91.9;43.0;43.3;16;15.3;26.9;0.0;
23/02/2025 11:37:57;100;0;150.06;-4;-19.14;-4.04;153.6;18.80;76958;2835.282;-1758.692;1;140;-90;-91.9;43.0;43.3;16;14.9;26.9;0.0;
23/02/2025 11:38:17;100;0;148.88;-4;-19.52;-4.03;156.4;18.80;76941;2835.280;-1758.690;1;140;-90;-91.9;43.0;43.2;14;14.0;26.9;0.0;
23/02/2025 11:38:37;100;0;148.14;-4;-19.50;-4.56;159.2;18.80;76950;2835.277;-1758.689;1;140;-90;-91.9;43.0;43.2;14;14.0;26.9;0.0;
23/02/2025 11:38:57;100;0;148.15;-4;-19.16;-4.52;162.0;18.70;76941;2835.275;-1758.686;1;140;-90;-93.5;43.0;43.2;14;14.0;26.9;0.0;
23/02/2025 11:39:17;100;0;147.29;-4;-19.15;-4.59;164.7;18.70;76936;2835.272;-1758.684;1;140;-90;-93.5;43.0;43.2;14;14.0;26.9;0.0;
23/02/2025 11:39:37;100;0;145.69;-4;-19.33;-4.61;167.5;18.70;76928;2835.270;-1758.682;1;140;-90;-93.5;43.0;43.3;14;14.0;26.9;0.0;
23/02/2025 11:39:57;100;0;142.92;-4;-19.34;-4.60;170.2;18.60;76910;2835.268;-1758.680;1;140;-90;-91.9;43.0;43.2;14;14.0;26.9;0.0;
23/02/2025 11:40:17;100;0;139.98;-4;-19.23;-4.59;173.1;18.60;76897;2835.266;-1758.678;1;140;-90;-91.9;43.0;43.2;14;14.0;26.9;0.0;
23/02/2025 11:40:37;100;0;137.88;-4;-19.21;-4.60;175.9;18.60;76890;2835.263;-1758.675;1;140;-90;-91.9;43.0;43.2;14;14.0;26.9;0.0;
23/02/2025 11:40:57;100;0;136.22;-4;-19.54;-4.48;178.7;18.50;76873;2835.262;-1758.672;1;140;-90;-91.9;43.0;43.3;12;12.2;26.9;0.0;
23/02/2025 11:41:17;100;0;136.92;-4;-19.48;-5.53;181.6;18.50;76872;2835.260;-1758.670;1;140;-90;-91.9;43.0;43.2;12;11.7;26.9;0.0;
23/02/2025 11:41:37;100;0;136.55;-4;-19.42;-5.59;184.5;18.50;76860;2835.257;-1758.667;1;140;-90;-91.9;43.0;43.3;12;11.7;27.0;0.0;
23/02/2025 11:41:57;100;0;135.74;-4;-19.05;-5.62;187.3;18.40;76850;2835.255;-1758.664;1;140;-90;-91.9;43.0;43.2;12;11.7;26.9;0.0;
23/02/2025 11:42:17;100;0;141.64;-4;-18.86;-5.61;190.0;18.40;76839;2835.253;-1758.662;1;140;-90;-93.5;43.4;43.7;14;14.0;26.9;0.0;
23/02/2025 11:42:37;100;0;144.44;-4;-20.07;-4.33;192.8;18.40;76831;2835.251;-1758.660;1;140;-90;-91.9;43.4;43.7;14;14.4;26.9;0.0;
23/02/2025 11:42:57;100;0;145.86;-4;-20.33;-4.32;195.5;18.30;76832;2835.249;-1758.658;1;140;-90;-91.9;43.4;43.9;14;14.4;26.9;0.0;
23/02/2025 11:43:17;100;0;147.61;-4;-20.18;-4.22;198.3;18.30;76813;2835.247;-1758.656;1;140;-90;-91.9;43.4;43.7;14;14.9;26.9;0.0;
23/02/2025 11:43:37;100;0;146.28;-4;-20.35;-4.26;200.9;18.30;76812;2835.244;-1758.654;1;140;-90;-93.5;43.4;43.7;14;14.4;26.9;0.0;
23/02/2025 11:43:57;100;0;144.90;-4;-20.22;-4.31;203.6;18.20;76798;2835.242;-1758.652;1;140;-90;-91.9;43.4;43.7;14;14.4;26.9;0.0;
23/02/2025 11:44:17;100;0;143.34;-4;-20.04;-4.21;206.3;18.20;76788;2835.240;-1758.650;1;140;-90;-91.9;43.4;43.7;14;14.4;26.9;0.0;
23/02/2025 11:44:37;100;0;142.15;-4;-20.28;-4.20;209.0;18.20;76775;2835.238;-1758.647;1;140;-90;-91.9;43.4;43.7;14;14.4;26.9;0.0;
23/02/2025 11:44:57;100;0;143.29;-4;-20.41;-4.15;211.7;18.10;76771;2835.236;-1758.645;1;140;-90;-91.9;43.4;43.7;14;14.4;26.9;0.0;
23/02/2025 11:45:17;100;0;141.21;-4;-20.62;-4.20;214.5;18.10;76759;2835.234;-1758.643;1;140;-90;-91.9;43.4;43.7;14;14.4;26.9;0.0;
23/02/2025 11:45:37;100;0;139.97;-4;-19.92;-4.20;217.3;18.00;76743;2835.232;-1758.641;1;140;-90;-95.2;43.4;43.7;14;14.4;26.9;0.0;
23/02/2025 11:45:57;100;0;137.31;-4;-20.09;-4.24;220.0;18.00;76730;2835.230;-1758.638;1;140;-90;-91.9;43.4;43.9;12;12.2;26.9;0.0;
23/02/2025 11:46:17;100;0;139.37;-4;-19.84;-5.72;222.5;18.00;76710;2835.228;-1758.636;1;140;-90;-93.5;43.4;43.7;12;11.7;26.9;0.0;
23/02/2025 11:46:37;100;0;140.05;-4;-20.10;-5.75;225.1;17.90;76717;2835.227;-1758.634;1;140;-90;-91.9;43.4;43.9;12;11.7;26.9;0.0;
23/02/2025 11:46:57;100;0;144.49;-4;-19.82;-5.64;227.8;17.90;76699;2835.224;-1758.632;1;140;-90;-91.9;43.4;43.7;14;14.0;26.9;0.0;
23/02/2025 11:47:17;100;0;148.93;-4;-20.25;-4.38;230.5;17.90;76689;2835.222;-1758.630;1;140;-90;-91.9;43.4;43.7;14;14.0;26.9;0.0;
23/02/2025 11:47:37;100;0;150.53;-4;-20.28;-4.29;233.2;17.80;76683;2835.220;-1758.628;1;140;-90;-93.5;43.4;43.9;14;14.0;26.9;0.0;
23/02/2025 11:47:57;100;0;151.69;-4;-20.42;-4.19;236.1;17.80;76676;2835.217;-1758.626;1;140;-90;-95.2;43.4;43.9;14;14.4;26.9;0.0;
23/02/2025 11:48:17;100;0;152.42;-4;-20.11;-4.29;238.8;17.70;76661;2835.215;-1758.625;1;140;-90;-91.9;43.4;43.9;14;14.4;26.9;0.0;
23/02/2025 11:48:37;100;0;152.68;-4;-20.06;-4.34;241.4;17.70;76644;2835.213;-1758.623;1;140;-90;-91.9;43.4;43.7;14;14.4;26.9;0.0;
23/02/2025 11:48:57;100;0;149.94;-4;-20.19;-4.36;244.1;17.60;76646;2835.210;-1758.622;1;140;-90;-91.9;43.4;43.7;14;14.4;26.9;0.0;
23/02/2025 11:49:17;100;0;149.87;-4;-20.14;-4.37;246.8;17.60;76623;2835.208;-1758.620;1;140;-90;-91.9;43.4;43.9;14;14.4;26.9;0.0;
23/02/2025 11:49:37;100;0;151.29;-4;-20.05;-4.29;249.5;17.60;76623;2835.206;-1758.618;1;140;-90;-91.9;43.4;43.9;14;14.0;26.9;0.0;
23/02/2025 11:49:57;100;0;150.29;-4;-20.52;-4.29;252.3;17.50;76616;2835.203;-1758.616;1;140;-90;-91.9;43.4;43.7;14;14.4;26.9;0.0;
23/02/2025 11:50:17;100;0;147.54;-4;-20.51;-4.26;255.1;17.50;76620;2835.201;-1758.615;1;140;-90;-91.9;43.4;43.7;14;14.4;26.9;0.0;
23/02/2025 11:50:37;100;0;149.42;-4;-20.23;-4.25;257.9;17.50;76599;2835.199;-1758.613;1;140;-90;-93.5;43.4;43.7;14;14.4;26.9;0.0;
23/02/2025 11:50:57;100;0;151.20;-4;-20.14;-4.24;260.7;17.40;76579;2835.196;-1758.611;1;140;-90;-91.9;43.4;43.9;14;14.4;26.9;0.0;
23/02/2025 11:51:17;100;0;155.03;-4;-20.31;-4.23;263.5;17.40;76578;2835.194;-1758.609;1;140;-90;-93.5;43.4;43.7;17;17.1;26.9;0.0;
23/02/2025 11:51:37;100;0;155.68;-4;-20.03;-2.75;266.4;17.30;76563;2835.191;-1758.608;1;140;-90;-95.2;43.4;43.9;17;17.1;26.9;0.0;
23/02/2025 11:51:57;100;0;158.76;-4;-20.00;-2.81;269.0;17.30;76551;2835.189;-1758.607;1;140;-90;-91.9;43.4;43.9;21;21.2;26.9;0.0;
23/02/2025 11:52:17;100;0;157.71;-4;-20.08;-0.69;271.7;17.20;76536;2835.186;-1758.606;1;140;-90;-93.5;43.4;43.7;21;21.7;26.9;0.0;
23/02/2025 11:52:37;100;0;151.20;-4;-20.16;-0.68;274.2;17.20;76529;2835.184;-1758.604;1;140;-90;-93.5;43.4;43.9;15;14.9;26.9;0.0;
23/02/2025 11:52:57;100;0;147.49;-4;-20.03;-4.29;276.8;17.20;76524;2835.182;-1758.602;1;140;-90;-91.9;43.4;43.7;15;14.4;26.9;0.0;
23/02/2025 11:53:17;100;0;144.45;-4;-19.98;-4.39;279.3;17.10;76511;2835.180;-1758.600;1;140;-90;-93.5;43.4;43.7;15;14.4;26.9;0.0;
23/02/2025 11:53:37;100;0;142.57;-4;-19.70;-4.28;281.9;17.10;76516;2835.178;-1758.598;1;140;-90;-93.5;43.4;43.7;15;14.4;27.0;0.0;
23/02/2025 11:53:57;100;0;141.85;-4;-19.97;-4.16;284.5;17.10;76509;2835.176;-1758.596;1;140;-90;-93.5;43.4;43.7;15;14.4;26.9;0.0;
23/02/2025 11:54:17;100;0;143.43;-4;-19.78;-4.30;287.0;17.00;76496;2835.174;-1758.594;1;140;-90;-93.5;43.4;43.7;15;14.4;26.9;0.0;
23/02/2025 11:54:37;100;0;145.51;-4;-19.75;-4.32;289.7;17.00;76490;2835.172;-1758.592;1;140;-90;-91.9;43.4;43.9;15;14.4;26.9;0.0;
23/02/2025 11:54:57;100;0;147.81;-4;-19.75;-4.26;292.2;16.90;76481;2835.170;-1758.590;1;140;-90;-93.5;43.4;43.9;15;14.4;26.9;0.0;
23/02/2025 11:55:17;100;0;150.19;-4;-19.82;-4.27;294.8;16.90;76485;2835.168;-1758.589;1;140;-90;-91.9;43.4;43.7;15;14.4;26.9;0.0;
23/02/2025 11:55:37;100;0;149.82;-4;-20.15;-4.31;297.3;16.80;76465;2835.166;-1758.587;1;140;-90;-93.5;43.4;43.9;15;14.4;26.9;0.0;
23/02/2025 11:55:57;100;0;148.50;-4;-19.92;-4.23;299.9;16.80;76452;2835.164;-1758.585;1;140;-90;-93.5;43.4;43.9;15;14.4;26.9;0.0;
23/02/2025 11:56:17;100;0;145.25;-4;-19.54;-4.10;302.5;16.80;76445;2835.162;-1758.583;1;140;-90;-93.5;43.4;43.7;15;14.4;26.9;0.0;
23/02/2025 11:56:37;100;0;144.22;-4;-20.06;-3.95;305.0;16.70;76438;2835.160;-1758.582;1;140;-90;-93.5;43.4;43.9;15;14.4;26.9;0.0;
23/02/2025 11:56:57;100;0;142.15;-4;-20.07;-4.35;307.6;16.70;76424;2835.158;-1758.579;1;140;-90;-93.5;43.4;43.9;15;14.4;26.9;0.0;
23/02/2025 11:57:17;100;0;139.53;-4;-19.63;-4.40;310.1;16.60;76418;2835.156;-1758.577;1;140;-90;-96.8;43.4;43.9;15;14.4;26.9;0.0;
23/02/2025 11:57:37;100;0;132.52;-4;-19.62;-4.33;312.7;16.60;76411;2835.155;-1758.575;1;140;-90;-93.5;43.4;43.9;9;9.0;26.9;0.0;
23/02/2025 11:57:57;100;0;134.32;-4;-19.82;-7.16;315.3;16.60;76404;2835.153;-1758.572;1;140;-90;-91.9;43.4;43.7;11;10.8;26.9;0.0;
23/02/2025 11:58:17;100;0;135.37;-4;-19.82;-5.83;318.0;16.50;76387;2835.151;-1758.570;1;140;-90;-93.5;43.4;43.9;11;11.3;26.9;0.0;
23/02/2025 11:58:37;100;0;136.36;-4;-20.01;-5.90;320.6;16.50;76389;2835.149;-1758.567;1;140;-90;-91.9;43.4;43.9;11;11.3;26.9;0.0;
23/02/2025 11:58:57;100;0;138.69;-4;-19.99;-5.81;323.3;16.50;76379;2835.148;-1758.565;1;140;-90;-93.5;43.4;43.7;13;13.1;26.9;0.0;
23/02/2025 11:59:17;100;0;136.22;-4;-19.99;-4.63;326.0;16.40;76376;2835.146;-1758.562;1;140;-90;-93.5;43.4;43.9;13;13.5;26.9;0.0;
23/02/2025 11:59:37;100;0;134.82;-4;-19.30;-4.73;328.6;16.40;76364;2835.144;-1758.560;1;140;-90;-93.5;43.4;43.7;11;10.8;26.9;0.0;
23/02/2025 11:59:57;100;0;134.81;-4;-19.34;-6.32;331.0;16.30;76355;2835.142;-1758.558;1;140;-90;-93.5;43.4;43.9;11;10.4;26.9;0.0;
23/02/2025 12:00:17;100;0;134.45;-4;-19.34;-6.35;333.4;16.30;76353;2835.141;-1758.555;1;140;-90;-96.8;43.4;43.7;11;10.4;26.9;0.0;
23/02/2025 12:00:37;100;0;136.72;-4;-19.62;-6.35;335.8;16.30;76347;2835.139;-1758.553;1;140;-90;-93.5;43.4;43.7;11;10.4;26.9;0.0;
23/02/2025 12:00:57;100;0;138.49;-4;-19.35;-6.33;338.2;16.20;76337;2835.138;-1758.551;1;140;-90;-93.5;43.4;43.7;13;13.1;26.9;0.0;
23/02/2025 12:01:17;100;0;139.11;-4;-19.43;-4.82;340.6;16.20;76328;2835.136;-1758.549;1;140;-90;-91.9;43.4;43.9;13;13.5;26.9;0.0;
23/02/2025 12:01:37;100;0;141.11;-4;-19.39;-4.82;343.0;16.20;76324;2835.134;-1758.547;1;140;-90;-95.2;43.4;43.9;13;13.5;26.9;0.0;
23/02/2025 12:01:57;100;0;140.21;-4;-19.52;-4.85;345.3;16.10;76307;2835.133;-1758.545;1;140;-90;-91.9;43.4;43.9;13;13.5;26.9;0.0;
23/02/2025 12:02:17;100;0;139.24;-4;-19.52;-4.85;347.7;16.10;76306;2835.131;-1758.543;1;140;-90;-91.9;43.4;43.9;13;13.5;26.9;0.0;
23/02/2025 12:02:37;100;0;139.66;-4;-19.23;-4.83;350.0;16.10;76299;2835.129;-1758.541;1;140;-90;-93.5;43.4;43.7;13;13.5;26.9;0.0;
23/02/2025 12:02:57;100;0;141.40;-4;-20.02;-4.74;352.4;16.00;76295;2835.128;-1758.539;1;140;-90;-93.5;43.4;43.7;13;13.5;26.9;0.0;
23/02/2025 12:03:17;100;0;144.37;-4;-19.83;-4.71;354.9;16.00;76280;2835.126;-1758.537;1;140;-90;-91.9;43.4;43.7;13;13.5;26.9;0.0;
23/02/2025 12:03:37;100;0;144.61;-4;-20.02;-4.71;357.4;15.90;76279;2835.124;-1758.535;1;140;-90;-93.5;43.4;43.9;13;13.5;26.9;0.0;
23/02/2025 12:03:57;100;0;146.08;-4;-20.21;-4.69;360.0;15.90;76277;2835.122;-1758.533;1;140;-90;-93.5;43.4;43.9;13;13.5;26.9;0.0;
23/02/2025 12:04:17;100;0;147.07;-4;-20.32;-4.75;362.7;15.90;76267;2835.120;-1758.531;1;140;-90;-91.9;43.4;43.7;13;13.5;26.9;0.0;
23/02/2025 12:04:37;100;0;147.55;-4;-19.91;-4.69;365.4;15.80;76267;2835.117;-1758.529;1;140;-90;-93.5;43.4;43.9;13;13.1;26.9;0.0;
23/02/2025 12:04:57;100;0;148.35;-4;-20.15;-4.44;368.0;15.80;76259;2835.115;-1758.527;1;140;-90;-91.9;43.4;43.7;13;13.5;26.9;0.0;
23/02/2025 12:05:17;100;0;148.19;-4;-20.09;-4.69;370.8;15.80;76246;2835.113;-1758.525;1;140;-90;-93.5;43.4;43.9;13;13.5;26.9;0.0;
23/02/2025 12:05:37;100;0;147.99;-4;-20.12;-4.79;373.4;15.70;76250;2835.111;-1758.524;1;140;-90;-91.9;43.4;43.9;13;13.5;26.9;0.0;
23/02/2025 12:05:57;100;0;150.98;-4;-19.92;-4.73;376.3;15.70;76234;2835.108;-1758.522;1;140;-90;-93.5;43.4;43.7;15;14.9;26.9;0.0;
23/02/2025 12:06:17;100;0;150.05;-4;-19.81;-3.85;379.0;15.70;76232;2835.106;-1758.520;1;140;-90;-93.5;43.4;43.9;15;15.3;26.9;0.0;
23/02/2025 12:06:37;100;0;149.60;-4;-19.95;-3.82;381.7;15.60;76225;2835.104;-1758.518;1;140;-90;-93.5;43.4;43.7;15;15.3;26.9;0.0;
23/02/2025 12:06:57;100;0;149.25;-4;-19.95;-3.73;384.4;15.60;76219;2835.101;-1758.517;1;140;-90;-93.5;43.4;43.9;15;15.3;26.9;0.0;
23/02/2025 12:07:17;100;0;149.45;-4;-19.65;-3.77;387.2;15.60;76215;2835.099;-1758.515;1;140;-90;-93.5;43.4;43.9;15;15.3;26.9;0.0;
23/02/2025 12:07:37;100;0;147.83;-4;-19.63;-3.82;389.8;15.50;76211;2835.097;-1758.513;1;140;-90;-91.9;43.4;43.7;15;15.3;26.9;0.0;
23/02/2025 12:07:57;100;0;146.85;-4;-19.27;-3.88;392.4;15.50;76204;2835.095;-1758.511;1;140;-90;-93.5;43.4;43.9;15;15.3;26.9;0.0;
23/02/2025 12:08:17;100;0;146.48;-4;-19.35;-3.91;394.9;15.50;76208;2835.092;-1758.509;1;140;-90;-93.5;43.4;43.9;15;15.3;26.9;0.0;
23/02/2025 12:08:37;100;0;147.30;-4;-19.63;-3.72;397.5;15.40;76187;2835.090;-1758.507;1;140;-90;-93.5;43.4;43.9;15;15.3;26.9;0.0;
23/02/2025 12:08:57;100;0;147.04;-4;-19.62;-3.82;400.1;15.40;76186;2835.088;-1758.505;1;140;-90;-93.5;43.4;43.9;15;15.3;26.9;0.0;
23/02/2025 12:09:17;100;0;147.43;-4;-19.35;-3.78;402.7;15.40;76173;2835.086;-1758.504;1;140;-90;-93.5;43.4;43.7;15;15.3;26.9;0.0;
23/02/2025 12:09:37;100;0;147.07;-4;-19.49;-4.01;405.3;15.30;76183;2835.084;-1758.502;1;140;-90;-93.5;43.4;43.9;15;15.3;26.9;0.0;
23/02/2025 12:09:57;100;0;147.52;-4;-19.45;-3.94;407.8;15.30;76177;2835.082;-1758.500;1;140;-90;-93.5;43.4;43.9;15;15.3;26.9;0.0;
23/02/2025 12:10:17;100;0;148.12;-4;-19.32;-3.80;410.5;15.30;76162;2835.079;-1758.498;1;140;-90;-93.5;43.4;43.9;15;15.3;26.9;0.0;
23/02/2025 12:10:37;100;0;148.54;-4;-19.48;-3.91;413.0;15.20;76157;2835.077;-1758.496;1;140;-90;-93.5;43.4;43.7;15;15.3;26.9;0.0;
23/02/2025 12:10:58;100;0;147.27;-4;-19.85;-3.77;415.7;15.20;76164;2835.075;-1758.494;1;140;-90;-93.5;43.4;43.9;15;15.3;26.9;0.0;
23/02/2025 12:11:18;100;0;147.03;-4;-19.97;-3.76;418.5;15.20;76157;2835.073;-1758.492;1;140;-90;-95.2;43.4;43.9;15;15.3;26.9;0.0;
23/02/2025 12:11:38;100;0;146.77;-4;-19.78;-3.80;421.2;15.20;76147;2835.070;-1758.490;1;140;-90;-93.5;43.4;43.9;15;15.3;26.9;0.0;
23/02/2025 12:11:58;100;0;145.72;-4;-19.91;-3.76;424.0;15.10;76154;2835.068;-1758.488;1;140;-90;-93.5;43.4;43.9;15;15.3;26.9;0.0;
23/02/2025 12:12:18;100;0;146.01;-4;-19.91;-3.77;426.7;15.10;76127;2835.066;-1758.486;1;140;-90;-93.5;43.4;43.9;15;15.3;26.9;0.0;
23/02/2025 12:12:38;100;0;146.42;-4;-19.82;-3.74;429.5;15.10;76135;2835.064;-1758.484;1;140;-90;-93.5;43.4;43.9;15;15.3;26.9;0.0;
23/02/2025 12:12:58;100;0;145.43;-4;-20.11;-3.84;432.2;15.00;76121;2835.062;-1758.482;1;140;-90;-93.5;43.4;43.9;15;15.3;26.9;0.0;
23/02/2025 12:13:18;100;0;147.62;-4;-19.77;-3.72;434.9;15.00;76114;2835.059;-1758.480;1;140;-90;-91.9;43.4;43.9;15;15.3;26.9;0.0;
23/02/2025 12:13:38;100;0;149.42;-4;-19.68;-3.77;437.7;15.00;76112;2835.057;-1758.479;1;140;-90;-93.5;43.4;43.9;15;15.3;26.9;0.0;
23/02/2025 12:13:58;100;0;152.05;-4;-19.39;-3.80;440.3;15.00;76100;2835.055;-1758.477;1;140;-90;-93.5;43.4;43.9;15;15.3;26.9;0.0;
23/02/2025 12:14:18;100;0;153.50;-4;-19.37;-3.85;442.9;14.90;76104;2835.052;-1758.475;1;140;-90;-93.5;43.4;43.9;15;15.3;26.9;0.0;
23/02/2025 12:14:38;100;0;156.01;-4;-19.32;-3.84;445.3;14.90;76097;2835.050;-1758.474;1;140;-90;-93.5;43.4;43.9;18;18.1;26.9;0.0;
23/02/2025 12:14:58;100;0;157.86;-4;-19.78;-2.42;447.8;14.90;76092;2835.048;-1758.473;1;140;-90;-91.9;43.4;43.7;20;19.9;26.9;0.0;
23/02/2025 12:15:18;100;0;156.91;-4;-19.88;-1.13;450.3;14.90;76091;2835.045;-1758.472;1;140;-90;-91.9;43.4;43.7;20;20.3;26.9;0.0;
23/02/2025 12:15:38;100;0;154.00;-4;-19.85;-1.17;452.9;14.80;76076;2835.043;-1758.470;1;140;-90;-91.9;43.4;43.9;17;17.1;26.9;0.0;
23/02/2025 12:15:58;100;0;153.63;-4;-19.86;-3.16;455.4;14.80;76075;2835.041;-1758.469;1;140;-90;-93.5;43.4;43.7;17;16.7;26.9;0.0;
23/02/2025 12:16:18;100;0;149.03;-4;-19.83;-3.24;458.0;14.80;76067;2835.039;-1758.467;1;140;-90;-91.9;43.4;43.9;15;14.9;26.9;0.0;
23/02/2025 12:16:38;100;0;148.61;-4;-19.39;-4.21;460.6;14.70;76066;2835.037;-1758.465;1;140;-90;-93.5;43.4;43.9;15;14.4;26.9;0.0;
23/02/2025 12:16:58;100;0;148.89;-4;-19.33;-4.23;463.1;14.70;76058;2835.034;-1758.464;1;140;-90;-93.5;43.4;43.7;15;14.4;26.9;0.0;
23/02/2025 12:17:18;100;0;145.00;-4;-19.31;-4.30;465.6;14.70;76054;2835.032;-1758.462;1;140;-90;-93.5;43.4;43.7;15;14.4;26.9;0.0;
23/02/2025 12:17:38;100;0;142.65;-4;-19.15;-4.28;468.1;14.60;76037;2835.030;-1758.460;1;140;-90;-93.5;43.4;43.7;15;14.9;26.9;0.0;
23/02/2025 12:17:58;100;0;141.35;-4;-19.13;-4.29;470.5;14.60;76040;2835.029;-1758.458;1;140;-90;-91.9;43.4;43.9;15;14.9;26.9;0.0;
23/02/2025 12:18:18;100;0;141.83;-4;-19.12;-4.28;472.9;14.60;76023;2835.027;-1758.456;1;140;-90;-93.5;43.4;43.7;15;14.4;26.9;0.0;
23/02/2025 12:18:38;100;0;141.87;-4;-19.12;-4.25;475.3;14.60;76029;2835.025;-1758.454;1;140;-90;-93.5;43.4;43.7;15;14.4;26.9;0.0;
23/02/2025 12:18:58;100;0;143.79;-4;-19.06;-4.29;477.8;14.60;76018;2835.023;-1758.452;1;140;-90;-93.5;43.4;43.9;15;14.4;26.9;0.0;
23/02/2025 12:19:18;100;0;144.37;-4;-19.14;-4.29;480.2;14.50;76010;2835.021;-1758.450;1;140;-90;-93.5;43.4;43.9;15;14.4;26.9;0.0;
23/02/2025 12:19:38;100;0;142.86;-4;-19.13;-4.30;482.6;14.50;76005;2835.019;-1758.448;1;140;-90;-91.9;43.4;43.9;15;14.9;26.9;0.0;
23/02/2025 12:19:58;100;0;142.09;-4;-19.06;-4.29;485.0;14.50;75996;2835.017;-1758.446;1;140;-90;-95.2;43.4;43.7;15;14.9;26.9;0.0;
23/02/2025 12:20:18;100;0;141.80;-4;-19.12;-4.27;487.4;14.40;75980;2835.016;-1758.444;1;140;-90;-93.5;43.4;43.7;15;14.9;26.9;0.0;
23/02/2025 12:20:38;100;0;140.91;-4;-19.15;-4.29;489.9;14.40;75981;2835.014;-1758.442;1;140;-90;-91.9;43.4;43.9;15;14.4;26.9;0.0;
23/02/2025 12:20:58;100;0;138.51;-4;-19.20;-4.30;492.3;14.40;75973;2835.012;-1758.439;1;140;-90;-90.3;43.4;43.9;13;13.1;26.9;0.0;
23/02/2025 12:21:18;100;0;137.30;-4;-19.34;-5.01;494.7;14.30;75975;2835.010;-1758.437;1;140;-90;-93.5;43.4;43.9;13;13.1;26.9;0.0;
23/02/2025 12:21:38;100;0;136.94;-4;-19.14;-4.98;497.2;14.30;75971;2835.009;-1758.435;1;140;-90;-91.9;43.4;43.9;13;13.1;26.9;0.0;
23/02/2025 12:21:58;100;0;135.43;-4;-19.12;-5.00;499.7;14.30;75961;2835.007;-1758.432;1;140;-90;-93.5;43.4;43.7;11;10.8;26.9;0.0;
23/02/2025 12:22:18;100;0;134.33;-4;-18.92;-6.28;502.1;14.30;75957;2835.005;-1758.430;1;140;-90;-93.5;43.7;43.7;11;10.8;26.9;0.0;
23/02/2025 12:22:38;100;0;134.86;-4;-18.82;-6.28;504.6;14.20;75953;2835.004;-1758.428;1;140;-90;-91.9;44.1;44.2;11;10.4;26.9;0.0;
23/02/2025 12:22:58;100;0;135.74;-4;-19.78;-6.29;507.0;14.20;75948;2835.002;-1758.425;1;140;-90;-93.5;44.1;44.3;11;10.4;26.9;0.0;
23/02/2025 12:23:18;100;0;135.63;-4;-19.95;-6.30;509.4;14.20;75944;2835.001;-1758.423;1;140;-90;-93.5;44.1;44.5;11;10.4;26.9;0.0;
23/02/2025 12:23:38;100;0;135.33;-4;-20.10;-6.27;511.9;14.10;75932;2834.999;-1758.421;1;140;-90;-93.5;44.1;44.5;11;10.4;26.9;0.0;
23/02/2025 12:23:58;100;0;135.85;-4;-19.89;-6.22;514.4;14.10;75941;2834.998;-1758.418;1;140;-90;-93.5;44.1;44.5;11;10.8;26.9;0.0;
23/02/2025 12:24:18;100;0;135.08;-4;-20.06;-6.28;516.9;14.10;75943;2834.996;-1758.416;1;140;-90;-93.5;44.1;44.3;11;10.4;26.9;0.0;
23/02/2025 12:24:38;100;0;134.54;-4;-20.20;-6.24;519.4;14.10;75933;2834.994;-1758.414;1;140;-90;-91.9;44.1;44.3;11;10.8;26.9;0.0;
23/02/2025 12:24:58;100;0;134.66;-4;-20.00;-6.26;522.0;14.10;75927;2834.993;-1758.411;1;140;-90;-93.5;44.1;44.3;11;10.4;26.9;0.0;
23/02/2025 12:25:18;100;0;134.65;-4;-20.09;-6.27;524.6;14.00;75923;2834.991;-1758.409;1;140;-90;-93.5;44.1;44.3;11;10.8;26.9;0.0;
23/02/2025 12:25:38;100;0;136.02;-4;-19.95;-6.26;527.0;14.00;75928;2834.990;-1758.407;1;140;-90;-93.5;44.1;44.3;11;10.8;26.9;0.0;
23/02/2025 12:25:58;100;0;140.60;-4;-19.89;-6.19;529.6;14.00;75920;2834.988;-1758.404;1;140;-90;-93.5;44.1;44.3;14;14.0;26.9;0.0;
23/02/2025 12:26:18;100;0;145.59;-4;-20.34;-4.37;532.0;14.00;75910;2834.986;-1758.403;1;140;-90;-93.5;44.1;44.5;14;14.4;26.9;0.0;
23/02/2025 12:26:38;100;0;147.27;-4;-20.35;-4.32;534.6;13.90;75901;2834.984;-1758.401;1;140;-90;-93.5;44.1;44.5;14;14.4;26.9;0.0;
23/02/2025 12:26:58;100;0;147.79;-4;-20.27;-4.36;537.1;13.90;75898;2834.982;-1758.399;1;140;-90;-93.5;44.1;44.5;14;14.4;26.9;0.0;
23/02/2025 12:27:18;100;0;148.03;-4;-20.46;-4.26;539.6;13.90;75892;2834.980;-1758.397;1;140;-90;-93.5;44.1;44.5;14;14.4;26.9;0.0;
23/02/2025 12:27:38;100;0;149.36;-4;-20.29;-4.24;542.1;13.90;75893;2834.978;-1758.396;1;140;-90;-93.5;44.1;44.5;14;14.4;26.9;0.0;
23/02/2025 12:27:58;100;0;150.05;-4;-20.22;-4.33;544.6;13.80;75881;2834.976;-1758.394;1;140;-90;-93.5;44.1;44.5;14;14.4;26.9;0.0;
23/02/2025 12:28:18;100;0;152.74;-4;-20.20;-4.43;547.2;13.80;75882;2834.973;-1758.393;1;140;-90;-91.9;44.1;44.3;14;14.4;27.0;0.0;
23/02/2025 12:28:38;100;0;159.08;-4;-19.94;-4.26;549.7;13.80;75890;2834.971;-1758.392;1;140;-90;-91.9;44.1;44.3;22;22.1;26.9;0.0;
23/02/2025 12:28:58;100;0;159.70;-4;-20.79;-0.25;552.2;13.80;75879;2834.969;-1758.391;1;140;-90;-93.5;44.1;44.5;22;22.6;26.9;0.0;
23/02/2025 12:29:18;100;0;156.98;-4;-21.00;-0.26;554.8;13.80;75885;2834.967;-1758.389;1;140;-90;-91.9;44.1;44.5;19;19.0;26.9;0.0;
23/02/2025 12:29:38;100;0;153.87;-4;-20.90;-2.24;557.5;13.70;75856;2834.964;-1758.388;1;140;-90;-95.2;44.1;44.5;16;15.3;26.9;0.0;
23/02/2025 12:29:58;100;0;152.97;-4;-20.65;-4.01;560.3;13.70;75857;2834.962;-1758.386;1;140;-90;-93.5;44.1;44.3;16;15.3;26.9;0.0;
23/02/2025 12:30:18;100;0;153.38;-4;-21.10;-4.03;563.0;13.70;75856;2834.960;-1758.385;1;140;-90;-93.5;44.1;44.5;16;15.3;26.9;0.0;
23/02/2025 12:30:38;100;0;151.87;-4;-19.99;-4.25;565.8;13.60;75846;2834.957;-1758.383;1;140;-90;-93.5;44.1;44.5;16;14.9;27.0;0.0;
23/02/2025 12:30:58;100;0;153.05;-4;-21.12;-4.13;568.5;13.60;75843;2834.955;-1758.382;1;140;-90;-91.9;44.1;44.5;16;15.3;26.9;0.0;
23/02/2025 12:31:18;100;0;154.19;-4;-19.53;-4.07;571.3;13.60;75848;2834.952;-1758.380;1;140;-90;-91.9;44.1;44.5;16;15.3;26.9;0.0;
23/02/2025 12:31:38;100;0;151.77;-4;-20.99;-3.96;574.1;13.60;75843;2834.950;-1758.379;1;140;-90;-93.5;44.1;44.5;16;15.3;26.9;0.0;
23/02/2025 12:31:58;100;0;152.72;-4;-20.06;-3.89;576.9;13.60;75833;2834.948;-1758.377;1;140;-90;-93.5;44.1;44.3;16;15.3;26.9;0.0;
23/02/2025 12:32:18;100;0;154.35;-4;-20.14;-3.87;579.6;13.50;75821;2834.945;-1758.375;1;140;-90;-93.5;44.1;44.5;16;14.9;26.9;0.0;
23/02/2025 12:32:38;100;0;155.66;-4;-20.12;-4.01;582.4;13.50;75826;2834.943;-1758.374;1;140;-90;-93.5;44.1;44.5;18;18.1;26.9;0.0;
23/02/2025 12:32:58;100;0;155.29;-4;-20.01;-2.34;585.1;13.50;75814;2834.940;-1758.372;1;140;-90;-91.9;44.1;44.5;18;18.5;26.9;0.0;
23/02/2025 12:33:18;100;0;152.73;-4;-20.32;-2.37;587.7;13.50;75821;2834.938;-1758.371;1;140;-90;-93.5;44.1;44.5;16;15.3;26.9;0.0;
23/02/2025 12:33:38;100;0;151.02;-4;-20.05;-4.00;590.5;13.40;75803;2834.935;-1758.369;1;140;-90;-93.5;44.1;44.5;16;15.3;26.9;0.0;
23/02/2025 12:33:58;100;0;150.39;-4;-19.60;-3.92;593.1;13.40;75809;2834.933;-1758.368;1;140;-90;-93.5;44.1;44.5;16;15.3;26.9;0.0;
23/02/2025 12:34:18;100;0;151.08;-4;-20.04;-4.20;595.7;13.40;75808;2834.931;-1758.366;1;140;-90;-91.9;44.1;44.5;16;15.3;26.9;0.0;
23/02/2025 12:34:38;100;0;150.56;-4;-19.91;-4.15;598.4;13.40;75789;2834.929;-1758.364;1;140;-90;-93.5;44.1;44.5;16;15.3;26.9;0.0;
23/02/2025 12:34:58;100;0;150.63;-4;-19.81;-4.03;601.0;13.40;75798;2834.926;-1758.363;1;140;-90;-91.9;44.1;44.3;16;15.3;26.9;0.0;
23/02/2025 12:35:18;100;0;150.62;-4;-19.79;-3.95;603.9;13.30;75788;2834.924;-1758.361;1;140;-90;-93.5;44.1;44.5;16;15.3;26.9;0.0;
23/02/2025 12:35:38;100;0;153.34;-4;-20.02;-3.98;606.7;13.30;75781;2834.921;-1758.359;1;140;-90;-90.3;44.1;44.5;16;15.3;26.9;0.0;
23/02/2025 12:35:58;100;0;155.52;-4;-19.63;-3.91;609.5;13.30;75779;2834.919;-1758.358;1;140;-90;-93.5;44.1;44.3;18;18.1;26.9;0.0;
23/02/2025 12:36:18;100;0;154.61;-4;-19.82;-2.26;612.4;13.30;75778;2834.916;-1758.356;1;140;-90;-93.5;44.1;44.5;18;18.5;26.9;0.0;
23/02/2025 12:36:38;100;0;150.22;-4;-20.04;-2.31;615.5;13.30;75770;2834.913;-1758.354;1;140;-90;-91.9;44.1;44.5;16;15.8;26.9;0.0;
23/02/2025 12:36:58;100;0;147.52;-4;-19.91;-3.89;618.5;13.20;75761;2834.911;-1758.352;1;140;-90;-93.5;44.1;44.5;16;15.3;26.9;0.0;
23/02/2025 12:37:18;100;0;142.72;-4;-19.82;-3.95;621.5;13.20;75759;2834.908;-1758.350;1;140;-90;-93.5;44.1;44.5;16;15.3;26.9;0.0;
23/02/2025 12:37:38;100;0;139.75;-4;-19.91;-3.90;624.5;13.20;75754;2834.906;-1758.347;1;140;-90;-93.5;44.1;44.3;14;14.0;26.9;0.0;
23/02/2025 12:37:58;100;0;139.03;-4;-19.86;-4.60;627.4;13.20;75761;2834.904;-1758.344;1;140;-90;-93.5;44.1;44.5;14;14.0;26.9;0.0;
23/02/2025 12:38:18;100;0;138.46;-4;-19.92;-4.62;630.5;13.10;75746;2834.902;-1758.342;1;140;-90;-93.5;44.1;44.5;14;14.0;26.9;0.0;
23/02/2025 12:38:38;100;0;139.69;-4;-20.10;-4.60;633.4;13.10;75739;2834.900;-1758.339;1;140;-90;-93.5;44.1;44.5;14;14.0;26.9;0.0;
23/02/2025 12:38:58;100;0;139.83;-4;-20.09;-4.65;636.4;13.10;75728;2834.897;-1758.336;1;140;-90;-93.5;44.1;44.5;14;14.0;26.9;0.0;
23/02/2025 12:39:18;100;0;140.21;-4;-19.97;-4.57;639.4;13.10;75730;2834.895;-1758.334;1;140;-90;-93.5;44.1;44.5;14;14.0;26.9;0.0;
23/02/2025 12:39:38;100;0;141.89;-4;-19.94;-4.63;642.3;13.00;75722;2834.893;-1758.332;1;140;-90;-93.5;44.1;44.5;14;14.0;26.9;0.0;
23/02/2025 12:39:58;100;0;142.12;-4;-19.97;-4.62;645.2;13.00;75716;2834.891;-1758.329;1;140;-90;-93.5;44.1;44.5;14;14.0;26.9;0.0;
23/02/2025 12:40:18;100;0;142.44;-4;-19.95;-4.56;648.1;13.00;75713;2834.888;-1758.327;1;140;-90;-93.5;44.1;44.5;14;14.0;26.9;0.0;
23/02/2025 12:40:38;100;0;141.91;-4;-19.95;-4.60;651.0;13.00;75713;2834.886;-1758.324;1;140;-90;-91.9;44.1;44.5;14;14.0;26.9;0.0;
23/02/2025 12:40:58;100;0;141.33;-4;-19.85;-4.58;653.9;13.00;75700;2834.884;-1758.322;1;140;-90;-91.9;44.1;44.5;14;14.0;26.9;0.0;
23/02/2025 12:41:18;100;0;140.91;-4;-20.05;-4.60;656.6;12.90;75702;2834.882;-1758.320;1;140;-90;-93.5;44.1;44.5;14;14.0;26.9;0.0;
23/02/2025 12:41:38;100;0;140.79;-4;-20.22;-4.61;659.6;12.90;75694;2834.880;-1758.317;1;140;-90;-93.5;44.1;44.5;14;14.0;26.9;0.0;
23/02/2025 12:41:58;100;0;141.00;-4;-20.00;-4.60;662.4;12.90;75698;2834.878;-1758.315;1;140;-90;-93.5;44.1;44.3;14;14.0;26.9;0.0;
23/02/2025 12:42:18;100;0;141.06;-4;-20.17;-4.59;665.3;12.90;75691;2834.876;-1758.312;1;140;-90;-93.5;44.1;44.5;14;14.0;26.9;0.0;
23/02/2025 12:42:38;100;0;141.64;-4;-20.03;-4.63;668.0;12.90;75694;2834.873;-1758.310;1;140;-90;-93.5;44.1;44.5;14;14.0;26.9;0.0;
23/02/2025 12:42:58;100;0;142.11;-4;-20.26;-4.61;671.0;12.80;75682;2834.871;-1758.308;1;140;-90;-93.5;44.1;44.5;14;14.0;26.9;0.0;
23/02/2025 12:43:18;100;0;142.35;-4;-20.12;-4.55;673.9;12.80;75690;2834.869;-1758.305;1;140;-90;-93.5;44.1;44.3;14;14.0;26.9;0.0;
23/02/2025 12:43:38;100;0;143.64;-4;-20.22;-4.65;676.8;12.80;75681;2834.867;-1758.303;1;140;-90;-93.5;44.1;44.5;14;14.0;26.9;0.0;
23/02/2025 12:43:58;100;0;144.72;-4;-20.22;-4.54;679.8;12.80;75678;2834.864;-1758.301;1;140;-90;-93.5;44.1;44.5;14;14.0;26.9;0.0;
23/02/2025 12:44:18;100;0;144.85;-4;-19.84;-4.61;682.6;12.80;75674;2834.862;-1758.299;1;140;-90;-93.5;44.1;44.5;14;14.0;26.9;0.0;
23/02/2025 12:44:38;100;0;145.12;-4;-19.51;-4.68;685.4;12.70;75670;2834.860;-1758.297;1;140;-90;-93.5;44.1;44.5;14;14.0;26.9;0.0;
23/02/2025 12:44:58;100;0;147.66;-4;-19.33;-4.72;688.0;12.70;75657;2834.857;-1758.295;1;140;-90;-93.5;44.1;44.6;14;14.0;26.9;0.0;
23/02/2025 12:45:18;100;0;149.63;-4;-19.58;-4.66;690.6;12.70;75656;2834.855;-1758.293;1;140;-90;-91.9;44.1;44.5;14;14.0;26.9;0.0;
23/02/2025 12:45:38;100;0;150.52;-4;-19.60;-4.68;693.3;12.70;75651;2834.853;-1758.291;1;140;-90;-91.9;44.1;44.5;14;14.0;26.9;0.0;
23/02/2025 12:45:58;100;0;152.60;-4;-19.56;-4.66;695.9;12.70;75651;2834.851;-1758.290;1;140;-90;-93.5;44.1;44.5;16;15.8;26.9;0.0;
23/02/2025 12:46:18;100;0;154.00;-4;-19.34;-3.43;698.5;12.60;75640;2834.848;-1758.288;1;140;-90;-93.5;44.1;44.3;16;16.2;26.9;0.0;
23/02/2025 12:46:38;100;0;153.30;-4;-19.92;-3.60;701.0;12.60;75646;2834.846;-1758.287;1;140;-90;-93.5;44.1;44.5;16;16.2;26.9;0.0;
23/02/2025 12:46:58;100;0;152.66;-4;-19.59;-3.36;703.5;12.60;75634;2834.844;-1758.285;1;140;-90;-93.5;44.1;44.5;16;16.2;26.9;0.0;
23/02/2025 12:47:19;100;0;149.72;-4;-19.39;-3.52;706.0;12.60;75632;2834.842;-1758.284;1;140;-90;-93.5;44.1;44.5;16;16.2;26.9;0.0;
23/02/2025 12:47:39;100;0;148.38;-4;-19.48;-3.49;708.4;12.60;75627;2834.840;-1758.282;1;140;-90;-91.9;44.1;44.3;16;16.2;26.9;0.0;
23/02/2025 12:47:59;100;0;146.62;-4;-19.60;-3.50;710.8;12.50;75631;2834.838;-1758.280;1;140;-90;-93.5;44.1;44.3;16;16.2;26.9;0.0;
23/02/2025 12:48:19;100;0;144.06;-4;-19.65;-3.51;713.3;12.50;75610;2834.836;-1758.278;1;140;-90;-93.5;44.1;44.5;16;16.2;26.9;0.0;
23/02/2025 12:48:39;100;0;142.82;-4;-19.66;-3.50;715.7;12.50;75610;2834.834;-1758.277;1;140;-90;-93.5;44.1;44.5;16;16.2;26.9;0.0;
23/02/2025 12:48:59;100;0;141.37;-4;-19.61;-3.47;718.1;12.50;75604;2834.832;-1758.275;1;140;-90;-93.5;44.1;44.3;14;14.0;26.9;0.0;
23/02/2025 12:49:19;100;0;140.51;-4;-19.40;-4.85;720.5;12.40;75608;2834.831;-1758.273;1;140;-90;-91.9;44.1;44.5;14;13.5;26.9;0.0;
23/02/2025 12:49:39;100;0;140.66;-4;-19.27;-4.78;722.7;12.40;75595;2834.829;-1758.271;1;140;-90;-93.5;44.1;44.5;14;13.5;26.9;0.0;
23/02/2025 12:49:59;100;0;141.46;-4;-19.37;-4.80;725.1;12.40;75603;2834.827;-1758.269;1;140;-90;-93.5;44.1;44.5;14;13.5;26.9;0.0;
23/02/2025 12:50:19;100;0;142.90;-4;-19.31;-4.88;727.3;12.40;75586;2834.826;-1758.267;1;140;-90;-93.5;44.1;44.5;14;13.5;26.9;0.0;
23/02/2025 12:50:39;100;0;144.31;-4;-19.28;-4.83;729.6;12.40;75590;2834.824;-1758.265;1;140;-90;-91.9;44.1;44.5;14;13.5;26.9;0.0;
23/02/2025 12:50:59;100;0;145.95;-4;-19.23;-4.92;731.8;12.30;75585;2834.822;-1758.263;1;140;-90;-93.5;44.1;44.3;14;13.5;26.9;0.0;
23/02/2025 12:51:19;100;0;147.15;-4;-19.36;-4.85;734.1;12.30;75578;2834.820;-1758.262;1;140;-90;-93.5;44.1;44.5;14;13.5;26.9;0.0;
23/02/2025 12:51:39;100;0;150.06;-4;-19.64;-4.79;736.4;12.30;75573;2834.818;-1758.260;1;140;-90;-93.5;44.1;44.5;14;13.5;26.9;0.0;
23/02/2025 12:51:59;100;0;150.18;-4;-19.59;-4.78;738.9;12.30;75568;2834.816;-1758.259;1;140;-90;-93.5;44.1;44.5;14;13.5;26.9;0.0;
23/02/2025 12:52:19;100;0;151.32;-4;-19.61;-4.78;741.2;12.30;75555;2834.814;-1758.257;1;140;-90;-93.5;44.1;44.5;14;13.5;26.9;0.0;
23/02/2025 12:52:39;100;0;153.87;-4;-19.74;-4.69;743.6;12.30;75561;2834.812;-1758.256;1;140;-90;-91.9;44.1;44.5;16;16.2;26.9;0.0;
23/02/2025 12:52:59;100;0;156.43;-4;-20.05;-3.42;746.1;12.20;75551;2834.810;-1758.255;1;140;-90;-95.2;44.1;44.5;19;19.4;26.9;0.0;
23/02/2025 12:53:19;100;0;159.39;-4;-19.85;-1.37;748.6;12.20;75539;2834.808;-1758.254;1;140;-90;-93.5;44.1;44.5;23;23.0;26.9;0.0;
23/02/2025 12:53:39;100;0;157.58;-4;-20.16;0.05;751.2;12.20;75544;2834.806;-1758.253;1;140;-90;-91.9;44.1;44.5;20;19.9;26.9;0.0;
23/02/2025 12:53:59;100;0;157.86;-4;-19.56;-1.86;753.5;12.20;75530;2834.803;-1758.251;1;140;-90;-93.5;44.1;44.5;20;19.9;26.9;0.0;
23/02/2025 12:54:19;100;0;157.90;-4;-19.79;-1.85;756.0;12.10;75526;2834.801;-1758.250;1;140;-90;-91.9;44.1;44.5;20;19.4;26.9;0.0;
23/02/2025 12:54:39;100;0;158.11;-4;-19.83;-1.79;758.3;12.10;75527;2834.799;-1758.249;1;140;-90;-93.5;44.1;44.5;20;19.4;26.9;0.0;
23/02/2025 12:54:59;100;0;157.97;-4;-19.86;-1.87;760.7;12.10;75522;2834.797;-1758.248;1;140;-90;-93.5;44.1;44.5;20;19.9;26.9;0.0;
23/02/2025 12:55:19;100;0;155.32;-4;-19.90;-2.32;763.1;12.10;75526;2834.795;-1758.247;1;140;-90;-93.5;44.1;44.5;18;18.1;26.9;0.0;
23/02/2025 12:55:39;100;0;158.40;-4;-19.75;-2.48;765.5;12.00;75513;2834.793;-1758.246;1;140;-90;-95.2;44.1;44.5;22;22.6;26.9;0.0;
23/02/2025 12:55:59;100;0;154.13;-4;-19.90;-0.23;767.9;12.00;75511;2834.791;-1758.245;1;140;-90;-93.5;44.1;44.3;17;17.1;26.9;0.0;
23/02/2025 12:56:19;100;0;151.73;-4;-19.40;-3.19;770.3;12.00;75507;2834.789;-1758.243;1;140;-90;-93.5;44.1;44.3;17;17.1;26.9;0.0;
23/02/2025 12:56:39;100;0;149.80;-4;-19.38;-3.17;772.4;12.00;75505;2834.787;-1758.242;1;140;-90;-93.5;44.1;44.5;15;14.9;26.9;0.0;
23/02/2025 12:56:59;100;0;148.72;-4;-19.31;-4.44;774.5;12.00;75499;2834.785;-1758.240;1;140;-90;-91.9;44.1;44.5;15;14.4;26.9;0.0;
23/02/2025 12:57:19;100;0;148.70;-4;-19.47;-4.42;776.7;11.90;75492;2834.783;-1758.239;1;140;-90;-93.5;44.1;44.5;15;14.4;26.9;0.0;
23/02/2025 12:57:39;100;0;148.61;-4;-19.77;-4.35;778.9;11.90;75474;2834.782;-1758.237;1;140;-90;-93.5;44.1;44.5;15;14.4;26.9;0.0;
23/02/2025 12:57:59;100;0;148.85;-4;-20.72;-4.34;781.2;11.90;75494;2834.780;-1758.236;1;140;-90;-93.5;44.1;44.5;15;14.4;26.9;0.0;
23/02/2025 12:58:19;100;0;149.59;-4;-19.23;-4.21;783.8;11.90;75476;2834.778;-1758.234;1;140;-90;-93.5;44.1;44.5;15;14.4;26.9;0.0;
23/02/2025 12:58:39;100;0;145.43;-4;-19.16;-4.50;786.2;11.90;75469;2834.776;-1758.232;1;140;-90;-93.5;44.1;44.5;15;14.4;26.9;0.0;
23/02/2025 12:58:59;100;0;141.98;-4;-19.04;-4.45;788.4;11.90;75463;2834.774;-1758.230;1;140;-90;-93.5;44.1;44.5;15;14.4;26.9;0.0;
23/02/2025 12:59:19;100;0;141.84;-4;-19.04;-4.42;790.6;11.80;75462;2834.772;-1758.229;1;140;-90;-93.5;44.1;44.5;15;14.4;26.9;0.0;
23/02/2025 12:59:39;100;0;141.37;-4;-19.13;-4.59;792.8;11.80;75454;2834.771;-1758.227;1;140;-90;-93.5;44.1;44.5;15;14.4;26.9;0.0;
23/02/2025 12:59:59;100;0;141.73;-4;-19.48;-4.41;795.2;11.80;75451;2834.769;-1758.225;1;140;-90;-91.9;44.1;44.5;15;14.4;26.9;0.0;
23/02/2025 13:00:19;100;0;142.08;-4;-19.17;-4.48;797.5;11.80;75451;2834.767;-1758.223;1;140;-90;-91.9;44.1;44.5;15;14.4;26.9;0.0;
23/02/2025 13:00:39;100;0;142.56;-4;-19.07;-4.58;799.8;11.80;75443;2834.766;-1758.221;1;140;-90;-93.5;44.1;44.5;15;14.4;26.9;0.0;
23/02/2025 13:00:59;100;0;143.31;-4;-19.13;-4.49;802.1;11.70;75439;2834.764;-1758.219;1;140;-90;-91.9;44.1;44.5;15;14.4;26.9;0.0;
23/02/2025 13:01:19;100;0;142.16;-4;-19.10;-4.45;804.6;11.70;75441;2834.762;-1758.217;1;140;-90;-93.5;44.1;44.3;15;14.4;26.9;0.0;
23/02/2025 13:01:39;100;0;141.49;-4;-19.24;-4.49;806.9;11.70;75432;2834.760;-1758.215;1;140;-90;-93.5;44.1;44.5;15;14.4;26.9;0.0;
23/02/2025 13:01:59;100;0;140.61;-4;-19.15;-4.43;809.2;11.70;75426;2834.759;-1758.213;1;140;-90;-91.9;44.1;44.5;15;14.4;26.9;0.0;
23/02/2025 13:02:19;100;0;140.47;-4;-18.96;-4.43;811.6;11.70;75419;2834.757;-1758.211;1;140;-90;-91.9;44.4;44.3;15;14.4;26.9;0.0;
23/02/2025 13:02:39;100;0;141.39;-4;-18.66;-4.32;814.1;11.60;75422;2834.755;-1758.209;1;140;-90;-93.5;44.8;44.8;15;14.4;26.9;0.0;
23/02/2025 13:02:59;100;0;138.68;-4;-20.11;-4.42;816.4;11.60;75409;2834.753;-1758.207;1;140;-90;-93.5;44.8;45.1;15;14.4;26.9;0.0;
23/02/2025 13:03:19;100;0;136.33;-4;-20.13;-4.43;818.9;11.60;75398;2834.752;-1758.205;1;140;-90;-93.5;44.8;44.9;13;13.1;26.9;0.0;
23/02/2025 13:03:39;100;0;134.67;-4;-20.34;-5.14;821.4;11.60;75391;2834.750;-1758.202;1;140;-90;-93.5;44.8;45.1;11;10.8;26.9;0.0;
23/02/2025 13:03:59;100;0;137.89;-4;-20.29;-6.35;823.9;11.50;75386;2834.748;-1758.200;1;140;-90;-93.5;44.8;45.1;14;14.0;26.9;0.0;
23/02/2025 13:04:19;100;0;140.57;-4;-20.50;-4.45;826.6;11.50;75384;2834.747;-1758.198;1;140;-90;-91.9;44.8;45.1;14;14.4;26.9;0.0;
23/02/2025 13:04:39;100;0;142.72;-4;-20.43;-4.47;829.2;11.50;75377;2834.745;-1758.196;1;140;-90;-93.5;44.8;45.1;14;14.0;26.9;0.0;
23/02/2025 13:04:59;100;0;143.69;-4;-20.95;-4.47;831.7;11.50;75361;2834.743;-1758.194;1;140;-90;-93.5;44.8;44.9;14;14.0;26.9;0.0;
23/02/2025 13:05:19;100;0;144.77;-4;-19.64;-4.62;834.3;11.50;75364;2834.741;-1758.192;1;140;-90;-93.5;44.8;45.1;14;14.0;26.9;0.0;
23/02/2025 13:05:39;100;0;145.80;-4;-19.88;-4.53;836.8;11.40;75347;2834.739;-1758.190;1;140;-90;-91.9;44.8;45.1;14;14.4;26.9;0.0;
23/02/2025 13:05:59;100;0;145.67;-4;-20.29;-4.54;839.4;11.40;75338;2834.737;-1758.188;1;140;-90;-93.5;44.8;45.1;14;14.4;26.9;0.0;
23/02/2025 13:06:19;100;0;144.00;-4;-20.48;-4.32;841.8;11.40;75338;2834.735;-1758.186;1;140;-90;-93.5;44.8;45.1;14;14.0;26.9;0.0;
23/02/2025 13:06:39;100;0;143.27;-4;-20.26;-4.67;844.4;11.40;75339;2834.733;-1758.184;1;140;-90;-93.5;44.8;45.1;14;14.0;26.9;0.0;
23/02/2025 13:06:59;100;0;143.34;-4;-20.08;-4.53;846.8;11.30;75343;2834.731;-1758.182;1;140;-90;-93.5;44.8;45.1;14;14.0;26.9;0.0;
23/02/2025 13:07:19;100;0;143.63;-4;-20.48;-4.40;849.3;11.30;75333;2834.729;-1758.180;1;140;-90;-91.9;44.8;45.1;14;14.4;26.9;0.0;
23/02/2025 13:07:39;100;0;143.94;-4;-20.07;-4.34;851.6;11.30;75329;2834.728;-1758.179;1;140;-90;-93.5;44.8;45.1;14;14.4;26.9;0.0;
23/02/2025 13:07:59;100;0;143.71;-4;-20.69;-4.39;854.0;11.30;75324;2834.726;-1758.177;1;140;-90;-93.5;44.8;45.1;14;14.4;26.9;0.0;
23/02/2025 13:08:19;100;0;145.84;-4;-20.73;-4.51;856.4;11.30;75328;2834.724;-1758.175;1;140;-90;-93.5;44.8;45.1;14;14.0;26.9;0.0;
23/02/2025 13:08:39;100;0;147.97;-4;-20.50;-4.46;858.9;11.20;75326;2834.722;-1758.174;1;140;-90;-93.5;44.8;45.1;14;14.4;26.9;0.0;
23/02/2025 13:08:59;100;0;150.83;-4;-21.20;-4.55;861.3;11.20;75315;2834.720;-1758.172;1;140;-90;-93.5;44.8;45.1;14;14.4;26.9;0.0;
23/02/2025 13:09:19;100;0;152.33;-4;-20.68;-4.52;864.0;11.20;75320;2834.718;-1758.171;1;140;-90;-91.9;44.8;45.1;16;15.8;26.9;0.0;
23/02/2025 13:09:39;100;0;155.61;-4;-20.85;-3.55;866.6;11.20;75318;2834.716;-1758.169;1;140;-90;-93.5;44.8;45.1;19;19.0;26.9;0.0;
23/02/2025 13:09:59;100;0;155.21;-4;-21.38;-2.16;869.4;11.20;75311;2834.713;-1758.168;1;140;-90;-93.5;44.8;45.1;19;19.0;26.9;0.0;
23/02/2025 13:10:19;100;0;154.00;-4;-20.95;-2.07;871.9;11.20;75316;2834.711;-1758.167;1;140;-90;-95.2;44.8;45.1;17;17.1;26.9;0.0;
23/02/2025 13:10:39;100;0;154.92;-4;-20.57;-3.08;874.5;11.10;75307;2834.709;-1758.165;1;140;-90;-91.9;44.8;45.2;17;17.1;26.9;0.0;
23/02/2025 13:10:59;100;0;158.46;-4;-20.38;-3.02;877.1;11.10;75313;2834.707;-1758.164;1;140;-90;-93.5;44.8;45.1;22;22.1;26.9;0.0;
23/02/2025 13:11:19;100;0;154.80;-4;-20.78;-0.37;879.6;11.10;75306;2834.705;-1758.163;1;140;-90;-93.5;44.8;45.1;18;18.1;26.9;0.0;
23/02/2025 13:11:39;100;0;152.26;-4;-20.47;-2.69;882.2;11.10;75309;2834.703;-1758.161;1;140;-90;-93.5;44.8;45.1;16;15.8;26.9;0.0;
23/02/2025 13:11:59;100;0;154.08;-4;-20.32;-3.96;884.6;11.10;75299;2834.700;-1758.160;1;140;-90;-93.5;44.8;45.1;16;15.3;26.9;0.0;
23/02/2025 13:12:19;100;0;155.13;-4;-20.35;-3.94;887.2;11.00;75286;2834.698;-1758.159;1;140;-90;-91.9;44.8;45.1;18;18.1;26.9;0.0;
23/02/2025 13:12:39;100;0;153.39;-4;-20.68;-2.29;889.8;11.00;75292;2834.696;-1758.157;1;140;-90;-93.5;44.8;45.1;18;18.5;26.9;0.0;
23/02/2025 13:12:59;100;0;152.65;-4;-20.52;-2.31;892.3;11.00;75285;2834.694;-1758.156;1;140;-90;-93.5;44.8;45.1;18;18.5;26.9;0.0;
23/02/2025 13:13:19;100;0;150.88;-4;-20.34;-2.30;894.9;11.00;75284;2834.692;-1758.154;1;140;-90;-93.5;44.8;45.1;16;15.8;26.9;0.0;
23/02/2025 13:13:39;100;0;148.78;-4;-20.34;-3.87;897.3;11.00;75276;2834.690;-1758.153;1;140;-90;-93.5;44.8;45.1;16;15.8;26.9;0.0;
23/02/2025 13:13:59;100;0;147.36;-4;-20.19;-3.89;899.8;11.00;75274;2834.688;-1758.151;1;140;-90;-93.5;44.8;45.1;16;15.3;26.9;0.0;
23/02/2025 13:14:19;100;0;146.71;-4;-19.98;-3.93;902.2;10.90;75272;2834.686;-1758.149;1;140;-90;-93.5;44.8;45.1;16;15.3;26.9;0.0;
23/02/2025 13:14:39;100;0;147.63;-4;-20.17;-3.87;904.6;10.90;75275;2834.684;-1758.148;1;140;-90;-90.3;44.8;45.1;16;15.8;26.9;0.0;
23/02/2025 13:14:59;100;0;149.04;-4;-20.18;-3.88;906.8;10.90;75269;2834.682;-1758.146;1;140;-90;-93.5;44.8;45.1;16;15.3;26.9;0.0;
23/02/2025 13:15:19;100;0;149.61;-4;-20.18;-3.85;909.2;10.90;75246;2834.680;-1758.145;1;140;-90;-93.5;44.8;45.1;16;15.8;26.9;0.0;
23/02/2025 13:15:39;100;0;148.41;-4;-20.17;-3.79;911.5;10.90;75255;2834.678;-1758.143;1;140;-90;-93.5;44.8;45.1;16;15.3;26.9;0.0;
23/02/2025 13:15:59;100;0;149.80;-4;-20.11;-3.70;913.9;10.80;75253;2834.676;-1758.142;1;140;-90;-93.5;44.8;45.1;16;15.8;26.9;0.0;
23/02/2025 13:16:19;100;0;150.74;-4;-20.04;-3.89;916.0;10.80;75249;2834.675;-1758.140;1;140;-90;-91.9;44.8;45.1;16;15.8;26.9;0.0;
23/02/2025 13:16:39;100;0;147.61;-4;-19.83;-3.89;918.2;10.80;75252;2834.673;-1758.139;1;140;-90;-91.9;44.8;45.1;16;15.3;26.9;0.0;
23/02/2025 13:16:59;100;0;145.65;-4;-19.87;-3.92;920.4;10.80;75234;2834.671;-1758.137;1;140;-90;-91.9;44.8;44.9;16;15.8;26.9;0.0;
23/02/2025 13:17:19;100;0;144.58;-4;-20.00;-3.93;922.6;10.80;75227;2834.670;-1758.136;1;140;-90;-91.9;44.8;45.1;16;15.3;26.9;0.0;
23/02/2025 13:17:39;100;0;144.60;-4;-20.04;-3.94;924.9;10.70;75217;2834.668;-1758.134;1;140;-90;-93.5;44.8;45.1;16;15.3;26.9;0.0;
23/02/2025 13:17:59;100;0;144.01;-4;-20.04;-3.85;927.0;10.70;75220;2834.667;-1758.132;1;140;-90;-93.5;44.8;45.1;16;15.3;26.9;0.0;
23/02/2025 13:18:19;100;0;142.52;-4;-20.01;-3.96;929.3;10.70;75224;2834.665;-1758.130;1;140;-90;-91.9;44.8;45.2;16;15.3;26.9;0.0;
23/02/2025 13:18:39;100;0;142.45;-4;-19.90;-3.84;931.6;10.70;75214;2834.663;-1758.129;1;140;-90;-91.9;44.8;45.1;16;15.3;26.9;0.0;
23/02/2025 13:18:59;100;0;142.14;-4;-20.05;-3.90;933.9;10.70;75210;2834.662;-1758.127;1;140;-90;-93.5;44.8;45.1;16;15.8;26.9;0.0;
23/02/2025 13:19:19;100;0;142.58;-4;-20.00;-3.92;936.1;10.70;75197;2834.660;-1758.125;1;140;-90;-93.5;44.8;45.1;16;15.8;26.9;0.0;
23/02/2025 13:19:39;100;0;142.88;-4;-19.96;-3.94;938.5;10.60;75193;2834.658;-1758.123;1;140;-90;-93.5;44.8;45.2;16;15.3;26.9;0.0;
23/02/2025 13:19:59;100;0;143.51;-4;-19.97;-3.92;940.8;10.60;75193;2834.657;-1758.121;1;140;-90;-93.5;44.8;45.1;16;15.8;26.9;0.0;
23/02/2025 13:20:19;100;0;144.75;-4;-19.87;-3.91;943.1;10.60;75200;2834.655;-1758.120;1;140;-90;-93.5;44.8;45.1;16;15.8;26.9;0.0;
23/02/2025 13:20:39;100;0;145.28;-4;-19.97;-3.91;945.5;10.60;75184;2834.653;-1758.118;1;140;-90;-93.5;44.8;45.1;16;15.3;26.9;0.0;
23/02/2025 13:20:59;100;0;146.24;-4;-20.05;-3.89;947.9;10.60;75188;2834.651;-1758.116;1;140;-90;-93.5;44.8;45.1;16;15.8;26.9;0.0;
23/02/2025 13:21:19;100;0;147.32;-4;-20.05;-3.86;950.3;10.50;75180;2834.649;-1758.115;1;140;-90;-93.5;44.8;45.1;16;15.8;26.9;0.0;
23/02/2025 13:21:40;100;0;147.64;-4;-20.01;-3.88;952.9;10.50;75171;2834.647;-1758.113;1;140;-90;-95.2;44.8;45.1;16;15.8;26.9;0.0;
23/02/2025 13:22:00;100;0;147.65;-4;-20.22;-3.86;955.3;10.50;75162;2834.645;-1758.111;1;140;-90;-93.5;44.8;45.1;16;15.8;26.9;0.0;
23/02/2025 13:22:20;100;0;148.27;-4;-20.19;-3.89;957.9;10.50;75177;2834.643;-1758.109;1;140;-90;-91.9;44.8;45.1;16;15.3;26.9;0.0;
23/02/2025 13:22:40;100;0;148.05;-4;-20.04;-3.93;960.5;10.50;75165;2834.641;-1758.108;1;140;-90;-93.5;44.8;45.1;16;15.3;26.9;0.0;
23/02/2025 13:23:00;100;0;148.56;-4;-20.01;-3.88;963.0;10.40;75169;2834.639;-1758.106;1;140;-90;-91.9;44.8;45.1;16;15.3;26.9;0.0;
23/02/2025 13:23:20;100;0;148.98;-4;-20.06;-3.90;965.6;10.40;75164;2834.637;-1758.104;1;140;-90;-91.9;44.8;45.1;16;15.3;26.9;0.0;
23/02/2025 13:23:40;100;0;148.50;-4;-20.08;-3.89;968.3;10.40;75156;2834.635;-1758.102;1;140;-90;-91.9;44.8;45.1;16;15.8;26.9;0.0;
23/02/2025 13:24:00;100;0;145.64;-4;-20.15;-3.89;970.9;10.40;75154;2834.633;-1758.100;1;140;-90;-91.9;44.8;45.1;16;15.8;26.9;0.0;
23/02/2025 13:24:20;100;0;144.62;-4;-19.97;-3.92;973.5;10.40;75149;2834.631;-1758.098;1;140;-90;-91.9;44.8;45.1;16;15.3;26.9;0.0;
23/02/2025 13:24:40;100;0;142.46;-4;-19.81;-3.94;976.2;10.40;75149;2834.629;-1758.096;1;140;-90;-93.5;44.8;45.1;16;15.3;26.9;0.0;
23/02/2025 13:25:00;100;0;142.01;-4;-19.73;-3.92;978.8;10.30;75139;2834.627;-1758.094;1;140;-90;-93.5;44.8;45.1;16;15.8;26.9;0.0;
23/02/2025 13:25:20;100;0;142.10;-4;-19.66;-3.86;981.4;10.30;75135;2834.625;-1758.092;1;140;-90;-91.9;44.8;45.1;16;15.3;26.9;0.0;
23/02/2025 13:25:40;100;0;142.82;-4;-19.96;-3.92;984.0;10.30;75127;2834.623;-1758.090;1;140;-90;-91.9;44.8;45.2;16;15.8;26.9;0.0;
23/02/2025 13:26:00;100;0;144.59;-4;-20.17;-3.91;986.9;10.30;75127;2834.620;-1758.088;1;140;-90;-93.5;44.8;45.1;16;15.3;26.9;0.0;
23/02/2025 13:26:20;100;0;145.50;-4;-20.01;-3.82;989.6;10.30;75135;2834.618;-1758.086;1;140;-90;-93.5;44.8;45.1;16;15.3;26.9;0.0;
23/02/2025 13:26:40;100;0;145.78;-4;-19.80;-3.88;992.4;10.30;75129;2834.616;-1758.084;1;140;-90;-95.2;44.8;45.1;16;15.3;26.9;0.0;
23/02/2025 13:27:00;100;0;146.57;-4;-19.74;-3.92;995.1;10.20;75127;2834.614;-1758.082;1;140;-90;-93.5;44.8;45.1;16;15.8;26.9;0.0;
23/02/2025 13:27:20;100;0;146.90;-4;-19.57;-4.07;997.8;10.20;75118;2834.612;-1758.080;1;140;-90;-93.5;44.8;45.1;16;15.3;26.9;0.0;
23/02/2025 13:27:29;118;0;145.76;-4;-19.32;-3.96;998.9;10.20;75132;2834.611;-1758.079;1;140;310;-88.7;26.2;26.2;7;6.8;26.9;0.0;
23/02/2025 13:27:39;118;0;117.37;-4;-5.65;-9.20;999.9;10.20;75097;2834.610;-1758.078;1;140;310;38.7;26.2;25.8;7;6.8;25.5;-1.0;
23/02/2025 13:27:49;118;0;103.54;-4;16.02;-9.02;1000.0;10.20;74838;2834.610;-1758.077;1;140;310;164.5;26.2;25.6;7;6.8;25.4;-1.0;
23/02/2025 13:27:59;118;0;100.55;-4;22.41;-9.24;999.4;10.20;74577;2834.611;-1758.077;1;140;310;287.1;26.2;26.2;7;6.8;25.5;-1.0;
23/02/2025 13:28:09;118;0;100.99;-4;19.95;-8.89;998.5;10.20;74330;2834.611;-1758.076;1;140;310;312.9;26.2;26.2;7;6.8;25.4;-1.0;
23/02/2025 13:28:19;118;0;146.42;-4;17.74;-8.66;997.5;10.20;74301;2834.610;-1758.075;1;140;310;312.9;26.2;26.2;7;6.8;26.9;-1.0;
23/02/2025 13:28:39;117;0;140.63;-4;16.35;-8.47;995.6;10.20;74308;2834.609;-1758.073;1;140;310;311.3;26.2;26.4;7;6.8;26.9;-1.0;
23/02/2025 13:28:59;117;0;135.71;-4;16.27;-8.47;993.6;10.30;74300;2834.607;-1758.071;1;140;310;312.9;25.1;24.9;32;32.0;26.9;-1.0;
23/02/2025 13:29:19;117;0;137.01;-4;20.42;4.74;991.5;10.30;74300;2834.606;-1758.069;1;140;310;311.3;25.1;24.9;32;32.5;26.9;-1.0;
23/02/2025 13:29:39;117;0;138.45;-4;22.22;4.85;989.0;10.30;74302;2834.604;-1758.067;1;140;310;311.3;25.8;25.8;32;32.5;26.9;-1.0;
23/02/2025 13:29:59;117;0;139.37;-4;20.42;4.90;986.3;10.30;74297;2834.603;-1758.065;1;140;310;311.3;25.8;26.1;30;29.3;26.9;-1.0;
23/02/2025 13:30:19;117;0;139.89;-4;19.42;3.39;983.7;10.30;74297;2834.601;-1758.062;1;140;310;311.3;25.8;25.9;30;29.3;26.9;-1.0;
23/02/2025 13:30:39;117;0;141.43;-4;19.43;3.26;981.2;10.30;74297;2834.599;-1758.060;1;140;310;311.3;25.8;26.1;30;29.3;26.9;-1.0;
23/02/2025 13:30:59;117;0;142.46;-4;19.41;3.25;978.8;10.20;74291;2834.597;-1758.058;1;140;310;312.9;25.8;25.9;30;29.3;26.9;-1.0;
23/02/2025 13:31:19;117;0;142.66;-4;19.41;3.38;976.2;10.20;74291;2834.595;-1758.056;1;140;310;311.3;25.8;25.9;30;29.3;26.9;-1.0;
23/02/2025 13:31:39;117;0;142.80;-4;19.34;3.24;973.7;10.20;74290;2834.593;-1758.054;1;140;310;312.9;25.8;25.9;30;28.9;26.9;-1.0;
23/02/2025 13:31:59;117;0;143.88;-4;19.33;3.21;971.2;10.20;74279;2834.591;-1758.052;1;140;310;311.3;25.8;26.1;30;29.3;26.9;-1.0;
23/02/2025 13:32:19;117;0;144.53;-4;19.45;3.22;968.7;10.20;74286;2834.589;-1758.050;1;140;310;312.9;25.8;25.9;30;28.9;26.9;-1.0;
23/02/2025 13:32:39;117;0;146.14;-4;19.47;3.24;966.1;10.20;74284;2834.587;-1758.048;1;140;310;312.9;25.8;25.9;30;28.9;26.9;-1.0;
23/02/2025 13:32:59;117;0;146.90;-4;19.00;3.16;963.5;10.20;74284;2834.584;-1758.046;1;140;310;312.9;25.5;25.5;30;29.3;26.9;-1.0;
23/02/2025 13:33:19;117;0;147.71;-4;20.53;3.26;960.9;10.20;74274;2834.582;-1758.045;1;140;310;312.9;25.5;24.9;30;29.3;26.9;-1.0;
23/02/2025 13:33:39;117;0;147.78;-4;20.75;3.19;958.2;10.10;74268;2834.580;-1758.043;1;140;310;311.3;25.5;24.9;30;29.3;26.9;-1.0;
23/02/2025 13:33:59;117;0;147.87;-4;20.82;3.24;955.4;10.10;74268;2834.578;-1758.041;1;140;310;311.3;25.5;24.9;30;29.3;26.9;-1.0;
23/02/2025 13:34:19;117;0;147.90;-4;20.82;3.18;952.6;10.10;74268;2834.576;-1758.039;1;140;310;312.9;25.5;24.9;30;28.9;26.9;-1.0;
23/02/2025 13:34:39;117;0;148.12;-4;20.83;3.21;949.7;10.10;74255;2834.573;-1758.037;1;140;310;311.3;25.5;24.9;30;29.3;26.9;-1.0;
23/02/2025 13:34:59;117;0;147.81;-4;20.95;3.20;946.8;10.10;74263;2834.571;-1758.035;1;140;310;311.3;25.5;24.9;30;29.3;26.9;-1.0;
23/02/2025 13:35:19;117;0;147.60;-4;20.86;3.16;943.9;10.10;74245;2834.569;-1758.033;1;140;310;312.9;25.5;24.9;30;29.3;26.9;-1.0;
23/02/2025 13:35:39;117;0;147.97;-4;20.86;3.22;941.0;10.10;74259;2834.566;-1758.031;1;140;310;308.1;25.5;24.9;30;29.3;26.9;-1.0;
23/02/2025 13:35:59;117;0;148.58;-4;20.69;3.20;938.0;10.00;74245;2834.564;-1758.029;1;140;310;312.9;25.5;24.9;30;29.3;26.9;-1.0;
23/02/2025 13:36:19;117;0;148.88;-4;20.79;3.21;935.1;10.00;74250;2834.562;-1758.027;1;140;310;312.9;25.5;24.9;30;29.3;26.9;-1.0;
23/02/2025 13:36:39;117;0;148.82;-4;20.63;3.23;932.3;10.00;74253;2834.559;-1758.026;1;140;310;312.9;25.5;24.9;30;29.3;26.9;-1.0;
23/02/2025 13:36:59;117;0;149.22;-4;20.76;3.12;929.4;10.00;74244;2834.557;-1758.024;1;140;310;311.3;25.5;24.9;30;29.3;26.9;-1.0;
23/02/2025 13:37:19;117;0;149.62;-4;20.72;3.16;926.5;10.00;74241;2834.555;-1758.022;1;140;310;308.1;25.5;24.9;30;29.3;26.9;-1.0;
23/02/2025 13:37:39;117;0;149.88;-4;20.70;3.14;923.7;10.00;74239;2834.552;-1758.020;1;140;310;311.3;25.5;24.9;30;28.9;26.9;-1.0;
23/02/2025 13:37:59;117;0;150.62;-4;20.60;3.19;920.8;10.00;74243;2834.550;-1758.018;1;140;310;312.9;25.5;24.9;28;28.0;26.9;-1.0;
23/02/2025 13:38:19;117;0;150.63;-4;20.59;2.37;918.0;10.00;74240;2834.548;-1758.017;1;140;310;311.3;25.5;24.7;28;27.5;26.9;-1.0;
23/02/2025 13:38:39;117;0;151.03;-4;20.56;2.33;915.3;10.00;74243;2834.545;-1758.015;1;140;310;311.3;25.5;24.9;28;27.5;26.9;-1.0;
23/02/2025 13:38:59;117;0;150.94;-4;20.76;2.38;912.5;10.00;74243;2834.543;-1758.013;1;140;310;311.3;25.5;24.9;28;28.0;26.9;-1.0;
23/02/2025 13:39:19;117;0;151.06;-4;20.72;2.37;909.8;9.90;74230;2834.541;-1758.012;1;140;310;312.9;25.5;24.9;28;27.5;26.9;-1.0;
23/02/2025 13:39:39;117;0;151.76;-4;20.74;2.44;907.0;9.90;74230;2834.538;-1758.010;1;140;310;311.3;25.5;24.9;28;28.0;26.9;-1.0;
23/02/2025 13:39:59;117;0;151.66;-4;20.73;2.36;904.2;9.90;74234;2834.536;-1758.008;1;140;310;311.3;25.5;24.9;28;27.5;26.9;-1.0;
23/02/2025 13:40:19;117;0;151.75;-4;20.42;2.32;901.4;9.90;74237;2834.534;-1758.007;1;140;310;312.9;25.5;24.7;28;27.5;26.9;-1.0;
23/02/2025 13:40:39;117;0;150.88;-4;20.67;2.40;898.5;9.90;74225;2834.531;-1758.005;1;140;310;312.9;25.5;24.7;28;27.5;26.9;-1.0;
23/02/2025 13:40:59;117;0;150.87;-4;20.53;2.44;895.8;9.90;74238;2834.529;-1758.003;1;140;310;311.3;25.5;24.9;28;27.5;26.9;-1.0;
23/02/2025 13:41:19;117;0;150.13;-4;20.53;2.42;893.0;9.90;74220;2834.527;-1758.002;1;140;310;311.3;25.5;24.9;28;27.5;26.9;-1.0;
23/02/2025 13:41:39;117;0;151.11;-4;20.65;2.39;890.2;9.90;74223;2834.524;-1758.000;1;140;310;311.3;25.5;24.7;28;28.0;26.9;-1.0;
23/02/2025 13:41:59;117;0;152.03;-4;20.68;2.44;887.5;9.90;74218;2834.522;-1757.998;1;140;310;312.9;25.5;24.9;28;27.5;26.9;-1.0;
23/02/2025 13:42:19;117;0;152.14;-4;20.67;2.23;884.7;9.90;74226;2834.520;-1757.997;1;140;310;311.3;25.5;24.7;28;28.0;26.9;-1.0;
23/02/2025 13:42:39;117;0;153.12;-4;20.29;2.42;882.1;9.90;74221;2834.517;-1757.995;1;140;310;312.9;25.5;24.9;28;27.5;26.9;-1.0;
23/02/2025 13:42:59;117;0;154.44;-4;20.65;2.46;879.3;9.90;74221;2834.515;-1757.994;1;140;310;311.3;25.5;25.5;26;26.2;26.9;-1.0;
23/02/2025 13:43:19;117;0;154.24;-4;20.23;1.81;876.5;9.80;74230;2834.512;-1757.992;1;140;310;311.3;25.5;25.5;26;26.6;26.9;-1.0;
23/02/2025 13:43:39;117;0;154.04;-4;19.99;1.76;873.7;9.80;74225;2834.510;-1757.991;1;140;310;312.9;25.5;25.6;26;26.2;26.9;-1.0;
23/02/2025 13:43:59;117;0;153.71;-4;19.70;1.78;871.0;9.80;74224;2834.507;-1757.989;1;140;310;311.3;25.5;25.6;26;26.6;26.9;-1.0;
23/02/2025 13:44:19;117;0;153.41;-4;19.68;1.85;868.2;9.80;74215;2834.505;-1757.988;1;140;310;311.3;25.5;25.5;26;26.2;26.9;-1.0;
23/02/2025 13:44:39;117;0;153.30;-4;19.50;1.78;865.3;9.80;74222;2834.502;-1757.986;1;140;310;311.3;25.5;25.5;26;26.2;26.9;-1.0;
