Timestamp;NavState;SecurityLevel;Heading;Declination;Pitch;Roll;Depth;Temperature;Pa;Lat;Lon;DeadReckoning;DesiredH;BallastCmd;BallastPos;LinCmd;LinPos;AngCmd;AngPos;Voltage;Altitude;
15/02/2025 11:17:47;119;0;312.84;-4;-52.92;-7.75;0.2;19.20;76158;2835.240;-1758.825;0;140;500;509.7;100.0;100.6;0;-0.5;28.5;-1.0;
15/02/2025 11:17:57;116;0;329.93;-4;-54.74;-8.88;0.2;19.20;76151;2835.241;-1758.824;0;138;500;508.1;100.0;100.6;0;-0.5;28.5;-1.0;
15/02/2025 11:18:22;116;0;331.26;-4;-52.97;-4.70;0.2;19.30;76166;2835.240;-1758.825;0;139;500;508.1;100.0;100.6;0;-0.5;28.5;-1.0;
15/02/2025 11:18:38;116;0;339.85;-4;-56.63;-3.83;0.3;19.30;76162;2835.241;-1758.826;0;-9999;500;509.7;100.0;100.6;0;-0.5;28.5;-1.0;
15/02/2025 11:18:59;116;0;313.76;-4;-57.83;-9.73;0.2;19.30;76163;2835.241;-1758.825;0;103;500;509.7;100.0;100.6;0;-0.5;28.5;-1.0;
15/02/2025 11:19:19;116;0;327.25;-4;-56.08;-13.50;0.3;19.40;76180;2835.243;-1758.827;0;103;500;508.1;100.0;100.6;0;-0.5;28.5;-1.0;
15/02/2025 11:20:01;116;0;357.72;-4;-51.06;-11.66;0.2;19.40;76191;2835.244;-1758.828;0;103;500;508.1;100.0;100.6;0;-0.5;28.5;-1.0;
15/02/2025 11:20:52;116;0;335.06;-4;-54.91;-5.04;0.2;19.60;76205;2835.244;-1758.826;0;103;500;508.1;100.0;100.6;0;-0.5;28.5;-1.0;
15/02/2025 11:21:12;116;0;338.03;-4;-50.30;1.87;0.1;19.60;76206;2835.244;-1758.826;0;103;500;509.7;100.0;100.6;0;-0.5;28.5;-1.0;
15/02/2025 11:21:24;116;0;330.52;-4;-55.34;-16.57;0.1;19.70;76204;2835.244;-1758.825;0;103;500;508.1;100.0;100.7;0;-0.5;28.5;-1.0;
15/02/2025 11:21:44;110;0;329.75;-4;-49.80;-23.06;0.2;19.70;76215;2835.244;-1758.825;0;103;-50;393.5;100.0;99.7;-9;-9.0;28.5;-1.0;
15/02/2025 11:21:54;110;0;326.53;-4;-52.43;-10.25;0.4;19.80;76579;2835.245;-1758.825;1;103;-50;241.9;100.0;99.7;-9;-9.0;28.5;-1.0;
15/02/2025 11:22:04;110;0;336.22;-4;-61.51;-24.50;0.8;19.80;76816;2835.245;-1758.825;1;103;-50;83.9;100.0;99.9;-9;-9.0;28.5;-1.0;
15/02/2025 11:22:14;110;0;342.24;-4;-65.49;-23.85;0.9;19.80;77157;2835.245;-1758.825;1;103;-50;-50.0;100.0;99.9;-9;-9.0;28.5;-1.0;
15/02/2025 11:22:24;110;0;352.49;-4;-61.69;-5.36;1.4;19.90;77419;2835.245;-1758.826;1;103;-50;-50.0;50.0;49.9;-9;-9.0;28.5;-1.0;
15/02/2025 11:22:44;100;0;10.99;-4;-34.41;-19.53;4.3;19.90;77390;2835.248;-1758.825;1;103;-50;-46.8;50.0;49.6;-9;-9.0;28.5;-1.0;
15/02/2025 11:23:04;100;0;16.80;-4;-31.37;-16.60;8.2;20.00;77397;2835.251;-1758.824;1;103;-50;-46.8;46.6;46.2;-70;-69.9;28.5;-1.0;
15/02/2025 11:23:24;100;0;28.89;-4;-28.61;-45.56;11.8;20.00;77398;2835.254;-1758.822;1;103;-50;-45.2;44.0;44.0;-70;-69.9;28.5;-1.0;
15/02/2025 11:23:44;100;0;38.50;-4;-22.31;-45.79;15.1;20.10;77399;2835.257;-1758.820;1;104;-50;-43.5;43.3;42.9;-67;-66.3;28.5;0.0;
15/02/2025 11:24:04;100;0;50.10;-4;-19.83;-43.60;17.9;20.10;77401;2835.260;-1758.817;1;104;-50;-43.5;43.3;42.9;-53;-52.8;28.5;0.0;
15/02/2025 11:24:24;100;0;61.30;-4;-20.11;-36.86;20.6;20.10;77405;2835.262;-1758.813;1;104;-50;-41.9;43.3;42.9;-40;-40.2;28.5;0.0;
15/02/2025 11:24:44;100;0;71.82;-4;-18.85;-30.80;23.2;20.10;77405;2835.263;-1758.810;1;104;-50;-43.5;43.7;43.7;-26;-26.2;28.5;0.0;
15/02/2025 11:25:04;100;0;80.35;-4;-20.68;-23.62;25.8;20.10;77417;2835.264;-1758.806;1;104;-50;-41.9;43.7;43.7;-15;-14.9;28.5;0.0;
15/02/2025 11:25:24;100;0;86.27;-4;-20.50;-18.06;28.5;20.20;77428;2835.264;-1758.802;1;104;-50;-43.5;43.7;43.9;-3;-3.2;28.5;0.0;
15/02/2025 11:25:44;100;0;89.39;-4;-21.41;-12.91;31.2;20.20;77428;2835.264;-1758.798;1;104;-50;-45.2;43.7;44.0;2;1.8;28.5;0.0;
15/02/2025 11:26:04;100;0;91.08;-4;-21.75;-10.45;34.1;20.20;77436;2835.264;-1758.795;1;104;-50;-41.9;43.7;44.0;5;5.0;28.5;0.0;
15/02/2025 11:26:24;100;0;89.07;-4;-21.44;-9.18;37.0;20.20;77427;2835.265;-1758.791;1;104;-50;-43.5;43.7;44.0;2;1.8;28.6;0.0;
15/02/2025 11:26:44;100;0;90.61;-4;-20.91;-11.06;39.8;20.20;77416;2835.265;-1758.787;1;104;-50;-43.5;43.7;43.9;4;4.1;28.5;0.0;
15/02/2025 11:27:04;100;0;92.73;-4;-21.58;-9.79;42.6;20.20;77419;2835.265;-1758.783;1;104;-50;-41.9;43.7;43.9;6;6.3;28.5;0.0;
15/02/2025 11:27:24;100;0;94.44;-4;-21.60;-8.64;45.2;20.20;77419;2835.265;-1758.780;1;104;-50;-41.9;43.7;43.9;8;8.1;28.5;0.0;
15/02/2025 11:27:44;100;0;93.69;-4;-21.68;-7.53;48.0;20.20;77419;2835.265;-1758.776;1;104;-50;-41.9;43.7;43.9;8;8.6;28.5;0.0;
15/02/2025 11:28:04;100;0;93.63;-4;-21.79;-7.47;50.7;20.20;77413;2835.265;-1758.772;1;104;-50;-41.9;43.7;43.9;8;8.6;28.5;0.0;
15/02/2025 11:28:24;100;0;95.97;-4;-21.38;-7.54;53.4;20.20;77419;2835.264;-1758.769;1;104;-50;-41.9;43.7;43.9;8;8.6;28.5;0.0;
15/02/2025 11:28:44;100;0;98.32;-4;-21.43;-7.55;56.1;20.20;77411;2835.264;-1758.765;1;104;-50;-41.9;43.7;43.9;11;10.8;28.5;0.0;
15/02/2025 11:29:04;100;0;98.27;-4;-21.77;-6.18;58.9;20.20;77411;2835.264;-1758.761;1;104;-50;-43.5;43.7;44.0;11;11.3;28.5;0.0;
15/02/2025 11:29:24;100;0;98.42;-4;-22.02;-6.12;61.6;20.20;77413;2835.263;-1758.758;1;104;-50;-43.5;43.1;42.9;11;11.7;28.5;0.0;
15/02/2025 11:29:44;100;0;98.08;-4;-19.63;-6.23;64.3;20.20;77408;2835.263;-1758.754;1;104;-50;-41.9;43.1;42.7;11;11.3;28.5;0.0;
15/02/2025 11:30:04;100;0;102.83;-4;-19.40;-6.22;66.8;20.20;77413;2835.263;-1758.750;1;104;-50;-43.5;43.1;42.7;13;13.1;28.5;0.0;
15/02/2025 11:30:24;100;0;104.57;-4;-19.40;-5.18;69.4;20.20;77408;2835.262;-1758.747;1;104;-50;-43.5;43.1;42.7;13;13.5;28.5;0.0;
15/02/2025 11:30:44;100;0;105.54;-4;-19.64;-5.07;71.9;20.20;77408;2835.261;-1758.743;1;104;-50;-41.9;43.1;42.7;13;13.5;28.5;0.0;
15/02/2025 11:31:04;100;0;105.18;-4;-19.41;-5.12;74.6;20.10;77397;2835.260;-1758.739;1;104;-50;-41.9;43.1;42.7;13;13.5;28.5;0.0;
15/02/2025 11:31:24;100;0;104.47;-4;-19.39;-5.18;77.1;20.10;77414;2835.260;-1758.736;1;104;-50;-41.9;43.1;42.7;13;13.5;28.5;0.0;
15/02/2025 11:31:44;100;0;104.36;-4;-19.52;-5.14;79.7;20.10;77403;2835.259;-1758.732;1;104;-50;-43.5;43.1;42.7;13;13.5;28.5;0.0;
15/02/2025 11:32:04;100;0;104.27;-4;-19.49;-5.13;82.3;20.10;77411;2835.258;-1758.728;1;104;-50;-43.5;43.1;42.7;13;13.5;28.5;0.0;
15/02/2025 11:32:24;100;0;103.99;-4;-19.50;-5.12;85.1;20.10;77410;2835.258;-1758.724;1;104;-50;-41.9;43.1;42.7;13;13.5;28.5;0.0;
15/02/2025 11:32:44;100;0;103.81;-4;-19.36;-5.14;87.8;20.10;77415;2835.257;-1758.721;1;104;-50;-43.5;43.1;42.7;13;13.5;28.5;0.0;
15/02/2025 11:33:04;100;0;103.33;-4;-19.49;-5.14;90.4;20.10;77410;2835.256;-1758.717;1;104;-50;-43.5;43.1;42.7;13;13.5;28.5;0.0;
15/02/2025 11:33:24;100;0;102.24;-4;-18.94;-5.08;93.0;20.10;77405;2835.256;-1758.713;1;104;-50;-43.5;43.4;43.3;13;13.5;28.5;0.0;
15/02/2025 11:33:44;100;0;105.67;-4;-19.83;-5.14;95.6;20.10;77399;2835.255;-1758.709;1;104;-50;-43.5;43.4;43.6;13;13.5;28.5;0.0;
15/02/2025 11:34:04;100;0;105.90;-4;-20.12;-5.10;98.2;20.10;77397;2835.254;-1758.706;1;104;-50;-41.9;43.4;43.6;13;13.5;28.5;0.0;
15/02/2025 11:34:24;100;0;102.76;-4;-19.51;-5.12;100.7;20.10;77389;2835.254;-1758.702;1;104;-50;-41.9;43.4;43.6;13;13.5;28.5;0.0;
15/02/2025 11:34:44;100;0;110.91;-4;-20.39;-5.04;103.2;20.10;77360;2835.253;-1758.699;1;104;-50;-43.5;43.4;43.6;13;13.5;28.5;0.0;
15/02/2025 11:35:04;100;0;113.69;-4;-19.91;-5.03;105.8;20.10;77327;2835.252;-1758.696;1;104;-50;-41.9;43.4;43.6;13;13.5;28.5;0.0;
15/02/2025 11:35:24;100;0;116.91;-4;-20.04;-4.98;108.4;20.00;77306;2835.250;-1758.692;1;104;-50;-41.9;43.4;43.6;16;15.8;28.5;0.0;
15/02/2025 11:35:44;100;0;117.00;-4;-20.67;-3.93;111.0;20.00;77303;2835.249;-1758.689;1;104;-50;-41.9;43.4;43.6;16;16.2;28.5;0.0;
15/02/2025 11:36:04;100;0;119.63;-4;-20.91;-3.90;113.6;20.00;77285;2835.248;-1758.686;1;104;-50;-41.9;43.4;43.6;19;19.0;28.5;0.0;
15/02/2025 11:36:24;100;0;120.93;-4;-20.52;-2.10;116.4;20.00;77274;2835.246;-1758.683;1;104;-50;-41.9;43.4;43.4;22;22.1;28.5;0.0;
15/02/2025 11:36:44;100;0;117.34;-4;-20.32;-0.68;118.8;19.90;77266;2835.245;-1758.680;1;104;-50;-41.9;43.4;43.4;17;16.7;28.5;0.0;
15/02/2025 11:37:04;100;0;115.24;-4;-19.96;-3.77;121.3;19.90;77259;2835.244;-1758.677;1;104;-50;-43.5;43.4;43.6;15;14.9;28.5;0.0;
15/02/2025 11:37:24;100;0;116.16;-4;-19.67;-4.95;123.7;19.90;77237;2835.242;-1758.673;1;104;-50;-41.9;43.4;43.6;15;14.4;28.5;0.0;
15/02/2025 11:37:44;100;0;114.81;-4;-19.55;-4.92;126.0;19.90;77233;2835.241;-1758.670;1;104;-50;-43.5;43.4;43.6;15;14.4;28.5;0.0;
15/02/2025 11:38:04;100;0;113.18;-4;-19.74;-4.88;128.2;19.80;77217;2835.240;-1758.668;1;104;-50;-41.9;43.4;43.6;15;14.4;28.5;0.0;
15/02/2025 11:38:24;100;0;110.96;-4;-19.76;-4.86;130.4;19.80;77207;2835.239;-1758.665;1;104;-50;-43.5;43.4;43.4;15;14.4;28.5;0.0;
15/02/2025 11:38:44;100;0;110.79;-4;-19.73;-4.91;132.5;19.80;77200;2835.239;-1758.662;1;104;-50;-46.8;43.4;43.4;15;14.4;28.5;0.0;
15/02/2025 11:39:04;100;0;111.06;-4;-19.74;-4.91;134.6;19.70;77190;2835.238;-1758.659;1;104;-50;-43.5;43.4;43.4;15;14.4;28.5;0.0;
15/02/2025 11:39:24;100;0;109.61;-4;-19.77;-4.89;136.6;19.70;77180;2835.237;-1758.656;1;104;-50;-41.9;43.4;43.6;13;13.1;28.5;0.0;
15/02/2025 11:39:44;100;0;108.60;-4;-19.84;-5.77;138.5;19.70;77167;2835.237;-1758.654;1;104;-70;-69.4;43.4;43.6;13;12.6;28.5;0.0;
15/02/2025 11:40:04;100;0;110.58;-4;-19.30;-5.56;140.6;19.70;77217;2835.236;-1758.651;1;104;-70;-72.6;43.4;43.6;13;12.6;28.5;0.0;
15/02/2025 11:40:24;100;0;113.88;-4;-19.33;-5.57;142.9;19.60;77204;2835.235;-1758.648;1;104;-70;-71.0;43.4;43.4;15;14.9;28.5;0.0;
15/02/2025 11:40:44;100;0;114.32;-4;-19.24;-4.09;145.3;19.60;77194;2835.234;-1758.645;1;104;-70;-72.6;43.4;43.4;15;15.3;28.5;0.0;
15/02/2025 11:41:04;100;0;117.32;-4;-19.80;-4.10;147.7;19.60;77172;2835.232;-1758.642;1;104;-70;-72.6;43.4;43.6;17;17.1;28.5;0.0;
15/02/2025 11:41:24;100;0;113.82;-4;-20.01;-2.85;150.1;19.50;77164;2835.231;-1758.638;1;104;-70;-71.0;43.4;43.6;15;14.9;28.5;0.0;
15/02/2025 11:41:44;100;0;107.56;-4;-19.68;-4.52;152.6;19.50;77146;2835.230;-1758.635;1;104;-70;-72.6;43.4;43.6;15;14.4;28.5;0.0;
15/02/2025 11:42:04;100;0;101.53;-4;-19.32;-4.96;155.0;19.40;77139;2835.230;-1758.632;1;104;-70;-74.2;43.4;43.6;13;13.1;28.5;0.0;
15/02/2025 11:42:24;100;0;99.13;-4;-19.50;-5.41;157.5;19.40;77129;2835.230;-1758.628;1;104;-70;-71.0;43.4;43.4;13;12.6;28.5;0.0;
15/02/2025 11:42:44;100;0;95.42;-4;-19.78;-5.46;160.0;19.40;77131;2835.229;-1758.624;1;104;-70;-72.6;43.4;43.6;9;9.0;28.5;0.0;
15/02/2025 11:43:04;100;0;100.90;-4;-19.57;-7.50;162.6;19.30;77100;2835.229;-1758.621;1;104;-70;-72.6;43.4;43.6;13;13.5;28.5;0.0;
15/02/2025 11:43:24;100;0;100.80;-4;-19.16;-4.89;165.2;19.30;77088;2835.229;-1758.617;1;104;-70;-71.0;43.4;43.6;13;14.0;28.5;0.0;
15/02/2025 11:43:44;100;0;98.35;-4;-18.96;-4.98;167.8;19.20;77064;2835.228;-1758.613;1;104;-70;-72.6;43.7;43.9;13;14.0;28.5;0.0;
15/02/2025 11:44:04;100;0;96.80;-4;-20.21;-4.98;170.4;19.20;77064;2835.228;-1758.609;1;104;-70;-71.0;43.7;44.2;11;10.8;28.5;0.0;
15/02/2025 11:44:24;100;0;97.80;-4;-20.36;-6.53;173.3;19.20;77045;2835.228;-1758.605;1;104;-70;-72.6;43.7;44.2;11;10.8;28.5;0.0;
15/02/2025 11:44:44;100;0;100.47;-4;-20.34;-6.46;176.3;19.10;77046;2835.227;-1758.601;1;104;-70;-71.0;43.7;44.2;13;13.1;28.5;0.0;
15/02/2025 11:45:04;100;0;105.41;-4;-20.39;-5.11;179.4;19.10;77037;2835.226;-1758.597;1;104;-70;-72.6;43.7;44.2;13;13.5;28.5;0.0;
15/02/2025 11:45:24;100;0;104.68;-4;-20.63;-5.00;182.4;19.00;77020;2835.225;-1758.593;1;104;-70;-72.6;43.7;44.2;13;13.5;28.5;0.0;
15/02/2025 11:45:44;100;0;102.33;-4;-20.33;-4.96;185.4;19.00;77009;2835.225;-1758.589;1;104;-70;-72.6;43.7;44.2;13;13.5;28.5;0.0;
15/02/2025 11:46:04;100;0;100.34;-4;-20.47;-5.02;188.4;19.00;77000;2835.224;-1758.584;1;104;-70;-69.4;43.7;44.2;13;13.5;28.5;0.0;
15/02/2025 11:46:24;100;0;95.63;-4;-20.18;-4.99;191.5;18.90;76999;2835.224;-1758.580;1;104;-70;-72.6;43.7;44.2;10;9.9;28.5;0.0;
15/02/2025 11:46:44;100;0;96.16;-4;-20.13;-6.93;194.4;18.90;76981;2835.224;-1758.576;1;104;-70;-71.0;43.7;44.2;10;9.9;28.5;0.0;
15/02/2025 11:47:04;100;0;98.40;-4;-19.94;-6.92;197.4;18.90;76976;2835.223;-1758.572;1;104;-70;-71.0;43.7;44.2;12;12.2;28.5;0.0;
15/02/2025 11:47:24;100;0;100.16;-4;-20.03;-5.39;200.5;18.80;76967;2835.223;-1758.567;1;104;-70;-72.6;43.7;44.2;12;13.1;28.5;0.0;
15/02/2025 11:47:44;100;0;101.47;-4;-20.28;-5.37;203.5;18.80;76955;2835.222;-1758.563;1;104;-70;-71.0;43.7;44.2;12;12.6;28.5;0.0;
15/02/2025 11:48:04;100;0;99.79;-4;-20.34;-5.34;206.4;18.70;76954;2835.222;-1758.559;1;104;-70;-72.6;43.7;44.2;12;13.1;28.5;0.0;
15/02/2025 11:48:24;100;0;98.62;-4;-20.11;-5.38;209.3;18.70;76941;2835.221;-1758.555;1;104;-70;-72.6;43.7;44.2;12;12.6;28.5;0.0;
15/02/2025 11:48:44;100;0;96.70;-4;-20.14;-5.42;212.0;18.70;76941;2835.221;-1758.551;1;104;-70;-72.6;43.7;44.2;10;9.9;28.5;0.0;
15/02/2025 11:49:04;100;0;95.79;-4;-20.28;-6.97;214.9;18.60;76932;2835.221;-1758.547;1;104;-70;-71.0;43.7;44.3;10;9.5;28.5;0.0;
15/02/2025 11:49:24;100;0;95.19;-4;-20.17;-7.00;217.7;18.60;76930;2835.221;-1758.543;1;104;-70;-72.6;43.7;44.2;10;9.5;28.5;0.0;
15/02/2025 11:49:44;100;0;94.37;-4;-20.07;-6.96;220.4;18.50;76916;2835.221;-1758.539;1;104;-70;-72.6;43.7;44.2;8;8.1;28.5;0.0;
15/02/2025 11:50:04;100;0;95.52;-4;-20.09;-7.73;223.2;18.50;76898;2835.221;-1758.535;1;104;-70;-72.6;43.7;44.2;8;8.1;28.5;0.0;
15/02/2025 11:50:24;100;0;96.97;-4;-20.24;-7.83;226.0;18.40;76880;2835.220;-1758.531;1;104;-70;-72.6;43.7;44.2;10;9.9;28.5;0.0;
15/02/2025 11:50:44;100;0;97.74;-4;-19.95;-6.63;228.9;18.40;76882;2835.220;-1758.527;1;104;-70;-71.0;43.7;44.3;10;9.9;28.5;0.0;
15/02/2025 11:51:04;100;0;102.05;-4;-20.00;-6.63;231.5;18.40;76876;2835.219;-1758.523;1;104;-70;-71.0;43.7;44.2;12;12.6;28.5;0.0;
15/02/2025 11:51:24;100;0;108.20;-4;-20.19;-5.34;234.3;18.30;76853;2835.218;-1758.520;1;104;-70;-72.6;43.7;44.2;12;13.1;28.5;0.0;
15/02/2025 11:51:44;100;0;108.98;-4;-20.13;-5.27;237.0;18.30;76843;2835.218;-1758.516;1;104;-70;-72.6;43.7;44.2;12;13.1;28.5;0.0;
15/02/2025 11:52:05;100;0;109.91;-4;-20.42;-5.23;239.7;18.30;76853;2835.217;-1758.512;1;104;-70;-71.0;43.7;44.2;12;13.1;28.5;0.0;
15/02/2025 11:52:25;100;0;110.34;-4;-20.75;-5.29;242.5;18.20;76835;2835.215;-1758.509;1;104;-70;-71.0;43.7;44.2;12;13.1;28.5;0.0;
15/02/2025 11:52:45;100;0;112.12;-4;-20.02;-5.29;245.3;18.20;76816;2835.214;-1758.505;1;104;-70;-71.0;43.7;44.2;14;14.0;28.5;0.0;
15/02/2025 11:53:05;100;0;112.86;-4;-20.09;-4.54;247.9;18.10;76811;2835.213;-1758.501;1;104;-70;-72.6;43.7;44.2;14;14.4;28.5;0.0;
15/02/2025 11:53:25;100;0;114.30;-4;-20.14;-4.47;250.5;18.10;76813;2835.212;-1758.498;1;104;-70;-71.0;43.7;44.2;14;14.4;28.5;0.0;
15/02/2025 11:53:45;100;0;115.41;-4;-20.15;-4.44;253.2;18.00;76804;2835.211;-1758.495;1;104;-70;-72.6;43.7;44.2;16;16.2;28.5;0.0;
15/02/2025 11:54:05;100;0;116.02;-4;-20.19;-3.51;255.8;18.00;76805;2835.209;-1758.491;1;104;-70;-72.6;43.7;44.2;16;16.7;28.5;0.0;
15/02/2025 11:54:25;100;0;115.66;-4;-20.17;-3.49;258.4;18.00;76780;2835.208;-1758.488;1;104;-70;-72.6;43.7;44.2;16;16.7;28.5;0.0;
15/02/2025 11:54:45;100;0;114.58;-4;-20.22;-3.43;261.0;17.90;76770;2835.207;-1758.484;1;104;-70;-72.6;43.7;44.2;14;14.0;28.5;0.0;
15/02/2025 11:55:05;100;0;113.00;-4;-20.05;-5.10;263.6;17.90;76775;2835.206;-1758.481;1;104;-70;-72.6;43.7;44.2;14;13.5;28.5;0.0;
15/02/2025 11:55:25;100;0;111.13;-4;-20.38;-4.99;266.2;17.80;76762;2835.205;-1758.478;1;104;-70;-71.0;43.7;44.2;14;13.5;28.5;0.0;
15/02/2025 11:55:45;100;0;109.50;-4;-20.21;-4.95;268.8;17.80;76749;2835.204;-1758.474;1;104;-70;-74.2;43.7;44.2;14;13.5;28.5;0.0;
15/02/2025 11:56:05;100;0;107.59;-4;-20.27;-5.05;271.4;17.80;76754;2835.203;-1758.471;1;104;-70;-71.0;43.7;44.2;14;13.5;28.5;0.0;
15/02/2025 11:56:25;100;0;105.06;-4;-20.25;-5.02;274.0;17.70;76736;2835.202;-1758.467;1;104;-70;-72.6;43.7;44.2;14;13.5;28.5;0.0;
15/02/2025 11:56:45;100;0;102.69;-4;-20.43;-5.09;276.5;17.70;76724;2835.202;-1758.463;1;104;-70;-72.6;43.7;44.2;14;13.5;28.5;0.0;
15/02/2025 11:57:05;100;0;101.94;-4;-20.28;-5.02;279.1;17.60;76723;2835.201;-1758.460;1;104;-70;-71.0;43.7;44.2;14;13.5;28.5;0.0;
15/02/2025 11:57:25;100;0;100.62;-4;-20.28;-5.02;281.6;17.60;76725;2835.201;-1758.456;1;104;-70;-72.6;43.7;44.2;12;12.2;28.5;0.0;
15/02/2025 11:57:45;100;0;100.73;-4;-19.97;-5.80;284.1;17.60;76720;2835.200;-1758.453;1;104;-70;-72.6;43.7;44.2;12;11.7;28.5;0.0;
15/02/2025 11:58:05;100;0;103.41;-4;-20.14;-5.84;286.6;17.50;76714;2835.200;-1758.449;1;104;-70;-71.0;43.7;44.2;12;12.2;28.5;0.0;
15/02/2025 11:58:25;100;0;105.35;-4;-20.44;-5.75;289.1;17.50;76695;2835.199;-1758.446;1;104;-70;-72.6;43.7;44.2;12;12.2;28.5;0.0;
15/02/2025 11:58:45;100;0;103.14;-4;-20.37;-5.84;291.7;17.50;76683;2835.198;-1758.442;1;104;-70;-72.6;43.7;44.2;12;12.2;28.5;0.0;
15/02/2025 11:59:05;100;0;103.90;-4;-20.14;-5.83;294.3;17.40;76669;2835.198;-1758.439;1;104;-70;-72.6;43.7;44.2;12;11.7;28.5;0.0;
15/02/2025 11:59:25;100;0;107.12;-4;-20.04;-5.79;296.9;17.40;76659;2835.197;-1758.435;1;104;-70;-71.0;43.7;44.2;12;12.2;28.5;0.0;
15/02/2025 11:59:45;100;0;109.48;-4;-20.03;-5.82;299.5;17.40;76655;2835.196;-1758.432;1;104;-70;-72.6;43.7;44.2;12;12.2;28.5;0.0;
15/02/2025 12:00:05;100;0;110.60;-4;-19.78;-5.89;301.9;17.30;76657;2835.195;-1758.428;1;104;-70;-72.6;43.7;44.2;12;11.7;28.5;0.0;
15/02/2025 12:00:25;100;0;109.91;-4;-19.49;-5.96;304.4;17.30;76631;2835.194;-1758.425;1;104;-70;-71.0;43.7;44.2;12;12.2;28.5;0.0;
15/02/2025 12:00:45;100;0;110.26;-4;-19.77;-5.79;306.7;17.20;76624;2835.193;-1758.422;1;104;-70;-72.6;43.7;44.2;12;11.7;28.5;0.0;
15/02/2025 12:01:05;100;0;110.11;-4;-19.58;-5.88;309.1;17.20;76621;2835.192;-1758.419;1;104;-70;-72.6;43.7;44.2;12;12.2;28.5;0.0;
15/02/2025 12:01:25;100;0;108.95;-4;-19.65;-5.96;311.4;17.20;76608;2835.192;-1758.416;1;104;-70;-71.0;43.7;44.2;12;12.2;28.5;0.0;
15/02/2025 12:01:45;100;0;107.32;-4;-19.86;-5.83;314.0;17.10;76602;2835.191;-1758.412;1;104;-70;-72.6;43.7;44.3;12;12.2;28.5;0.0;
15/02/2025 12:02:05;100;0;105.73;-4;-19.63;-5.71;316.4;17.10;76602;2835.190;-1758.409;1;104;-70;-72.6;43.7;44.2;12;12.2;28.5;0.0;
15/02/2025 12:02:25;100;0;103.58;-4;-19.70;-5.96;318.8;17.00;76589;2835.190;-1758.405;1;104;-70;-72.6;43.7;44.2;12;11.7;28.5;0.0;
15/02/2025 12:02:45;100;0;104.17;-4;-19.55;-5.94;321.2;17.00;76585;2835.189;-1758.402;1;104;-70;-72.6;43.7;44.0;12;11.7;28.5;0.0;
15/02/2025 12:03:05;100;0;107.71;-4;-19.67;-5.89;323.5;17.00;76569;2835.188;-1758.399;1;104;-70;-72.6;43.7;44.2;12;11.7;28.5;0.0;
15/02/2025 12:03:25;100;0;111.98;-4;-19.60;-5.99;326.0;16.90;76555;2835.187;-1758.396;1;104;-70;-72.6;43.7;44.2;12;12.2;28.5;0.0;
15/02/2025 12:03:45;100;0;116.27;-4;-19.39;-5.90;328.4;16.90;76548;2835.186;-1758.393;1;104;-70;-72.6;43.7;44.2;16;15.8;28.5;0.0;
15/02/2025 12:04:05;100;0;118.30;-4;-19.58;-3.74;330.8;16.90;76542;2835.185;-1758.390;1;104;-70;-71.0;43.7;44.2;16;16.2;28.5;0.0;
15/02/2025 12:04:25;100;0;117.88;-4;-19.89;-3.68;333.3;16.80;76532;2835.183;-1758.386;1;104;-70;-72.6;43.7;44.2;16;16.2;28.5;0.0;
15/02/2025 12:04:45;100;0;116.81;-4;-19.93;-3.64;335.9;16.80;76511;2835.182;-1758.383;1;104;-70;-72.6;43.7;44.2;16;16.2;28.5;0.0;
15/02/2025 12:05:05;100;0;112.19;-4;-20.26;-3.64;338.4;16.80;76507;2835.181;-1758.380;1;104;-70;-72.6;43.7;44.2;14;14.0;28.5;0.0;
15/02/2025 12:05:25;100;0;109.26;-4;-20.02;-4.80;341.2;16.70;76491;2835.180;-1758.376;1;104;-70;-72.6;43.7;44.2;14;14.0;28.5;0.0;
15/02/2025 12:05:45;100;0;106.45;-4;-19.91;-4.88;343.9;16.70;76487;2835.179;-1758.372;1;104;-70;-72.6;43.7;44.2;14;14.0;28.5;0.0;
15/02/2025 12:06:05;100;0;104.91;-4;-19.90;-4.89;346.6;16.60;76478;2835.178;-1758.369;1;104;-70;-72.6;43.7;44.2;14;14.0;28.5;0.0;
15/02/2025 12:06:25;100;0;102.48;-4;-19.93;-4.83;349.3;16.60;76480;2835.178;-1758.365;1;104;-70;-72.6;43.7;44.2;14;14.0;28.5;0.0;
15/02/2025 12:06:45;100;0;104.91;-4;-20.10;-4.81;352.1;16.60;76460;2835.177;-1758.361;1;104;-70;-74.2;43.7;44.2;14;14.0;28.5;0.0;
15/02/2025 12:07:05;100;0;108.90;-4;-20.09;-4.78;355.0;16.50;76455;2835.176;-1758.357;1;104;-70;-72.6;43.7;44.2;14;14.0;28.5;0.0;
15/02/2025 12:07:25;100;0;112.97;-4;-19.21;-4.89;357.8;16.50;76438;2835.175;-1758.353;1;104;-70;-72.6;43.7;44.2;14;14.0;28.5;0.0;
15/02/2025 12:07:45;100;0;113.10;-4;-20.22;-4.98;360.6;16.40;76434;2835.174;-1758.349;1;104;-70;-72.6;43.7;44.2;14;14.0;28.5;0.0;
15/02/2025 12:08:05;100;0;115.00;-4;-19.66;-4.98;363.4;16.40;76429;2835.172;-1758.346;1;104;-70;-72.6;43.7;44.2;16;15.8;28.5;0.0;
15/02/2025 12:08:25;100;0;114.50;-4;-20.11;-3.80;366.1;16.40;76415;2835.171;-1758.342;1;104;-70;-72.6;43.7;44.2;16;16.2;28.5;0.0;
15/02/2025 12:08:45;100;0;115.97;-4;-20.22;-3.70;368.8;16.30;76417;2835.170;-1758.339;1;104;-70;-72.6;43.7;44.2;16;16.2;28.5;0.0;
15/02/2025 12:09:05;100;0;116.99;-4;-19.78;-3.73;371.6;16.30;76413;2835.168;-1758.335;1;104;-70;-71.0;43.7;44.2;16;16.2;28.5;0.0;
15/02/2025 12:09:25;100;0;118.68;-4;-19.69;-3.75;374.2;16.30;76398;2835.167;-1758.332;1;104;-70;-72.6;43.7;44.2;19;19.0;28.5;0.0;
15/02/2025 12:09:45;100;0;119.47;-4;-20.14;-2.14;376.8;16.20;76394;2835.165;-1758.329;1;104;-70;-72.6;43.7;44.2;19;19.4;28.5;0.0;
15/02/2025 12:10:05;100;0;119.01;-4;-20.18;-2.09;379.5;16.20;76393;2835.164;-1758.326;1;104;-70;-71.0;43.7;44.2;19;19.4;28.5;0.0;
15/02/2025 12:10:25;100;0;117.70;-4;-20.22;-2.10;382.0;16.20;76383;2835.162;-1758.322;1;104;-70;-72.6;43.7;44.3;17;16.7;28.5;0.0;
15/02/2025 12:10:45;100;0;119.37;-4;-19.85;-3.45;384.7;16.10;76380;2835.161;-1758.319;1;104;-70;-72.6;43.7;44.2;20;20.3;28.5;0.0;
15/02/2025 12:11:05;100;0;119.55;-4;-20.22;-1.32;387.4;16.10;76381;2835.159;-1758.316;1;104;-70;-74.2;43.7;44.2;20;20.8;28.5;0.0;
15/02/2025 12:11:25;100;0;119.33;-4;-19.82;-1.50;389.9;16.00;76367;2835.158;-1758.312;1;104;-70;-72.6;43.7;44.2;20;20.3;28.5;0.0;
15/02/2025 12:11:45;100;0;119.58;-4;-19.70;-1.54;392.5;16.00;76366;2835.156;-1758.309;1;104;-70;-72.6;43.7;44.2;20;20.8;28.5;0.0;
15/02/2025 12:12:05;100;0;119.95;-4;-19.85;-1.76;395.0;16.00;76362;2835.155;-1758.306;1;104;-70;-72.6;43.7;44.2;20;20.3;28.5;0.0;
15/02/2025 12:12:25;100;0;119.95;-4;-20.13;-1.61;397.5;16.00;76354;2835.154;-1758.303;1;104;-70;-72.6;43.7;44.2;20;20.8;28.5;0.0;
15/02/2025 12:12:45;100;0;122.00;-4;-20.17;-1.49;399.9;15.90;76348;2835.152;-1758.300;1;104;-70;-72.6;43.7;44.2;23;23.0;28.5;0.0;
15/02/2025 12:13:05;100;0;122.84;-4;-20.27;0.03;402.4;15.90;76350;2835.151;-1758.297;1;104;-70;-71.0;43.7;44.2;23;23.5;28.5;0.0;
15/02/2025 12:13:25;100;0;123.72;-4;-19.92;0.06;404.8;15.80;76324;2835.149;-1758.294;1;104;-70;-72.6;43.7;44.2;25;24.8;28.5;0.0;
15/02/2025 12:13:45;100;0;124.69;-4;-20.88;0.69;407.4;15.80;76322;2835.147;-1758.292;1;104;-70;-72.6;43.7;44.2;27;27.5;28.5;0.0;
15/02/2025 12:14:05;100;0;123.58;-4;-20.60;2.08;409.8;15.80;76310;2835.146;-1758.289;1;104;-70;-72.6;43.7;44.2;25;24.8;28.5;0.0;
15/02/2025 12:14:25;100;0;119.43;-4;-20.15;0.48;412.3;15.80;76314;2835.144;-1758.286;1;104;-70;-72.6;43.7;44.2;20;19.9;28.5;0.0;
15/02/2025 12:14:45;100;0;115.62;-4;-20.41;-1.48;414.9;15.70;76307;2835.143;-1758.282;1;104;-70;-72.6;43.7;44.2;16;15.8;28.5;0.0;
15/02/2025 12:15:05;100;0;111.56;-4;-19.40;-3.90;417.4;15.70;76289;2835.142;-1758.279;1;104;-70;-72.6;43.7;44.2;14;14.0;28.5;0.0;
15/02/2025 12:15:25;100;0;106.82;-4;-19.57;-4.40;419.7;15.70;76290;2835.141;-1758.276;1;104;-70;-72.6;43.7;44.3;14;14.9;28.5;0.0;
15/02/2025 12:15:45;100;0;102.82;-4;-19.39;-4.51;422.1;15.60;76280;2835.141;-1758.272;1;104;-70;-72.6;43.7;44.2;14;14.4;28.5;0.0;
15/02/2025 12:16:05;100;0;102.86;-4;-19.62;-4.27;424.3;15.60;76269;2835.140;-1758.269;1;104;-70;-72.6;43.7;44.3;14;14.4;28.5;0.0;
15/02/2025 12:16:25;100;0;100.38;-4;-19.70;-4.32;426.6;15.60;76267;2835.140;-1758.266;1;104;-70;-72.6;43.7;44.2;14;14.9;28.5;0.0;
15/02/2025 12:16:45;100;0;95.65;-4;-19.86;-4.43;428.9;15.50;76263;2835.140;-1758.263;1;104;-70;-72.6;43.7;44.2;10;9.5;28.5;0.0;
15/02/2025 12:17:05;100;0;93.78;-4;-19.58;-7.14;431.1;15.50;76241;2835.140;-1758.260;1;104;-70;-72.6;43.7;44.2;7;7.2;28.5;0.0;
15/02/2025 12:17:25;100;0;92.49;-4;-19.12;-8.60;433.5;15.50;76249;2835.140;-1758.256;1;104;-70;-74.2;43.7;44.2;7;6.8;28.5;0.0;
15/02/2025 12:17:45;100;0;93.82;-4;-18.79;-8.76;435.7;15.40;76244;2835.140;-1758.253;1;104;-70;-74.2;44.0;44.0;7;6.8;28.5;0.0;
15/02/2025 12:18:05;100;0;94.98;-4;-18.76;-8.63;437.9;15.40;76231;2835.140;-1758.250;1;104;-70;-72.6;44.4;44.8;9;9.5;28.5;0.0;
15/02/2025 12:18:25;100;0;97.16;-4;-20.54;-6.90;440.2;15.40;76232;2835.140;-1758.246;1;104;-70;-72.6;44.4;44.8;11;10.8;28.5;0.0;
15/02/2025 12:18:45;100;0;96.77;-4;-20.52;-6.16;442.5;15.40;76246;2835.140;-1758.243;1;104;-70;-71.0;44.4;44.8;11;11.3;28.5;0.0;
15/02/2025 12:19:05;100;0;97.25;-4;-20.62;-6.27;444.9;15.30;76232;2835.139;-1758.240;1;104;-70;-72.6;44.4;44.8;11;11.3;28.5;0.0;
15/02/2025 12:19:25;100;0;98.77;-4;-20.61;-6.10;447.3;15.30;76221;2835.139;-1758.237;1;104;-70;-74.2;44.4;44.9;11;11.3;28.5;0.0;
15/02/2025 12:19:45;100;0;98.50;-4;-20.55;-6.18;449.7;15.30;76219;2835.139;-1758.233;1;104;-70;-71.0;44.4;44.8;11;11.3;28.5;0.0;
15/02/2025 12:20:05;100;0;98.25;-4;-20.61;-6.14;452.0;15.20;76211;2835.139;-1758.230;1;104;-70;-72.6;44.4;44.9;11;11.3;28.5;0.0;
15/02/2025 12:20:25;100;0;98.81;-4;-20.77;-6.23;454.5;15.20;76204;2835.138;-1758.227;1;104;-70;-72.6;44.4;44.9;11;10.8;28.5;0.0;
15/02/2025 12:20:45;100;0;97.07;-4;-20.59;-6.19;456.9;15.20;76195;2835.138;-1758.224;1;104;-70;-72.6;44.4;44.8;11;11.3;28.5;0.0;
15/02/2025 12:21:05;100;0;95.40;-4;-20.49;-6.28;459.3;15.20;76196;2835.138;-1758.220;1;104;-70;-72.6;44.4;44.8;9;9.0;28.5;0.0;
15/02/2025 12:21:25;100;0;95.19;-4;-20.63;-7.60;461.9;15.10;76183;2835.138;-1758.217;1;104;-70;-72.6;44.4;44.8;9;9.0;28.5;0.0;
15/02/2025 12:21:45;100;0;92.15;-4;-20.85;-7.30;464.5;15.10;76193;2835.138;-1758.213;1;104;-70;-72.6;44.4;44.8;5;5.0;28.5;0.0;
15/02/2025 12:22:05;100;0;93.06;-4;-20.47;-9.54;467.4;15.10;76180;2835.138;-1758.209;1;104;-70;-74.2;44.4;44.8;7;7.2;28.5;0.0;
15/02/2025 12:22:25;100;0;97.28;-4;-20.54;-7.93;470.2;15.10;76176;2835.138;-1758.205;1;104;-70;-72.6;44.4;44.9;11;10.8;28.5;0.0;
15/02/2025 12:22:45;100;0;98.87;-4;-20.73;-6.13;473.1;15.00;76174;2835.137;-1758.201;1;104;-70;-71.0;44.4;44.8;11;11.3;28.5;0.0;
15/02/2025 12:23:05;100;0;101.46;-4;-20.67;-6.10;475.9;15.00;76167;2835.137;-1758.197;1;104;-70;-72.6;44.4;44.9;13;13.1;28.5;0.0;
15/02/2025 12:23:25;100;0;101.74;-4;-21.11;-5.05;478.9;15.00;76160;2835.136;-1758.193;1;104;-70;-74.2;44.4;44.9;13;13.5;28.5;0.0;
15/02/2025 12:23:45;100;0;100.84;-4;-21.00;-5.04;481.8;14.90;76148;2835.136;-1758.189;1;104;-70;-72.6;44.4;44.8;13;13.5;28.5;0.0;
15/02/2025 12:24:05;100;0;99.25;-4;-20.96;-5.01;484.9;14.90;76143;2835.135;-1758.185;1;104;-70;-72.6;44.4;44.9;13;13.5;28.5;0.0;
15/02/2025 12:24:25;100;0;97.77;-4;-20.78;-5.09;487.9;14.90;76141;2835.135;-1758.181;1;104;-70;-72.6;44.4;44.9;11;10.8;28.5;0.0;
15/02/2025 12:24:45;100;0;97.34;-4;-20.72;-6.54;490.8;14.90;76135;2835.134;-1758.177;1;104;-70;-72.6;44.4;44.9;11;10.4;28.5;0.0;
15/02/2025 12:25:05;100;0;101.12;-4;-20.40;-6.55;493.7;14.90;76122;2835.134;-1758.173;1;104;-70;-74.2;44.4;44.9;13;13.1;28.5;0.0;
15/02/2025 12:25:25;100;0;104.18;-4;-20.63;-4.94;496.5;14.80;76119;2835.133;-1758.169;1;104;-70;-72.6;44.4;44.9;13;13.5;28.5;0.0;
15/02/2025 12:25:45;100;0;105.27;-4;-20.80;-4.94;499.4;14.80;76115;2835.132;-1758.165;1;104;-70;-72.6;44.4;44.9;13;13.5;28.5;0.0;
15/02/2025 12:26:05;100;0;105.92;-4;-20.84;-4.91;502.4;14.80;76102;2835.132;-1758.162;1;104;-70;-72.6;44.4;44.9;13;13.5;28.5;0.0;
15/02/2025 12:26:25;100;0;107.40;-4;-20.81;-4.90;505.2;14.70;76103;2835.131;-1758.158;1;104;-70;-72.6;44.4;44.9;13;14.0;28.5;0.0;
15/02/2025 12:26:45;100;0;107.41;-4;-20.94;-4.88;508.0;14.70;76099;2835.130;-1758.154;1;104;-70;-72.6;44.4;44.8;13;13.5;28.5;0.0;
15/02/2025 12:27:06;100;0;107.01;-4;-21.16;-4.87;510.8;14.70;76094;2835.129;-1758.150;1;104;-70;-72.6;44.4;44.8;13;14.0;28.5;0.0;
15/02/2025 12:27:26;100;0;106.85;-4;-21.17;-4.87;513.7;14.60;76084;2835.128;-1758.147;1;104;-70;-75.8;44.4;44.9;13;13.5;28.5;0.0;
15/02/2025 12:27:46;100;0;109.08;-4;-20.89;-4.92;516.4;14.60;76075;2835.127;-1758.143;1;104;-70;-72.6;44.4;44.9;13;13.5;28.5;0.0;
15/02/2025 12:28:06;100;0;109.86;-4;-20.55;-4.89;519.1;14.60;76067;2835.126;-1758.140;1;104;-70;-72.6;44.4;44.9;13;13.5;28.5;0.0;
15/02/2025 12:28:26;100;0;111.67;-4;-20.34;-4.99;521.7;14.60;76055;2835.125;-1758.136;1;104;-70;-74.2;44.4;44.9;13;13.5;28.5;0.0;
15/02/2025 12:28:46;100;0;110.26;-4;-20.42;-5.00;524.2;14.50;76042;2835.124;-1758.133;1;104;-70;-74.2;44.4;44.9;13;14.0;28.5;0.0;
15/02/2025 12:29:06;100;0;107.70;-4;-20.78;-5.00;526.8;14.50;76052;2835.123;-1758.129;1;104;-70;-72.6;44.4;44.9;13;13.5;28.5;0.0;
15/02/2025 12:29:26;100;0;105.62;-4;-20.48;-4.98;529.4;14.50;76034;2835.123;-1758.126;1;104;-70;-72.6;44.4;44.9;13;13.5;28.5;0.0;
15/02/2025 12:29:46;100;0;105.55;-4;-20.72;-4.93;532.0;14.50;76024;2835.122;-1758.122;1;104;-70;-72.6;44.4;44.9;13;13.5;28.5;0.0;
15/02/2025 12:30:06;100;0;103.18;-4;-20.21;-4.86;534.6;14.40;76017;2835.121;-1758.119;1;104;-70;-72.6;44.4;44.8;13;13.5;28.5;0.0;
15/02/2025 12:30:26;100;0;101.53;-4;-20.23;-5.05;537.2;14.40;76021;2835.121;-1758.115;1;104;-70;-72.6;44.4;44.8;13;14.0;28.5;0.0;
15/02/2025 12:30:46;100;0;101.36;-4;-20.22;-5.02;539.8;14.40;76009;2835.120;-1758.112;1;104;-70;-72.6;44.4;44.9;13;13.5;28.5;0.0;
15/02/2025 12:31:06;100;0;99.92;-4;-20.19;-4.91;542.1;14.30;76010;2835.120;-1758.108;1;104;-70;-72.6;44.4;44.9;13;13.5;28.5;0.0;
15/02/2025 12:31:26;100;0;98.82;-4;-20.50;-4.96;544.7;14.30;76003;2835.120;-1758.105;1;104;-70;-72.6;44.4;44.8;11;10.8;28.5;0.0;
15/02/2025 12:31:46;100;0;99.59;-4;-20.27;-6.71;547.3;14.30;75984;2835.119;-1758.101;1;104;-70;-72.6;44.4;44.8;11;10.4;28.5;0.0;
15/02/2025 12:32:06;100;0;100.98;-4;-20.27;-6.67;549.8;14.30;75985;2835.119;-1758.097;1;104;-70;-72.6;44.4;44.8;11;10.4;28.5;0.0;
15/02/2025 12:32:26;100;0;101.62;-4;-20.16;-6.71;552.4;14.20;75994;2835.118;-1758.094;1;104;-70;-72.6;44.4;44.9;11;10.4;28.5;0.0;
15/02/2025 12:32:46;100;0;101.85;-4;-20.11;-6.64;554.9;14.20;76003;2835.118;-1758.090;1;104;-70;-72.6;44.4;44.9;11;10.4;28.5;0.0;
15/02/2025 12:33:06;100;0;100.83;-4;-20.34;-6.67;557.5;14.20;75983;2835.117;-1758.087;1;104;-70;-72.6;44.4;44.9;11;10.4;28.5;0.0;
15/02/2025 12:33:26;100;0;101.51;-4;-20.50;-6.63;560.2;14.20;75979;2835.117;-1758.083;1;104;-70;-72.6;44.4;44.8;13;13.1;28.5;0.0;
15/02/2025 12:33:46;100;0;101.55;-4;-20.28;-5.08;562.7;14.10;75975;2835.116;-1758.079;1;104;-70;-72.6;44.4;44.9;13;13.5;28.5;0.0;
15/02/2025 12:34:06;100;0;101.69;-4;-20.31;-5.13;565.3;14.10;75978;2835.116;-1758.076;1;104;-70;-72.6;44.4;44.8;13;13.5;28.5;0.0;
15/02/2025 12:34:26;100;0;100.15;-4;-20.11;-5.13;567.8;14.10;75965;2835.116;-1758.072;1;104;-70;-72.6;44.4;44.8;13;13.5;28.5;0.0;
15/02/2025 12:34:46;100;0;100.37;-4;-20.03;-5.16;570.2;14.10;75961;2835.115;-1758.069;1;104;-70;-72.6;44.4;44.9;13;13.5;28.5;0.0;
15/02/2025 12:35:06;100;0;100.34;-4;-20.71;-5.06;572.7;14.00;75944;2835.115;-1758.065;1;104;-70;-72.6;44.4;44.9;13;13.5;28.5;0.0;
15/02/2025 12:35:26;100;0;101.22;-4;-20.58;-5.06;575.2;14.00;75947;2835.114;-1758.062;1;104;-70;-72.6;44.4;44.9;13;13.5;28.5;0.0;
15/02/2025 12:35:46;100;0;101.55;-4;-20.41;-5.02;577.7;14.00;75926;2835.114;-1758.058;1;104;-70;-72.6;44.4;44.8;13;13.5;28.5;0.0;
15/02/2025 12:36:06;100;0;101.69;-4;-20.17;-5.11;580.1;14.00;75932;2835.113;-1758.055;1;104;-70;-72.6;44.4;44.8;13;13.5;28.5;0.0;
15/02/2025 12:36:26;100;0;103.15;-4;-20.24;-5.09;582.6;13.90;75925;2835.113;-1758.052;1;104;-70;-72.6;44.4;44.8;13;13.5;28.5;0.0;
15/02/2025 12:36:46;100;0;104.69;-4;-20.31;-5.11;585.0;13.90;75907;2835.112;-1758.048;1;104;-70;-72.6;44.4;44.9;13;13.5;28.5;0.0;
15/02/2025 12:37:06;100;0;105.60;-4;-20.33;-5.08;587.5;13.90;75908;2835.112;-1758.045;1;104;-70;-72.6;44.4;44.9;13;13.5;28.5;0.0;
15/02/2025 12:37:26;100;0;106.19;-4;-20.34;-5.11;589.9;13.90;75907;2835.111;-1758.042;1;104;-70;-72.6;44.4;44.9;13;13.5;28.5;0.0;
15/02/2025 12:37:46;100;0;105.90;-4;-20.15;-5.32;592.3;13.80;75900;2835.110;-1758.038;1;104;-70;-72.6;44.4;44.9;13;13.5;28.5;0.0;
15/02/2025 12:38:06;100;0;107.68;-4;-20.88;-5.17;594.6;13.80;75898;2835.109;-1758.035;1;104;-70;-72.6;44.4;44.9;13;13.5;28.5;0.0;
15/02/2025 12:38:26;100;0;109.81;-4;-20.45;-5.08;597.1;13.80;75898;2835.109;-1758.032;1;104;-70;-72.6;44.4;44.9;13;13.5;28.5;0.0;
15/02/2025 12:38:46;100;0;111.01;-4;-20.42;-5.06;599.5;13.80;75889;2835.108;-1758.029;1;104;-70;-72.6;44.4;44.9;13;13.5;28.5;0.0;
15/02/2025 12:39:06;100;0;110.57;-4;-20.59;-5.04;601.9;13.70;75886;2835.107;-1758.026;1;104;-70;-72.6;44.4;44.9;13;13.5;28.5;0.0;
15/02/2025 12:39:26;100;0;112.26;-4;-20.44;-5.06;604.4;13.70;75889;2835.106;-1758.022;1;104;-70;-72.6;44.4;44.9;13;13.5;28.5;0.0;
15/02/2025 12:39:46;100;0;111.05;-4;-20.62;-5.08;606.8;13.70;75872;2835.105;-1758.019;1;104;-70;-72.6;44.4;44.9;13;13.5;28.5;0.0;
15/02/2025 12:40:06;100;0;110.32;-4;-20.53;-5.06;609.1;13.70;75867;2835.104;-1758.016;1;104;-70;-72.6;44.4;44.9;13;13.5;28.5;0.0;
15/02/2025 12:40:26;100;0;110.16;-4;-20.65;-4.97;611.5;13.60;75871;2835.103;-1758.013;1;104;-70;-72.6;44.4;44.9;13;13.5;28.5;0.0;
15/02/2025 12:40:46;100;0;109.61;-4;-20.68;-4.99;613.9;13.60;75862;2835.102;-1758.010;1;104;-70;-72.6;44.4;44.9;13;13.5;28.5;0.0;
15/02/2025 12:41:06;100;0;106.06;-4;-20.23;-5.06;616.3;13.60;75853;2835.102;-1758.007;1;104;-70;-72.6;44.4;44.9;13;13.5;28.5;0.0;
15/02/2025 12:41:26;100;0;104.76;-4;-20.11;-5.12;618.6;13.60;75860;2835.101;-1758.004;1;104;-70;-74.2;44.4;44.9;13;13.5;28.5;0.0;
15/02/2025 12:41:46;100;0;105.12;-4;-20.09;-5.09;621.0;13.60;75836;2835.100;-1758.000;1;104;-70;-72.6;44.4;44.8;13;13.5;28.5;0.0;
15/02/2025 12:42:06;100;0;105.53;-4;-20.20;-5.06;623.2;13.50;75832;2835.100;-1757.997;1;104;-70;-72.6;44.4;44.9;13;13.5;28.5;0.0;
15/02/2025 12:42:26;100;0;105.50;-4;-20.05;-5.11;625.5;13.50;75814;2835.099;-1757.994;1;104;-70;-72.6;44.4;44.8;13;13.5;28.5;0.0;
15/02/2025 12:42:46;100;0;104.68;-4;-20.07;-5.06;627.8;13.50;75818;2835.099;-1757.991;1;104;-70;-71.0;44.4;44.9;13;13.5;28.5;0.0;
15/02/2025 12:43:06;100;0;105.18;-4;-20.43;-5.07;630.2;13.50;75813;2835.098;-1757.988;1;104;-70;-72.6;44.4;44.9;13;13.5;28.5;0.0;
15/02/2025 12:43:26;100;0;103.58;-4;-20.06;-5.14;632.6;13.40;75806;2835.097;-1757.985;1;104;-70;-74.2;44.4;44.9;13;13.5;28.5;0.0;
15/02/2025 12:43:46;100;0;103.08;-4;-19.99;-5.06;634.9;13.40;75804;2835.097;-1757.981;1;104;-70;-72.6;44.4;44.9;13;13.5;28.5;0.0;
15/02/2025 12:44:06;100;0;105.18;-4;-19.96;-5.07;637.2;13.40;75792;2835.096;-1757.978;1;104;-70;-72.6;44.4;44.9;13;13.5;28.5;0.0;
15/02/2025 12:44:26;100;0;107.20;-4;-20.02;-5.13;639.5;13.40;75787;2835.096;-1757.975;1;104;-70;-72.6;44.4;44.9;13;13.5;28.5;0.0;
15/02/2025 12:44:46;100;0;106.02;-4;-20.07;-5.08;641.8;13.30;75769;2835.095;-1757.972;1;104;-70;-72.6;44.4;44.9;13;13.5;28.5;0.0;
15/02/2025 12:45:06;100;0;104.57;-4;-19.90;-5.07;644.1;13.30;75779;2835.094;-1757.969;1;104;-70;-72.6;44.4;44.9;13;13.5;28.5;0.0;
15/02/2025 12:45:26;100;0;104.40;-4;-20.12;-5.12;646.4;13.30;75766;2835.094;-1757.966;1;104;-70;-72.6;44.4;44.9;13;13.5;28.5;0.0;
15/02/2025 12:45:46;100;0;104.09;-4;-20.20;-5.03;648.6;13.30;75759;2835.093;-1757.962;1;104;-70;-74.2;44.4;44.8;13;13.5;28.5;0.0;
15/02/2025 12:46:06;100;0;104.00;-4;-19.87;-5.04;651.2;13.20;75755;2835.093;-1757.959;1;104;-70;-72.6;44.4;44.9;13;13.5;28.5;0.0;
15/02/2025 12:46:26;100;0;104.38;-4;-19.91;-5.13;653.4;13.20;75743;2835.092;-1757.956;1;104;-70;-72.6;44.4;44.9;13;13.5;28.5;0.0;
15/02/2025 12:46:46;100;0;101.37;-4;-19.16;-5.11;655.6;13.20;75735;2835.092;-1757.953;1;105;-70;-72.6;44.4;44.8;13;13.5;28.5;0.0;
15/02/2025 12:47:06;100;0;100.32;-4;-19.68;-5.07;657.8;13.10;75716;2835.091;-1757.950;1;105;-70;-72.6;44.4;44.9;11;10.8;28.5;0.0;
15/02/2025 12:47:26;100;0;100.62;-4;-19.48;-6.57;659.8;13.10;75723;2835.091;-1757.947;1;105;-70;-72.6;44.4;44.9;11;10.4;28.5;0.0;
15/02/2025 12:47:46;100;0;102.28;-4;-19.76;-6.56;662.0;13.10;75699;2835.091;-1757.944;1;105;-70;-72.6;44.4;44.9;11;10.8;28.5;0.0;
15/02/2025 12:48:06;100;0;102.97;-4;-19.69;-6.55;664.4;13.10;75705;2835.090;-1757.940;1;105;-70;-72.6;44.4;44.9;11;10.8;28.5;0.0;
15/02/2025 12:48:26;100;0;106.54;-4;-19.92;-6.35;666.7;13.10;75698;2835.089;-1757.937;1;105;-70;-72.6;44.4;44.8;11;10.8;28.5;0.0;
15/02/2025 12:48:46;100;0;108.82;-4;-17.33;-5.97;669.0;13.00;75680;2835.089;-1757.934;1;105;-70;-72.6;45.2;45.2;11;10.8;28.5;0.0;
15/02/2025 12:49:06;100;0;112.73;-4;-21.07;-6.21;671.1;13.00;75681;2835.088;-1757.931;1;105;-70;-71.0;45.2;45.5;13;13.5;28.5;0.0;
15/02/2025 12:49:26;100;0;115.35;-4;-19.85;-5.11;673.4;13.00;75672;2835.087;-1757.928;1;105;-70;-72.6;45.2;45.5;13;14.0;28.5;0.0;
15/02/2025 12:49:46;100;0;116.73;-4;-20.13;-4.85;675.7;13.00;75673;2835.085;-1757.925;1;105;-70;-72.6;45.2;45.5;15;14.9;28.5;0.0;
15/02/2025 12:50:06;100;0;120.30;-4;-21.10;-4.03;678.0;12.90;75660;2835.084;-1757.922;1;104;-70;-72.6;45.2;45.4;19;19.4;28.5;0.0;
15/02/2025 12:50:26;100;0;121.45;-4;-21.18;-1.75;680.3;12.90;75665;2835.083;-1757.920;1;104;-70;-72.6;45.2;45.5;21;21.2;28.5;0.0;
15/02/2025 12:50:46;100;0;120.09;-4;-21.59;-1.08;682.6;12.90;75662;2835.082;-1757.917;1;104;-70;-72.6;45.2;45.5;19;19.0;28.5;0.0;
15/02/2025 12:51:06;100;0;118.88;-4;-21.70;-2.48;685.1;12.80;75651;2835.080;-1757.914;1;104;-70;-72.6;45.2;45.5;19;19.0;28.5;0.0;
15/02/2025 12:51:26;100;0;119.68;-4;-21.23;-2.76;687.6;12.80;75649;2835.079;-1757.911;1;104;-70;-74.2;45.2;45.5;19;19.0;28.5;0.0;
15/02/2025 12:51:46;100;0;117.97;-4;-21.66;-2.54;690.3;12.80;75645;2835.078;-1757.908;1;104;-70;-72.6;45.2;45.5;17;16.7;28.5;0.0;
15/02/2025 12:52:06;100;0;117.27;-4;-21.02;-3.58;693.0;12.80;75636;2835.076;-1757.905;1;104;-70;-72.6;45.2;45.5;17;16.7;28.5;0.0;
15/02/2025 12:52:26;100;0;116.86;-4;-20.88;-3.51;695.5;12.70;75637;2835.075;-1757.902;1;104;-70;-72.6;45.2;45.5;17;16.7;28.5;0.0;
15/02/2025 12:52:46;100;0;115.47;-4;-21.46;-3.47;697.9;12.70;75627;2835.074;-1757.899;1;104;-70;-72.6;45.2;45.5;15;14.4;28.5;0.0;
15/02/2025 12:53:06;100;0;115.77;-4;-21.01;-4.60;700.6;12.70;75623;2835.073;-1757.895;1;104;-70;-72.6;45.2;45.5;15;14.9;28.5;0.0;
15/02/2025 12:53:26;100;0;115.65;-4;-21.32;-4.58;703.0;12.70;75618;2835.072;-1757.892;1;104;-70;-74.2;45.2;45.5;15;14.4;28.5;0.0;
15/02/2025 12:53:46;100;0;115.74;-4;-21.35;-4.59;705.5;12.70;75619;2835.070;-1757.889;1;104;-70;-72.6;45.2;45.5;15;14.4;28.5;0.0;
15/02/2025 12:54:06;100;0;113.57;-4;-21.29;-4.60;708.1;12.60;75618;2835.069;-1757.886;1;104;-70;-71.0;45.2;45.5;15;14.9;28.5;0.0;
15/02/2025 12:54:26;100;0;113.03;-4;-21.30;-4.52;710.7;12.60;75611;2835.068;-1757.883;1;104;-70;-72.6;45.2;45.5;15;14.4;28.5;0.0;
15/02/2025 12:54:46;100;0;113.04;-4;-21.17;-4.55;713.2;12.60;75611;2835.067;-1757.880;1;104;-70;-72.6;45.2;45.5;15;14.4;28.5;0.0;
15/02/2025 12:55:06;100;0;113.60;-4;-21.03;-4.60;715.7;12.60;75609;2835.066;-1757.876;1;104;-70;-72.6;45.2;45.5;15;14.4;28.5;0.0;
15/02/2025 12:55:26;100;0;113.99;-4;-21.46;-4.60;718.2;12.60;75613;2835.065;-1757.873;1;104;-70;-72.6;45.2;45.5;15;14.9;28.6;0.0;
15/02/2025 12:55:46;100;0;111.98;-4;-21.51;-4.68;720.6;12.50;75607;2835.064;-1757.870;1;104;-70;-72.6;45.2;45.5;15;14.4;28.5;0.0;
15/02/2025 12:56:06;100;0;112.49;-4;-21.51;-4.54;723.1;12.50;75608;2835.063;-1757.867;1;104;-70;-72.6;45.2;45.5;15;14.9;28.5;0.0;
15/02/2025 12:56:26;100;0;112.29;-4;-21.35;-4.54;725.7;12.50;75596;2835.062;-1757.864;1;104;-70;-71.0;45.2;45.5;15;14.4;28.5;0.0;
15/02/2025 12:56:46;100;0;110.00;-4;-20.97;-4.66;728.1;12.50;75593;2835.061;-1757.861;1;104;-70;-75.8;45.2;45.5;13;13.1;28.5;0.0;
15/02/2025 12:57:06;100;0;108.41;-4;-21.04;-5.50;730.4;12.40;75586;2835.061;-1757.858;1;104;-70;-72.6;45.2;45.5;13;13.1;28.5;0.0;
15/02/2025 12:57:26;100;0;108.18;-4;-21.20;-5.35;732.8;12.40;75595;2835.060;-1757.855;1;104;-70;-74.2;45.2;45.5;13;13.1;28.5;0.0;
15/02/2025 12:57:46;100;0;107.19;-4;-20.57;-5.40;735.0;12.40;75585;2835.059;-1757.852;1;104;-70;-72.6;45.2;45.5;13;13.1;28.5;0.0;
15/02/2025 12:58:06;100;0;108.04;-4;-21.41;-5.44;737.3;12.40;75581;2835.058;-1757.849;1;104;-70;-72.6;45.2;45.5;13;13.1;28.5;0.0;
15/02/2025 12:58:26;100;0;112.56;-4;-20.90;-5.36;739.7;12.40;75576;2835.057;-1757.846;1;104;-70;-72.6;45.2;45.5;13;13.1;28.5;0.0;
15/02/2025 12:58:46;100;0;112.88;-4;-20.92;-5.36;742.1;12.30;75571;2835.057;-1757.843;1;104;-70;-74.2;45.2;45.5;13;13.1;28.5;0.0;
15/02/2025 12:59:06;100;0;112.77;-4;-20.70;-5.43;744.3;12.30;75569;2835.056;-1757.840;1;104;-70;-72.6;45.2;45.5;13;13.1;28.5;0.0;
15/02/2025 12:59:26;100;0;112.94;-4;-20.79;-5.42;746.6;12.30;75565;2835.055;-1757.837;1;104;-70;-72.6;45.2;45.5;13;13.1;28.5;0.0;
15/02/2025 12:59:46;100;0;113.55;-4;-21.02;-5.34;748.8;12.30;75552;2835.054;-1757.834;1;104;-70;-72.6;45.2;45.5;13;13.1;28.5;0.0;
15/02/2025 13:00:06;100;0;116.47;-4;-21.32;-5.37;751.3;12.30;75556;2835.053;-1757.831;1;104;-70;-74.2;45.2;45.5;16;16.2;28.5;0.0;
15/02/2025 13:00:26;100;0;120.98;-4;-21.26;-3.37;753.7;12.20;75548;2835.051;-1757.829;1;104;-70;-72.6;45.2;45.4;21;21.2;28.5;0.0;
15/02/2025 13:00:46;100;0;120.96;-4;-21.54;-1.09;756.3;12.20;75528;2835.050;-1757.826;1;104;-70;-72.6;45.2;45.5;21;21.7;28.5;0.0;
15/02/2025 13:01:06;100;0;120.58;-4;-21.06;-0.97;758.9;12.20;75524;2835.048;-1757.823;1;104;-70;-72.6;45.2;45.4;21;21.7;28.5;0.0;
15/02/2025 13:01:26;100;0;117.17;-4;-21.74;-0.92;761.3;12.20;75519;2835.047;-1757.820;1;104;-70;-74.2;45.2;45.5;17;16.7;28.5;0.0;
15/02/2025 13:01:47;100;0;117.17;-4;-21.39;-3.55;763.9;12.10;75514;2835.046;-1757.817;1;104;-70;-72.6;45.2;45.5;17;16.7;28.5;0.0;
15/02/2025 13:02:07;100;0;117.45;-4;-21.24;-3.60;766.5;12.10;75510;2835.045;-1757.813;1;104;-70;-72.6;45.2;45.5;17;16.7;28.5;0.0;
15/02/2025 13:02:27;100;0;116.95;-4;-21.09;-3.53;769.4;12.10;75502;2835.043;-1757.810;1;104;-70;-72.6;45.2;45.5;17;16.2;28.5;0.0;
15/02/2025 13:02:47;100;0;115.63;-4;-21.56;-3.70;772.0;12.10;75506;2835.042;-1757.807;1;104;-70;-72.6;45.2;45.5;17;16.7;28.5;0.0;
15/02/2025 13:03:07;100;0;116.94;-4;-20.96;-3.59;774.6;12.10;75500;2835.041;-1757.804;1;104;-70;-72.6;45.2;45.5;17;16.7;28.5;0.0;
15/02/2025 13:03:27;100;0;117.39;-4;-22.05;-3.72;777.3;12.00;75506;2835.039;-1757.800;1;104;-70;-72.6;44.6;44.6;17;16.7;28.5;0.0;
15/02/2025 13:03:47;100;0;116.81;-4;-19.97;-3.72;780.1;12.00;75499;2835.038;-1757.797;1;103;-70;-72.6;44.6;44.3;19;19.0;28.5;0.0;
15/02/2025 13:04:07;100;0;114.50;-4;-19.47;-2.39;782.7;12.00;75501;2835.037;-1757.793;1;103;-70;-74.2;44.6;44.3;17;16.2;28.5;0.0;
15/02/2025 13:04:27;100;0;114.97;-4;-19.24;-3.73;785.3;12.00;75496;2835.035;-1757.790;1;103;-70;-72.6;44.6;44.3;17;17.1;28.5;0.0;
15/02/2025 13:04:47;100;0;113.31;-4;-18.53;-3.62;787.9;12.00;75485;2835.034;-1757.786;1;103;-70;-72.6;45.0;45.2;17;16.7;28.5;0.0;
15/02/2025 13:05:07;100;0;115.27;-4;-20.53;-3.50;790.5;11.90;75489;2835.033;-1757.783;1;103;-70;-72.6;45.0;45.4;17;16.7;28.5;0.0;
15/02/2025 13:05:27;100;0;116.45;-4;-20.10;-3.51;793.3;11.90;75475;2835.032;-1757.779;1;103;-70;-72.6;45.0;45.4;17;16.7;28.6;0.0;
15/02/2025 13:05:47;100;0;116.69;-4;-20.58;-3.52;796.1;11.90;75475;2835.030;-1757.776;1;103;-70;-72.6;45.0;45.4;19;19.0;28.5;0.0;
15/02/2025 13:06:07;100;0;115.31;-4;-21.05;-2.10;798.8;11.90;75465;2835.029;-1757.773;1;103;-70;-72.6;45.0;45.4;17;16.7;28.5;0.0;
15/02/2025 13:06:27;100;0;115.77;-4;-20.59;-3.60;801.6;11.80;75458;2835.028;-1757.769;1;103;-70;-72.6;45.0;45.4;17;17.1;28.5;0.0;
15/02/2025 13:06:47;100;0;113.39;-4;-21.24;-3.44;804.4;11.80;75465;2835.026;-1757.766;1;103;-70;-72.6;45.0;45.5;17;17.1;28.5;0.0;
15/02/2025 13:07:07;100;0;112.95;-4;-20.48;-3.41;807.2;11.80;75454;2835.025;-1757.762;1;103;-70;-72.6;45.0;45.4;17;17.1;28.5;0.0;
15/02/2025 13:07:27;100;0;112.33;-4;-20.51;-3.41;809.9;11.80;75445;2835.024;-1757.758;1;103;-70;-72.6;45.0;45.4;15;14.9;28.5;0.0;
15/02/2025 13:07:47;100;0;112.16;-4;-20.58;-4.45;812.7;11.80;75451;2835.023;-1757.755;1;103;-70;-72.6;45.0;45.4;15;14.9;28.5;0.0;
15/02/2025 13:08:07;100;0;113.04;-4;-20.47;-4.44;815.4;11.80;75449;2835.022;-1757.751;1;103;-70;-71.0;45.0;45.4;15;14.9;28.5;0.0;
15/02/2025 13:08:27;100;0;114.89;-4;-20.67;-4.45;818.1;11.70;75447;2835.020;-1757.748;1;103;-70;-72.6;45.0;45.4;17;17.1;28.5;0.0;
15/02/2025 13:08:47;100;0;114.38;-4;-20.86;-2.96;820.8;11.70;75445;2835.019;-1757.745;1;103;-70;-72.6;45.0;45.5;17;17.6;28.5;0.0;
15/02/2025 13:09:07;100;0;113.82;-4;-20.67;-2.91;823.5;11.70;75435;2835.018;-1757.741;1;103;-70;-72.6;45.0;45.5;17;17.6;28.5;0.0;
15/02/2025 13:09:27;100;0;113.78;-4;-20.76;-2.84;826.2;11.70;75434;2835.017;-1757.738;1;103;-70;-72.6;45.0;45.4;17;17.6;28.5;0.0;
15/02/2025 13:09:47;100;0;113.71;-4;-20.85;-2.99;829.1;11.70;75429;2835.016;-1757.734;1;103;-70;-71.0;45.0;45.5;17;17.6;28.5;0.0;
15/02/2025 13:10:07;100;0;114.67;-4;-20.65;-2.92;831.7;11.60;75433;2835.014;-1757.731;1;103;-70;-72.6;45.0;45.4;17;17.6;28.5;0.0;
15/02/2025 13:10:27;100;0;113.74;-4;-20.63;-2.93;834.5;11.60;75431;2835.013;-1757.727;1;103;-70;-69.4;45.0;45.4;17;17.6;28.5;0.0;
15/02/2025 13:10:47;100;0;110.43;-4;-21.24;-2.96;837.4;11.60;75421;2835.012;-1757.724;1;103;-70;-72.6;45.0;45.4;15;14.4;28.5;0.0;
15/02/2025 13:11:07;100;0;109.95;-4;-20.52;-4.62;840.3;11.60;75416;2835.011;-1757.720;1;103;-70;-72.6;45.0;45.4;15;14.4;28.5;0.0;
15/02/2025 13:11:27;100;0;109.61;-4;-19.93;-4.60;843.0;11.60;75420;2835.010;-1757.716;1;103;-70;-72.6;45.0;45.4;15;14.4;28.5;0.0;
15/02/2025 13:11:47;100;0;111.18;-4;-20.20;-4.74;845.7;11.60;75409;2835.009;-1757.713;1;103;-70;-74.2;45.0;45.4;15;14.9;28.5;0.0;
15/02/2025 13:12:07;100;0;112.53;-4;-19.86;-4.68;848.3;11.50;75404;2835.008;-1757.709;1;103;-70;-72.6;45.0;45.4;15;14.4;28.5;0.0;
15/02/2025 13:12:27;100;0;112.44;-4;-20.57;-4.70;850.8;11.50;75387;2835.007;-1757.706;1;103;-70;-72.6;45.0;45.4;15;14.4;28.5;0.0;
15/02/2025 13:12:47;100;0;110.53;-4;-20.41;-4.63;853.5;11.50;75386;2835.006;-1757.703;1;103;-70;-72.6;45.0;45.4;15;14.4;28.5;0.0;
15/02/2025 13:13:07;100;0;111.61;-4;-20.92;-4.73;856.0;11.50;75395;2835.005;-1757.699;1;103;-70;-72.6;45.0;45.4;15;14.4;28.5;0.0;
15/02/2025 13:13:27;100;0;111.04;-4;-20.55;-4.60;858.8;11.50;75385;2835.004;-1757.696;1;103;-70;-72.6;45.0;45.4;15;14.9;28.5;0.0;
15/02/2025 13:13:47;100;0;110.16;-4;-20.37;-4.65;861.4;11.40;75378;2835.003;-1757.692;1;103;-70;-72.6;45.0;45.4;15;14.9;28.5;0.0;
15/02/2025 13:14:07;100;0;107.44;-4;-20.84;-4.70;864.0;11.40;75374;2835.002;-1757.689;1;103;-70;-72.6;45.0;45.4;15;14.9;28.5;0.0;
15/02/2025 13:14:27;100;0;104.97;-4;-20.71;-4.66;866.7;11.40;75371;2835.001;-1757.685;1;103;-70;-72.6;45.0;45.4;15;14.4;28.5;0.0;
15/02/2025 13:14:47;100;0;102.35;-4;-20.72;-4.70;869.4;11.40;75369;2835.001;-1757.682;1;103;-70;-72.6;45.0;45.4;15;14.4;28.5;0.0;
15/02/2025 13:15:07;100;0;101.71;-4;-21.41;-4.66;872.3;11.40;75364;2835.000;-1757.678;1;103;-70;-74.2;45.0;45.4;15;14.4;28.5;0.0;
15/02/2025 13:15:27;100;0;100.56;-4;-21.04;-4.61;875.3;11.30;75363;2835.000;-1757.674;1;103;-70;-72.6;45.0;45.4;15;14.4;28.5;0.0;
15/02/2025 13:15:47;100;0;101.05;-4;-19.89;-4.55;878.2;11.30;75361;2834.999;-1757.669;1;103;-70;-72.6;45.0;45.5;15;14.4;28.5;0.0;
15/02/2025 13:16:07;100;0;100.60;-4;-20.26;-4.70;881.0;11.30;75361;2834.999;-1757.666;1;103;-70;-72.6;45.0;45.4;15;14.4;28.5;0.0;
15/02/2025 13:16:27;100;0;100.10;-4;-21.11;-4.57;884.0;11.30;75352;2834.998;-1757.662;1;103;-70;-72.6;45.0;45.4;15;14.4;28.5;0.0;
15/02/2025 13:16:47;100;0;98.56;-4;-20.59;-4.59;887.1;11.30;75347;2834.998;-1757.657;1;103;-70;-72.6;45.0;45.4;15;14.9;28.5;0.0;
15/02/2025 13:17:07;100;0;97.67;-4;-20.38;-4.72;890.2;11.30;75350;2834.997;-1757.653;1;103;-70;-71.0;45.0;45.4;13;12.6;28.5;0.0;
15/02/2025 13:17:27;100;0;97.41;-4;-19.81;-5.18;893.6;11.20;75346;2834.997;-1757.648;1;103;-70;-75.8;45.0;45.4;13;13.5;28.5;0.0;
15/02/2025 13:17:47;100;0;97.28;-4;-19.76;-5.06;896.7;11.20;75335;2834.997;-1757.644;1;103;-70;-72.6;45.0;45.4;13;13.5;28.5;0.0;
15/02/2025 13:18:07;100;0;96.04;-4;-20.52;-5.19;899.7;11.20;75322;2834.996;-1757.639;1;103;-70;-72.6;45.0;45.4;13;13.5;28.5;0.0;
15/02/2025 13:18:27;100;0;98.88;-4;-20.13;-5.07;902.9;11.20;75323;2834.996;-1757.635;1;103;-70;-72.6;45.0;45.4;13;13.5;28.5;0.0;
15/02/2025 13:18:47;100;0;98.98;-4;-20.21;-5.10;906.1;11.20;75322;2834.996;-1757.630;1;103;-70;-72.6;45.0;45.5;13;13.5;28.5;0.0;
15/02/2025 13:19:07;100;0;97.09;-4;-20.15;-5.24;909.2;11.10;75312;2834.995;-1757.626;1;103;-70;-72.6;45.0;45.5;13;13.5;28.5;0.0;
15/02/2025 13:19:27;100;0;98.03;-4;-20.45;-5.09;912.3;11.10;75305;2834.995;-1757.622;1;103;-70;-72.6;45.0;45.4;13;13.5;28.5;0.0;
15/02/2025 13:19:47;100;0;100.19;-4;-19.92;-5.13;915.4;11.10;75298;2834.994;-1757.617;1;103;-70;-72.6;45.0;45.5;13;13.5;28.5;0.0;
15/02/2025 13:20:07;100;0;99.30;-4;-20.33;-5.04;918.6;11.10;75304;2834.994;-1757.613;1;103;-70;-72.6;45.0;45.4;13;13.5;28.5;0.0;
15/02/2025 13:20:27;100;0;97.59;-4;-19.79;-5.07;921.7;11.10;75299;2834.993;-1757.608;1;103;-70;-72.6;45.0;45.4;13;13.5;28.5;0.0;
15/02/2025 13:20:47;100;0;97.55;-4;-20.12;-5.43;924.7;11.00;75300;2834.993;-1757.604;1;103;-70;-72.6;45.0;45.4;13;13.5;28.5;0.0;
15/02/2025 13:21:07;100;0;97.67;-4;-19.97;-5.10;927.7;11.00;75292;2834.993;-1757.600;1;103;-70;-72.6;45.0;45.4;13;13.5;28.5;0.0;
15/02/2025 13:21:27;100;0;98.84;-4;-19.97;-5.24;930.8;11.00;75283;2834.992;-1757.595;1;103;-70;-72.6;45.0;45.4;13;13.5;28.5;0.0;
15/02/2025 13:21:47;100;0;96.30;-4;-19.64;-5.02;933.7;11.00;75283;2834.992;-1757.591;1;103;-70;-72.6;45.0;45.5;13;13.5;28.5;0.0;
15/02/2025 13:22:07;100;0;96.03;-4;-20.29;-5.21;936.5;11.00;75273;2834.992;-1757.587;1;103;-70;-72.6;45.0;45.4;13;13.5;28.5;0.0;
15/02/2025 13:22:27;100;0;95.02;-4;-19.21;-5.01;939.4;11.00;75282;2834.992;-1757.583;1;103;-70;-72.6;45.0;45.4;11;10.4;28.5;0.0;
15/02/2025 13:22:47;100;0;97.23;-4;-20.49;-6.63;942.0;10.90;75272;2834.991;-1757.579;1;103;-70;-72.6;45.0;45.4;11;9.9;28.5;0.0;
15/02/2025 13:23:07;100;0;98.11;-4;-19.33;-6.70;944.7;10.90;75261;2834.991;-1757.575;1;103;-70;-72.6;45.0;45.4;13;13.1;28.5;0.0;
15/02/2025 13:23:27;100;0;98.63;-4;-19.96;-5.22;947.3;10.90;75271;2834.991;-1757.572;1;103;-70;-72.6;45.0;45.4;13;13.5;28.5;0.0;
15/02/2025 13:23:47;100;0;99.23;-4;-19.92;-5.17;949.9;10.90;75262;2834.990;-1757.568;1;104;-70;-72.6;45.0;45.4;13;13.5;28.5;0.0;
15/02/2025 13:24:07;100;0;100.05;-4;-20.35;-5.23;952.6;10.90;75265;2834.990;-1757.564;1;104;-70;-72.6;45.0;45.5;13;13.1;28.5;0.0;
15/02/2025 13:24:27;100;0;102.64;-4;-19.93;-5.29;955.2;10.80;75256;2834.989;-1757.560;1;104;-70;-72.6;45.0;45.4;13;13.5;28.5;0.0;
15/02/2025 13:24:47;100;0;104.12;-4;-19.66;-5.29;957.9;10.80;75255;2834.989;-1757.557;1;104;-70;-72.6;45.0;45.4;13;13.5;28.5;0.0;
15/02/2025 13:25:07;100;0;104.12;-4;-19.75;-5.22;960.6;10.80;75265;2834.988;-1757.553;1;104;-70;-72.6;45.0;45.4;13;13.5;28.5;0.0;
15/02/2025 13:25:27;100;0;104.27;-4;-20.00;-5.16;963.1;10.80;75242;2834.987;-1757.550;1;104;-70;-74.2;45.0;45.5;13;13.5;28.5;0.0;
15/02/2025 13:25:47;100;0;102.32;-4;-19.93;-5.19;965.6;10.80;75248;2834.987;-1757.546;1;104;-70;-72.6;45.0;45.4;13;13.5;28.5;0.0;
15/02/2025 13:26:07;100;0;102.22;-4;-19.94;-5.23;968.1;10.70;75242;2834.986;-1757.543;1;104;-70;-71.0;45.0;45.4;13;13.1;28.5;0.0;
15/02/2025 13:26:27;100;0;101.69;-4;-20.03;-5.13;970.7;10.80;75238;2834.986;-1757.539;1;104;-70;-72.6;45.0;45.4;13;13.5;28.5;0.0;
15/02/2025 13:26:47;100;0;101.07;-4;-20.54;-5.42;973.1;10.70;75234;2834.985;-1757.536;1;104;-70;-71.0;45.0;45.4;13;13.5;28.5;0.0;
15/02/2025 13:27:07;100;0;101.73;-4;-19.74;-5.21;975.7;10.70;75232;2834.985;-1757.532;1;104;-70;-74.2;45.0;45.4;13;13.5;28.5;0.0;
15/02/2025 13:27:27;100;0;105.62;-4;-20.51;-5.26;978.1;10.70;75225;2834.984;-1757.529;1;104;-70;-72.6;45.0;45.4;13;13.5;28.5;0.0;
15/02/2025 13:27:47;100;0;110.18;-4;-19.40;-5.16;980.7;10.70;75224;2834.983;-1757.525;1;104;-70;-72.6;45.0;45.4;13;13.5;28.5;0.0;
15/02/2025 13:28:07;100;0;111.42;-4;-19.59;-4.99;983.2;10.70;75219;2834.982;-1757.522;1;104;-70;-75.8;45.0;45.4;13;13.5;28.5;0.0;
15/02/2025 13:28:27;100;0;114.51;-4;-19.53;-5.45;985.6;10.70;75219;2834.981;-1757.519;1;104;-70;-72.6;45.0;45.4;15;15.3;28.5;0.0;
15/02/2025 13:28:47;100;0;115.00;-4;-20.10;-4.13;987.9;10.60;75208;2834.980;-1757.516;1;104;-70;-72.6;45.0;45.5;15;15.8;28.5;0.0;
15/02/2025 13:29:07;100;0;114.77;-4;-20.26;-3.97;990.3;10.60;75214;2834.979;-1757.513;1;104;-70;-72.6;45.0;45.4;15;15.8;28.5;0.0;
15/02/2025 13:29:27;100;0;114.59;-4;-20.06;-4.02;992.8;10.60;75207;2834.978;-1757.509;1;103;-70;-72.6;45.0;45.4;15;15.8;28.5;0.0;
15/02/2025 13:29:47;100;0;117.58;-4;-20.84;-4.15;995.6;10.60;75204;2834.976;-1757.506;1;103;-70;-72.6;45.0;45.5;19;19.4;28.5;0.0;
15/02/2025 13:30:07;100;0;118.09;-4;-20.90;-1.83;998.3;10.60;75205;2834.975;-1757.503;1;103;-70;-71.0;45.0;45.4;19;19.9;28.5;32.4;
15/02/2025 13:30:12;118;0;117.29;-4;-20.62;-1.84;999.0;10.50;75208;2834.975;-1757.502;1;103;150;-67.7;34.0;34.0;9;9.0;28.5;31.5;
15/02/2025 13:30:22;118;0;106.28;-4;-11.51;-8.18;1000.2;10.50;75174;2834.974;-1757.500;1;103;150;58.1;34.0;33.7;9;9.0;27.4;-1.0;
15/02/2025 13:30:32;118;0;101.52;-4;-0.30;-7.85;1000.8;10.50;74904;2834.974;-1757.500;1;103;150;153.2;34.0;33.6;9;8.6;27.2;-1.0;
15/02/2025 13:30:42;118;0;121.27;-4;2.20;-8.60;1000.8;10.50;74725;2834.974;-1757.500;1;103;150;151.6;34.0;33.6;9;9.0;28.5;-1.0;
15/02/2025 13:31:02;117;0;119.56;-4;2.75;-8.07;1000.7;10.50;74749;2834.974;-1757.500;1;103;150;153.2;34.0;33.6;9;9.0;28.5;-1.0;
15/02/2025 13:31:22;117;0;115.63;-4;2.45;-8.34;1000.4;10.50;74738;2834.975;-1757.500;1;103;150;153.2;28.7;28.4;69;69.0;28.5;-1.0;
15/02/2025 13:31:42;117;0;114.75;-4;20.69;23.52;999.8;10.50;74735;2834.974;-1757.499;1;103;150;153.2;28.7;28.9;32;32.0;28.5;-1.0;
15/02/2025 13:32:02;117;0;116.21;-4;18.60;3.79;998.6;10.50;74728;2834.974;-1757.498;1;103;150;153.2;28.3;28.3;30;29.3;28.5;-1.0;
15/02/2025 13:32:22;117;0;117.06;-4;19.88;2.58;997.5;10.50;74736;2834.973;-1757.496;1;103;150;154.8;28.3;27.7;30;29.3;28.5;-1.0;
15/02/2025 13:32:42;117;0;115.07;-4;20.10;2.60;996.4;10.50;74729;2834.973;-1757.495;1;103;150;153.2;28.3;27.7;30;29.3;28.5;-1.0;
15/02/2025 13:33:02;117;0;114.67;-4;20.75;2.53;995.2;10.50;74724;2834.973;-1757.493;1;103;150;153.2;28.3;27.5;30;29.3;28.5;-1.0;
15/02/2025 13:33:22;117;0;114.36;-4;20.14;2.60;994.0;10.50;74722;2834.972;-1757.492;1;103;150;154.8;28.3;27.7;32;32.0;28.5;-1.0;
15/02/2025 13:33:42;117;0;115.07;-4;20.63;4.04;992.6;10.50;74725;2834.972;-1757.490;1;103;150;154.8;28.3;27.5;32;32.0;28.5;-1.0;
15/02/2025 13:34:02;117;0;115.95;-4;20.38;3.99;991.2;10.40;74718;2834.971;-1757.488;1;103;150;154.8;28.3;28.3;30;29.3;28.5;-1.0;
15/02/2025 13:34:22;117;0;115.36;-4;19.11;2.53;989.8;10.40;74706;2834.970;-1757.487;1;103;150;154.8;28.3;28.4;30;29.3;28.5;-1.0;
15/02/2025 13:34:42;117;0;115.06;-4;18.75;2.65;988.5;10.40;74725;2834.970;-1757.485;1;103;150;153.2;27.9;28.0;30;29.3;28.5;-1.0;
15/02/2025 13:35:02;117;0;114.38;-4;20.08;2.56;987.1;10.40;74707;2834.969;-1757.483;1;103;150;154.8;27.9;27.5;30;29.3;28.5;-1.0;
15/02/2025 13:35:22;117;0;114.86;-4;20.30;2.59;985.6;10.40;74695;2834.969;-1757.481;1;103;150;153.2;27.9;27.5;30;29.3;28.5;-1.0;
15/02/2025 13:35:43;117;0;113.87;-4;19.78;2.59;984.2;10.40;74698;2834.968;-1757.479;1;103;150;154.8;27.9;27.7;30;29.3;28.5;-1.0;
15/02/2025 13:36:03;117;0;112.37;-4;19.70;2.58;982.8;10.40;74690;2834.967;-1757.478;1;103;150;154.8;27.9;27.5;32;32.0;28.5;-1.0;
15/02/2025 13:36:23;117;0;112.12;-4;20.70;4.45;981.3;10.30;74689;2834.967;-1757.476;1;103;150;151.6;27.9;27.5;32;32.5;28.5;-1.0;
15/02/2025 13:36:43;117;0;111.68;-4;21.05;4.29;979.9;10.30;74690;2834.966;-1757.474;1;103;170;171.0;27.9;27.5;32;32.5;28.5;-1.0;
15/02/2025 13:37:03;117;0;106.13;-4;20.02;4.39;978.4;10.30;74652;2834.966;-1757.472;1;103;190;193.5;27.9;27.5;32;32.5;28.5;-1.0;
15/02/2025 13:37:23;117;0;113.90;-4;19.98;4.14;976.8;10.30;74599;2834.965;-1757.470;1;103;210;212.9;27.9;27.5;32;32.9;28.5;-1.0;
15/02/2025 13:37:43;117;0;113.14;-4;19.87;4.46;975.2;10.30;74573;2834.965;-1757.468;1;103;230;230.6;27.9;27.5;32;32.5;28.5;-1.0;
15/02/2025 13:38:03;117;0;107.81;-4;17.69;4.42;973.5;10.30;74535;2834.964;-1757.465;1;103;250;251.6;27.2;27.1;32;32.5;28.5;-1.0;
15/02/2025 13:38:23;117;0;107.59;-4;19.96;4.70;971.8;10.30;74481;2834.964;-1757.463;1;103;270;272.6;27.2;26.5;32;32.5;28.5;-1.0;
15/02/2025 13:38:43;117;0;114.86;-4;20.48;4.49;969.7;10.20;74434;2834.963;-1757.460;1;103;270;272.6;27.2;27.4;29;28.9;28.5;-1.0;
15/02/2025 13:39:03;117;0;113.85;-4;19.12;2.42;967.8;10.30;74435;2834.962;-1757.458;1;103;290;291.9;27.2;27.4;29;28.4;28.5;-1.0;
15/02/2025 13:39:23;117;0;110.98;-4;17.46;2.69;965.8;10.30;74396;2834.961;-1757.455;1;103;310;312.9;26.5;26.5;31;31.6;28.5;-1.0;
15/02/2025 13:39:43;117;0;110.28;-4;19.15;4.14;964.0;10.20;74352;2834.960;-1757.452;1;103;330;330.6;26.5;26.2;31;31.6;28.5;-1.0;
15/02/2025 13:40:03;117;0;109.85;-4;19.34;3.96;961.8;10.30;74314;2834.960;-1757.449;1;103;330;332.3;26.5;25.9;31;31.6;28.5;-1.0;
15/02/2025 13:40:23;117;0;110.37;-4;19.18;3.85;959.6;10.30;74300;2834.959;-1757.446;1;103;330;332.3;26.5;25.9;31;31.6;28.5;-1.0;
15/02/2025 13:40:43;117;0;109.77;-4;19.60;4.02;957.4;10.30;74297;2834.958;-1757.443;1;103;330;330.6;26.5;25.9;31;31.6;28.5;-1.0;
15/02/2025 13:41:03;117;0;110.12;-4;19.49;4.07;955.2;10.20;74291;2834.957;-1757.440;1;103;330;333.9;26.5;25.9;31;31.6;28.5;-1.0;
15/02/2025 13:41:23;117;0;110.56;-4;19.04;4.12;953.0;10.20;74294;2834.956;-1757.437;1;103;330;333.9;26.5;25.9;31;31.6;28.5;-1.0;
15/02/2025 13:41:43;117;0;110.72;-4;19.40;4.00;950.8;10.20;74297;2834.955;-1757.434;1;103;330;333.9;26.5;25.9;31;31.6;28.5;-1.0;
15/02/2025 13:42:03;117;0;110.84;-4;19.49;4.04;948.4;10.20;74302;2834.954;-1757.431;1;103;330;332.3;26.5;25.9;31;31.6;28.5;-1.0;
15/02/2025 13:42:23;117;0;110.73;-4;18.83;3.90;946.1;10.20;74296;2834.954;-1757.428;1;103;330;332.3;26.1;26.1;31;31.6;28.5;-1.0;
15/02/2025 13:42:43;117;0;110.95;-4;19.18;3.94;943.8;10.20;74296;2834.953;-1757.425;1;103;330;332.3;26.1;25.9;31;31.6;28.5;-1.0;
15/02/2025 13:43:03;117;0;110.59;-4;19.28;4.08;941.4;10.20;74289;2834.952;-1757.421;1;103;330;333.9;26.1;26.1;31;31.6;28.5;-1.0;
15/02/2025 13:43:23;117;0;110.55;-4;19.45;4.07;938.8;10.20;74284;2834.951;-1757.418;1;103;330;330.6;26.1;25.9;31;31.6;28.5;-1.0;
15/02/2025 13:43:43;117;0;110.38;-4;19.73;4.13;936.2;10.20;74302;2834.950;-1757.414;1;103;330;333.9;26.1;25.9;31;31.6;28.5;-1.0;
15/02/2025 13:44:03;117;0;110.87;-4;19.04;4.12;933.5;10.20;74282;2834.948;-1757.410;1;103;330;332.3;26.1;25.9;31;31.6;28.5;-1.0;
15/02/2025 13:44:23;117;0;111.26;-4;18.97;3.99;930.8;10.20;74293;2834.947;-1757.407;1;103;330;332.3;25.8;25.8;31;31.6;28.5;-1.0;
15/02/2025 13:44:43;117;0;111.74;-4;19.18;4.05;928.2;10.10;74272;2834.946;-1757.403;1;103;330;333.9;25.8;25.2;31;31.6;28.5;-1.0;
15/02/2025 13:45:03;117;0;112.27;-4;21.28;4.06;925.7;10.10;74284;2834.945;-1757.400;1;103;330;332.3;25.8;25.3;31;31.6;28.5;-1.0;
15/02/2025 13:45:23;117;0;111.22;-4;20.51;4.08;923.1;10.10;74275;2834.944;-1757.397;1;103;330;333.9;25.8;25.2;31;31.6;28.5;-1.0;
15/02/2025 13:45:43;117;0;110.53;-4;21.02;3.98;920.6;10.10;74277;2834.943;-1757.393;1;103;330;335.5;25.8;25.2;31;31.6;28.5;-1.0;
15/02/2025 13:46:03;117;0;111.22;-4;21.07;4.14;918.0;10.10;74280;2834.942;-1757.390;1;103;330;332.3;25.8;25.2;31;31.6;28.5;-1.0;
15/02/2025 13:46:23;117;0;110.78;-4;20.53;4.18;915.4;10.10;74274;2834.941;-1757.387;1;103;330;333.9;25.8;25.2;31;31.6;28.5;-1.0;
15/02/2025 13:46:43;117;0;112.06;-4;20.41;3.92;913.0;10.10;74270;2834.940;-1757.384;1;102;330;333.9;25.8;25.2;31;31.6;28.5;-1.0;
15/02/2025 13:47:03;117;0;112.64;-4;20.66;4.00;910.5;10.10;74275;2834.939;-1757.380;1;102;330;332.3;25.8;25.2;31;31.6;28.5;-1.0;
15/02/2025 13:47:23;117;0;112.19;-4;21.02;4.41;908.1;10.10;74281;2834.938;-1757.377;1;102;330;332.3;25.8;25.2;31;31.6;28.5;-1.0;
15/02/2025 13:47:43;117;0;113.94;-4;20.29;4.07;905.7;10.10;74287;2834.937;-1757.374;1;102;330;330.6;25.8;25.8;29;28.9;28.5;-1.0;
15/02/2025 13:48:03;117;0;114.47;-4;20.01;2.65;903.2;10.10;74293;2834.936;-1757.371;1;102;330;332.3;25.8;25.9;29;28.9;28.5;-1.0;
15/02/2025 13:48:23;117;0;113.93;-4;19.65;2.55;900.7;10.10;74287;2834.935;-1757.368;1;102;330;333.9;25.8;25.9;29;28.4;28.5;-1.0;
15/02/2025 13:48:43;117;0;113.20;-4;19.44;2.44;898.3;10.10;74290;2834.934;-1757.364;1;102;330;333.9;25.8;26.1;29;28.4;28.5;-1.0;
15/02/2025 13:49:03;117;0;112.74;-4;19.70;2.73;895.8;10.10;74292;2834.933;-1757.361;1;102;330;332.3;25.8;25.9;29;28.9;28.5;-1.0;
15/02/2025 13:49:23;117;0;112.11;-4;18.08;2.58;893.4;10.00;74280;2834.932;-1757.358;1;102;330;332.3;25.2;25.2;29;28.9;28.5;-1.0;
15/02/2025 13:49:43;117;0;110.96;-4;21.44;2.52;891.1;10.10;74290;2834.931;-1757.355;1;102;330;333.9;25.2;24.7;29;28.9;28.5;-1.0;
15/02/2025 13:50:03;117;0;109.44;-4;22.12;2.55;888.4;10.00;74289;2834.930;-1757.351;1;102;330;333.9;25.9;25.9;31;32.0;28.5;-1.0;
15/02/2025 13:50:23;117;0;110.68;-4;20.06;4.41;885.8;10.10;74298;2834.929;-1757.348;1;102;330;333.9;25.9;26.2;31;32.0;28.5;-1.0;
