Timestamp;NavState;SecurityLevel;Heading;Declination;Pitch;Roll;Depth;Temperature;Pa;Lat;Lon;DeadReckoning;DesiredH;BallastCmd;BallastPos;LinCmd;LinPos;AngCmd;AngPos;Voltage;Altitude;
20/02/2025 03:44:52;119;0;49.86;-4;-60.36;0.30;0.1;19.00;76072;2837.613;-1758.735;0;149;500;508.1;100.0;100.6;0;-0.5;27.6;-1.0;
20/02/2025 03:45:02;116;0;32.25;-4;-58.70;-16.66;0.2;19.00;76065;2837.617;-1758.737;0;149;500;508.1;100.0;100.7;0;-0.5;27.6;-1.0;
20/02/2025 03:45:27;116;0;49.08;-4;-61.15;-3.89;0.1;19.00;76077;2837.620;-1758.740;0;149;500;508.1;100.0;100.6;0;-0.5;27.5;-1.0;
20/02/2025 03:45:43;116;0;48.41;-4;-57.87;-6.93;0.1;19.10;76073;2837.621;-1758.740;0;149;500;508.1;100.0;100.6;0;-0.5;27.5;-1.0;
20/02/2025 03:46:04;116;0;47.51;-4;-52.57;-4.97;0.1;19.10;76083;2837.623;-1758.742;0;149;500;508.1;100.0;100.6;0;-0.5;27.6;-1.0;
20/02/2025 03:46:24;116;0;51.40;-4;-53.01;-18.20;0.1;19.10;76083;2837.626;-1758.744;0;149;500;508.1;100.0;100.6;0;-0.5;27.6;-1.0;
20/02/2025 03:46:44;116;0;36.91;-4;-53.84;-1.04;0.0;19.20;76091;2837.628;-1758.746;0;149;500;508.1;100.0;100.6;0;-0.5;27.6;-1.0;
20/02/2025 03:46:55;116;0;24.30;-4;-53.30;-0.17;0.2;19.20;76095;2837.630;-1758.746;0;149;500;508.1;100.0;100.6;0;-0.5;27.5;-1.0;
20/02/2025 03:47:15;116;0;27.34;-4;-52.69;-18.19;0.1;19.20;76097;2837.632;-1758.748;0;149;500;509.7;100.0;100.6;0;-0.5;27.6;-1.0;
20/02/2025 03:47:29;116;0;34.27;-4;-55.05;-24.49;0.0;19.30;76095;2837.634;-1758.750;0;149;500;508.1;100.0;100.6;0;-0.5;27.6;-1.0;
20/02/2025 03:47:49;116;0;27.26;-4;-61.15;-8.08;0.0;19.30;76091;2837.637;-1758.751;0;149;500;508.1;100.0;100.6;0;-0.5;27.6;-1.0;
20/02/2025 03:48:47;116;0;61.83;-4;-51.99;-12.28;-0.1;19.50;76116;2837.645;-1758.758;0;149;500;506.5;100.0;100.6;0;-0.5;27.5;-1.0;
20/02/2025 03:49:01;116;0;52.48;-4;-59.09;-21.39;-0.1;19.50;76119;2837.647;-1758.760;0;149;500;508.1;100.0;100.6;0;-0.5;27.5;-1.0;
20/02/2025 03:49:12;116;0;49.58;-4;-53.91;3.19;0.1;19.50;76114;2837.649;-1758.761;0;149;500;508.1;100.0;100.6;0;-0.5;27.6;-1.0;
20/02/2025 03:49:32;110;0;46.96;-4;-55.52;-6.25;-0.1;19.60;76125;2837.649;-1758.761;0;149;-50;393.5;100.0;99.9;-11;-10.8;27.6;-1.0;
20/02/2025 03:49:42;110;0;41.85;-4;-54.15;-13.57;0.1;19.60;76474;2837.650;-1758.762;1;149;-50;243.5;100.0;99.9;-11;-11.3;27.5;-1.0;
20/02/2025 03:49:52;110;0;32.97;-4;-60.09;-29.46;0.5;19.60;76726;2837.651;-1758.762;1;149;-50;82.3;100.0;99.9;-11;-11.3;27.5;-1.0;
20/02/2025 03:50:02;110;0;26.29;-4;-74.29;-23.92;0.8;19.60;77061;2837.652;-1758.763;1;149;-50;-50.0;100.0;99.9;-11;-11.3;27.5;-1.0;
20/02/2025 03:50:12;110;0;17.28;-4;-68.58;-16.75;1.2;19.70;77318;2837.653;-1758.764;1;149;-50;-50.0;48.5;48.5;-11;-11.3;27.6;-1.0;
20/02/2025 03:50:32;100;0;34.12;-4;-34.22;-18.33;4.8;19.70;77298;2837.657;-1758.763;1;149;-50;-48.4;48.5;48.2;-11;-11.3;27.6;-1.0;
20/02/2025 03:50:52;100;0;44.88;-4;-27.24;-16.34;8.9;19.80;77305;2837.662;-1758.762;1;149;-50;-46.8;49.3;49.6;-70;-69.9;27.6;-1.0;
20/02/2025 03:51:12;100;0;55.22;-4;-34.00;-45.79;12.9;19.80;77306;2837.665;-1758.760;1;150;-50;-46.8;48.1;48.0;-70;-69.9;27.5;-1.0;
20/02/2025 03:51:32;100;0;64.15;-4;-29.54;-44.11;17.4;19.80;77307;2837.669;-1758.757;1;150;-50;-46.8;48.1;47.9;-70;-69.9;27.6;0.0;
20/02/2025 03:51:52;100;0;74.57;-4;-29.39;-44.50;21.4;19.90;77331;2837.672;-1758.755;1;150;-50;-46.8;48.1;47.9;-70;-69.9;27.6;0.0;
20/02/2025 03:52:12;100;0;86.69;-4;-30.26;-45.02;25.1;19.90;77322;2837.674;-1758.753;1;151;-50;-46.8;48.1;47.9;-62;-61.8;27.6;0.0;
20/02/2025 03:52:32;100;0;97.77;-4;-29.40;-40.73;28.8;19.90;77330;2837.675;-1758.750;1;151;-50;-45.2;48.1;47.9;-49;-48.7;27.6;0.0;
20/02/2025 03:52:52;100;0;110.27;-4;-29.84;-34.56;32.5;19.90;77335;2837.676;-1758.748;1;151;-50;-46.8;48.1;47.7;-33;-32.9;27.6;0.0;
20/02/2025 03:53:12;100;0;121.88;-4;-28.70;-26.55;36.0;19.90;77341;2837.676;-1758.746;1;151;-50;-46.8;48.5;48.6;-16;-15.3;27.6;0.0;
20/02/2025 03:53:32;100;0;127.74;-4;-30.80;-18.16;39.7;19.90;77351;2837.676;-1758.745;1;151;-50;-48.4;48.5;48.7;-4;-4.1;27.6;0.0;
20/02/2025 03:53:52;100;0;133.95;-4;-31.64;-12.88;43.7;19.90;77357;2837.676;-1758.744;1;151;-50;-46.8;48.5;48.7;4;4.1;27.6;0.0;
20/02/2025 03:54:12;100;0;134.61;-4;-31.62;-9.01;47.8;19.90;77365;2837.675;-1758.742;1;151;-50;-46.8;48.5;48.7;4;4.5;27.6;0.0;
20/02/2025 03:54:32;100;0;135.09;-4;-31.61;-9.17;51.8;19.90;77351;2837.675;-1758.741;1;151;-50;-46.8;48.5;48.7;4;4.5;27.6;0.0;
20/02/2025 03:54:52;100;0;132.96;-4;-30.93;-8.93;55.8;20.00;77365;2837.674;-1758.740;1;151;-50;-45.2;48.5;48.7;2;1.8;27.6;0.0;
20/02/2025 03:55:12;100;0;133.16;-4;-31.00;-10.54;59.5;19.90;77354;2837.674;-1758.738;1;151;-50;-45.2;48.5;48.7;2;1.4;27.6;0.0;
20/02/2025 03:55:32;100;0;129.05;-4;-31.60;-10.81;63.4;19.90;77354;2837.674;-1758.737;1;152;-50;-46.8;48.5;48.7;-4;-4.1;27.6;0.0;
20/02/2025 03:55:52;100;0;129.37;-4;-31.28;-13.65;67.3;19.90;77345;2837.673;-1758.736;1;152;-50;-46.8;48.5;48.9;-4;-4.1;27.5;0.0;
20/02/2025 03:56:12;100;0;131.96;-4;-30.92;-13.56;71.2;19.90;77357;2837.673;-1758.734;1;152;-50;-46.8;48.5;48.7;1;0.9;27.6;0.0;
20/02/2025 03:56:32;100;0;137.57;-4;-30.40;-10.79;74.9;19.90;77357;2837.672;-1758.733;1;152;-50;-45.2;48.5;48.7;7;7.2;27.5;0.0;
20/02/2025 03:56:52;100;0;139.18;-4;-31.85;-7.66;78.5;19.90;77357;2837.672;-1758.732;1;152;-50;-48.4;48.5;48.7;9;9.0;27.6;0.0;
20/02/2025 03:57:12;100;0;135.79;-4;-30.97;-6.65;82.5;19.90;77340;2837.671;-1758.731;1;152;-50;-45.2;48.5;48.7;6;5.4;27.6;0.0;
20/02/2025 03:57:32;100;0;133.76;-4;-31.33;-8.90;86.3;19.90;77347;2837.671;-1758.730;1;152;-50;-46.8;48.5;48.9;3;3.2;27.5;0.0;
20/02/2025 03:57:52;100;0;133.90;-4;-30.60;-9.93;90.1;19.90;77338;2837.671;-1758.728;1;152;-50;-45.2;48.5;48.7;3;3.2;27.6;0.0;
20/02/2025 03:58:12;100;0;137.19;-4;-30.76;-9.98;93.8;19.90;77344;2837.670;-1758.727;1;152;-50;-46.8;48.5;48.7;7;7.2;27.6;0.0;
20/02/2025 03:58:32;100;0;139.40;-4;-30.66;-7.38;97.6;19.90;77341;2837.669;-1758.726;1;152;-50;-46.8;48.5;48.9;9;9.5;27.6;0.0;
20/02/2025 03:58:52;100;0;141.50;-4;-31.01;-6.53;101.1;19.90;77341;2837.669;-1758.726;1;152;-50;-45.2;48.5;48.7;9;9.9;27.6;0.0;
20/02/2025 03:59:12;100;0;142.61;-4;-31.33;-6.37;104.9;19.90;77339;2837.668;-1758.725;1;152;-50;-45.2;48.5;48.7;9;9.9;27.6;0.0;
20/02/2025 03:59:32;100;0;143.76;-4;-31.35;-6.38;108.5;19.90;77347;2837.668;-1758.724;1;152;-50;-45.2;48.5;48.9;9;9.9;27.6;0.0;
20/02/2025 03:59:52;100;0;141.47;-4;-31.45;-6.50;112.3;19.90;77337;2837.667;-1758.723;1;152;-50;-46.8;48.5;48.7;9;9.9;27.6;0.0;
20/02/2025 04:00:12;100;0;143.04;-4;-31.67;-6.56;116.2;19.90;77343;2837.666;-1758.723;1;152;-50;-45.2;48.5;48.9;9;9.9;27.5;0.0;
20/02/2025 04:00:32;100;0;142.83;-4;-31.80;-6.53;120.1;19.80;77333;2837.665;-1758.722;1;152;-50;-48.4;48.5;48.7;9;9.9;27.6;0.0;
20/02/2025 04:00:52;100;0;138.90;-4;-31.69;-6.43;124.1;19.80;77320;2837.665;-1758.721;1;152;-50;-46.8;48.5;48.7;9;9.9;27.6;0.0;
20/02/2025 04:01:12;100;0;135.11;-4;-31.54;-6.49;128.0;19.80;77320;2837.664;-1758.720;1;152;-50;-45.2;48.5;48.7;4;4.1;27.6;0.0;
20/02/2025 04:01:32;100;0;132.68;-4;-30.57;-9.79;131.7;19.80;77305;2837.664;-1758.718;1;152;-50;-45.2;48.5;48.7;1;0.5;27.6;0.0;
20/02/2025 04:01:52;100;0;133.92;-4;-30.31;-11.28;135.4;19.80;77298;2837.664;-1758.717;1;152;-50;-46.8;48.5;48.9;3;3.2;27.6;0.0;
20/02/2025 04:02:12;100;0;132.95;-4;-30.93;-9.68;139.1;19.80;77292;2837.663;-1758.716;1;153;-50;-45.2;48.5;48.9;1;0.9;27.6;0.0;
20/02/2025 04:02:32;100;0;134.53;-4;-30.91;-11.41;142.7;19.80;77270;2837.663;-1758.715;1;153;-50;-45.2;48.5;48.7;4;4.1;27.6;0.0;
20/02/2025 04:02:52;100;0;147.35;-4;-29.93;-9.03;146.4;19.80;77250;2837.662;-1758.714;1;153;-50;-46.8;48.5;48.7;10;9.9;27.6;0.0;
20/02/2025 04:03:12;100;0;149.93;-4;-30.90;-6.32;150.0;19.70;77248;2837.661;-1758.714;1;153;-50;-45.2;48.5;48.7;10;10.4;27.6;0.0;
20/02/2025 04:03:32;100;0;154.47;-4;-30.90;-6.38;153.7;19.70;77221;2837.660;-1758.714;1;153;-50;-46.8;48.5;48.9;10;10.4;27.6;0.0;
20/02/2025 04:03:52;100;0;155.49;-4;-31.06;-6.38;157.4;19.70;77220;2837.660;-1758.714;1;153;-50;-46.8;48.5;48.7;12;12.2;27.6;0.0;
20/02/2025 04:04:12;100;0;149.79;-4;-32.06;-5.24;161.4;19.70;77214;2837.658;-1758.713;1;153;-50;-46.8;47.9;47.9;10;9.5;27.6;0.0;
20/02/2025 04:04:32;100;0;146.45;-4;-30.00;-6.77;165.4;19.60;77196;2837.657;-1758.712;1;153;-50;-46.8;47.9;47.7;10;9.5;27.5;0.0;
20/02/2025 04:04:52;100;0;144.45;-4;-29.45;-6.85;169.4;19.60;77179;2837.656;-1758.711;1;153;-50;-45.2;47.9;47.7;10;9.5;27.6;0.0;
20/02/2025 04:05:12;100;0;147.05;-4;-29.94;-7.09;173.2;19.60;77167;2837.655;-1758.711;1;153;-50;-45.2;47.9;47.7;10;9.5;27.5;0.0;
20/02/2025 04:05:32;100;0;151.32;-4;-28.90;-7.04;177.0;19.50;77160;2837.654;-1758.710;1;153;-50;-45.2;48.2;48.2;10;9.5;27.6;0.0;
20/02/2025 04:05:52;100;0;155.40;-4;-30.11;-6.67;180.9;19.50;77161;2837.653;-1758.710;1;153;-50;-45.2;48.2;48.5;12;12.2;27.6;0.0;
20/02/2025 04:06:12;100;0;158.72;-4;-30.16;-5.20;184.6;19.50;77149;2837.651;-1758.710;1;152;-50;-45.2;48.2;48.5;14;14.0;27.6;0.0;
20/02/2025 04:06:32;100;0;150.06;-4;-30.68;-4.57;188.5;19.50;77142;2837.650;-1758.710;1;152;-50;-45.2;48.2;48.5;11;10.8;27.5;0.0;
20/02/2025 04:06:52;100;0;149.53;-4;-29.49;-6.12;192.5;19.40;77129;2837.649;-1758.709;1;152;-50;-46.8;48.2;48.5;11;10.8;27.5;0.0;
20/02/2025 04:07:12;100;0;145.25;-4;-29.45;-6.13;196.3;19.40;77102;2837.648;-1758.708;1;152;-50;-45.2;48.2;48.5;11;10.8;27.6;0.0;
20/02/2025 04:07:27;118;0;147.68;-4;-30.02;-6.15;198.9;19.40;77086;2837.647;-1758.708;1;152;170;-41.9;22.4;22.4;11;10.8;27.6;0.0;
20/02/2025 04:07:37;118;0;132.25;-4;-16.69;-6.95;200.3;19.40;77056;2837.647;-1758.707;1;153;170;87.1;22.4;22.1;11;10.8;27.2;-1.0;
20/02/2025 04:07:47;118;0;127.79;-4;10.10;-6.67;200.9;19.40;76783;2837.647;-1758.706;1;153;170;174.2;22.4;21.9;11;10.8;27.2;-1.0;
20/02/2025 04:07:57;118;0;151.26;-4;22.94;-7.19;200.3;19.30;76607;2837.647;-1758.707;1;153;170;174.2;22.4;21.2;11;10.8;27.5;-1.0;
20/02/2025 04:08:17;117;0;147.10;-4;29.03;-7.05;198.2;19.30;76614;2837.648;-1758.707;1;153;170;172.6;22.4;21.1;11;10.8;27.6;-1.0;
20/02/2025 04:08:37;117;0;140.99;-4;29.58;-7.11;195.9;19.30;76597;2837.648;-1758.707;1;153;170;172.6;22.4;22.5;34;33.8;27.6;-1.0;
20/02/2025 04:08:57;117;0;143.09;-4;29.04;5.57;193.7;19.20;76604;2837.648;-1758.707;1;153;170;172.6;22.4;22.5;34;34.3;27.5;-1.0;
20/02/2025 04:09:17;117;0;143.86;-4;29.08;5.60;191.4;19.20;76602;2837.649;-1758.707;1;153;170;174.2;22.4;22.5;34;34.3;27.6;-1.0;
20/02/2025 04:09:37;117;0;140.62;-4;28.97;5.68;189.2;19.20;76610;2837.649;-1758.707;1;153;170;174.2;22.1;22.1;34;34.3;27.6;-1.0;
20/02/2025 04:09:57;117;0;148.02;-4;29.80;5.50;186.9;19.10;76618;2837.649;-1758.707;1;153;170;174.2;22.1;21.8;34;34.3;27.6;-1.0;
20/02/2025 04:10:17;117;0;150.49;-4;29.37;5.55;184.6;19.10;76622;2837.649;-1758.708;1;153;170;174.2;22.1;21.9;34;34.3;27.5;-1.0;
20/02/2025 04:10:37;117;0;151.10;-4;30.21;5.57;182.3;19.10;76620;2837.649;-1758.708;1;153;170;174.2;22.1;21.8;34;34.3;27.6;-1.0;
20/02/2025 04:10:57;117;0;148.19;-4;30.50;5.53;179.9;19.00;76617;2837.649;-1758.708;1;153;170;174.2;22.1;21.8;34;34.3;27.6;-1.0;
20/02/2025 04:11:17;117;0;146.27;-4;30.35;5.94;177.5;19.00;76628;2837.649;-1758.708;1;153;170;174.2;22.1;21.8;34;34.3;27.5;-1.0;
20/02/2025 04:11:37;117;0;141.51;-4;29.66;5.78;175.1;19.00;76627;2837.649;-1758.708;1;153;170;175.8;22.1;21.8;34;34.3;27.6;-1.0;
20/02/2025 04:11:57;117;0;137.49;-4;30.05;5.62;172.7;19.00;76626;2837.650;-1758.708;1;153;170;174.2;22.1;21.8;34;34.3;27.6;-1.0;
20/02/2025 04:12:17;117;0;131.89;-4;29.78;5.77;170.2;19.00;76626;2837.650;-1758.707;1;153;170;172.6;22.1;21.8;41;41.1;27.6;-1.0;
20/02/2025 04:12:37;117;0;134.93;-4;30.10;9.45;167.9;18.90;76629;2837.650;-1758.707;1;153;170;174.2;22.1;21.8;37;37.0;27.6;-1.0;
20/02/2025 04:12:57;117;0;136.43;-4;30.27;6.73;165.6;18.90;76630;2837.651;-1758.707;1;153;170;174.2;22.1;21.8;37;36.1;27.6;-1.0;
20/02/2025 04:13:17;117;0;138.87;-4;29.71;6.66;163.2;18.90;76627;2837.651;-1758.707;1;153;170;175.8;22.1;21.8;35;34.7;27.6;-1.0;
20/02/2025 04:13:37;117;0;137.43;-4;29.95;5.83;160.8;18.90;76627;2837.651;-1758.707;1;153;170;174.2;22.1;21.8;35;34.7;27.6;-1.0;
20/02/2025 04:13:57;117;0;134.76;-4;30.16;5.85;158.4;18.90;76629;2837.652;-1758.706;1;153;170;174.2;22.1;21.8;38;37.9;27.6;-1.0;
20/02/2025 04:14:17;117;0;133.35;-4;30.30;7.80;155.9;18.80;76623;2837.652;-1758.706;1;153;170;174.2;22.1;21.8;40;40.2;27.5;-1.0;
20/02/2025 04:14:37;117;0;136.76;-4;30.99;9.13;153.2;18.80;76629;2837.652;-1758.705;1;153;170;172.6;22.1;21.8;36;36.1;27.6;-1.0;
20/02/2025 04:14:57;117;0;141.93;-4;30.11;6.27;150.5;18.80;76635;2837.652;-1758.705;1;153;170;174.2;22.1;21.8;34;33.8;27.6;-1.0;
20/02/2025 04:15:17;117;0;147.12;-4;29.43;4.86;147.7;18.80;76630;2837.652;-1758.705;1;153;170;174.2;22.1;21.8;34;33.4;27.6;-1.0;
20/02/2025 04:15:37;117;0;146.31;-4;29.55;4.91;145.1;18.80;76650;2837.652;-1758.705;1;153;170;174.2;22.1;21.8;34;33.4;27.6;-1.0;
20/02/2025 04:15:57;117;0;143.12;-4;29.68;4.99;142.6;18.80;76640;2837.652;-1758.705;1;153;170;174.2;22.1;21.8;34;33.4;27.6;-1.0;
20/02/2025 04:16:17;117;0;140.11;-4;29.71;4.96;140.0;18.80;76646;2837.652;-1758.705;1;153;170;174.2;22.1;21.8;34;33.4;27.5;-1.0;
20/02/2025 04:16:37;117;0;137.02;-4;29.69;5.14;137.4;18.80;76655;2837.652;-1758.704;1;153;170;174.2;22.1;21.8;36;36.1;27.5;-1.0;
20/02/2025 04:16:57;117;0;134.51;-4;30.29;6.85;134.9;18.80;76656;2837.652;-1758.704;1;153;170;174.2;22.1;21.8;38;38.4;27.6;-1.0;
20/02/2025 04:17:17;117;0;132.11;-4;30.01;7.95;132.1;18.80;76650;2837.653;-1758.703;1;153;170;174.2;22.1;21.8;43;42.9;27.6;-1.0;
20/02/2025 04:17:37;117;0;129.36;-4;30.59;10.54;129.6;18.80;76665;2837.653;-1758.703;1;153;170;174.2;22.1;21.8;45;45.1;27.6;-1.0;
20/02/2025 04:17:57;117;0;128.05;-4;30.36;11.65;126.8;18.70;76660;2837.653;-1758.702;1;153;170;174.2;22.1;21.8;47;46.9;27.6;-1.0;
20/02/2025 04:18:17;117;0;128.61;-4;31.28;12.87;124.1;18.70;76668;2837.654;-1758.701;1;153;170;175.8;22.1;21.8;47;47.4;27.6;-1.0;
20/02/2025 04:18:37;117;0;131.22;-4;30.28;12.68;121.4;18.70;76683;2837.654;-1758.701;1;153;170;174.2;22.1;21.8;43;42.9;27.6;-1.0;
20/02/2025 04:18:57;117;0;136.96;-4;30.68;9.90;118.8;18.70;76697;2837.654;-1758.700;1;153;170;172.6;22.1;21.8;37;36.1;27.6;-1.0;
20/02/2025 04:19:17;117;0;139.75;-4;30.16;6.53;116.2;18.70;76714;2837.654;-1758.700;1;153;170;174.2;22.1;21.8;35;35.2;27.6;-1.0;
20/02/2025 04:19:37;117;0;141.12;-4;29.33;5.77;113.6;18.70;76720;2837.654;-1758.700;1;153;170;174.2;22.1;21.8;35;34.7;27.5;-1.0;
20/02/2025 04:19:57;117;0;144.95;-4;29.32;5.74;111.2;18.80;76736;2837.654;-1758.700;1;153;170;172.6;22.1;21.8;35;34.7;27.6;-1.0;
20/02/2025 04:20:17;117;0;147.43;-4;29.03;5.82;108.9;18.80;76747;2837.654;-1758.700;1;153;170;174.2;22.1;21.8;35;35.2;27.6;-1.0;
20/02/2025 04:20:37;117;0;144.79;-4;29.38;5.66;106.6;18.80;76759;2837.655;-1758.700;1;153;170;174.2;22.1;21.8;35;34.7;27.6;-1.0;
20/02/2025 04:20:57;117;0;145.51;-4;29.73;5.78;104.3;18.80;76762;2837.655;-1758.700;1;153;170;174.2;22.1;21.8;35;34.7;27.6;-1.0;
20/02/2025 04:21:17;117;0;146.04;-4;29.39;5.81;102.1;18.80;76765;2837.655;-1758.700;1;153;170;174.2;22.1;21.8;35;34.7;27.6;-1.0;
20/02/2025 04:21:37;117;0;145.40;-4;29.39;5.74;99.9;18.80;76780;2837.655;-1758.700;1;153;170;174.2;22.1;21.8;35;34.7;27.6;-1.0;
20/02/2025 04:21:57;117;0;143.93;-4;29.78;5.87;97.6;18.80;76777;2837.655;-1758.700;1;153;170;174.2;22.1;21.8;35;34.7;27.6;-1.0;
20/02/2025 04:22:17;117;0;140.25;-4;29.79;5.93;95.3;18.80;76788;2837.656;-1758.700;1;153;170;174.2;22.1;21.8;35;34.7;27.6;-1.0;
20/02/2025 04:22:37;117;0;140.82;-4;29.34;5.78;93.0;18.80;76790;2837.656;-1758.700;1;153;170;174.2;22.1;21.9;35;34.7;27.6;-1.0;
20/02/2025 04:22:57;117;0;142.08;-4;29.50;5.79;90.7;18.80;76793;2837.656;-1758.700;1;153;170;175.8;22.1;21.8;35;34.7;27.6;-1.0;
20/02/2025 04:23:17;117;0;140.58;-4;29.32;5.81;88.3;18.80;76803;2837.656;-1758.700;1;153;170;172.6;22.1;21.8;35;34.7;27.6;-1.0;
20/02/2025 04:23:37;117;0;139.32;-4;29.42;5.77;86.1;18.90;76799;2837.656;-1758.700;1;153;170;174.2;22.1;21.8;35;34.7;27.6;-1.0;
20/02/2025 04:23:57;117;0;138.15;-4;29.90;5.73;83.8;18.90;76805;2837.657;-1758.700;1;153;170;174.2;22.1;21.8;35;35.2;27.6;-1.0;
20/02/2025 04:24:17;117;0;137.10;-4;29.57;5.83;81.5;18.90;76808;2837.657;-1758.700;1;153;170;175.8;22.1;21.8;35;35.2;27.6;-1.0;
20/02/2025 04:24:37;117;0;135.74;-4;29.68;5.80;79.2;18.90;76811;2837.658;-1758.699;1;153;170;174.2;22.1;21.9;37;37.5;27.6;-1.0;
20/02/2025 04:24:57;117;0;133.77;-4;29.99;7.43;76.9;18.90;76821;2837.658;-1758.699;1;153;170;174.2;22.1;21.8;39;38.8;27.6;-1.0;
20/02/2025 04:25:17;117;0;132.78;-4;29.53;8.21;74.5;18.90;76831;2837.658;-1758.699;1;154;170;175.8;22.1;21.9;39;39.3;27.6;-1.0;
20/02/2025 04:25:37;117;0;130.34;-4;29.36;8.03;72.2;18.90;76822;2837.659;-1758.698;1;154;170;174.2;22.1;21.8;44;44.2;27.6;-1.0;
20/02/2025 04:25:57;117;0;132.06;-4;31.60;11.42;69.9;18.90;76828;2837.659;-1758.698;1;154;170;174.2;22.1;21.8;41;41.1;27.6;-1.0;
20/02/2025 04:26:17;117;0;133.13;-4;29.81;8.54;67.2;18.90;76833;2837.660;-1758.698;1;154;170;174.2;22.1;21.8;41;40.2;27.6;-1.0;
20/02/2025 04:26:37;117;0;132.08;-4;29.86;8.76;64.6;18.90;76847;2837.660;-1758.697;1;154;170;174.2;22.1;21.8;41;40.2;27.6;-1.0;
20/02/2025 04:26:57;117;0;132.29;-4;30.30;8.89;62.0;19.00;76838;2837.660;-1758.697;1;154;170;174.2;22.1;21.8;41;40.2;27.5;-1.0;
20/02/2025 04:27:17;117;0;133.03;-4;29.94;8.71;59.6;19.00;76846;2837.661;-1758.696;1;154;170;174.2;22.1;21.8;41;40.2;27.6;-1.0;
20/02/2025 04:27:37;117;0;131.20;-4;29.93;8.71;57.2;19.00;76848;2837.661;-1758.696;1;154;170;174.2;22.1;21.8;41;40.2;27.6;-1.0;
20/02/2025 04:27:57;117;0;129.93;-4;30.37;8.74;54.9;19.00;76853;2837.662;-1758.695;1;154;170;174.2;22.1;21.8;44;44.7;27.6;-1.0;
20/02/2025 04:28:17;117;0;130.11;-4;30.07;11.41;52.5;19.00;76866;2837.662;-1758.695;1;154;170;174.2;22.1;21.9;44;45.1;27.5;-1.0;
20/02/2025 04:28:37;117;0;130.94;-4;30.07;11.38;50.3;19.00;76864;2837.663;-1758.695;1;154;170;175.8;22.1;21.8;42;42.0;27.6;-1.0;
20/02/2025 04:28:57;117;0;133.17;-4;29.98;9.49;48.1;19.00;76869;2837.663;-1758.695;1;154;170;171.0;22.1;21.8;40;40.2;27.5;-1.0;
20/02/2025 04:29:17;117;0;135.73;-4;29.77;8.48;45.8;19.10;76867;2837.664;-1758.694;1;154;170;175.8;22.1;21.8;37;36.6;27.6;-1.0;
20/02/2025 04:29:37;117;0;139.28;-4;29.52;6.50;43.8;19.10;76877;2837.664;-1758.694;1;154;170;174.2;22.1;21.8;35;35.2;27.6;-1.0;
20/02/2025 04:29:57;117;0;139.86;-4;28.77;5.83;41.7;19.10;76879;2837.664;-1758.694;1;154;170;174.2;21.7;21.8;35;34.7;27.6;-1.0;
20/02/2025 04:30:17;117;0;140.03;-4;29.31;5.87;39.7;19.10;76889;2837.665;-1758.695;1;154;190;196.8;21.7;21.8;35;34.7;27.6;-1.0;
20/02/2025 04:30:37;117;0;137.38;-4;29.81;5.74;37.5;19.10;76842;2837.665;-1758.694;1;154;190;196.8;21.7;21.8;37;37.5;27.6;-1.0;
20/02/2025 04:30:57;117;0;136.65;-4;29.98;7.55;35.1;19.10;76874;2837.666;-1758.694;1;154;190;196.8;21.7;21.8;37;37.9;27.6;-1.0;
20/02/2025 04:31:17;117;0;137.75;-4;29.03;7.49;32.7;19.20;76874;2837.666;-1758.694;1;154;190;196.8;21.7;21.8;37;37.9;27.5;-1.0;
20/02/2025 04:31:37;117;0;136.32;-4;29.91;7.51;30.3;19.20;76871;2837.666;-1758.694;1;154;190;195.2;21.7;21.8;37;37.9;27.5;-1.0;
20/02/2025 04:31:57;117;0;137.39;-4;28.19;7.58;27.7;19.20;76870;2837.666;-1758.693;1;154;190;196.8;21.2;21.2;37;37.5;27.6;-1.0;
20/02/2025 04:32:17;117;0;142.13;-4;30.27;7.65;25.3;19.20;76878;2837.666;-1758.693;1;154;190;195.2;21.2;21.1;35;34.7;27.6;-1.0;
20/02/2025 04:32:37;117;0;138.94;-4;29.48;5.97;22.7;19.20;76878;2837.666;-1758.693;1;154;190;196.8;21.2;21.1;37;37.0;27.6;-1.0;
20/02/2025 04:32:57;117;0;135.05;-4;31.79;7.57;20.3;19.20;76876;2837.667;-1758.693;1;154;190;193.5;21.2;21.1;37;37.5;27.6;-1.0;
20/02/2025 04:33:17;117;0;132.81;-4;30.51;7.44;17.7;19.30;76877;2837.667;-1758.692;1;154;190;196.8;21.2;21.1;42;42.0;27.6;-1.0;
20/02/2025 04:33:37;117;0;129.26;-4;31.62;9.86;14.9;19.30;76882;2837.668;-1758.692;1;154;190;196.8;21.2;21.1;47;46.9;27.6;-1.0;
20/02/2025 04:33:57;117;0;128.74;-4;29.93;13.34;12.3;19.30;76892;2837.668;-1758.691;1;154;190;193.5;21.2;20.9;47;47.4;27.5;-1.0;
20/02/2025 04:34:17;117;0;134.61;-4;31.47;13.10;9.2;19.30;76878;2837.668;-1758.690;1;154;190;196.8;21.2;21.1;41;41.1;27.5;-1.0;
20/02/2025 04:34:37;117;0;131.62;-4;31.80;9.59;6.4;19.30;76881;2837.668;-1758.690;1;155;190;196.8;21.2;21.1;43;43.3;27.6;-1.0;
20/02/2025 04:34:57;117;0;132.23;-4;29.91;11.04;3.6;19.30;76890;2837.668;-1758.689;1;155;190;198.4;21.2;20.9;43;43.8;27.6;-1.0;
20/02/2025 04:35:01;115;0;132.80;-4;30.32;10.41;3.0;19.30;76887;2837.668;-1758.689;1;155;500;201.6;100.0;61.7;0;-0.5;27.6;-1.0;
20/02/2025 04:35:11;115;0;120.85;-4;13.15;-12.41;1.9;19.30;76861;2837.668;-1758.688;1;155;500;321.0;100.0;100.0;0;-0.5;27.3;-1.0;
20/02/2025 04:35:21;115;0;123.05;-4;-59.72;-15.33;2.3;19.40;76603;2837.669;-1758.688;1;155;500;441.9;100.0;100.4;0;-0.5;27.3;-1.0;
20/02/2025 04:35:31;115;0;114.80;-4;-66.66;-5.72;2.1;19.40;76351;2837.670;-1758.689;1;155;500;508.1;100.0;100.6;0;-0.5;27.4;-1.0;
20/02/2025 04:35:41;115;0;114.94;-4;-28.65;-4.03;-0.3;19.40;76212;2837.670;-1758.687;1;155;500;508.1;100.0;100.4;0;-0.5;27.5;-1.0;
20/02/2025 04:36:01;119;0;96.67;-4;-58.04;-17.55;0.2;19.40;76220;2837.670;-1758.687;1;155;500;509.7;100.0;100.6;0;-0.5;27.5;-1.0;
20/02/2025 04:36:11;119;0;78.20;-4;-45.04;-14.73;-0.1;19.40;76229;2837.621;-1758.724;0;155;500;509.7;100.0;100.7;0;-0.5;27.5;-1.0;
