Timestamp;NavState;SecurityLevel;Heading;Declination;Pitch;Roll;Depth;Temperature;Pa;Lat;Lon;DeadReckoning;DesiredH;BallastCmd;BallastPos;LinCmd;LinPos;AngCmd;AngPos;Voltage;Altitude;
16/02/2025 09:31:41;119;0;352.56;-4;-60.02;-7.73;0.1;17.90;75767;2837.345;-1801.496;0;35;500;509.7;100.0;100.7;0;-0.5;28.4;-1.0;
16/02/2025 09:31:51;116;0;17.79;-4;-56.15;-15.79;0.1;17.90;75778;2837.344;-1801.499;0;35;500;509.7;100.0;100.6;0;-0.5;28.4;-1.0;
16/02/2025 09:32:24;116;0;36.28;-4;-55.95;0.47;0.1;18.00;75778;2837.355;-1801.507;0;35;500;508.1;100.0;100.7;0;-0.5;28.4;-1.0;
16/02/2025 09:32:47;116;0;64.69;-4;-55.21;-4.12;0.2;18.00;75792;2837.357;-1801.507;0;-9999;500;509.7;100.0;100.7;0;-0.5;28.4;-1.0;
16/02/2025 09:33:05;116;0;45.86;-4;-51.43;-8.23;0.1;18.10;75801;2837.359;-1801.509;0;38;500;509.7;100.0;100.7;0;-0.5;28.4;-1.0;
16/02/2025 09:33:25;116;0;68.54;-4;-56.93;-1.25;0.1;18.20;75812;2837.362;-1801.509;0;39;500;508.1;100.0;100.7;0;-0.5;28.4;-1.0;
16/02/2025 09:34:28;116;0;78.20;-4;-49.09;-12.38;0.2;18.30;75835;2837.375;-1801.510;0;40;500;509.7;100.0;100.6;0;-0.5;28.4;-1.0;
16/02/2025 09:36:00;116;0;53.45;-4;-59.09;-9.01;0.2;18.70;75856;2837.390;-1801.515;0;42;500;509.7;100.0;100.7;0;-0.5;28.4;-1.0;
16/02/2025 09:37:16;116;0;13.12;-4;-56.99;2.79;0.1;19.00;75879;2837.403;-1801.517;0;45;500;506.5;100.0;100.6;0;-0.5;28.4;-1.0;
16/02/2025 09:37:36;110;0;39.29;-4;-47.12;-5.97;-0.1;19.10;75890;2837.403;-1801.517;0;48;-50;391.9;100.0;99.9;-9;-9.0;28.4;-1.0;
16/02/2025 09:37:46;110;0;66.41;-4;-60.76;-16.71;0.1;19.10;76243;2837.403;-1801.517;1;48;-50;241.9;100.0;99.7;-9;-9.0;28.4;-1.0;
16/02/2025 09:37:56;110;0;69.14;-4;-63.11;-23.06;0.4;19.20;76483;2837.403;-1801.517;1;48;-50;82.3;100.0;99.7;-9;-9.0;28.4;-1.0;
16/02/2025 09:38:06;110;0;63.22;-4;-72.41;-18.47;0.8;19.20;76822;2837.404;-1801.517;1;48;-50;-50.0;100.0;99.7;-9;-9.0;28.4;-1.0;
16/02/2025 09:38:16;110;0;23.84;-4;-65.09;-12.44;1.2;19.30;77087;2837.404;-1801.517;1;48;-50;-50.0;50.0;49.9;-9;-9.0;28.4;-1.0;
16/02/2025 09:38:36;100;0;54.19;-4;-34.63;-18.24;4.5;19.30;77048;2837.405;-1801.514;1;48;-50;-50.0;50.0;49.6;-9;-9.0;28.4;-1.0;
16/02/2025 09:38:56;100;0;58.51;-4;-35.19;-16.83;8.4;19.40;77066;2837.407;-1801.512;1;48;-50;-48.4;48.4;48.3;17;17.1;28.4;-1.0;
16/02/2025 09:39:16;100;0;59.69;-4;-32.72;-2.47;12.4;19.40;77072;2837.408;-1801.509;1;48;-50;-48.4;47.6;47.4;17;17.6;28.4;-1.0;
16/02/2025 09:39:36;100;0;58.96;-4;-30.67;-2.74;16.3;19.40;77075;2837.410;-1801.505;1;48;-50;-48.4;47.6;47.3;17;17.6;28.4;0.0;
16/02/2025 09:39:56;100;0;54.81;-4;-29.26;-2.68;20.1;19.50;77083;2837.412;-1801.502;1;47;-50;-48.4;47.6;47.1;15;14.9;28.4;0.0;
16/02/2025 09:40:16;100;0;53.50;-4;-29.96;-4.62;23.5;19.50;77083;2837.413;-1801.499;1;47;-50;-46.8;47.6;47.3;15;14.9;28.4;0.0;
16/02/2025 09:40:36;100;0;51.34;-4;-30.68;-4.33;27.2;19.50;77098;2837.415;-1801.497;1;47;-50;-46.8;47.6;47.1;15;14.4;28.4;0.0;
16/02/2025 09:40:56;100;0;53.63;-4;-30.72;-4.56;30.9;19.50;77094;2837.417;-1801.494;1;47;-50;-46.8;47.6;47.1;15;14.9;28.4;0.0;
16/02/2025 09:41:16;100;0;51.02;-4;-30.07;-4.40;34.6;19.50;77110;2837.419;-1801.491;1;47;-50;-46.8;47.6;47.1;15;14.4;28.4;0.0;
16/02/2025 09:41:36;100;0;44.29;-4;-30.40;-4.64;38.2;19.50;77108;2837.421;-1801.488;1;47;-50;-46.8;47.6;47.1;13;13.1;28.4;0.0;
16/02/2025 09:41:56;100;0;46.71;-4;-30.05;-5.08;42.1;19.50;77110;2837.424;-1801.486;1;47;-50;-45.2;47.6;47.1;13;13.1;28.4;0.0;
16/02/2025 09:42:16;100;0;44.02;-4;-29.58;-5.40;45.8;19.60;77119;2837.426;-1801.483;1;47;-50;-46.8;47.6;47.3;13;13.1;28.4;0.0;
16/02/2025 09:42:36;100;0;44.54;-4;-30.57;-5.34;49.6;19.60;77110;2837.428;-1801.480;1;47;-50;-46.8;47.6;47.1;13;13.1;28.4;0.0;
16/02/2025 09:42:56;100;0;40.29;-4;-29.51;-5.45;53.3;19.60;77130;2837.431;-1801.478;1;47;-50;-46.8;47.6;47.1;13;13.1;28.4;0.0;
16/02/2025 09:43:16;100;0;38.08;-4;-29.40;-5.31;56.9;19.60;77137;2837.433;-1801.476;1;48;-50;-46.8;47.6;47.1;10;9.9;28.4;0.0;
16/02/2025 09:43:36;100;0;38.86;-4;-29.53;-6.99;60.5;19.60;77137;2837.436;-1801.474;1;48;-50;-46.8;47.6;47.1;10;9.5;28.4;0.0;
16/02/2025 09:43:56;100;0;38.60;-4;-29.82;-7.13;64.0;19.60;77143;2837.438;-1801.471;1;48;-50;-46.8;47.6;47.1;10;9.5;28.4;0.0;
16/02/2025 09:44:16;100;0;37.29;-4;-29.16;-7.01;67.7;19.60;77145;2837.441;-1801.469;1;48;-50;-46.8;47.6;47.3;10;9.5;28.4;0.0;
16/02/2025 09:44:36;100;0;35.86;-4;-29.80;-7.10;71.2;19.60;77139;2837.443;-1801.467;1;48;-50;-46.8;47.6;47.3;8;8.1;28.4;0.0;
16/02/2025 09:44:56;100;0;32.88;-4;-28.83;-7.79;74.8;19.60;77131;2837.446;-1801.465;1;49;-50;-46.8;48.0;48.3;3;3.2;28.4;0.0;
16/02/2025 09:45:16;100;0;32.22;-4;-29.99;-10.33;78.3;19.60;77139;2837.448;-1801.463;1;49;-50;-46.8;48.0;48.3;3;2.7;28.4;0.0;
16/02/2025 09:45:36;100;0;32.77;-4;-30.69;-10.45;81.9;19.60;77142;2837.451;-1801.461;1;49;-50;-46.8;48.0;48.5;3;2.7;28.4;0.0;
16/02/2025 09:45:56;100;0;33.99;-4;-30.65;-10.43;85.6;19.60;77144;2837.454;-1801.459;1;50;-50;-45.2;48.0;48.5;3;2.7;28.4;0.0;
16/02/2025 09:46:16;100;0;35.14;-4;-30.35;-10.42;89.3;19.60;77144;2837.456;-1801.457;1;50;-50;-46.8;48.0;48.5;3;2.7;28.4;0.0;
16/02/2025 09:46:36;100;0;36.98;-4;-30.52;-10.41;92.9;19.60;77158;2837.459;-1801.455;1;50;-50;-45.2;48.0;48.3;7;7.2;28.4;0.0;
16/02/2025 09:46:56;100;0;37.32;-4;-30.75;-7.84;96.6;19.60;77153;2837.461;-1801.453;1;51;-50;-46.8;48.0;48.5;7;7.7;28.4;0.0;
16/02/2025 09:47:16;100;0;35.71;-4;-30.50;-7.88;100.2;19.60;77147;2837.464;-1801.451;1;51;-50;-46.8;48.0;48.5;4;4.1;28.4;0.0;
16/02/2025 09:47:36;100;0;34.77;-4;-30.86;-10.00;103.8;19.60;77158;2837.466;-1801.449;1;51;-50;-46.8;48.0;48.5;2;1.8;28.4;0.0;
16/02/2025 09:47:56;100;0;36.77;-4;-30.49;-10.77;107.4;19.60;77156;2837.469;-1801.447;1;52;-50;-46.8;48.0;48.5;4;4.5;28.4;0.0;
16/02/2025 09:48:16;100;0;36.47;-4;-30.76;-9.25;111.0;19.60;77147;2837.471;-1801.445;1;52;-50;-45.2;48.0;48.5;4;5.0;28.4;0.0;
16/02/2025 09:48:36;100;0;34.74;-4;-30.52;-9.39;114.7;19.60;77156;2837.473;-1801.443;1;53;-50;-46.8;48.0;48.5;-1;-1.4;28.4;0.0;
16/02/2025 09:48:56;100;0;37.86;-4;-30.03;-12.52;118.2;19.60;77168;2837.476;-1801.441;1;53;-50;-46.8;48.0;48.5;4;4.5;28.4;0.0;
16/02/2025 09:49:16;100;0;40.61;-4;-30.53;-9.45;121.6;19.60;77171;2837.478;-1801.439;1;53;-50;-46.8;48.0;48.5;7;7.2;28.4;0.0;
16/02/2025 09:49:36;100;0;40.48;-4;-30.57;-8.12;125.2;19.60;77157;2837.480;-1801.436;1;54;-50;-46.8;48.0;48.5;7;7.2;28.4;0.0;
16/02/2025 09:49:56;100;0;40.92;-4;-30.61;-8.18;128.5;19.60;77168;2837.482;-1801.434;1;54;-50;-46.8;48.0;48.5;7;7.2;28.4;0.0;
16/02/2025 09:50:16;100;0;41.22;-4;-30.33;-8.10;131.9;19.60;77173;2837.485;-1801.432;1;54;-50;-46.8;48.0;48.5;7;7.2;28.4;0.0;
16/02/2025 09:50:36;100;0;45.61;-4;-31.25;-8.13;135.2;19.60;77163;2837.487;-1801.430;1;55;-50;-48.4;48.0;48.5;10;9.9;28.4;0.0;
16/02/2025 09:50:56;100;0;51.55;-4;-31.60;-6.60;138.6;19.60;77149;2837.488;-1801.427;1;55;-50;-46.8;48.0;48.5;12;12.2;28.4;0.0;
16/02/2025 09:51:16;100;0;54.36;-4;-32.35;-5.44;142.2;19.60;77119;2837.490;-1801.425;1;55;-50;-46.8;47.3;47.3;12;12.6;28.4;0.0;
16/02/2025 09:51:36;100;0;59.91;-4;-29.30;-5.46;145.7;19.60;77080;2837.491;-1801.422;1;54;-50;-46.8;47.3;47.1;12;12.6;28.4;0.0;
16/02/2025 09:51:56;100;0;65.56;-4;-28.83;-5.44;148.8;19.50;77053;2837.493;-1801.419;1;54;-50;-46.8;47.6;47.9;17;17.1;28.4;0.0;
16/02/2025 09:52:16;100;0;71.08;-4;-29.73;-3.14;151.9;19.50;77037;2837.493;-1801.416;1;53;-50;-48.4;47.6;47.7;26;26.2;28.4;0.0;
16/02/2025 09:52:36;100;0;64.79;-4;-29.48;1.13;154.9;19.50;77009;2837.495;-1801.413;1;53;-50;-46.8;47.6;47.9;17;16.7;28.5;0.0;
16/02/2025 09:52:56;100;0;60.27;-4;-29.30;-3.74;157.8;19.40;76999;2837.496;-1801.410;1;53;-50;-45.2;47.6;47.7;14;13.5;28.4;0.0;
16/02/2025 09:53:16;100;0;58.86;-4;-29.42;-5.24;160.7;19.40;76980;2837.497;-1801.408;1;53;-50;-45.2;47.6;47.7;14;13.5;28.4;0.0;
16/02/2025 09:53:36;100;0;60.04;-4;-29.62;-5.20;163.7;19.40;76970;2837.498;-1801.405;1;52;-50;-48.4;47.6;47.9;14;13.5;28.4;0.0;
16/02/2025 09:53:56;100;0;54.71;-4;-28.91;-5.18;166.8;19.30;76949;2837.500;-1801.403;1;52;-50;-46.8;48.0;48.0;14;13.5;28.4;0.0;
16/02/2025 09:54:16;100;0;54.90;-4;-29.61;-5.22;169.7;19.30;76932;2837.501;-1801.400;1;52;-50;-45.2;48.0;48.3;14;13.5;28.4;0.0;
16/02/2025 09:54:36;100;0;59.03;-4;-30.09;-5.16;172.9;19.30;76927;2837.503;-1801.398;1;52;-50;-48.4;48.0;48.3;14;13.5;28.4;0.0;
16/02/2025 09:54:56;100;0;62.08;-4;-29.86;-5.12;176.0;19.20;76912;2837.504;-1801.395;1;51;-50;-46.8;48.0;48.3;17;17.6;28.4;0.0;
16/02/2025 09:55:16;100;0;60.82;-4;-30.49;-2.81;179.1;19.20;76905;2837.505;-1801.392;1;51;-50;-46.8;48.0;48.3;17;18.1;28.4;0.0;
16/02/2025 09:55:36;100;0;52.80;-4;-29.74;-2.95;182.3;19.20;76887;2837.507;-1801.390;1;51;-50;-46.8;48.0;48.2;13;12.6;28.4;0.0;
16/02/2025 09:55:56;100;0;48.34;-4;-29.85;-5.69;185.3;19.10;76875;2837.509;-1801.387;1;51;-50;-46.8;48.0;48.3;13;12.6;28.4;0.0;
16/02/2025 09:56:16;100;0;52.84;-4;-30.40;-5.59;188.4;19.10;76871;2837.510;-1801.385;1;51;-50;-46.8;48.0;48.2;13;12.6;28.4;0.0;
16/02/2025 09:56:36;100;0;53.38;-4;-29.82;-5.62;191.6;19.00;76851;2837.512;-1801.382;1;51;-50;-46.8;48.0;48.3;13;12.6;28.4;0.0;
16/02/2025 09:56:56;100;0;48.66;-4;-29.36;-5.58;194.6;19.00;76830;2837.514;-1801.380;1;51;-50;-45.2;48.0;48.3;13;12.6;28.4;0.0;
16/02/2025 09:57:16;100;0;46.67;-4;-29.24;-5.62;197.7;19.00;76820;2837.516;-1801.378;1;51;-50;-46.8;48.0;48.3;13;12.6;28.4;0.0;
16/02/2025 09:57:25;118;0;45.05;-4;-29.33;-5.63;198.9;19.00;76827;2837.516;-1801.377;1;51;150;-41.9;34.0;34.0;9;8.6;28.4;0.0;
16/02/2025 09:57:35;118;0;63.54;-4;-19.33;-8.22;199.9;18.90;76788;2837.517;-1801.376;1;51;150;87.1;34.0;33.7;9;9.0;28.0;-1.0;
16/02/2025 09:57:45;118;0;61.13;-4;-6.61;-8.07;200.6;18.90;76522;2837.517;-1801.374;1;50;150;154.8;34.0;33.6;9;8.6;28.0;-1.0;
16/02/2025 09:57:55;118;0;44.52;-4;-2.90;-8.12;200.6;18.90;76393;2837.517;-1801.374;1;50;150;154.8;34.0;33.4;9;8.6;28.4;-1.0;
16/02/2025 09:58:15;117;0;40.85;-4;-1.74;-8.11;200.1;18.90;76382;2837.518;-1801.374;1;50;150;153.2;34.0;33.4;9;9.0;28.4;-1.0;
16/02/2025 09:58:35;117;0;35.22;-4;-2.18;-8.37;199.4;18.80;76382;2837.518;-1801.374;1;50;150;153.2;24.3;24.0;36;36.1;28.4;-1.0;
16/02/2025 09:58:55;117;0;35.45;-4;25.45;6.99;198.5;18.80;76387;2837.519;-1801.373;1;51;150;156.5;23.0;22.8;39;38.8;28.4;-1.0;
16/02/2025 09:59:15;117;0;37.54;-4;28.53;8.20;196.7;18.80;76376;2837.520;-1801.372;1;51;150;156.5;22.5;22.2;37;37.0;28.4;-1.0;
16/02/2025 09:59:35;117;0;38.74;-4;29.24;6.69;194.4;18.70;76367;2837.522;-1801.371;1;52;150;156.5;22.5;22.2;37;36.6;28.4;-1.0;
16/02/2025 09:59:55;117;0;40.35;-4;29.08;6.60;192.1;18.70;76369;2837.523;-1801.369;1;53;150;156.5;22.5;22.2;37;36.6;28.4;-1.0;
16/02/2025 10:00:15;117;0;45.38;-4;29.24;6.73;189.7;18.60;76366;2837.525;-1801.367;1;53;150;156.5;22.5;22.2;32;32.0;28.4;-1.0;
16/02/2025 10:00:35;117;0;44.72;-4;28.35;4.10;187.3;18.60;76365;2837.526;-1801.366;1;54;150;156.5;22.0;22.1;32;31.6;28.4;-1.0;
16/02/2025 10:00:55;117;0;40.29;-4;29.17;4.19;185.0;18.50;76370;2837.528;-1801.364;1;55;150;158.1;22.0;21.8;38;37.9;28.4;-1.0;
16/02/2025 10:01:15;117;0;38.05;-4;29.95;7.73;182.6;18.50;76372;2837.529;-1801.363;1;56;150;158.1;22.0;21.8;43;42.9;28.4;-1.0;
16/02/2025 10:01:35;117;0;41.70;-4;30.74;10.26;180.4;18.50;76371;2837.531;-1801.361;1;57;150;158.1;22.0;21.8;39;38.4;28.4;-1.0;
16/02/2025 10:01:55;117;0;44.87;-4;30.43;7.38;178.0;18.50;76374;2837.532;-1801.360;1;58;150;158.1;22.0;21.8;37;36.6;28.4;-1.0;
16/02/2025 10:02:15;117;0;48.74;-4;30.07;6.66;175.4;18.40;76385;2837.534;-1801.358;1;59;150;158.1;22.0;21.8;34;33.4;28.4;-1.0;
16/02/2025 10:02:35;117;0;48.71;-4;29.56;5.10;173.1;18.40;76383;2837.535;-1801.356;1;60;150;158.1;22.0;21.8;34;33.8;28.4;-1.0;
16/02/2025 10:02:55;117;0;44.79;-4;29.53;5.07;170.7;18.40;76375;2837.536;-1801.354;1;62;150;158.1;22.0;21.8;42;42.0;28.4;-1.0;
16/02/2025 10:03:15;117;0;42.76;-4;30.18;9.86;168.5;18.40;76392;2837.538;-1801.353;1;65;150;158.1;22.0;21.8;51;51.0;28.4;-1.0;
16/02/2025 10:03:35;117;0;42.13;-4;30.78;14.71;166.2;18.30;76391;2837.539;-1801.351;1;68;150;158.1;22.0;21.8;57;56.9;28.4;-1.0;
16/02/2025 10:03:55;117;0;42.51;-4;32.30;18.30;163.7;18.30;76400;2837.541;-1801.350;1;72;150;156.5;22.7;22.8;63;63.2;28.4;-1.0;
16/02/2025 10:04:15;117;0;49.49;-4;30.87;21.60;161.2;18.30;76401;2837.542;-1801.348;1;77;150;158.1;22.7;23.0;60;60.0;28.4;-1.0;
16/02/2025 10:04:35;117;0;50.67;-4;30.15;19.12;158.8;18.30;76413;2837.543;-1801.346;1;84;150;158.1;22.7;22.8;69;69.0;28.4;-1.0;
16/02/2025 10:04:55;117;0;54.73;-4;31.67;25.19;156.5;18.30;76419;2837.544;-1801.344;1;94;150;158.1;22.7;23.0;69;69.5;28.4;-1.0;
16/02/2025 10:05:15;117;0;60.99;-4;32.09;25.24;154.1;18.30;76427;2837.545;-1801.343;1;108;150;158.1;23.4;23.4;69;69.5;28.4;-1.0;
16/02/2025 10:05:35;117;0;68.62;-4;30.44;25.41;151.6;18.20;76430;2837.546;-1801.340;1;136;150;159.7;23.4;23.6;69;69.5;28.4;-1.0;
16/02/2025 10:05:55;117;0;73.89;-4;30.05;25.13;149.2;18.20;76434;2837.547;-1801.338;1;182;150;158.1;23.4;23.6;69;69.5;28.4;-1.0;
16/02/2025 10:06:15;117;0;77.42;-4;30.12;25.01;146.8;18.20;76423;2837.547;-1801.336;1;216;150;158.1;23.4;23.6;69;69.5;28.4;-1.0;
16/02/2025 10:06:35;117;0;74.88;-4;30.13;25.06;144.3;18.20;76440;2837.548;-1801.333;1;230;150;158.1;23.4;23.6;69;69.5;28.4;-1.0;
16/02/2025 10:06:55;117;0;74.67;-4;30.17;25.04;141.9;18.20;76452;2837.548;-1801.331;1;237;150;156.5;23.4;23.6;69;69.5;28.4;-1.0;
16/02/2025 10:07:15;117;0;76.01;-4;29.87;25.04;139.5;18.20;76463;2837.548;-1801.329;1;241;150;158.1;23.4;23.6;69;69.5;28.4;-1.0;
16/02/2025 10:07:35;117;0;78.95;-4;29.93;25.06;137.2;18.20;76472;2837.549;-1801.326;1;245;150;158.1;23.4;23.6;69;69.5;28.4;-1.0;
16/02/2025 10:07:55;117;0;81.23;-4;29.77;25.03;134.8;18.20;76479;2837.549;-1801.324;1;247;150;158.1;23.4;23.6;69;69.5;28.4;-1.0;
16/02/2025 10:08:15;117;0;83.67;-4;29.47;25.02;132.5;18.20;76490;2837.549;-1801.322;1;250;150;158.1;23.4;23.6;69;69.5;28.4;-1.0;
16/02/2025 10:08:35;117;0;83.25;-4;29.45;24.84;130.2;18.20;76513;2837.549;-1801.319;1;252;150;158.1;23.4;23.6;69;69.5;28.4;-1.0;
16/02/2025 10:08:55;117;0;77.94;-4;29.71;24.95;128.0;18.20;76540;2837.550;-1801.317;1;252;150;158.1;23.4;23.6;69;69.5;28.4;-1.0;
16/02/2025 10:09:15;117;0;76.68;-4;29.29;24.84;126.0;18.20;76556;2837.550;-1801.315;1;253;150;158.1;23.4;23.6;69;69.5;28.4;-1.0;
16/02/2025 10:09:35;117;0;78.69;-4;29.87;25.07;123.9;18.20;76589;2837.551;-1801.313;1;253;150;158.1;23.4;23.7;69;69.5;28.4;-1.0;
16/02/2025 10:09:55;117;0;83.73;-4;29.28;25.09;121.7;18.20;76612;2837.551;-1801.311;1;254;150;158.1;23.4;23.7;69;69.5;28.4;-1.0;
16/02/2025 10:10:15;117;0;87.04;-4;29.24;25.07;119.6;18.30;76621;2837.551;-1801.309;1;255;150;158.1;23.4;23.7;69;69.5;28.4;-1.0;
16/02/2025 10:10:35;117;0;90.44;-4;29.50;25.07;117.6;18.30;76639;2837.551;-1801.307;1;256;150;156.5;23.4;23.6;69;69.5;28.4;-1.0;
16/02/2025 10:10:55;117;0;95.66;-4;29.63;25.15;115.6;18.30;76652;2837.550;-1801.305;1;258;150;158.1;23.4;23.6;69;69.5;28.4;-1.0;
16/02/2025 10:11:15;117;0;99.12;-4;29.67;25.10;113.5;18.30;76660;2837.550;-1801.303;1;259;150;156.5;23.4;23.6;69;69.5;28.4;-1.0;
16/02/2025 10:11:35;117;0;103.32;-4;29.42;25.13;111.4;18.30;76665;2837.550;-1801.301;1;260;150;158.1;23.4;23.6;69;69.5;28.4;-1.0;
16/02/2025 10:11:55;117;0;108.69;-4;29.25;25.07;109.3;18.40;76673;2837.549;-1801.299;1;262;150;158.1;23.4;23.6;69;69.5;28.4;-1.0;
16/02/2025 10:12:15;117;0;113.91;-4;29.57;25.26;107.1;18.40;76669;2837.548;-1801.297;1;264;150;158.1;23.4;23.6;69;69.5;28.4;-1.0;
16/02/2025 10:12:35;117;0;121.17;-4;28.99;25.11;105.1;18.40;76688;2837.547;-1801.295;1;265;150;159.7;23.1;23.0;69;69.5;28.4;-1.0;
16/02/2025 10:12:55;117;0;125.87;-4;30.75;25.08;103.2;18.40;76692;2837.546;-1801.293;1;267;170;172.6;23.1;22.8;69;69.5;28.4;-1.0;
16/02/2025 10:13:15;117;0;129.29;-4;30.37;25.09;101.0;18.50;76679;2837.545;-1801.292;1;269;170;172.6;23.1;22.8;69;69.5;28.4;-1.0;
16/02/2025 10:13:35;117;0;132.49;-4;30.23;25.07;98.8;18.50;76679;2837.543;-1801.290;1;271;170;171.0;23.1;22.8;69;69.5;28.4;-1.0;
16/02/2025 10:13:55;117;0;137.54;-4;30.09;25.07;96.5;18.50;76689;2837.542;-1801.289;1;273;170;172.6;23.1;22.8;69;69.5;28.4;-1.0;
16/02/2025 10:14:15;117;0;142.19;-4;30.51;25.16;94.2;18.50;76700;2837.540;-1801.287;1;275;170;172.6;23.1;22.8;69;69.5;28.4;-1.0;
16/02/2025 10:14:35;117;0;147.08;-4;29.96;25.09;91.8;18.50;76703;2837.538;-1801.286;1;277;170;174.2;23.1;22.8;69;69.5;28.4;-1.0;
16/02/2025 10:14:55;117;0;151.77;-4;29.93;25.13;89.5;18.60;76713;2837.537;-1801.285;1;279;170;174.2;23.1;22.8;69;69.5;28.4;-1.0;
16/02/2025 10:15:15;117;0;157.06;-4;29.99;25.07;87.1;18.60;76716;2837.535;-1801.284;1;281;170;174.2;23.1;22.8;69;69.5;28.4;-1.0;
16/02/2025 10:15:35;117;0;160.93;-4;29.87;25.08;84.7;18.60;76721;2837.533;-1801.283;1;283;170;172.6;23.1;22.8;69;69.5;28.4;-1.0;
16/02/2025 10:15:55;117;0;164.86;-4;30.02;25.15;82.4;18.60;76719;2837.531;-1801.283;1;285;170;172.6;23.1;22.8;69;69.5;28.4;-1.0;
16/02/2025 10:16:15;117;0;169.91;-4;30.08;25.05;80.1;18.60;76730;2837.528;-1801.282;1;288;170;172.6;23.1;22.8;69;69.5;28.4;-1.0;
16/02/2025 10:16:35;117;0;175.08;-4;30.20;25.16;77.7;18.60;76727;2837.526;-1801.282;1;290;170;171.0;23.1;22.8;69;69.0;28.4;-1.0;
16/02/2025 10:16:55;117;0;179.55;-4;30.06;25.10;75.4;18.70;76740;2837.524;-1801.282;1;292;170;172.6;23.1;22.8;69;69.5;28.4;-1.0;
16/02/2025 10:17:15;117;0;181.84;-4;30.31;25.16;73.1;18.70;76744;2837.522;-1801.282;1;294;170;172.6;23.1;22.8;69;69.5;28.4;-1.0;
16/02/2025 10:17:35;117;0;185.09;-4;30.38;25.03;70.7;18.70;76751;2837.520;-1801.283;1;296;170;174.2;23.1;22.8;69;69.5;28.4;-1.0;
16/02/2025 10:17:55;117;0;188.08;-4;30.22;25.21;68.3;18.70;76758;2837.518;-1801.283;1;298;170;172.6;23.1;22.8;69;69.5;28.4;-1.0;
16/02/2025 10:18:15;117;0;191.90;-4;30.23;25.14;65.8;18.80;76767;2837.516;-1801.283;1;301;170;174.2;23.1;22.8;69;69.5;28.4;-1.0;
16/02/2025 10:18:35;117;0;196.31;-4;29.93;25.24;63.2;18.80;76772;2837.513;-1801.284;1;303;170;172.6;23.1;22.8;69;69.5;28.4;-1.0;
16/02/2025 10:18:55;117;0;200.57;-4;29.77;25.14;60.8;18.80;76781;2837.511;-1801.285;1;305;170;172.6;23.1;22.8;69;69.5;28.4;-1.0;
16/02/2025 10:19:15;117;0;203.95;-4;29.99;25.09;58.3;18.80;76790;2837.509;-1801.286;1;307;170;174.2;23.1;22.8;69;69.5;28.4;-1.0;
16/02/2025 10:19:35;117;0;208.16;-4;30.25;25.14;55.8;18.90;76788;2837.507;-1801.287;1;310;170;172.6;23.1;22.8;69;69.5;28.4;-1.0;
16/02/2025 10:19:55;117;0;212.76;-4;29.79;25.04;53.2;18.90;76793;2837.505;-1801.289;1;312;170;172.6;23.1;22.8;69;69.5;28.4;-1.0;
16/02/2025 10:20:15;117;0;216.96;-4;29.77;25.29;50.6;18.90;76792;2837.503;-1801.290;1;314;170;174.2;23.1;22.8;69;69.5;28.4;-1.0;
16/02/2025 10:20:35;117;0;220.98;-4;29.88;25.09;48.0;18.90;76800;2837.502;-1801.292;1;316;170;172.6;23.1;22.8;69;69.5;28.4;-1.0;
16/02/2025 10:20:55;117;0;224.57;-4;30.23;25.25;45.6;18.90;76805;2837.500;-1801.294;1;319;170;174.2;23.1;22.8;69;69.5;28.4;-1.0;
16/02/2025 10:21:15;117;0;227.81;-4;29.57;25.08;43.1;19.00;76804;2837.499;-1801.296;1;321;170;172.6;23.1;22.8;69;69.5;28.4;-1.0;
16/02/2025 10:21:35;117;0;232.80;-4;29.92;25.35;40.5;19.00;76800;2837.497;-1801.298;1;323;170;174.2;23.1;22.8;69;69.5;28.4;-1.0;
16/02/2025 10:21:55;117;0;237.19;-4;30.18;25.30;38.1;19.00;76811;2837.496;-1801.300;1;325;170;172.6;23.1;22.8;69;69.5;28.4;-1.0;
16/02/2025 10:22:15;117;0;243.64;-4;30.29;25.30;35.5;19.00;76818;2837.495;-1801.302;1;328;170;172.6;23.1;22.8;69;69.5;28.4;-1.0;
16/02/2025 10:22:35;117;0;246.77;-4;29.98;25.00;32.9;19.00;76820;2837.494;-1801.305;1;330;170;174.2;23.1;22.8;69;69.5;28.4;-1.0;
16/02/2025 10:22:55;117;0;254.46;-4;29.31;25.32;30.3;19.00;76825;2837.493;-1801.308;1;332;170;172.6;23.1;22.8;69;69.5;28.4;-1.0;
16/02/2025 10:23:15;117;0;258.20;-4;29.53;25.27;27.7;19.10;76829;2837.493;-1801.310;1;335;170;172.6;23.1;22.8;69;69.5;28.4;-1.0;
16/02/2025 10:23:35;117;0;263.46;-4;30.66;25.06;25.2;19.10;76834;2837.492;-1801.313;1;337;170;172.6;23.1;22.8;69;69.5;28.4;-1.0;
16/02/2025 10:23:55;117;0;267.51;-4;29.31;25.12;22.6;19.10;76835;2837.492;-1801.315;1;339;170;172.6;23.1;22.8;69;69.5;28.4;-1.0;
16/02/2025 10:24:15;117;0;274.07;-4;29.88;25.15;20.1;19.10;76843;2837.492;-1801.318;1;341;170;174.2;23.1;22.8;69;69.5;28.4;-1.0;
16/02/2025 10:24:35;117;0;279.08;-4;29.25;25.35;17.6;19.20;76839;2837.493;-1801.321;1;343;170;172.6;23.1;22.8;69;69.5;28.4;-1.0;
16/02/2025 10:24:55;117;0;284.60;-4;29.99;25.34;15.0;19.20;76845;2837.493;-1801.323;1;346;170;172.6;23.1;22.8;69;69.5;28.4;-1.0;
16/02/2025 10:25:15;117;0;288.81;-4;29.24;25.82;12.6;19.20;76851;2837.494;-1801.326;1;348;170;172.6;23.1;22.8;69;69.5;28.4;-1.0;
16/02/2025 10:25:35;117;0;293.18;-4;31.67;25.36;10.1;19.20;76849;2837.495;-1801.328;1;350;170;174.2;23.1;22.8;69;69.5;28.4;-1.0;
16/02/2025 10:25:55;117;0;301.88;-4;30.32;24.84;7.5;19.20;76848;2837.496;-1801.330;1;352;170;172.6;23.1;22.8;69;69.5;28.4;-1.0;
16/02/2025 10:26:15;117;0;308.48;-4;30.23;25.18;5.0;19.20;76847;2837.497;-1801.332;1;354;170;172.6;23.1;22.8;69;69.5;28.4;-1.0;
16/02/2025 10:26:30;115;0;312.98;-4;29.60;24.38;3.0;19.30;76849;2837.498;-1801.333;1;355;500;180.6;100.0;66.3;0;-0.5;28.4;-1.0;
16/02/2025 10:26:40;115;0;323.38;-4;10.79;-12.25;2.1;19.30;76820;2837.499;-1801.334;1;356;500;300.0;100.0;100.0;0;-0.5;28.2;-1.0;
16/02/2025 10:26:50;115;0;300.69;-4;-64.46;-13.71;2.5;19.30;76559;2837.499;-1801.335;1;356;500;424.2;100.0;100.7;0;-0.5;28.2;-1.0;
16/02/2025 10:27:00;115;0;272.97;-4;-67.21;-12.83;2.3;19.30;76297;2837.499;-1801.335;1;356;500;508.1;100.0;100.7;0;-0.5;28.2;-1.0;
16/02/2025 10:27:10;115;0;265.04;-4;-38.60;-7.75;-0.1;19.30;76120;2837.499;-1801.337;1;358;500;509.7;100.0;100.6;0;-0.5;28.4;-1.0;
16/02/2025 10:27:30;119;0;273.96;-4;-54.18;-6.36;0.1;19.40;76138;2837.499;-1801.337;1;358;500;509.7;100.0;100.7;0;0.0;28.4;-1.0;
16/02/2025 10:27:40;119;0;296.18;-4;-47.33;-6.91;0.2;19.40;76138;2837.813;-1801.652;0;358;500;509.7;100.0;100.6;0;-0.5;28.4;-1.0;
