Timestamp;NavState;SecurityLevel;Heading;Declination;Pitch;Roll;Depth;Temperature;Pa;Lat;Lon;DeadReckoning;DesiredH;BallastCmd;BallastPos;LinCmd;LinPos;AngCmd;AngPos;Voltage;Altitude;
05/03/2025 00:35:11;119;0;42.68;-4;-45.00;-14.53;0.1;17.40;75812;2837.545;-1801.672;0;94;500;506.5;100.0;100.6;0;-0.5;24.8;-1.0;
05/03/2025 00:35:20;116;0;40.34;-4;-55.31;-14.46;0.3;17.40;75817;2837.549;-1801.680;0;94;500;506.5;100.0;100.6;0;-0.5;24.8;-1.0;
05/03/2025 00:35:45;116;0;29.90;-4;-57.54;-8.24;0.1;17.50;75835;2837.552;-1801.685;0;94;500;506.5;100.0;100.6;0;-0.5;24.8;-1.0;
05/03/2025 00:36:12;116;0;19.64;-4;-60.14;-12.97;-0.1;17.60;75842;2837.553;-1801.688;0;94;500;504.8;100.0;100.4;0;0.0;24.8;-1.0;
05/03/2025 00:36:32;116;0;30.13;-4;-56.20;-16.29;-0.0;17.60;75832;2837.555;-1801.693;0;99;500;506.5;100.0;100.6;0;-0.5;24.8;-1.0;
05/03/2025 00:36:43;116;0;29.60;-4;-56.70;-11.75;0.0;17.70;75844;2837.556;-1801.696;0;99;500;506.5;100.0;100.4;0;-0.5;24.8;-1.0;
05/03/2025 00:37:46;116;0;331.18;-4;-49.89;-10.40;0.0;17.80;75868;2837.564;-1801.711;0;99;500;506.5;100.0;100.6;0;-0.5;24.8;-1.0;
05/03/2025 00:39:50;116;0;31.38;-4;-51.71;-19.77;-0.0;18.30;75898;2837.575;-1801.739;0;99;500;506.5;100.0;100.4;0;0.0;24.8;-1.0;
05/03/2025 00:40:53;116;0;340.88;-4;-56.82;-5.41;-0.1;18.60;75921;2837.582;-1801.756;0;99;500;506.5;100.0;100.6;0;-0.5;24.8;-1.0;
05/03/2025 00:41:08;116;0;352.24;-4;-44.41;9.50;0.1;18.70;75923;2837.583;-1801.760;0;99;500;506.5;100.0;100.7;0;-0.5;24.8;-1.0;
05/03/2025 00:41:28;110;0;336.50;-4;-58.22;-1.44;-0.2;18.80;75925;2837.583;-1801.760;0;99;-110;383.9;100.0;100.4;-8;-8.1;24.8;-1.0;
05/03/2025 00:41:38;110;0;356.13;-4;-58.62;-15.37;-0.1;18.80;76292;2837.584;-1801.761;1;99;-110;240.3;100.0;100.4;-8;-8.1;24.8;-1.0;
05/03/2025 00:41:48;110;0;347.37;-4;-52.84;-19.76;0.4;18.80;76521;2837.584;-1801.762;1;99;-110;90.3;100.0;100.4;-8;-8.1;24.8;-1.0;
05/03/2025 00:41:58;110;0;349.20;-4;-71.25;-24.84;0.7;18.90;76842;2837.584;-1801.764;1;99;-110;-66.1;100.0;100.6;-8;-8.1;24.8;-1.0;
05/03/2025 00:42:08;110;0;358.65;-4;-69.54;-27.41;1.0;18.90;77179;2837.585;-1801.765;1;99;-110;-106.5;43.1;56.0;-8;-8.1;24.8;-1.0;
05/03/2025 00:42:18;110;0;359.00;-4;-55.08;-16.79;2.1;19.00;77227;2837.586;-1801.766;1;99;-110;-111.3;43.1;43.2;-8;-8.1;24.8;-1.0;
05/03/2025 00:42:38;100;0;8.36;-4;-25.84;-15.89;5.3;19.00;77227;2837.589;-1801.768;1;99;-110;-104.8;43.1;42.9;-8;-8.1;24.8;-1.0;
05/03/2025 00:42:58;100;0;16.81;-4;-19.91;-16.21;8.5;19.10;77229;2837.594;-1801.769;1;99;-110;-103.2;43.1;43.4;-70;-70.4;24.8;-1.0;
05/03/2025 00:43:18;100;0;24.57;-4;-19.74;-45.43;11.4;19.10;77240;2837.598;-1801.769;1;99;-110;-103.2;43.1;43.4;-70;-70.4;24.8;-1.0;
05/03/2025 00:43:38;100;0;32.42;-4;-20.64;-45.64;14.2;19.20;77232;2837.601;-1801.770;1;99;-110;-103.2;43.1;43.6;-70;-70.4;24.8;0.0;
05/03/2025 00:43:58;100;0;43.73;-4;-22.06;-45.89;16.9;19.20;77247;2837.604;-1801.769;1;99;-110;-101.6;42.5;42.3;-55;-55.1;24.8;0.0;
05/03/2025 00:44:18;100;0;58.14;-4;-17.87;-37.61;19.9;19.30;77256;2837.607;-1801.768;1;99;-110;-101.6;43.2;43.3;-38;-37.5;24.8;0.0;
05/03/2025 00:44:38;100;0;68.18;-4;-20.59;-29.13;22.5;19.30;77256;2837.608;-1801.767;1;99;-110;-100.0;43.2;43.4;-25;-24.8;24.8;0.0;
05/03/2025 00:44:58;100;0;78.44;-4;-19.82;-22.56;25.6;19.30;77270;2837.610;-1801.764;1;99;-110;-101.6;43.2;43.4;-8;-8.1;24.8;0.0;
05/03/2025 00:45:18;100;0;83.94;-4;-21.23;-14.87;28.2;19.30;77283;2837.611;-1801.763;1;99;-110;-100.0;43.2;43.6;1;0.9;24.8;0.0;
05/03/2025 00:45:38;100;0;86.70;-4;-21.46;-11.10;31.1;19.30;77270;2837.611;-1801.761;1;99;-110;-101.6;43.2;43.6;5;5.0;24.8;0.0;
05/03/2025 00:45:58;100;0;88.55;-4;-21.93;-8.76;33.8;19.30;77279;2837.612;-1801.760;1;99;-110;-101.6;43.2;43.6;8;8.6;24.8;0.0;
05/03/2025 00:46:18;100;0;89.49;-4;-22.48;-7.06;36.5;19.30;77289;2837.612;-1801.759;1;99;-110;-101.6;42.4;42.4;8;9.0;24.8;0.0;
05/03/2025 00:46:38;100;0;91.38;-4;-20.17;-6.74;39.3;19.30;77285;2837.613;-1801.757;1;99;-110;-101.6;42.4;42.1;11;10.8;24.8;0.0;
05/03/2025 00:46:58;100;0;90.05;-4;-19.68;-6.27;41.8;19.30;77292;2837.613;-1801.756;1;99;-110;-101.6;42.4;42.1;9;9.0;24.8;0.0;
05/03/2025 00:47:18;100;0;92.08;-4;-19.16;-7.15;44.2;19.30;77289;2837.614;-1801.754;1;99;-110;-101.6;42.4;42.3;11;10.8;24.8;0.0;
05/03/2025 00:47:38;100;0;92.65;-4;-19.49;-6.24;46.6;19.30;77306;2837.614;-1801.753;1;99;-110;-101.6;42.4;42.1;11;11.3;24.8;0.0;
05/03/2025 00:47:58;100;0;92.72;-4;-19.85;-5.97;48.9;19.30;77314;2837.614;-1801.752;1;99;-110;-101.6;42.4;42.3;11;10.8;24.8;0.0;
05/03/2025 00:48:18;100;0;91.96;-4;-19.27;-6.00;51.4;19.40;77316;2837.615;-1801.751;1;99;-110;-101.6;42.4;42.1;11;11.3;24.8;0.0;
05/03/2025 00:48:38;100;0;95.91;-4;-19.79;-6.17;53.8;19.40;77308;2837.615;-1801.749;1;99;-110;-100.0;42.4;42.1;13;13.1;24.8;0.0;
05/03/2025 00:48:58;100;0;96.53;-4;-19.66;-5.02;56.1;19.40;77319;2837.615;-1801.748;1;99;-110;-101.6;42.4;42.3;13;13.5;24.8;0.0;
05/03/2025 00:49:18;100;0;93.49;-4;-19.02;-4.88;58.5;19.40;77322;2837.616;-1801.747;1;99;-110;-101.6;42.4;42.1;13;13.5;24.8;0.0;
05/03/2025 00:49:38;100;0;92.97;-4;-19.34;-4.92;60.9;19.40;77325;2837.616;-1801.746;1;99;-110;-101.6;42.4;42.1;13;13.5;24.8;0.0;
05/03/2025 00:49:58;100;0;95.10;-4;-19.50;-4.95;63.1;19.40;77325;2837.616;-1801.745;1;99;-110;-101.6;42.4;42.1;13;13.5;24.8;0.0;
05/03/2025 00:50:18;100;0;97.45;-4;-19.57;-4.95;65.6;19.40;77322;2837.616;-1801.743;1;99;-110;-101.6;42.4;42.3;13;13.5;24.8;0.0;
05/03/2025 00:50:38;100;0;98.73;-4;-19.62;-4.89;67.9;19.40;77319;2837.616;-1801.742;1;99;-110;-101.6;42.4;42.1;13;13.5;24.8;0.0;
05/03/2025 00:50:58;100;0;99.77;-4;-19.61;-4.92;70.5;19.40;77325;2837.616;-1801.741;1;99;-110;-101.6;42.4;42.1;13;13.5;24.8;0.0;
05/03/2025 00:51:18;100;0;100.53;-4;-19.61;-4.87;73.1;19.40;77325;2837.616;-1801.740;1;99;-110;-101.6;42.4;42.1;13;13.5;24.8;0.0;
05/03/2025 00:51:38;100;0;102.58;-4;-19.40;-4.91;75.4;19.40;77325;2837.616;-1801.739;1;99;-110;-101.6;42.4;42.1;13;13.1;24.8;0.0;
05/03/2025 00:51:58;100;0;100.18;-4;-19.45;-4.96;77.8;19.40;77322;2837.616;-1801.737;1;99;-110;-101.6;42.4;42.1;13;13.1;24.8;0.0;
05/03/2025 00:52:18;100;0;97.42;-4;-19.41;-5.04;80.1;19.40;77311;2837.616;-1801.736;1;99;-110;-101.6;42.4;42.1;13;13.1;24.8;0.0;
05/03/2025 00:52:38;100;0;92.62;-4;-19.50;-5.08;82.3;19.30;77300;2837.616;-1801.735;1;99;-110;-101.6;42.4;42.1;10;9.9;24.8;0.0;
05/03/2025 00:52:58;100;0;89.32;-4;-19.35;-6.80;84.7;19.30;77288;2837.617;-1801.734;1;99;-110;-103.2;42.4;42.1;8;8.1;24.8;0.0;
05/03/2025 00:53:18;100;0;90.74;-4;-18.91;-7.73;87.0;19.30;77283;2837.617;-1801.733;1;99;-110;-101.6;42.7;42.7;8;7.7;24.8;0.0;
05/03/2025 00:53:38;100;0;92.26;-4;-19.31;-7.78;89.1;19.30;77283;2837.618;-1801.732;1;99;-110;-101.6;42.7;42.9;10;9.9;24.8;0.0;
05/03/2025 00:53:58;100;0;92.10;-4;-19.46;-6.54;91.3;19.30;77264;2837.618;-1801.731;1;99;-110;-103.2;42.7;42.9;10;10.4;24.8;0.0;
05/03/2025 00:54:18;100;0;92.54;-4;-19.54;-6.48;93.4;19.30;77264;2837.619;-1801.730;1;99;-110;-101.6;42.7;42.9;10;10.4;24.8;0.0;
05/03/2025 00:54:38;100;0;93.90;-4;-19.37;-6.48;95.7;19.30;77248;2837.619;-1801.729;1;99;-110;-101.6;42.7;42.7;10;10.4;24.8;0.0;
05/03/2025 00:54:58;100;0;94.62;-4;-19.21;-6.56;97.8;19.30;77260;2837.619;-1801.728;1;99;-110;-100.0;42.7;42.9;12;12.2;24.8;0.0;
05/03/2025 00:55:18;100;0;97.11;-4;-20.29;-5.58;99.8;19.30;77243;2837.619;-1801.727;1;99;-130;-130.6;42.7;42.9;12;12.6;24.8;0.0;
05/03/2025 00:55:38;100;0;103.30;-4;-18.91;-5.43;102.0;19.30;77310;2837.619;-1801.726;1;99;-130;-132.3;43.1;43.3;14;14.0;24.8;0.0;
05/03/2025 00:55:58;100;0;106.23;-4;-19.35;-4.29;104.5;19.20;77292;2837.619;-1801.725;1;99;-130;-130.6;43.1;43.2;14;14.4;24.8;0.0;
05/03/2025 00:56:18;100;0;110.20;-4;-20.43;-4.22;106.9;19.20;77281;2837.618;-1801.724;1;99;-130;-132.3;43.1;43.2;14;14.0;24.8;0.0;
05/03/2025 00:56:38;100;0;111.33;-4;-20.40;-4.26;109.6;19.20;77279;2837.617;-1801.723;1;99;-130;-132.3;43.1;43.2;16;15.8;24.8;0.0;
05/03/2025 00:56:58;100;0;112.11;-4;-20.46;-3.33;112.4;19.20;77272;2837.617;-1801.721;1;99;-130;-132.3;43.1;43.2;16;16.2;24.8;0.0;
05/03/2025 00:57:18;100;0;107.94;-4;-20.43;-3.36;115.1;19.10;77262;2837.616;-1801.720;1;99;-130;-130.6;43.1;43.2;14;14.0;24.8;0.0;
05/03/2025 00:57:38;100;0;104.79;-4;-20.28;-4.79;117.9;19.10;77238;2837.616;-1801.718;1;99;-130;-132.3;43.1;43.2;14;13.5;24.8;0.0;
05/03/2025 00:57:58;100;0;104.54;-4;-20.35;-4.70;120.7;19.10;77228;2837.615;-1801.717;1;99;-130;-132.3;43.1;43.2;14;13.5;24.8;0.0;
05/03/2025 00:58:18;100;0;103.83;-4;-20.26;-4.63;123.4;19.10;77235;2837.615;-1801.715;1;99;-130;-132.3;43.1;43.2;14;13.5;24.8;0.0;
05/03/2025 00:58:38;100;0;104.27;-4;-19.60;-4.65;126.0;19.00;77214;2837.615;-1801.714;1;99;-130;-132.3;43.1;43.3;14;13.5;24.8;0.0;
05/03/2025 00:58:58;100;0;105.58;-4;-19.10;-4.73;128.5;19.00;77193;2837.614;-1801.712;1;99;-130;-132.3;43.1;43.3;14;13.5;24.8;0.0;
05/03/2025 00:59:18;100;0;110.31;-4;-19.49;-4.82;130.6;19.00;77177;2837.614;-1801.712;1;99;-130;-132.3;43.1;43.2;14;13.5;24.8;0.0;
05/03/2025 00:59:38;100;0;111.97;-4;-19.63;-4.81;133.1;19.00;77155;2837.613;-1801.711;1;99;-130;-132.3;43.1;43.2;17;17.1;24.8;0.0;
05/03/2025 00:59:58;100;0;113.31;-4;-19.84;-3.07;135.4;18.90;77151;2837.612;-1801.710;1;99;-130;-130.6;43.1;43.2;17;17.1;24.8;0.0;
05/03/2025 01:00:18;100;0;118.21;-4;-20.01;-2.85;137.7;18.90;77138;2837.611;-1801.709;1;99;-130;-132.3;43.1;43.3;24;24.4;24.8;0.0;
05/03/2025 01:00:38;100;0;116.97;-4;-20.45;0.78;140.1;18.90;77128;2837.611;-1801.708;1;99;-130;-132.3;43.1;43.2;24;24.4;24.8;0.0;
05/03/2025 01:00:58;100;0;115.93;-4;-20.31;0.78;142.5;18.80;77132;2837.610;-1801.708;1;99;-130;-132.3;43.1;43.2;21;21.2;24.8;0.0;
05/03/2025 01:01:18;100;0;114.42;-4;-20.31;-0.95;144.9;18.80;77123;2837.609;-1801.707;1;99;-130;-132.3;43.1;43.2;21;20.8;24.8;0.0;
05/03/2025 01:01:38;100;0;111.52;-4;-20.36;-1.04;147.3;18.80;77106;2837.608;-1801.706;1;99;-130;-132.3;43.1;43.2;17;17.1;24.8;0.0;
05/03/2025 01:01:58;100;0;111.30;-4;-20.25;-3.04;149.8;18.70;77099;2837.608;-1801.705;1;99;-130;-132.3;43.1;43.2;17;16.7;24.8;0.0;
05/03/2025 01:02:18;100;0;106.11;-4;-19.82;-3.14;152.0;18.70;77080;2837.607;-1801.704;1;99;-130;-132.3;43.1;43.2;14;14.0;24.8;0.0;
05/03/2025 01:02:38;100;0;102.41;-4;-19.54;-4.63;154.4;18.70;77070;2837.607;-1801.703;1;99;-130;-132.3;43.1;43.2;14;14.0;24.8;0.0;
05/03/2025 01:02:58;100;0;102.62;-4;-19.85;-4.52;156.4;18.60;77072;2837.607;-1801.702;1;99;-130;-130.6;43.1;43.2;14;13.5;24.8;0.0;
05/03/2025 01:03:18;100;0;101.36;-4;-19.94;-4.57;158.7;18.60;77049;2837.607;-1801.701;1;99;-130;-130.6;43.1;43.2;14;14.0;24.8;0.0;
05/03/2025 01:03:38;100;0;100.91;-4;-19.79;-4.60;161.0;18.60;77049;2837.607;-1801.700;1;99;-130;-132.3;43.1;43.2;14;13.5;24.8;0.0;
05/03/2025 01:03:58;100;0;100.83;-4;-19.87;-4.51;163.4;18.50;77044;2837.607;-1801.699;1;99;-130;-132.3;43.1;43.2;14;14.0;24.8;0.0;
05/03/2025 01:04:18;100;0;99.11;-4;-19.99;-4.58;165.6;18.50;77037;2837.607;-1801.698;1;99;-130;-130.6;43.1;43.2;14;14.0;24.8;0.0;
05/03/2025 01:04:38;100;0;99.75;-4;-20.10;-4.50;167.8;18.50;77029;2837.607;-1801.697;1;99;-130;-130.6;43.1;43.2;14;13.5;24.8;0.0;
05/03/2025 01:04:58;100;0;97.72;-4;-19.68;-4.61;170.3;18.40;77016;2837.607;-1801.696;1;99;-130;-130.6;43.1;43.2;14;14.0;24.8;0.0;
05/03/2025 01:05:18;100;0;94.17;-4;-19.35;-4.45;172.5;18.40;77015;2837.607;-1801.695;1;99;-130;-132.3;43.1;43.2;12;12.2;24.8;0.0;
05/03/2025 01:05:38;100;0;94.75;-4;-19.90;-5.44;174.6;18.40;76999;2837.608;-1801.694;1;99;-130;-132.3;43.1;43.2;12;11.7;24.8;0.0;
05/03/2025 01:05:58;100;0;94.12;-4;-19.35;-5.60;176.9;18.30;76984;2837.608;-1801.693;1;99;-130;-132.3;43.1;43.2;12;11.7;24.8;0.0;
05/03/2025 01:06:18;100;0;96.19;-4;-19.33;-5.60;179.1;18.30;76980;2837.608;-1801.692;1;99;-130;-132.3;43.1;43.2;12;11.7;24.8;0.0;
05/03/2025 01:06:38;100;0;97.63;-4;-19.58;-5.51;181.3;18.20;76974;2837.608;-1801.691;1;99;-130;-132.3;43.1;43.2;12;11.7;24.8;0.0;
05/03/2025 01:06:58;100;0;95.40;-4;-18.97;-5.63;183.6;18.20;76961;2837.609;-1801.690;1;99;-130;-132.3;43.4;43.4;12;11.7;24.8;0.0;
05/03/2025 01:07:18;100;0;96.03;-4;-20.01;-5.66;185.7;18.20;76957;2837.609;-1801.689;1;99;-130;-132.3;43.4;43.7;12;11.7;24.8;0.0;
05/03/2025 01:07:38;100;0;94.65;-4;-20.47;-5.59;187.9;18.10;76953;2837.609;-1801.688;1;99;-130;-132.3;43.4;43.7;12;11.7;24.8;0.0;
05/03/2025 01:07:58;100;0;93.51;-4;-20.74;-5.55;190.4;18.10;76949;2837.609;-1801.687;1;99;-130;-132.3;43.4;43.7;12;11.7;24.8;0.0;
05/03/2025 01:08:18;100;0;92.55;-4;-20.69;-5.52;192.8;18.10;76939;2837.610;-1801.686;1;99;-130;-132.3;43.4;43.7;10;9.9;24.8;0.0;
05/03/2025 01:08:38;100;0;91.36;-4;-20.43;-6.66;195.2;18.00;76937;2837.610;-1801.685;1;99;-130;-132.3;43.4;43.7;10;9.5;24.8;0.0;
05/03/2025 01:08:58;100;0;92.99;-4;-20.66;-6.68;197.6;18.00;76930;2837.611;-1801.684;1;99;-130;-132.3;43.4;43.7;10;9.5;24.8;0.0;
05/03/2025 01:09:18;100;0;95.75;-4;-20.88;-6.68;200.2;18.00;76919;2837.611;-1801.683;1;99;-130;-132.3;43.4;43.7;13;13.5;24.8;0.0;
05/03/2025 01:09:38;100;0;98.77;-4;-21.35;-4.62;202.5;17.90;76914;2837.611;-1801.682;1;99;-130;-130.6;43.4;43.9;13;13.5;24.8;0.0;
05/03/2025 01:09:58;100;0;101.41;-4;-21.14;-4.60;205.2;17.90;76897;2837.611;-1801.680;1;99;-130;-130.6;43.4;43.7;13;13.5;24.8;0.0;
05/03/2025 01:10:18;100;0;104.88;-4;-20.68;-4.51;207.8;17.80;76890;2837.610;-1801.679;1;99;-130;-132.3;43.4;43.7;13;13.5;24.8;0.0;
05/03/2025 01:10:38;100;0;106.47;-4;-20.46;-4.49;210.2;17.80;76888;2837.610;-1801.678;1;99;-130;-132.3;43.4;43.7;13;13.5;24.8;0.0;
05/03/2025 01:10:58;100;0;105.98;-4;-21.06;-4.58;212.8;17.80;76872;2837.610;-1801.677;1;99;-130;-132.3;43.4;43.7;13;13.5;24.8;0.0;
05/03/2025 01:11:18;100;0;106.02;-4;-21.08;-4.55;215.3;17.70;76865;2837.609;-1801.676;1;99;-130;-130.6;43.4;43.7;13;13.5;24.8;0.0;
05/03/2025 01:11:38;100;0;106.31;-4;-21.14;-4.52;218.1;17.70;76855;2837.609;-1801.674;1;99;-130;-132.3;43.4;43.7;13;13.5;24.8;0.0;
05/03/2025 01:11:58;100;0;109.36;-4;-20.72;-4.49;220.5;17.70;76859;2837.608;-1801.673;1;99;-130;-130.6;43.4;43.7;15;15.3;24.8;0.0;
05/03/2025 01:12:18;100;0;111.26;-4;-21.04;-3.70;223.2;17.60;76841;2837.608;-1801.672;1;99;-130;-130.6;43.4;43.7;15;15.3;24.8;0.0;
05/03/2025 01:12:39;100;0;111.98;-4;-20.45;-3.66;225.5;17.60;76829;2837.607;-1801.671;1;99;-130;-132.3;43.4;43.7;15;15.3;24.8;0.0;
05/03/2025 01:12:59;100;0;115.32;-4;-20.45;-3.71;228.1;17.60;76831;2837.606;-1801.670;1;99;-130;-132.3;43.4;43.7;20;19.9;24.8;0.0;
05/03/2025 01:13:19;100;0;115.89;-4;-20.54;-1.45;230.6;17.50;76829;2837.605;-1801.669;1;99;-130;-130.6;43.4;43.7;20;19.9;24.8;0.0;
05/03/2025 01:13:39;100;0;118.33;-4;-21.06;-1.41;233.0;17.50;76829;2837.604;-1801.669;1;99;-130;-133.9;43.4;43.7;23;23.0;24.8;0.0;
05/03/2025 01:13:59;100;0;118.45;-4;-21.16;0.35;235.7;17.50;76816;2837.603;-1801.668;1;99;-130;-130.6;43.4;43.7;25;24.8;24.8;0.0;
05/03/2025 01:14:19;100;0;115.73;-4;-21.72;1.26;238.2;17.40;76801;2837.602;-1801.667;1;99;-130;-130.6;43.4;43.7;21;20.8;24.8;0.0;
05/03/2025 01:14:39;100;0;115.75;-4;-21.27;-1.04;240.9;17.40;76800;2837.601;-1801.666;1;99;-130;-130.6;43.4;43.7;21;20.8;24.8;0.0;
05/03/2025 01:14:59;100;0;114.00;-4;-21.28;-1.18;243.5;17.40;76793;2837.601;-1801.665;1;99;-130;-130.6;43.4;43.7;19;19.0;24.8;0.0;
05/03/2025 01:15:19;100;0;112.80;-4;-21.22;-2.08;246.2;17.30;76792;2837.600;-1801.664;1;99;-130;-132.3;43.4;43.7;19;18.5;24.8;0.0;
05/03/2025 01:15:39;100;0;111.08;-4;-21.10;-2.13;248.9;17.30;76791;2837.599;-1801.662;1;99;-130;-132.3;43.4;43.7;16;15.8;24.8;0.0;
05/03/2025 01:15:59;100;0;110.80;-4;-21.01;-3.57;251.5;17.30;76777;2837.599;-1801.661;1;99;-130;-132.3;43.4;43.7;16;15.8;24.8;0.0;
05/03/2025 01:16:19;100;0;110.89;-4;-20.94;-3.61;254.3;17.20;76779;2837.598;-1801.660;1;99;-130;-132.3;43.4;43.7;16;15.8;24.8;0.0;
05/03/2025 01:16:39;100;0;110.23;-4;-20.78;-3.59;256.9;17.20;76762;2837.597;-1801.659;1;99;-130;-132.3;43.4;43.7;16;15.8;24.8;0.0;
05/03/2025 01:16:59;100;0;109.86;-4;-21.53;-3.65;259.4;17.10;76764;2837.597;-1801.658;1;99;-130;-132.3;43.4;43.7;16;15.8;24.8;0.0;
05/03/2025 01:17:19;100;0;107.55;-4;-20.43;-3.62;261.9;17.10;76749;2837.596;-1801.657;1;99;-130;-132.3;43.4;43.7;16;15.8;24.8;0.0;
05/03/2025 01:17:39;100;0;102.43;-4;-20.73;-3.70;264.4;17.10;76746;2837.596;-1801.656;1;99;-130;-132.3;43.4;43.7;14;14.0;24.8;0.0;
05/03/2025 01:17:59;100;0;98.70;-4;-20.72;-4.59;267.1;17.10;76743;2837.596;-1801.654;1;99;-130;-132.3;43.4;43.7;14;13.5;24.8;0.0;
05/03/2025 01:18:19;100;0;94.46;-4;-20.53;-4.67;269.6;17.00;76720;2837.596;-1801.653;1;99;-130;-130.6;43.4;43.7;14;14.0;24.8;0.0;
05/03/2025 01:18:39;100;0;92.78;-4;-20.17;-4.74;272.2;17.00;76710;2837.597;-1801.651;1;99;-130;-132.3;43.4;43.7;12;11.7;24.8;0.0;
05/03/2025 01:18:59;100;0;89.83;-4;-20.53;-5.61;274.5;17.00;76709;2837.597;-1801.650;1;99;-130;-130.6;43.4;43.7;8;8.1;24.8;0.0;
05/03/2025 01:19:19;100;0;89.88;-4;-19.70;-7.44;277.1;16.90;76704;2837.598;-1801.649;1;99;-130;-133.9;43.4;43.7;8;8.1;24.8;0.0;
05/03/2025 01:19:39;100;0;88.44;-4;-20.39;-7.59;279.5;16.90;76690;2837.598;-1801.648;1;99;-130;-132.3;43.4;43.7;8;8.1;24.8;0.0;
05/03/2025 01:19:59;100;0;88.93;-4;-19.88;-7.48;282.0;16.90;76680;2837.599;-1801.646;1;99;-130;-130.6;43.4;43.7;8;8.1;24.8;0.0;
05/03/2025 01:20:19;100;0;90.79;-4;-19.80;-7.49;284.8;16.80;76668;2837.599;-1801.645;1;99;-130;-132.3;43.4;43.7;10;9.9;24.8;0.0;
05/03/2025 01:20:39;100;0;91.79;-4;-19.99;-6.32;287.2;16.80;76667;2837.600;-1801.643;1;99;-130;-133.9;43.4;43.7;10;9.9;24.8;0.0;
05/03/2025 01:20:59;100;0;91.52;-4;-20.37;-6.38;290.0;16.80;76654;2837.600;-1801.642;1;99;-130;-132.3;43.4;43.7;10;10.4;24.8;0.0;
05/03/2025 01:21:19;100;0;90.73;-4;-20.53;-6.26;292.8;16.70;76650;2837.601;-1801.640;1;99;-130;-130.6;43.4;43.7;10;9.9;24.8;0.0;
05/03/2025 01:21:39;100;0;89.72;-4;-20.43;-6.31;295.7;16.70;76637;2837.601;-1801.638;1;99;-130;-132.3;43.4;43.7;8;8.1;24.8;0.0;
05/03/2025 01:21:59;100;0;90.89;-4;-20.17;-7.54;298.4;16.60;76632;2837.602;-1801.636;1;99;-130;-132.3;43.4;43.7;10;9.9;24.8;0.0;
05/03/2025 01:22:19;100;0;92.49;-4;-20.05;-6.18;301.3;16.60;76628;2837.602;-1801.635;1;99;-130;-132.3;43.4;43.7;10;10.4;24.8;0.0;
05/03/2025 01:22:39;100;0;92.73;-4;-20.49;-6.23;304.2;16.60;76621;2837.602;-1801.633;1;99;-130;-132.3;43.4;43.7;10;10.4;24.8;0.0;
05/03/2025 01:22:59;100;0;93.46;-4;-20.20;-6.22;307.1;16.50;76615;2837.603;-1801.631;1;99;-130;-130.6;43.4;43.7;12;12.2;24.8;0.0;
05/03/2025 01:23:19;100;0;94.13;-4;-20.24;-5.13;310.1;16.50;76616;2837.603;-1801.629;1;99;-130;-132.3;43.4;43.7;12;12.6;24.8;0.0;
05/03/2025 01:23:39;100;0;93.88;-4;-20.27;-5.11;312.8;16.50;76612;2837.603;-1801.627;1;99;-130;-132.3;43.4;43.7;12;12.6;24.8;0.0;
05/03/2025 01:23:59;100;0;94.47;-4;-20.40;-5.11;315.7;16.50;76605;2837.603;-1801.625;1;99;-130;-132.3;43.4;43.7;12;12.6;24.8;0.0;
05/03/2025 01:24:19;100;0;98.12;-4;-20.57;-5.02;318.8;16.40;76604;2837.603;-1801.623;1;99;-130;-132.3;43.4;43.7;12;12.6;24.8;0.0;
05/03/2025 01:24:39;100;0;97.81;-4;-20.23;-5.09;321.9;16.40;76598;2837.603;-1801.621;1;99;-130;-132.3;43.4;43.7;12;12.6;24.8;0.0;
05/03/2025 01:24:59;100;0;96.93;-4;-20.01;-5.13;324.8;16.40;76593;2837.603;-1801.619;1;99;-130;-132.3;43.4;43.7;12;12.6;24.8;0.0;
05/03/2025 01:25:19;100;0;97.22;-4;-19.86;-5.15;327.7;16.30;76578;2837.603;-1801.617;1;99;-130;-130.6;43.4;43.7;12;12.6;24.8;0.0;
05/03/2025 01:25:39;100;0;102.07;-4;-20.11;-5.06;330.5;16.30;76570;2837.603;-1801.616;1;99;-130;-132.3;43.4;43.7;12;12.6;24.8;0.0;
05/03/2025 01:25:59;100;0;107.13;-4;-20.17;-5.11;333.4;16.30;76560;2837.602;-1801.614;1;99;-130;-132.3;43.4;43.7;14;14.0;24.8;0.0;
05/03/2025 01:26:19;100;0;111.14;-4;-20.32;-4.22;336.3;16.20;76534;2837.602;-1801.612;1;99;-130;-132.3;43.4;43.7;16;15.8;24.8;0.0;
05/03/2025 01:26:39;100;0;114.76;-4;-20.40;-3.34;339.2;16.20;76527;2837.601;-1801.611;1;99;-130;-132.3;43.4;43.7;19;19.4;24.8;0.0;
05/03/2025 01:26:59;100;0;116.85;-4;-20.63;-1.64;342.1;16.20;76526;2837.599;-1801.609;1;99;-130;-130.6;43.4;43.7;22;22.1;24.8;0.0;
05/03/2025 01:27:19;100;0;116.11;-4;-20.62;-0.08;345.1;16.10;76503;2837.598;-1801.608;1;99;-130;-132.3;43.4;43.7;22;22.6;24.8;0.0;
05/03/2025 01:27:39;100;0;111.04;-4;-20.96;-0.08;348.0;16.10;76498;2837.598;-1801.606;1;99;-130;-130.6;43.4;43.7;16;15.3;24.8;0.0;
05/03/2025 01:27:59;100;0;106.71;-4;-20.49;-3.89;351.1;16.00;76497;2837.597;-1801.604;1;99;-130;-132.3;43.4;43.7;14;14.0;24.8;0.0;
05/03/2025 01:28:19;100;0;108.45;-4;-20.40;-4.53;354.1;16.00;76474;2837.596;-1801.602;1;99;-130;-132.3;43.4;43.7;14;13.5;24.8;0.0;
05/03/2025 01:28:39;100;0;109.47;-4;-20.43;-4.60;357.0;16.00;76486;2837.595;-1801.601;1;99;-130;-132.3;43.4;43.7;14;14.0;24.8;0.0;
05/03/2025 01:28:59;100;0;108.85;-4;-20.18;-4.58;360.0;16.00;76481;2837.595;-1801.599;1;99;-130;-135.5;43.4;43.7;14;14.0;24.8;0.0;
05/03/2025 01:29:19;100;0;109.19;-4;-20.06;-4.65;362.8;15.90;76466;2837.594;-1801.597;1;99;-130;-130.6;43.4;43.7;14;14.0;24.8;0.0;
05/03/2025 01:29:39;100;0;109.95;-4;-19.95;-4.66;365.6;15.90;76454;2837.593;-1801.596;1;99;-130;-132.3;43.4;43.7;16;15.8;24.8;0.0;
05/03/2025 01:29:59;100;0;110.51;-4;-20.11;-3.56;368.3;15.90;76456;2837.593;-1801.594;1;99;-130;-130.6;43.4;43.7;16;15.8;24.8;0.0;
05/03/2025 01:30:19;100;0;110.73;-4;-20.12;-3.52;371.0;15.80;76449;2837.592;-1801.593;1;99;-130;-132.3;43.4;43.7;16;15.8;24.8;0.0;
05/03/2025 01:30:39;100;0;111.49;-4;-20.16;-3.57;373.7;15.80;76437;2837.591;-1801.592;1;99;-130;-130.6;43.4;43.7;16;15.8;24.8;0.0;
05/03/2025 01:30:59;100;0;112.72;-4;-20.16;-3.52;376.4;15.70;76430;2837.590;-1801.590;1;99;-130;-132.3;43.4;43.7;18;18.1;24.8;0.0;
05/03/2025 01:31:19;100;0;113.91;-4;-20.38;-2.19;379.1;15.70;76429;2837.589;-1801.589;1;99;-130;-130.6;43.4;43.9;18;18.5;24.8;0.0;
05/03/2025 01:31:39;100;0;112.41;-4;-20.73;-2.18;381.7;15.70;76422;2837.589;-1801.588;1;99;-130;-132.3;43.4;43.7;18;18.5;24.8;0.0;
05/03/2025 01:31:59;100;0;110.01;-4;-20.72;-2.16;384.6;15.60;76407;2837.588;-1801.586;1;99;-130;-132.3;43.4;43.7;16;15.8;24.8;0.0;
05/03/2025 01:32:19;100;0;106.85;-4;-20.55;-3.68;387.2;15.60;76414;2837.588;-1801.585;1;99;-130;-132.3;43.4;43.7;16;15.3;24.8;0.0;
05/03/2025 01:32:39;100;0;105.01;-4;-20.51;-3.68;389.9;15.60;76408;2837.587;-1801.584;1;99;-130;-132.3;43.4;43.7;14;13.5;24.8;0.0;
05/03/2025 01:32:59;100;0;104.89;-4;-20.36;-4.64;392.6;15.60;76389;2837.587;-1801.582;1;99;-130;-133.9;43.4;43.7;14;13.5;24.8;0.0;
05/03/2025 01:33:19;100;0;104.99;-4;-20.25;-4.75;395.1;15.50;76380;2837.586;-1801.581;1;99;-130;-130.6;43.4;43.7;14;13.5;24.8;0.0;
05/03/2025 01:33:39;100;0;105.22;-4;-20.33;-4.70;397.7;15.50;76379;2837.586;-1801.580;1;99;-130;-132.3;43.4;43.7;14;13.5;24.8;0.0;
05/03/2025 01:33:59;100;0;106.53;-4;-20.06;-4.58;400.0;15.50;76375;2837.586;-1801.579;1;99;-130;-132.3;43.4;43.7;14;13.5;24.8;0.0;
05/03/2025 01:34:19;100;0;110.64;-4;-20.16;-4.66;402.6;15.40;76376;2837.585;-1801.578;1;99;-130;-132.3;43.4;43.7;16;15.8;24.8;0.0;
05/03/2025 01:34:39;100;0;112.14;-4;-20.22;-3.33;405.0;15.40;76364;2837.584;-1801.577;1;99;-130;-132.3;43.4;43.7;18;18.1;24.8;0.0;
05/03/2025 01:34:59;100;0;109.75;-4;-20.43;-2.28;407.7;15.40;76362;2837.584;-1801.575;1;99;-130;-132.3;43.4;43.7;16;15.8;24.8;0.0;
05/03/2025 01:35:19;100;0;109.05;-4;-19.99;-3.78;410.2;15.30;76350;2837.583;-1801.574;1;99;-130;-132.3;43.4;43.7;16;15.3;24.8;0.0;
05/03/2025 01:35:39;100;0;109.17;-4;-19.92;-3.79;412.6;15.30;76341;2837.583;-1801.573;1;99;-130;-132.3;43.4;43.7;16;15.3;24.8;0.0;
05/03/2025 01:35:59;100;0;108.85;-4;-19.83;-3.72;414.9;15.30;76345;2837.582;-1801.572;1;99;-130;-133.9;43.4;43.7;16;15.3;24.8;0.0;
05/03/2025 01:36:19;100;0;108.15;-4;-20.06;-3.86;417.3;15.20;76338;2837.582;-1801.571;1;99;-130;-132.3;43.4;43.7;16;15.3;24.8;0.0;
05/03/2025 01:36:39;100;0;107.26;-4;-20.08;-3.80;419.7;15.20;76334;2837.581;-1801.570;1;99;-130;-130.6;43.4;43.7;16;15.3;24.8;0.0;
05/03/2025 01:36:59;100;0;105.97;-4;-20.19;-3.74;422.1;15.20;76340;2837.581;-1801.569;1;99;-130;-132.3;43.4;43.7;16;15.3;24.8;0.0;
05/03/2025 01:37:19;100;0;105.28;-4;-20.12;-3.76;424.5;15.10;76331;2837.581;-1801.568;1;99;-130;-132.3;43.4;43.7;16;15.3;24.8;0.0;
05/03/2025 01:37:39;100;0;105.81;-4;-19.77;-3.79;427.0;15.10;76332;2837.580;-1801.567;1;99;-130;-132.3;43.4;43.7;16;15.3;24.8;0.0;
05/03/2025 01:37:59;100;0;106.96;-4;-19.65;-3.81;429.3;15.10;76321;2837.580;-1801.566;1;99;-130;-132.3;43.4;43.7;16;15.3;24.8;0.0;
05/03/2025 01:38:19;100;0;103.44;-4;-20.36;-3.72;431.4;15.10;76308;2837.580;-1801.565;1;99;-130;-133.9;43.4;43.7;16;15.3;24.8;0.0;
05/03/2025 01:38:39;100;0;102.16;-4;-19.91;-3.81;433.8;15.00;76305;2837.580;-1801.564;1;99;-130;-132.3;43.4;43.7;16;15.3;24.8;0.0;
05/03/2025 01:38:59;100;0;101.23;-4;-19.84;-3.78;436.2;15.00;76301;2837.580;-1801.563;1;99;-130;-132.3;43.4;43.7;16;15.3;24.8;0.0;
05/03/2025 01:39:19;100;0;102.23;-4;-19.82;-3.80;438.5;15.00;76294;2837.580;-1801.562;1;99;-130;-132.3;43.4;43.7;16;15.3;24.8;0.0;
05/03/2025 01:39:39;100;0;102.70;-4;-19.87;-3.83;440.8;15.00;76273;2837.579;-1801.561;1;99;-130;-132.3;43.4;43.7;16;15.3;24.8;0.0;
05/03/2025 01:39:59;100;0;105.94;-4;-19.77;-3.79;443.0;14.90;76279;2837.579;-1801.560;1;99;-130;-132.3;43.4;43.7;16;15.3;24.8;0.0;
05/03/2025 01:40:19;100;0;106.76;-4;-19.80;-3.86;445.3;14.90;76265;2837.579;-1801.559;1;99;-130;-132.3;43.4;43.7;16;15.3;24.8;0.0;
05/03/2025 01:40:39;100;0;107.03;-4;-19.89;-3.87;447.6;14.90;76260;2837.578;-1801.559;1;99;-130;-132.3;43.4;43.7;16;15.3;24.8;0.0;
05/03/2025 01:40:59;100;0;107.02;-4;-19.91;-3.77;449.9;14.80;76253;2837.578;-1801.558;1;99;-130;-132.3;43.4;43.7;16;15.3;24.8;0.0;
05/03/2025 01:41:19;100;0;106.97;-4;-19.78;-3.71;452.3;14.80;76257;2837.578;-1801.557;1;99;-130;-132.3;43.4;43.7;16;15.3;24.8;0.0;
05/03/2025 01:41:39;100;0;106.75;-4;-19.87;-3.79;454.6;14.80;76244;2837.577;-1801.556;1;99;-130;-133.9;43.4;43.7;16;15.3;24.8;0.0;
05/03/2025 01:41:59;100;0;106.99;-4;-19.88;-3.81;457.1;14.80;76257;2837.577;-1801.555;1;99;-130;-130.6;43.4;43.7;16;15.3;24.8;0.0;
05/03/2025 01:42:19;100;0;109.43;-4;-19.94;-3.76;459.5;14.70;76230;2837.576;-1801.554;1;99;-130;-133.9;43.4;43.7;16;15.3;24.8;0.0;
05/03/2025 01:42:39;100;0;110.72;-4;-19.95;-3.78;461.9;14.70;76242;2837.576;-1801.553;1;99;-130;-132.3;43.4;43.7;16;15.3;24.8;0.0;
05/03/2025 01:42:59;100;0;111.47;-4;-20.29;-3.84;464.4;14.70;76237;2837.575;-1801.551;1;99;-130;-132.3;43.4;43.7;16;15.3;24.8;0.0;
05/03/2025 01:43:19;100;0;111.71;-4;-20.35;-3.77;467.3;14.70;76230;2837.574;-1801.550;1;99;-130;-135.5;43.4;43.7;18;18.1;24.8;0.0;
05/03/2025 01:43:39;100;0;110.63;-4;-20.12;-2.19;469.8;14.60;76220;2837.574;-1801.549;1;99;-130;-133.9;43.4;43.7;18;18.5;24.8;0.0;
05/03/2025 01:43:59;100;0;108.88;-4;-20.41;-2.15;472.2;14.60;76216;2837.573;-1801.548;1;99;-130;-130.6;43.4;43.7;16;15.8;24.8;0.0;
05/03/2025 01:44:19;100;0;108.90;-4;-19.95;-3.80;474.9;14.60;76218;2837.573;-1801.546;1;99;-130;-132.3;43.4;43.7;16;15.3;24.8;0.0;
05/03/2025 01:44:39;100;0;108.76;-4;-20.17;-3.73;477.4;14.60;76212;2837.572;-1801.545;1;99;-130;-132.3;43.4;43.7;16;15.3;24.8;0.0;
05/03/2025 01:44:59;100;0;106.19;-4;-20.21;-3.74;480.0;14.50;76212;2837.572;-1801.544;1;99;-130;-132.3;43.4;43.7;16;15.8;24.8;0.0;
05/03/2025 01:45:19;100;0;104.74;-4;-20.08;-3.73;482.6;14.50;76210;2837.571;-1801.543;1;99;-130;-132.3;43.4;43.7;16;15.3;24.8;0.0;
05/03/2025 01:45:39;100;0;104.27;-4;-20.01;-3.72;485.1;14.50;76203;2837.571;-1801.541;1;99;-130;-130.6;43.4;43.9;16;15.8;24.8;0.0;
05/03/2025 01:45:59;100;0;102.69;-4;-20.24;-3.74;487.7;14.50;76206;2837.571;-1801.540;1;99;-130;-132.3;43.4;43.7;16;15.3;24.8;0.0;
05/03/2025 01:46:19;100;0;104.55;-4;-20.38;-3.70;490.4;14.40;76191;2837.570;-1801.538;1;99;-130;-132.3;43.4;43.7;16;15.3;24.8;0.0;
05/03/2025 01:46:39;100;0;104.77;-4;-20.18;-3.67;493.0;14.40;76195;2837.570;-1801.537;1;99;-130;-132.3;43.4;43.7;16;15.3;24.8;0.0;
05/03/2025 01:46:59;100;0;102.91;-4;-19.90;-3.80;495.9;14.40;76186;2837.570;-1801.535;1;99;-130;-130.6;43.4;43.7;16;15.3;24.8;0.0;
05/03/2025 01:47:19;100;0;102.12;-4;-19.88;-3.71;498.6;14.40;76186;2837.570;-1801.534;1;99;-130;-132.3;43.4;43.7;16;15.3;24.8;0.0;
05/03/2025 01:47:22;118;0;102.10;-4;-19.90;-3.74;498.8;14.40;76178;2837.570;-1801.534;1;99;450;-127.4;21.3;21.4;7;7.2;24.8;0.0;
05/03/2025 01:47:32;118;0;101.54;-4;-7.05;-8.71;499.9;14.30;76159;2837.569;-1801.533;1;99;450;-0.0;21.3;21.2;7;7.2;24.0;-1.0;
05/03/2025 01:47:42;118;0;91.49;-4;18.40;-8.66;500.0;14.40;75879;2837.570;-1801.533;1;99;450;125.8;21.3;21.4;7;6.8;23.9;-1.0;
05/03/2025 01:47:52;118;0;88.87;-4;27.54;-9.11;499.2;14.30;75622;2837.570;-1801.534;1;99;450;250.0;21.3;21.5;7;6.8;24.0;-1.0;
05/03/2025 01:48:02;118;0;87.93;-4;27.32;-8.91;498.1;14.30;75361;2837.570;-1801.534;1;99;450;372.6;21.3;21.5;7;6.8;24.0;-1.0;
05/03/2025 01:48:12;118;0;87.83;-4;24.98;-8.49;496.7;14.30;75106;2837.570;-1801.533;1;99;450;453.2;21.3;21.5;7;6.8;23.8;-1.0;
05/03/2025 01:48:22;118;0;104.45;-4;22.13;-7.80;495.0;14.30;74935;2837.570;-1801.532;1;99;450;453.2;21.3;21.5;7;7.2;24.8;-1.0;
05/03/2025 01:48:42;117;0;98.11;-4;19.37;-7.78;491.9;14.30;74932;2837.570;-1801.530;1;99;450;450.0;21.3;21.5;7;7.2;24.8;-1.0;
05/03/2025 01:49:02;117;0;89.92;-4;18.41;-7.77;488.6;14.30;74932;2837.571;-1801.527;1;99;450;453.2;20.8;20.5;35;35.2;24.8;-1.0;
05/03/2025 01:49:22;117;0;91.04;-4;21.20;6.95;485.5;14.30;74924;2837.571;-1801.525;1;99;450;453.2;20.8;20.5;35;35.2;24.8;-1.0;
05/03/2025 01:49:42;117;0;93.96;-4;22.41;7.06;482.0;14.30;74932;2837.571;-1801.523;1;99;450;453.2;21.6;21.5;31;31.1;24.8;-1.0;
05/03/2025 01:50:02;117;0;95.46;-4;21.50;4.77;478.4;14.30;74930;2837.571;-1801.520;1;99;450;453.2;21.6;21.6;31;31.1;24.8;-1.0;
05/03/2025 01:50:22;117;0;96.30;-4;21.09;4.64;474.9;14.30;74922;2837.571;-1801.517;1;99;450;453.2;21.6;21.6;31;31.1;24.8;-1.0;
05/03/2025 01:50:42;117;0;98.42;-4;20.83;4.64;471.6;14.20;74926;2837.571;-1801.515;1;99;450;453.2;21.6;21.6;31;30.7;24.8;-1.0;
05/03/2025 01:51:02;117;0;99.97;-4;21.06;4.83;468.2;14.20;74922;2837.571;-1801.513;1;99;450;453.2;21.6;21.6;31;31.1;24.8;-1.0;
05/03/2025 01:51:22;117;0;101.72;-4;20.96;4.71;464.8;14.20;74929;2837.571;-1801.510;1;99;450;450.0;21.6;21.6;31;31.1;24.8;-1.0;
05/03/2025 01:51:42;117;0;102.95;-4;20.91;4.60;461.5;14.20;74919;2837.570;-1801.508;1;99;450;453.2;21.6;21.6;31;31.1;24.8;-1.0;
05/03/2025 01:52:02;117;0;103.27;-4;20.98;4.44;458.2;14.10;74929;2837.570;-1801.506;1;99;450;453.2;21.6;21.6;31;31.1;24.8;-1.0;
05/03/2025 01:52:22;117;0;103.59;-4;21.04;4.79;454.8;14.10;74920;2837.569;-1801.503;1;99;450;453.2;21.6;21.8;31;31.1;24.8;-1.0;
05/03/2025 01:52:42;117;0;104.83;-4;20.65;4.61;451.3;14.10;74914;2837.569;-1801.501;1;99;450;453.2;21.6;21.6;31;31.1;24.8;-1.0;
05/03/2025 01:53:02;117;0;105.17;-4;20.86;4.69;447.9;14.10;74920;2837.568;-1801.499;1;99;450;453.2;21.6;21.6;31;31.1;24.8;-1.0;
05/03/2025 01:53:22;117;0;103.44;-4;20.81;4.74;444.5;14.10;74905;2837.568;-1801.496;1;99;450;453.2;21.6;21.6;31;31.1;24.8;-1.0;
05/03/2025 01:53:43;117;0;103.10;-4;20.76;4.76;441.0;14.10;74914;2837.567;-1801.494;1;99;450;453.2;21.6;21.6;31;31.1;24.8;-1.0;
05/03/2025 01:54:03;117;0;103.66;-4;20.71;4.54;437.5;14.00;74905;2837.567;-1801.491;1;99;450;453.2;21.6;21.6;31;31.1;24.8;-1.0;
05/03/2025 01:54:23;117;0;105.12;-4;20.64;4.68;433.9;14.00;74909;2837.566;-1801.489;1;99;450;453.2;21.6;21.8;29;28.9;24.8;-1.0;
05/03/2025 01:54:43;117;0;105.33;-4;20.59;3.39;430.5;14.00;74911;2837.566;-1801.486;1;99;450;453.2;21.6;21.6;29;28.9;24.8;-1.0;
05/03/2025 01:55:03;117;0;105.07;-4;20.51;3.49;427.1;14.00;74915;2837.565;-1801.484;1;99;450;453.2;21.6;21.6;29;28.4;24.8;-1.0;
05/03/2025 01:55:23;117;0;104.58;-4;20.44;3.38;423.6;14.00;74918;2837.564;-1801.481;1;99;450;453.2;21.6;21.6;29;28.4;24.8;-1.0;
05/03/2025 01:55:43;117;0;105.72;-4;20.48;3.32;420.3;14.00;74918;2837.564;-1801.479;1;99;450;453.2;21.6;21.6;29;28.4;24.8;-1.0;
05/03/2025 01:56:03;117;0;106.51;-4;20.40;3.32;416.8;14.00;74921;2837.563;-1801.477;1;99;450;453.2;21.6;21.6;29;28.4;24.8;-1.0;
05/03/2025 01:56:23;117;0;106.95;-4;20.53;3.32;413.4;14.00;74916;2837.562;-1801.474;1;99;450;453.2;21.6;21.6;29;28.4;24.8;-1.0;
05/03/2025 01:56:43;117;0;106.27;-4;20.38;3.45;409.8;14.00;74925;2837.561;-1801.472;1;99;450;453.2;21.6;21.6;29;28.4;24.8;-1.0;
05/03/2025 01:57:03;117;0;105.82;-4;20.47;3.34;406.4;14.00;74903;2837.561;-1801.469;1;99;450;453.2;21.6;21.6;29;28.4;24.8;-1.0;
05/03/2025 01:57:23;117;0;105.48;-4;20.29;3.41;402.8;14.00;74911;2837.560;-1801.466;1;99;450;453.2;21.6;21.6;29;28.4;24.8;-1.0;
05/03/2025 01:57:43;117;0;105.00;-4;20.46;3.47;399.6;13.90;74916;2837.559;-1801.464;1;99;450;453.2;21.6;21.8;29;28.4;24.8;-1.0;
05/03/2025 01:58:03;117;0;104.03;-4;20.56;3.27;396.2;13.90;74916;2837.559;-1801.462;1;99;450;453.2;21.6;21.6;29;28.4;24.8;-1.0;
05/03/2025 01:58:23;117;0;103.97;-4;20.53;3.44;392.6;13.90;74921;2837.558;-1801.459;1;99;450;453.2;21.6;21.6;29;28.4;24.8;-1.0;
05/03/2025 01:58:43;117;0;103.63;-4;20.27;3.38;389.2;13.90;74914;2837.558;-1801.457;1;99;450;454.8;21.6;21.6;29;28.4;24.8;-1.0;
05/03/2025 01:59:03;117;0;104.34;-4;20.53;3.43;385.8;13.90;74911;2837.557;-1801.454;1;99;450;453.2;21.6;21.6;29;28.4;24.8;-1.0;
05/03/2025 01:59:23;117;0;105.36;-4;20.66;3.34;382.4;13.90;74911;2837.557;-1801.452;1;99;450;453.2;21.6;21.6;29;28.4;24.8;-1.0;
05/03/2025 01:59:43;117;0;106.45;-4;20.46;3.42;378.8;13.90;74919;2837.556;-1801.449;1;99;450;453.2;21.6;21.6;29;28.4;24.8;-1.0;
05/03/2025 02:00:03;117;0;106.98;-4;20.45;3.32;375.6;13.90;74919;2837.555;-1801.447;1;99;450;453.2;21.6;21.6;29;28.4;24.8;-1.0;
05/03/2025 02:00:23;117;0;106.20;-4;20.31;3.37;372.1;13.90;74925;2837.554;-1801.445;1;99;450;456.5;21.6;21.6;29;28.4;24.8;-1.0;
05/03/2025 02:00:43;117;0;106.42;-4;20.41;3.42;368.6;13.90;74931;2837.554;-1801.442;1;99;450;453.2;21.6;21.6;29;28.4;24.8;-1.0;
05/03/2025 02:01:03;117;0;106.38;-4;20.43;3.40;365.3;13.90;74930;2837.553;-1801.440;1;99;450;453.2;21.6;21.6;29;28.4;24.8;-1.0;
05/03/2025 02:01:23;117;0;105.57;-4;20.45;3.42;361.9;13.90;74920;2837.552;-1801.437;1;99;450;453.2;21.6;21.6;29;28.4;24.8;-1.0;
05/03/2025 02:01:43;117;0;105.74;-4;20.45;3.31;358.4;13.90;74933;2837.552;-1801.435;1;99;450;454.8;21.6;21.6;29;28.4;24.8;-1.0;
05/03/2025 02:02:03;117;0;104.48;-4;20.35;3.40;354.7;13.90;74932;2837.551;-1801.432;1;99;450;453.2;21.6;21.6;29;28.4;24.8;-1.0;
05/03/2025 02:02:23;117;0;104.64;-4;20.28;3.32;351.1;13.90;74929;2837.550;-1801.429;1;99;450;454.8;21.6;21.6;29;28.4;24.8;-1.0;
05/03/2025 02:02:43;117;0;105.03;-4;20.24;3.35;347.6;13.90;74935;2837.550;-1801.426;1;99;450;453.2;21.6;21.6;29;28.4;24.8;-1.0;
05/03/2025 02:03:03;117;0;104.68;-4;20.40;3.36;344.2;13.90;74944;2837.549;-1801.424;1;99;450;453.2;21.6;21.6;29;28.4;24.8;-1.0;
05/03/2025 02:03:23;117;0;104.17;-4;20.38;3.38;340.7;13.90;74944;2837.548;-1801.421;1;99;450;454.8;21.6;21.6;29;28.9;24.8;-1.0;
05/03/2025 02:03:43;117;0;102.94;-4;20.27;3.49;337.2;13.90;74950;2837.548;-1801.418;1;99;450;453.2;21.6;21.6;29;28.4;24.8;-1.0;
05/03/2025 02:04:03;117;0;101.10;-4;20.06;3.51;333.6;13.90;74944;2837.548;-1801.416;1;99;450;453.2;21.6;21.6;29;28.4;24.8;-1.0;
05/03/2025 02:04:23;117;0;100.40;-4;20.14;3.33;330.4;13.90;74944;2837.547;-1801.413;1;99;450;453.2;21.6;21.6;29;28.4;24.8;-1.0;
05/03/2025 02:04:43;117;0;97.84;-4;20.07;3.33;326.9;13.90;74947;2837.547;-1801.411;1;99;450;454.8;21.6;21.6;29;28.4;24.8;-1.0;
05/03/2025 02:05:03;117;0;95.32;-4;19.90;3.65;323.6;13.90;74953;2837.547;-1801.408;1;99;450;454.8;21.6;21.8;29;28.4;24.8;-1.0;
05/03/2025 02:05:23;117;0;94.86;-4;19.90;3.35;320.6;13.90;74950;2837.548;-1801.406;1;99;450;454.8;21.6;21.6;29;28.4;24.8;-1.0;
05/03/2025 02:05:43;117;0;94.40;-4;20.39;3.43;317.1;13.90;74955;2837.548;-1801.403;1;99;450;453.2;21.6;21.6;29;28.4;24.8;-1.0;
05/03/2025 02:06:03;117;0;94.40;-4;19.91;3.43;313.8;13.90;74956;2837.548;-1801.401;1;99;450;454.8;21.6;21.8;29;28.4;24.8;-1.0;
05/03/2025 02:06:23;117;0;92.67;-4;19.91;3.49;310.5;13.90;74949;2837.548;-1801.398;1;99;450;454.8;21.6;21.6;31;31.1;24.8;-1.0;
05/03/2025 02:06:43;117;0;91.98;-4;20.20;4.99;307.5;13.90;74955;2837.549;-1801.396;1;99;450;454.8;21.6;21.8;31;31.6;24.8;-1.0;
05/03/2025 02:07:03;117;0;93.26;-4;20.36;4.96;304.4;13.90;74971;2837.549;-1801.394;1;99;450;454.8;21.6;21.6;31;31.6;24.8;-1.0;
05/03/2025 02:07:23;117;0;95.01;-4;20.28;5.04;301.4;13.90;74984;2837.549;-1801.392;1;99;450;454.8;21.6;21.8;31;31.6;24.8;-1.0;
05/03/2025 02:07:43;117;0;94.80;-4;20.23;4.99;298.3;13.90;74995;2837.549;-1801.390;1;99;450;453.2;21.6;21.6;31;31.6;24.8;-1.0;
05/03/2025 02:08:03;117;0;95.15;-4;20.22;4.99;295.1;13.90;75001;2837.549;-1801.387;1;99;450;454.8;21.6;21.6;31;31.6;24.8;-1.0;
05/03/2025 02:08:23;117;0;95.92;-4;20.25;5.04;291.9;14.00;75014;2837.549;-1801.385;1;99;450;454.8;21.6;21.6;31;31.6;24.8;-1.0;
05/03/2025 02:08:43;117;0;96.90;-4;20.36;5.01;288.7;14.00;75010;2837.549;-1801.383;1;99;450;454.8;21.6;21.6;31;31.6;24.8;-1.0;
05/03/2025 02:09:03;117;0;98.45;-4;20.30;5.01;285.4;14.00;75025;2837.549;-1801.380;1;99;450;454.8;21.6;21.6;31;31.6;24.8;-1.0;
05/03/2025 02:09:23;117;0;101.29;-4;20.40;4.95;282.0;14.00;75025;2837.549;-1801.378;1;99;450;454.8;21.6;21.8;31;31.6;24.8;-1.0;
05/03/2025 02:09:43;117;0;103.66;-4;20.37;4.94;278.6;14.00;75039;2837.548;-1801.375;1;99;450;454.8;21.6;21.6;29;28.9;24.8;-1.0;
05/03/2025 02:10:03;117;0;105.64;-4;20.33;3.57;275.2;14.00;75027;2837.548;-1801.373;1;99;450;456.5;21.6;21.6;29;28.9;24.8;-1.0;
05/03/2025 02:10:23;117;0;106.27;-4;20.18;3.50;271.8;14.00;75040;2837.547;-1801.370;1;99;450;454.8;21.6;21.6;29;28.9;24.8;-1.0;
05/03/2025 02:10:43;117;0;107.74;-4;20.31;3.55;268.4;14.10;75041;2837.546;-1801.368;1;99;450;454.8;21.6;21.6;29;28.9;24.8;-1.0;
05/03/2025 02:11:03;117;0;108.98;-4;20.22;3.57;264.8;14.10;75041;2837.545;-1801.365;1;99;450;454.8;21.6;21.6;29;28.9;24.8;-1.0;
05/03/2025 02:11:23;117;0;111.16;-4;20.20;3.52;261.5;14.10;75054;2837.544;-1801.363;1;99;450;454.8;21.6;21.6;26;26.2;24.8;-1.0;
05/03/2025 02:11:43;117;0;113.15;-4;19.91;1.97;257.8;14.10;75056;2837.543;-1801.360;1;99;450;454.8;21.6;21.6;24;23.9;24.8;-1.0;
05/03/2025 02:12:03;117;0;111.62;-4;19.53;0.96;254.4;14.10;75059;2837.542;-1801.358;1;99;450;453.2;21.6;21.6;26;26.2;24.8;-1.0;
05/03/2025 02:12:23;117;0;110.64;-4;19.73;2.43;251.1;14.10;75077;2837.541;-1801.356;1;99;450;454.8;21.6;21.6;26;26.6;24.8;-1.0;
05/03/2025 02:12:43;117;0;110.18;-4;19.76;2.45;247.7;14.10;75069;2837.540;-1801.353;1;99;450;456.5;21.6;21.6;26;26.6;24.8;-1.0;
05/03/2025 02:13:03;117;0;108.47;-4;19.77;2.53;244.3;14.20;75076;2837.539;-1801.351;1;99;450;454.8;21.6;21.6;28;28.0;24.8;-1.0;
05/03/2025 02:13:23;117;0;105.69;-4;19.92;3.30;241.0;14.20;75086;2837.538;-1801.349;1;99;450;454.8;21.6;21.8;28;28.4;24.8;-1.0;
05/03/2025 02:13:43;117;0;105.96;-4;19.82;3.25;237.6;14.20;75094;2837.538;-1801.346;1;99;450;454.8;21.6;21.6;28;28.0;24.8;-1.0;
05/03/2025 02:14:03;117;0;105.03;-4;19.77;3.30;234.3;14.20;75099;2837.537;-1801.344;1;99;450;454.8;21.6;21.6;28;28.4;24.8;-1.0;
05/03/2025 02:14:23;117;0;104.68;-4;19.93;3.21;231.0;14.20;75111;2837.536;-1801.342;1;99;450;454.8;21.6;21.8;28;28.4;24.8;-1.0;
05/03/2025 02:14:43;117;0;103.27;-4;19.68;3.32;227.6;14.30;75116;2837.536;-1801.339;1;99;450;456.5;21.6;21.6;28;28.4;24.8;-1.0;
05/03/2025 02:15:03;117;0;101.49;-4;19.52;3.34;224.4;14.30;75123;2837.536;-1801.337;1;99;450;453.2;21.6;21.6;28;28.4;24.8;-1.0;
05/03/2025 02:15:23;117;0;101.36;-4;19.60;3.22;221.3;14.30;75135;2837.535;-1801.335;1;99;450;454.8;21.6;21.6;28;28.4;24.8;-1.0;
05/03/2025 02:15:43;117;0;100.27;-4;19.91;3.39;218.3;14.30;75138;2837.535;-1801.333;1;99;450;454.8;21.6;21.8;28;28.4;24.8;-1.0;
05/03/2025 02:16:03;117;0;96.44;-4;19.90;3.46;215.0;14.30;75146;2837.535;-1801.330;1;99;450;454.8;21.6;21.6;28;28.4;24.8;-1.0;
05/03/2025 02:16:23;117;0;97.02;-4;19.40;3.26;211.7;14.40;75161;2837.535;-1801.327;1;99;450;454.8;21.6;21.6;28;28.4;24.8;-1.0;
05/03/2025 02:16:43;117;0;95.09;-4;20.12;3.41;208.5;14.40;75168;2837.535;-1801.325;1;99;450;454.8;21.6;21.8;30;30.2;24.8;-1.0;
05/03/2025 02:17:03;117;0;94.35;-4;19.82;4.59;205.6;14.40;75172;2837.536;-1801.323;1;99;450;454.8;21.6;21.6;30;30.2;24.8;-1.0;
05/03/2025 02:17:23;117;0;94.44;-4;19.97;4.37;202.3;14.40;75179;2837.536;-1801.321;1;99;450;453.2;21.6;21.8;30;30.7;24.8;-1.0;
05/03/2025 02:17:43;117;0;93.68;-4;19.92;4.48;199.3;14.50;75181;2837.536;-1801.319;1;99;450;456.5;21.6;21.6;30;30.2;24.8;-1.0;
05/03/2025 02:18:03;117;0;94.81;-4;20.01;4.27;196.4;14.50;75199;2837.536;-1801.317;1;99;450;454.8;21.6;21.8;30;30.2;24.8;-1.0;
05/03/2025 02:18:23;117;0;98.19;-4;20.12;4.36;193.2;14.50;75207;2837.536;-1801.314;1;99;450;454.8;21.6;21.8;30;30.7;24.8;-1.0;
05/03/2025 02:18:43;117;0;100.10;-4;20.02;4.38;190.2;14.50;75224;2837.536;-1801.312;1;99;450;454.8;21.6;21.8;30;30.2;24.8;-1.0;
05/03/2025 02:19:03;117;0;101.15;-4;19.83;4.20;186.8;14.60;75234;2837.536;-1801.310;1;99;450;454.8;21.6;21.6;30;30.2;24.8;-1.0;
05/03/2025 02:19:23;117;0;103.63;-4;20.05;4.42;183.7;14.60;75238;2837.535;-1801.308;1;99;450;454.8;21.6;21.6;30;30.2;24.8;-1.0;
05/03/2025 02:19:43;117;0;105.58;-4;20.17;4.33;180.7;14.60;75248;2837.535;-1801.306;1;99;450;454.8;21.6;21.8;30;30.2;24.8;-1.0;
05/03/2025 02:20:03;117;0;105.66;-4;19.50;4.46;177.5;14.60;75258;2837.534;-1801.304;1;99;450;453.2;21.6;21.6;30;30.2;24.8;-1.0;
05/03/2025 02:20:23;117;0;106.10;-4;20.00;4.77;174.2;14.70;75256;2837.533;-1801.301;1;99;450;454.8;21.6;21.6;30;30.2;24.8;-1.0;
05/03/2025 02:20:43;117;0;107.68;-4;19.57;4.31;171.1;14.70;75267;2837.533;-1801.299;1;99;450;456.5;21.6;21.6;30;30.7;24.8;-1.0;
05/03/2025 02:21:03;117;0;108.00;-4;19.67;4.43;168.0;14.70;75278;2837.532;-1801.297;1;99;450;454.8;21.6;21.6;28;28.0;24.8;-1.0;
05/03/2025 02:21:23;117;0;107.06;-4;19.83;3.15;165.1;14.70;75274;2837.531;-1801.295;1;99;450;454.8;21.6;21.6;28;28.0;24.8;-1.0;
05/03/2025 02:21:43;117;0;107.71;-4;20.00;2.87;162.1;14.80;75276;2837.531;-1801.294;1;99;450;454.8;21.6;21.8;28;28.0;24.8;-1.0;
05/03/2025 02:22:03;117;0;107.00;-4;19.65;3.05;158.8;14.80;75285;2837.530;-1801.291;1;99;450;454.8;21.6;21.8;28;28.0;24.8;-1.0;
05/03/2025 02:22:23;117;0;106.82;-4;20.03;3.06;155.4;14.80;75285;2837.529;-1801.289;1;99;450;456.5;21.6;21.6;28;28.0;24.8;-1.0;
05/03/2025 02:22:43;117;0;107.11;-4;19.74;3.07;152.0;14.90;75304;2837.528;-1801.287;1;99;450;454.8;21.6;21.6;28;28.0;24.8;-1.0;
05/03/2025 02:23:03;117;0;107.74;-4;19.35;3.03;149.0;14.90;75312;2837.528;-1801.284;1;99;450;454.8;21.6;21.8;28;28.0;24.8;-1.0;
05/03/2025 02:23:23;117;0;107.50;-4;19.54;3.02;145.8;14.90;75316;2837.527;-1801.282;1;99;450;453.2;21.6;21.6;28;28.0;24.8;-1.0;
05/03/2025 02:23:43;117;0;108.35;-4;19.50;2.98;142.8;14.90;75327;2837.526;-1801.280;1;99;450;453.2;21.6;21.6;28;28.0;24.8;-1.0;
05/03/2025 02:24:03;117;0;107.92;-4;19.64;3.11;139.8;15.00;75336;2837.526;-1801.279;1;99;450;454.8;21.6;21.8;28;28.0;24.8;-1.0;
05/03/2025 02:24:23;117;0;106.20;-4;19.47;3.19;136.7;15.00;75342;2837.525;-1801.276;1;99;450;454.8;21.6;21.6;28;28.0;24.8;-1.0;
05/03/2025 02:24:43;117;0;104.87;-4;19.59;3.03;133.7;15.00;75347;2837.524;-1801.274;1;99;450;454.8;21.6;21.6;28;28.0;24.8;-1.0;
05/03/2025 02:25:03;117;0;102.83;-4;19.46;3.06;130.6;15.00;75351;2837.524;-1801.272;1;99;450;456.5;21.6;21.6;28;28.0;24.8;-1.0;
05/03/2025 02:25:23;117;0;103.83;-4;19.27;3.00;127.6;15.10;75354;2837.524;-1801.270;1;99;450;456.5;21.6;21.6;28;28.0;24.8;-1.0;
05/03/2025 02:25:43;117;0;102.20;-4;19.45;3.12;124.7;15.10;75376;2837.523;-1801.268;1;99;450;454.8;21.6;21.6;28;28.0;24.8;-1.0;
05/03/2025 02:26:03;117;0;100.02;-4;19.70;3.12;121.8;15.10;75388;2837.523;-1801.266;1;99;450;456.5;21.6;21.8;28;28.0;24.8;-1.0;
05/03/2025 02:26:23;117;0;95.76;-4;19.37;3.06;118.9;15.20;75398;2837.523;-1801.264;1;99;450;454.8;21.6;21.8;30;29.8;24.8;-1.0;
05/03/2025 02:26:43;117;0;95.26;-4;19.44;4.31;116.0;15.20;75416;2837.523;-1801.262;1;99;450;456.5;21.6;21.6;30;30.2;24.8;-1.0;
05/03/2025 02:27:03;117;0;96.78;-4;19.53;4.30;112.9;15.20;75431;2837.523;-1801.260;1;99;450;456.5;21.6;21.6;30;30.2;24.8;-1.0;
05/03/2025 02:27:23;117;0;96.91;-4;19.37;4.27;109.8;15.30;75441;2837.523;-1801.258;1;99;450;456.5;21.6;21.8;30;30.2;24.8;-1.0;
05/03/2025 02:27:43;117;0;97.46;-4;19.51;4.22;106.6;15.30;75453;2837.523;-1801.255;1;99;450;456.5;21.6;21.6;30;30.2;24.8;-1.0;
05/03/2025 02:28:03;117;0;96.53;-4;19.20;4.50;103.5;15.30;75481;2837.523;-1801.253;1;99;450;456.5;21.6;21.8;30;30.2;24.8;-1.0;
05/03/2025 02:28:23;117;0;98.85;-4;19.25;4.16;100.6;15.40;75517;2837.523;-1801.251;1;99;450;456.5;21.6;21.8;30;30.2;24.8;-1.0;
05/03/2025 02:28:43;117;0;100.04;-4;19.25;4.24;97.7;15.40;75529;2837.523;-1801.249;1;99;450;454.8;21.6;21.6;30;30.2;24.8;-1.0;
05/03/2025 02:29:04;117;0;98.26;-4;19.25;4.42;94.7;15.50;75549;2837.523;-1801.247;1;99;450;453.2;21.6;21.6;30;30.2;24.8;-1.0;
05/03/2025 02:29:24;117;0;98.12;-4;19.08;4.35;91.7;15.50;75569;2837.523;-1801.245;1;99;450;454.8;21.6;21.6;30;30.2;24.8;-1.0;
05/03/2025 02:29:44;117;0;96.78;-4;19.12;4.30;88.7;15.60;75586;2837.523;-1801.243;1;99;450;454.8;21.6;21.6;30;30.2;24.8;-1.0;
05/03/2025 02:30:04;117;0;96.15;-4;19.23;4.32;85.7;15.60;75600;2837.523;-1801.240;1;99;450;456.5;21.6;21.6;30;30.2;24.8;-1.0;
05/03/2025 02:30:24;117;0;96.93;-4;19.25;4.32;82.6;15.70;75631;2837.523;-1801.238;1;99;450;456.5;21.6;21.8;30;30.2;24.8;-1.0;
05/03/2025 02:30:44;117;0;96.37;-4;18.84;4.19;79.4;15.70;75662;2837.523;-1801.235;1;99;450;456.5;21.2;21.2;30;30.2;24.8;-1.0;
05/03/2025 02:31:04;117;0;95.70;-4;20.13;4.38;76.2;15.80;75682;2837.523;-1801.233;1;99;450;456.5;21.2;20.6;30;30.2;24.8;-1.0;
05/03/2025 02:31:24;117;0;95.17;-4;20.66;4.29;73.0;15.90;75690;2837.523;-1801.231;1;99;450;456.5;21.2;20.5;30;30.2;24.8;-1.0;
05/03/2025 02:31:44;117;0;95.96;-4;20.80;4.31;69.4;15.90;75710;2837.524;-1801.228;1;99;450;456.5;21.2;20.6;30;30.2;24.8;-1.0;
05/03/2025 02:32:04;117;0;98.90;-4;20.73;4.20;66.1;16.00;75741;2837.523;-1801.226;1;99;450;456.5;21.2;20.6;30;30.2;24.8;-1.0;
05/03/2025 02:32:24;117;0;100.64;-4;20.85;4.31;62.6;16.00;75756;2837.523;-1801.223;1;99;450;456.5;21.2;20.6;30;30.2;24.8;-1.0;
05/03/2025 02:32:44;117;0;101.90;-4;20.79;4.34;59.2;16.10;75781;2837.523;-1801.221;1;99;450;456.5;21.2;20.6;30;30.2;24.8;-1.0;
05/03/2025 02:33:04;117;0;103.09;-4;20.72;4.29;56.0;16.10;75798;2837.522;-1801.219;1;99;450;454.8;21.2;20.6;30;30.2;24.8;-1.0;
05/03/2025 02:33:24;117;0;104.52;-4;20.70;4.29;52.8;16.20;75807;2837.522;-1801.217;1;99;450;456.5;21.2;20.6;30;30.2;24.8;-1.0;
05/03/2025 02:33:44;117;0;103.88;-4;20.77;4.26;49.6;16.30;75829;2837.521;-1801.215;1;99;450;456.5;21.2;20.6;30;30.2;24.8;-1.0;
05/03/2025 02:34:04;117;0;103.83;-4;20.76;4.27;46.3;16.30;75832;2837.521;-1801.212;1;99;450;456.5;21.2;20.6;30;30.2;24.8;-1.0;
05/03/2025 02:34:24;117;0;103.93;-4;21.23;4.18;43.1;16.40;75834;2837.520;-1801.210;1;99;450;453.2;21.2;20.6;30;30.2;24.8;-1.0;
05/03/2025 02:34:44;117;0;104.77;-4;20.36;4.20;39.5;16.40;75843;2837.520;-1801.208;1;99;450;454.8;21.2;20.6;30;30.2;24.8;-1.0;
05/03/2025 02:35:04;117;0;101.95;-4;19.96;2.81;36.6;16.50;75864;2837.520;-1801.206;1;99;450;456.5;21.2;20.6;30;30.2;24.8;-1.0;
05/03/2025 02:35:24;117;0;106.61;-4;21.74;4.26;33.2;16.60;75876;2837.519;-1801.204;1;99;450;456.5;21.2;20.6;30;30.2;24.8;-1.0;
05/03/2025 02:35:44;117;0;106.14;-4;20.52;4.27;29.5;16.60;75879;2837.518;-1801.201;1;99;450;458.1;21.2;20.6;30;30.2;24.8;-1.0;
05/03/2025 02:36:04;117;0;103.90;-4;20.63;4.44;26.2;16.70;75895;2837.518;-1801.199;1;99;450;456.5;21.2;20.6;30;30.2;24.8;-1.0;
05/03/2025 02:36:24;117;0;102.12;-4;20.41;4.53;22.9;16.70;75897;2837.517;-1801.196;1;99;450;456.5;21.2;20.6;30;30.2;24.8;-1.0;
05/03/2025 02:36:44;117;0;101.35;-4;20.27;3.71;19.8;16.80;75895;2837.517;-1801.194;1;99;450;456.5;21.2;20.5;30;30.2;24.8;-1.0;
05/03/2025 02:37:04;117;0;100.88;-4;20.50;4.26;16.4;16.80;75912;2837.517;-1801.192;1;99;450;456.5;21.2;20.6;30;30.2;24.8;-1.0;
05/03/2025 02:37:24;117;0;105.43;-4;19.59;4.72;13.0;16.90;75910;2837.516;-1801.189;1;99;450;458.1;21.2;20.6;30;30.2;24.8;-1.0;
05/03/2025 02:37:44;117;0;104.39;-4;19.08;3.79;9.6;16.90;75934;2837.515;-1801.186;1;99;450;456.5;21.2;20.6;30;30.2;24.8;-1.0;
05/03/2025 02:38:04;117;0;102.54;-4;20.04;4.81;6.8;17.00;75924;2837.515;-1801.185;1;99;450;456.5;21.2;20.6;30;30.2;24.8;-1.0;
05/03/2025 02:38:24;117;0;104.40;-4;22.11;4.51;3.5;17.00;75935;2837.515;-1801.183;1;99;450;456.5;21.9;20.8;30;30.2;24.8;-1.0;
05/03/2025 02:38:27;115;0;104.89;-4;20.85;3.39;3.0;17.10;75943;2837.515;-1801.183;1;99;500;461.3;100.0;60.4;0;0.0;24.8;-1.0;
05/03/2025 02:38:37;115;0;97.74;-4;6.93;-11.77;1.8;17.10;75917;2837.515;-1801.181;1;99;500;504.8;100.0;100.0;0;0.0;24.5;-1.0;
05/03/2025 02:38:47;115;0;90.12;-4;-61.13;-12.94;2.2;17.10;75832;2837.515;-1801.182;1;99;500;504.8;100.0;100.4;0;-0.5;24.8;-1.0;
05/03/2025 02:39:07;119;0;111.36;-4;-46.43;-15.80;-0.0;17.20;75842;2837.515;-1801.182;1;99;500;504.8;100.0;100.4;0;0.0;24.8;-1.0;
05/03/2025 02:39:17;119;0;88.24;-4;-52.69;-11.99;0.1;17.20;75838;2837.948;-1800.713;0;99;500;504.8;100.0;100.4;0;-0.5;24.8;-1.0;
