Timestamp;NavState;SecurityLevel;Heading;Declination;Pitch;Roll;Depth;Temperature;Pa;Lat;Lon;DeadReckoning;DesiredH;BallastCmd;BallastPos;LinCmd;LinPos;AngCmd;AngPos;Voltage;Altitude;
22/02/2025 08:39:59;119;0;41.96;-4;-59.74;-11.50;-0.0;17.20;75630;2836.505;-1800.308;0;133;500;509.7;100.0;100.4;0;-0.5;27.2;-1.0;
22/02/2025 08:40:09;116;0;49.76;-4;-59.53;-18.58;0.4;17.30;75630;2836.512;-1800.326;0;133;500;509.7;100.0;100.6;0;-0.5;27.2;-1.0;
22/02/2025 08:40:34;116;0;72.84;-4;-60.49;-15.60;0.2;17.30;75641;2836.510;-1800.323;0;133;500;511.3;100.0;100.6;0;-0.5;27.2;-1.0;
22/02/2025 08:40:54;116;0;87.41;-4;-47.86;-25.95;0.1;17.40;75649;2836.511;-1800.324;0;135;500;509.7;100.0;100.6;0;-0.5;27.2;-1.0;
22/02/2025 08:41:13;116;0;78.86;-4;-49.35;-20.61;0.1;17.40;75648;2836.513;-1800.326;0;135;500;508.1;100.0;100.4;0;-0.5;27.2;-1.0;
22/02/2025 08:41:33;116;0;81.67;-4;-53.51;-16.52;-0.0;17.50;75659;2836.515;-1800.327;0;135;500;509.7;100.0;100.6;0;-0.5;27.2;-1.0;
22/02/2025 08:42:36;116;0;43.64;-4;-56.49;-6.86;0.0;17.70;75674;2836.522;-1800.331;0;135;500;511.3;100.0;100.6;0;-0.5;27.2;-1.0;
22/02/2025 08:44:05;116;0;72.70;-4;-58.87;-19.84;0.0;18.00;75702;2836.533;-1800.337;0;135;500;509.7;100.0;100.6;0;-0.5;27.2;-1.0;
22/02/2025 08:45:25;116;0;75.51;-4;-55.68;-6.11;-0.1;18.40;75746;2836.540;-1800.344;0;135;500;511.3;100.0;100.6;0;-0.5;27.2;-1.0;
22/02/2025 08:45:45;110;0;80.13;-4;-59.00;-6.82;0.2;18.50;75747;2836.540;-1800.344;0;135;-70;391.9;100.0;100.4;-7;-7.2;27.2;-1.0;
22/02/2025 08:45:55;110;0;77.38;-4;-59.68;-20.10;0.2;18.50;76103;2836.541;-1800.344;1;135;-70;243.5;100.0;100.6;-7;-7.7;27.1;-1.0;
22/02/2025 08:46:05;110;0;75.34;-4;-53.55;-22.19;0.6;18.60;76348;2836.541;-1800.344;1;135;-70;83.9;100.0;100.4;-7;-7.7;27.1;-1.0;
22/02/2025 08:46:15;110;0;67.60;-4;-69.58;-21.64;1.1;18.60;76671;2836.541;-1800.344;1;135;-70;-67.7;100.0;100.6;-7;-7.7;27.1;-1.0;
22/02/2025 08:46:25;110;0;59.81;-4;-64.77;-16.54;1.5;18.70;76986;2836.542;-1800.344;1;135;-70;-67.7;43.7;43.7;-7;-7.7;27.2;-1.0;
22/02/2025 08:46:45;100;0;71.53;-4;-30.69;-15.10;4.9;18.70;76954;2836.543;-1800.341;1;135;-70;-66.1;43.7;43.4;-7;-7.7;27.2;-1.0;
22/02/2025 08:47:05;100;0;77.79;-4;-21.38;-15.55;8.0;18.80;76955;2836.545;-1800.338;1;135;-70;-66.1;43.7;43.7;-56;-56.4;27.2;-1.0;
22/02/2025 08:47:25;100;0;84.90;-4;-20.89;-37.45;10.7;18.80;76966;2836.546;-1800.335;1;135;-70;-62.9;43.7;43.9;-47;-46.9;27.2;-1.0;
22/02/2025 08:47:45;100;0;101.16;-4;-20.42;-33.26;13.4;18.90;76978;2836.546;-1800.331;1;135;-70;-62.9;43.7;44.0;-27;-27.1;27.2;0.0;
22/02/2025 08:48:05;100;0;115.24;-4;-22.41;-24.19;16.0;18.90;76980;2836.545;-1800.329;1;135;-70;-62.9;43.0;42.7;-7;-7.2;27.2;0.0;
22/02/2025 08:48:25;100;0;122.67;-4;-19.24;-14.74;18.7;18.90;76988;2836.544;-1800.326;1;135;-70;-61.3;43.0;42.7;7;7.7;27.2;0.0;
22/02/2025 08:48:45;100;0;129.40;-4;-18.96;-7.74;21.3;18.90;76980;2836.543;-1800.323;1;135;-70;-62.9;43.3;43.6;14;14.4;27.1;0.0;
22/02/2025 08:49:05;100;0;133.20;-4;-20.96;-4.17;23.8;19.00;76983;2836.541;-1800.321;1;135;-70;-62.9;43.3;43.6;14;14.4;27.2;0.0;
22/02/2025 08:49:25;100;0;131.85;-4;-21.79;-4.27;26.5;19.00;76993;2836.540;-1800.319;1;135;-70;-62.9;43.3;43.6;14;14.9;27.1;0.0;
22/02/2025 08:49:45;100;0;133.87;-4;-21.58;-4.11;29.2;19.00;76993;2836.538;-1800.317;1;135;-70;-61.3;43.3;43.6;14;14.4;27.2;0.0;
22/02/2025 08:50:05;100;0;132.73;-4;-21.37;-4.12;31.9;19.00;76993;2836.537;-1800.315;1;135;-70;-61.3;43.3;43.6;14;14.9;27.2;0.0;
22/02/2025 08:50:25;100;0;133.10;-4;-21.94;-4.17;34.6;19.00;77012;2836.535;-1800.313;1;135;-70;-62.9;43.3;43.6;14;14.9;27.2;0.0;
22/02/2025 08:50:45;100;0;132.58;-4;-21.02;-4.12;37.4;19.00;77012;2836.534;-1800.311;1;135;-70;-61.3;43.3;43.6;14;14.9;27.2;0.0;
22/02/2025 08:51:05;100;0;131.40;-4;-21.17;-4.24;40.1;19.00;77006;2836.532;-1800.308;1;135;-70;-62.9;43.3;43.6;14;14.9;27.2;0.0;
22/02/2025 08:51:25;100;0;131.37;-4;-21.26;-4.18;42.9;19.00;77012;2836.531;-1800.306;1;135;-70;-62.9;43.3;43.6;14;14.4;27.2;0.0;
22/02/2025 08:51:45;100;0;130.98;-4;-21.51;-4.23;45.6;19.00;77026;2836.529;-1800.304;1;135;-70;-62.9;43.3;43.6;14;14.4;27.2;0.0;
22/02/2025 08:52:05;100;0;130.31;-4;-21.43;-4.16;48.3;19.00;77032;2836.528;-1800.302;1;135;-70;-61.3;43.3;43.6;14;14.9;27.2;0.0;
22/02/2025 08:52:25;100;0;130.41;-4;-21.62;-4.14;51.0;19.00;77041;2836.526;-1800.299;1;135;-70;-62.9;43.3;43.7;14;14.4;27.2;0.0;
22/02/2025 08:52:45;100;0;130.11;-4;-21.12;-4.10;53.7;19.00;77037;2836.525;-1800.297;1;135;-70;-61.3;43.3;43.6;14;14.9;27.2;0.0;
22/02/2025 08:53:05;100;0;130.29;-4;-21.06;-4.19;56.4;19.10;77049;2836.524;-1800.295;1;135;-70;-62.9;43.3;43.6;14;14.9;27.2;0.0;
22/02/2025 08:53:25;100;0;130.69;-4;-21.14;-4.14;59.1;19.10;77039;2836.522;-1800.292;1;135;-70;-62.9;43.3;43.6;14;14.9;27.1;0.0;
22/02/2025 08:53:45;100;0;131.63;-4;-21.23;-4.12;61.8;19.10;77052;2836.521;-1800.290;1;135;-70;-62.9;43.3;43.6;14;14.9;27.2;0.0;
22/02/2025 08:54:05;100;0;130.53;-4;-21.05;-4.13;64.4;19.10;77064;2836.519;-1800.288;1;135;-70;-62.9;43.3;43.6;14;14.9;27.2;0.0;
22/02/2025 08:54:25;100;0;129.77;-4;-21.16;-4.23;67.1;19.10;77063;2836.518;-1800.286;1;135;-70;-62.9;43.3;43.6;14;14.4;27.2;0.0;
22/02/2025 08:54:45;100;0;130.10;-4;-21.61;-4.11;69.7;19.10;77069;2836.517;-1800.284;1;135;-70;-62.9;43.3;43.6;14;14.9;27.2;0.0;
22/02/2025 08:55:05;100;0;129.68;-4;-21.10;-4.17;72.3;19.10;77071;2836.515;-1800.281;1;135;-70;-61.3;43.3;43.6;14;14.4;27.2;0.0;
22/02/2025 08:55:25;100;0;129.45;-4;-20.94;-4.11;74.9;19.10;77069;2836.514;-1800.279;1;135;-70;-61.3;43.3;43.6;14;14.9;27.2;0.0;
22/02/2025 08:55:45;100;0;129.01;-4;-21.09;-4.16;77.5;19.10;77077;2836.513;-1800.277;1;135;-70;-62.9;43.3;43.6;14;14.9;27.2;0.0;
22/02/2025 08:56:05;100;0;129.06;-4;-21.13;-4.15;80.2;19.10;77074;2836.511;-1800.275;1;135;-70;-62.9;43.3;43.7;14;14.4;27.2;0.0;
22/02/2025 08:56:25;100;0;128.59;-4;-21.17;-4.15;82.8;19.10;77088;2836.510;-1800.272;1;135;-70;-62.9;43.3;43.6;12;12.2;27.1;0.0;
22/02/2025 08:56:45;100;0;128.70;-4;-20.95;-5.71;85.3;19.10;77085;2836.509;-1800.270;1;135;-70;-61.3;43.3;43.6;12;11.7;27.2;0.0;
22/02/2025 08:57:05;100;0;130.88;-4;-20.85;-5.68;87.9;19.10;77090;2836.507;-1800.268;1;135;-70;-62.9;43.3;43.6;12;11.7;27.2;0.0;
22/02/2025 08:57:25;100;0;130.67;-4;-20.99;-5.71;90.4;19.10;77088;2836.506;-1800.266;1;135;-70;-66.1;43.3;43.6;12;11.7;27.2;0.0;
22/02/2025 08:57:45;100;0;130.83;-4;-20.85;-5.73;92.8;19.10;77099;2836.505;-1800.264;1;135;-70;-62.9;43.3;43.6;12;11.7;27.2;0.0;
22/02/2025 08:58:05;100;0;132.14;-4;-20.76;-5.68;95.4;19.10;77079;2836.503;-1800.262;1;135;-70;-61.3;43.3;43.6;12;11.7;27.1;0.0;
22/02/2025 08:58:25;100;0;136.22;-4;-20.50;-5.76;97.7;19.10;77088;2836.502;-1800.260;1;135;-70;-62.9;43.3;43.6;14;14.0;27.2;0.0;
22/02/2025 08:58:45;100;0;137.76;-4;-20.52;-4.36;100.0;19.10;77092;2836.501;-1800.258;1;135;-70;-61.3;43.3;43.6;14;14.4;27.2;0.0;
22/02/2025 08:59:05;100;0;138.19;-4;-20.55;-4.33;102.4;19.10;77082;2836.499;-1800.257;1;135;-70;-62.9;43.3;43.6;14;14.4;27.2;0.0;
22/02/2025 08:59:25;100;0;138.62;-4;-20.33;-4.39;104.7;19.10;77065;2836.498;-1800.255;1;135;-70;-62.9;43.3;43.6;14;14.4;27.2;0.0;
22/02/2025 08:59:45;100;0;137.93;-4;-20.47;-4.37;106.9;19.10;77040;2836.496;-1800.254;1;135;-70;-62.9;43.3;43.7;14;14.4;27.2;0.0;
22/02/2025 09:00:05;100;0;142.18;-4;-20.55;-4.26;109.3;19.10;77029;2836.495;-1800.252;1;135;-70;-61.3;43.3;43.6;14;14.4;27.2;0.0;
22/02/2025 09:00:25;100;0;144.27;-4;-20.86;-4.27;111.6;19.10;77005;2836.493;-1800.251;1;135;-70;-62.9;43.3;43.6;14;14.4;27.2;0.0;
22/02/2025 09:00:45;100;0;145.75;-4;-20.55;-4.26;114.0;19.10;76994;2836.491;-1800.249;1;135;-70;-61.3;43.3;43.6;16;15.8;27.2;0.0;
22/02/2025 09:01:05;100;0;150.19;-4;-20.49;-3.55;116.3;19.00;76996;2836.489;-1800.248;1;135;-70;-61.3;43.3;43.6;20;19.9;27.1;0.0;
22/02/2025 09:01:25;100;0;150.67;-4;-20.59;-1.52;118.6;19.00;76982;2836.488;-1800.247;1;135;-70;-62.9;43.3;43.6;20;19.9;27.2;0.0;
22/02/2025 09:01:45;100;0;157.02;-4;-20.88;-1.56;120.8;19.00;76958;2836.486;-1800.247;1;135;-70;-61.3;43.3;43.6;29;28.9;27.2;0.0;
22/02/2025 09:02:05;100;0;153.30;-4;-21.62;3.06;123.3;19.00;76948;2836.484;-1800.246;1;135;-70;-62.9;43.3;43.6;24;23.9;27.2;0.0;
22/02/2025 09:02:25;100;0;152.38;-4;-21.28;0.20;125.8;19.00;76945;2836.482;-1800.245;1;135;-70;-62.9;43.3;43.6;22;22.1;27.2;0.0;
22/02/2025 09:02:45;100;0;154.18;-4;-21.22;-0.57;128.3;18.90;76938;2836.480;-1800.244;1;135;-70;-62.9;43.3;43.6;25;24.8;27.2;0.0;
22/02/2025 09:03:05;100;0;153.91;-4;-21.40;1.22;130.8;18.90;76923;2836.478;-1800.243;1;135;-70;-61.3;43.3;43.6;25;25.3;27.2;0.0;
22/02/2025 09:03:25;100;0;151.91;-4;-21.26;1.14;133.1;18.90;76915;2836.476;-1800.242;1;135;-70;-62.9;43.3;43.6;22;22.1;27.2;0.0;
22/02/2025 09:03:45;100;0;146.76;-4;-20.87;-0.72;135.6;18.90;76910;2836.474;-1800.241;1;135;-70;-61.3;43.3;43.6;17;17.1;27.2;0.0;
22/02/2025 09:04:05;100;0;141.70;-4;-20.49;-3.28;138.0;18.80;76897;2836.472;-1800.239;1;135;-70;-62.9;43.3;43.6;15;14.4;27.2;0.0;
22/02/2025 09:04:25;100;0;140.94;-4;-20.39;-4.67;140.2;18.80;76892;2836.471;-1800.238;1;135;-70;-62.9;43.3;43.7;15;14.0;27.2;0.0;
22/02/2025 09:04:45;100;0;141.49;-4;-20.32;-4.61;142.6;18.80;76888;2836.469;-1800.236;1;135;-70;-62.9;43.3;43.6;15;14.0;27.2;0.0;
22/02/2025 09:05:05;100;0;139.83;-4;-20.43;-4.70;144.9;18.80;76865;2836.468;-1800.234;1;135;-70;-61.3;43.3;43.6;15;14.0;27.2;0.0;
22/02/2025 09:05:25;100;0;138.24;-4;-20.33;-4.65;147.3;18.70;76864;2836.466;-1800.233;1;135;-70;-62.9;43.3;43.6;15;14.0;27.2;0.0;
22/02/2025 09:05:45;100;0;131.95;-4;-20.29;-4.64;149.7;18.70;76862;2836.465;-1800.231;1;135;-70;-61.3;43.3;43.6;15;14.0;27.2;0.0;
22/02/2025 09:06:05;100;0;128.37;-4;-20.19;-4.71;152.1;18.70;76852;2836.464;-1800.228;1;135;-70;-62.9;43.3;43.6;12;12.2;27.2;0.0;
22/02/2025 09:06:25;100;0;125.32;-4;-20.11;-5.79;154.6;18.60;76828;2836.462;-1800.226;1;135;-70;-62.9;43.3;43.6;10;9.9;27.2;0.0;
22/02/2025 09:06:45;100;0;127.73;-4;-20.39;-6.89;157.2;18.60;76832;2836.461;-1800.224;1;135;-70;-61.3;43.3;43.6;12;12.2;27.2;0.0;
22/02/2025 09:07:05;100;0;129.96;-4;-20.58;-5.20;159.9;18.60;76814;2836.460;-1800.221;1;135;-70;-61.3;43.3;43.6;12;12.6;27.2;0.0;
22/02/2025 09:07:25;100;0;127.44;-4;-20.62;-5.27;162.6;18.60;76806;2836.458;-1800.219;1;135;-70;-62.9;43.3;43.6;12;12.6;27.2;0.0;
22/02/2025 09:07:45;100;0;130.94;-4;-20.30;-5.17;165.4;18.50;76799;2836.457;-1800.216;1;135;-70;-61.3;43.3;43.6;14;14.4;27.2;0.0;
22/02/2025 09:08:05;100;0;134.33;-4;-20.45;-4.17;168.2;18.50;76784;2836.455;-1800.214;1;135;-70;-62.9;43.3;43.7;14;14.9;27.2;0.0;
22/02/2025 09:08:25;100;0;136.09;-4;-20.56;-4.26;170.9;18.50;76783;2836.453;-1800.212;1;135;-70;-62.9;43.3;43.7;14;14.9;27.2;0.0;
22/02/2025 09:08:45;100;0;132.77;-4;-20.59;-4.28;173.8;18.40;76773;2836.452;-1800.210;1;135;-70;-61.3;43.3;43.7;14;14.9;27.2;0.0;
22/02/2025 09:09:05;100;0;134.71;-4;-20.42;-4.19;176.5;18.40;76765;2836.450;-1800.207;1;135;-70;-62.9;43.3;43.6;14;14.9;27.2;0.0;
22/02/2025 09:09:25;100;0;135.98;-4;-20.47;-4.24;179.3;18.40;76759;2836.448;-1800.205;1;135;-70;-62.9;43.3;43.6;14;14.9;27.2;0.0;
22/02/2025 09:09:45;100;0;137.08;-4;-20.16;-4.25;182.0;18.30;76750;2836.446;-1800.203;1;135;-70;-61.3;43.3;43.6;14;14.9;27.2;0.0;
22/02/2025 09:10:05;100;0;134.18;-4;-19.86;-4.27;184.5;18.30;76726;2836.445;-1800.201;1;135;-70;-62.9;43.3;43.6;14;14.9;27.2;0.0;
22/02/2025 09:10:25;100;0;134.23;-4;-20.06;-4.29;187.2;18.30;76714;2836.443;-1800.199;1;135;-70;-62.9;43.3;43.7;14;14.9;27.2;0.0;
22/02/2025 09:10:45;100;0;132.33;-4;-20.20;-4.27;189.9;18.20;76697;2836.441;-1800.197;1;135;-70;-62.9;43.3;43.6;14;14.9;27.2;0.0;
22/02/2025 09:11:05;100;0;128.04;-4;-20.17;-4.30;192.6;18.20;76685;2836.440;-1800.194;1;135;-70;-61.3;43.3;43.6;12;12.2;27.2;0.0;
22/02/2025 09:11:25;100;0;126.10;-4;-20.31;-5.76;195.3;18.10;76670;2836.438;-1800.191;1;135;-70;-61.3;43.3;43.6;10;9.9;27.2;0.0;
22/02/2025 09:11:45;100;0;127.74;-4;-19.99;-6.74;198.1;18.10;76657;2836.437;-1800.189;1;135;-70;-62.9;43.3;43.6;12;12.2;27.2;0.0;
22/02/2025 09:12:05;100;0;128.78;-4;-20.12;-5.44;200.9;18.10;76652;2836.435;-1800.186;1;135;-70;-61.3;43.3;43.6;12;12.2;27.2;0.0;
22/02/2025 09:12:25;100;0;131.96;-4;-19.99;-5.46;203.7;18.00;76635;2836.434;-1800.184;1;135;-70;-61.3;43.3;43.6;14;14.4;27.2;0.0;
22/02/2025 09:12:45;100;0;132.69;-4;-20.07;-4.20;206.4;18.00;76628;2836.432;-1800.181;1;135;-70;-62.9;43.3;43.7;14;14.9;27.2;0.0;
22/02/2025 09:13:06;100;0;132.84;-4;-20.21;-4.07;209.1;18.00;76623;2836.430;-1800.179;1;135;-70;-62.9;43.3;43.6;14;14.9;27.2;0.0;
22/02/2025 09:13:26;100;0;133.22;-4;-19.94;-4.27;212.0;17.90;76608;2836.429;-1800.177;1;135;-70;-61.3;43.3;43.6;14;14.9;27.2;0.0;
22/02/2025 09:13:46;100;0;133.54;-4;-20.21;-4.30;214.8;17.90;76610;2836.427;-1800.174;1;135;-70;-62.9;43.3;43.6;14;14.9;27.2;0.0;
22/02/2025 09:14:06;100;0;134.33;-4;-19.92;-4.14;217.5;17.80;76617;2836.425;-1800.172;1;135;-70;-62.9;43.3;43.6;14;14.9;27.2;0.0;
22/02/2025 09:14:26;100;0;134.50;-4;-19.85;-4.21;220.2;17.80;76605;2836.424;-1800.170;1;135;-70;-62.9;43.3;43.6;14;14.9;27.2;0.0;
22/02/2025 09:14:46;100;0;135.57;-4;-20.06;-4.23;222.9;17.80;76584;2836.422;-1800.168;1;135;-70;-62.9;43.3;43.6;14;14.9;27.2;0.0;
22/02/2025 09:15:06;100;0;136.32;-4;-20.15;-4.20;225.7;17.70;76561;2836.420;-1800.165;1;135;-70;-62.9;43.3;43.6;14;14.9;27.2;0.0;
22/02/2025 09:15:26;100;0;135.65;-4;-20.30;-4.14;228.4;17.70;76557;2836.418;-1800.163;1;135;-70;-62.9;43.3;43.6;14;14.9;27.2;0.0;
22/02/2025 09:15:46;100;0;135.66;-4;-20.31;-4.13;231.3;17.60;76556;2836.416;-1800.161;1;135;-70;-62.9;43.3;43.6;14;14.9;27.2;0.0;
22/02/2025 09:16:06;100;0;136.78;-4;-20.03;-4.20;234.3;17.60;76547;2836.414;-1800.158;1;135;-70;-61.3;43.3;43.6;14;14.9;27.2;0.0;
22/02/2025 09:16:26;100;0;134.67;-4;-19.76;-4.25;237.1;17.60;76543;2836.412;-1800.156;1;135;-70;-62.9;43.3;43.6;14;14.9;27.2;0.0;
22/02/2025 09:16:46;100;0;133.22;-4;-19.61;-4.22;239.8;17.50;76536;2836.411;-1800.154;1;135;-70;-62.9;43.3;43.6;14;14.9;27.2;0.0;
22/02/2025 09:17:06;100;0;131.29;-4;-19.77;-4.23;242.6;17.50;76523;2836.409;-1800.151;1;135;-70;-62.9;43.3;43.6;14;14.9;27.2;0.0;
22/02/2025 09:17:26;100;0;127.93;-4;-19.95;-4.22;245.3;17.40;76515;2836.408;-1800.149;1;135;-70;-64.5;43.3;43.6;12;12.2;27.2;0.0;
22/02/2025 09:17:46;100;0;125.46;-4;-19.93;-5.71;248.2;17.40;76496;2836.406;-1800.146;1;135;-70;-62.9;43.3;43.6;9;9.0;27.1;0.0;
22/02/2025 09:18:06;100;0;129.69;-4;-19.77;-7.20;251.0;17.40;76481;2836.404;-1800.143;1;135;-70;-62.9;43.3;43.6;13;13.5;27.2;0.0;
22/02/2025 09:18:26;100;0;132.46;-4;-20.08;-4.62;254.0;17.30;76491;2836.403;-1800.141;1;135;-70;-62.9;43.3;43.6;13;13.5;27.2;0.0;
22/02/2025 09:18:46;100;0;136.29;-4;-20.12;-4.59;257.0;17.30;76474;2836.401;-1800.138;1;135;-70;-61.3;43.3;43.6;13;14.0;27.2;0.0;
22/02/2025 09:19:06;100;0;139.65;-4;-20.15;-4.54;260.0;17.20;76470;2836.398;-1800.136;1;135;-70;-61.3;43.3;43.6;13;13.5;27.2;0.0;
22/02/2025 09:19:26;100;0;141.75;-4;-19.96;-4.57;263.1;17.20;76450;2836.396;-1800.134;1;135;-70;-61.3;43.3;43.6;13;13.5;27.2;0.0;
22/02/2025 09:19:46;100;0;144.74;-4;-19.52;-4.73;266.1;17.10;76441;2836.394;-1800.132;1;135;-70;-62.9;43.3;43.6;15;14.9;27.2;0.0;
22/02/2025 09:20:06;100;0;145.87;-4;-19.69;-3.98;268.8;17.10;76437;2836.391;-1800.130;1;135;-70;-61.3;43.3;43.6;15;15.3;27.1;0.0;
22/02/2025 09:20:26;100;0;143.81;-4;-19.60;-4.07;271.6;17.10;76424;2836.389;-1800.129;1;135;-70;-62.9;43.3;43.6;15;15.3;27.2;0.0;
22/02/2025 09:20:46;100;0;142.14;-4;-19.61;-4.00;274.4;17.00;76423;2836.387;-1800.127;1;135;-70;-62.9;43.3;43.6;15;15.3;27.2;0.0;
22/02/2025 09:21:06;100;0;141.74;-4;-19.74;-4.01;277.1;17.00;76411;2836.385;-1800.125;1;135;-70;-62.9;43.3;43.6;15;15.3;27.2;0.0;
22/02/2025 09:21:26;100;0;140.29;-4;-19.68;-3.99;279.9;17.00;76404;2836.383;-1800.123;1;135;-70;-61.3;43.3;43.6;15;15.3;27.2;0.0;
22/02/2025 09:21:46;100;0;140.23;-4;-19.59;-4.05;282.7;16.90;76401;2836.381;-1800.121;1;135;-70;-61.3;43.3;43.6;15;15.3;27.2;0.0;
22/02/2025 09:22:06;100;0;138.92;-4;-19.40;-3.88;285.4;16.90;76395;2836.379;-1800.119;1;135;-70;-62.9;43.3;43.6;15;15.3;27.2;0.0;
22/02/2025 09:22:26;100;0;134.08;-4;-19.56;-4.09;288.1;16.90;76388;2836.377;-1800.116;1;135;-70;-62.9;43.3;43.6;15;15.3;27.2;0.0;
22/02/2025 09:22:46;100;0;132.98;-4;-19.51;-4.01;290.8;16.80;76376;2836.376;-1800.114;1;135;-70;-62.9;43.3;43.6;15;15.3;27.2;0.0;
22/02/2025 09:23:06;100;0;133.20;-4;-19.58;-4.01;293.4;16.80;76379;2836.374;-1800.112;1;135;-70;-62.9;43.3;43.6;15;15.3;27.2;0.0;
22/02/2025 09:23:26;100;0;131.99;-4;-19.64;-3.97;296.0;16.80;76376;2836.373;-1800.110;1;135;-70;-61.3;43.3;43.6;15;15.3;27.2;0.0;
22/02/2025 09:23:46;100;0;131.69;-4;-19.52;-4.02;298.6;16.70;76365;2836.371;-1800.107;1;135;-70;-62.9;43.3;43.6;13;13.1;27.2;0.0;
22/02/2025 09:24:06;100;0;132.05;-4;-19.54;-5.47;301.2;16.70;76363;2836.370;-1800.105;1;135;-70;-62.9;43.3;43.6;13;12.2;27.2;0.0;
22/02/2025 09:24:26;100;0;135.86;-4;-19.72;-5.43;303.8;16.60;76346;2836.368;-1800.103;1;135;-70;-62.9;43.3;43.6;13;12.6;27.2;0.0;
22/02/2025 09:24:46;100;0;138.74;-4;-19.61;-5.47;306.5;16.60;76353;2836.366;-1800.101;1;135;-70;-61.3;43.3;43.6;13;12.6;27.2;0.0;
22/02/2025 09:25:06;100;0;136.09;-4;-19.50;-5.48;309.1;16.60;76338;2836.364;-1800.099;1;135;-70;-62.9;43.3;43.7;13;12.6;27.2;0.0;
22/02/2025 09:25:26;100;0;134.43;-4;-19.45;-5.43;311.7;16.50;76328;2836.362;-1800.097;1;135;-70;-62.9;43.3;43.6;13;12.6;27.2;0.0;
22/02/2025 09:25:46;100;0;132.06;-4;-19.75;-5.47;314.3;16.50;76323;2836.361;-1800.095;1;135;-70;-62.9;43.3;43.6;13;12.6;27.2;0.0;
22/02/2025 09:26:06;100;0;130.04;-4;-19.96;-5.45;316.9;16.50;76320;2836.360;-1800.092;1;135;-70;-61.3;43.3;43.6;13;12.2;27.2;0.0;
22/02/2025 09:26:26;100;0;131.81;-4;-19.60;-5.40;319.6;16.40;76302;2836.358;-1800.090;1;135;-70;-62.9;43.3;43.7;13;12.6;27.2;0.0;
22/02/2025 09:26:46;100;0;134.52;-4;-19.62;-5.44;322.3;16.40;76313;2836.356;-1800.088;1;135;-70;-62.9;43.3;43.6;13;12.6;27.2;0.0;
22/02/2025 09:27:06;100;0;134.34;-4;-19.62;-5.44;324.8;16.30;76298;2836.355;-1800.086;1;135;-70;-61.3;43.3;43.6;13;12.6;27.1;0.0;
22/02/2025 09:27:26;100;0;132.36;-4;-19.41;-5.48;327.5;16.30;76286;2836.353;-1800.083;1;135;-70;-62.9;43.3;43.6;13;12.6;27.2;0.0;
22/02/2025 09:27:46;100;0;131.58;-4;-19.45;-5.48;329.9;16.30;76281;2836.352;-1800.081;1;135;-70;-61.3;43.3;43.6;13;12.6;27.2;0.0;
22/02/2025 09:28:06;100;0;129.39;-4;-19.66;-5.47;332.4;16.20;76274;2836.350;-1800.079;1;135;-70;-61.3;43.3;43.6;13;12.6;27.2;0.0;
22/02/2025 09:28:26;100;0;128.70;-4;-19.85;-5.45;334.9;16.20;76259;2836.349;-1800.077;1;135;-70;-61.3;43.3;43.6;13;12.6;27.2;0.0;
22/02/2025 09:28:46;100;0;129.21;-4;-19.52;-5.48;337.4;16.20;76258;2836.348;-1800.074;1;135;-70;-61.3;43.3;43.6;13;12.6;27.2;0.0;
22/02/2025 09:29:06;100;0;128.27;-4;-19.51;-5.47;339.8;16.10;76244;2836.346;-1800.072;1;135;-70;-61.3;43.3;43.6;11;10.8;27.2;0.0;
22/02/2025 09:29:26;100;0;131.08;-4;-19.23;-6.51;342.2;16.10;76244;2836.345;-1800.070;1;135;-70;-62.9;43.3;43.6;13;13.1;27.2;0.0;
22/02/2025 09:29:46;100;0;133.72;-4;-19.39;-4.93;344.6;16.00;76227;2836.344;-1800.068;1;135;-70;-62.9;43.3;43.6;13;13.5;27.2;0.0;
22/02/2025 09:30:06;100;0;134.99;-4;-19.38;-4.90;347.0;16.00;76220;2836.342;-1800.066;1;135;-70;-62.9;43.3;43.6;13;13.5;27.2;0.0;
22/02/2025 09:30:26;100;0;137.64;-4;-19.43;-4.89;349.5;16.00;76207;2836.340;-1800.064;1;135;-70;-61.3;43.3;43.7;13;13.5;27.2;0.0;
22/02/2025 09:30:46;100;0;139.13;-4;-19.41;-4.93;351.7;16.00;76206;2836.339;-1800.062;1;135;-70;-62.9;43.3;43.6;13;13.5;27.1;0.0;
22/02/2025 09:31:06;100;0;139.56;-4;-19.39;-4.96;354.1;15.90;76199;2836.337;-1800.061;1;135;-70;-61.3;43.3;43.6;13;13.5;27.2;0.0;
22/02/2025 09:31:26;100;0;138.91;-4;-19.67;-4.92;356.5;15.90;76192;2836.336;-1800.059;1;135;-70;-66.1;43.3;43.6;13;13.5;27.2;0.0;
22/02/2025 09:31:46;100;0;140.01;-4;-19.67;-4.89;359.0;15.90;76180;2836.334;-1800.057;1;135;-70;-62.9;43.3;43.6;13;13.5;27.2;0.0;
22/02/2025 09:32:06;100;0;140.72;-4;-19.52;-4.63;361.4;15.80;76174;2836.332;-1800.056;1;135;-70;-61.3;43.3;43.6;13;13.5;27.1;0.0;
22/02/2025 09:32:26;100;0;141.67;-4;-19.64;-4.84;363.8;15.80;76182;2836.330;-1800.054;1;135;-70;-62.9;43.3;43.6;13;13.5;27.2;0.0;
22/02/2025 09:32:46;100;0;143.42;-4;-19.16;-4.95;366.2;15.70;76169;2836.329;-1800.053;1;135;-70;-62.9;43.3;43.6;15;14.9;27.2;0.0;
22/02/2025 09:33:06;100;0;143.54;-4;-19.96;-3.89;368.5;15.70;76161;2836.327;-1800.051;1;135;-70;-61.3;43.3;43.6;15;15.3;27.2;0.0;
22/02/2025 09:33:26;100;0;142.17;-4;-19.50;-4.07;370.8;15.70;76161;2836.325;-1800.050;1;135;-70;-61.3;43.3;43.6;15;15.3;27.2;0.0;
22/02/2025 09:33:46;100;0;141.32;-4;-19.55;-4.06;373.2;15.60;76138;2836.324;-1800.048;1;135;-70;-62.9;43.3;43.6;15;15.3;27.2;0.0;
22/02/2025 09:34:06;100;0;143.63;-4;-19.49;-4.00;375.5;15.60;76143;2836.322;-1800.047;1;135;-70;-61.3;43.3;43.6;15;15.3;27.2;0.0;
22/02/2025 09:34:26;100;0;145.38;-4;-19.20;-3.99;377.9;15.60;76143;2836.320;-1800.045;1;135;-70;-62.9;43.3;43.6;15;15.3;27.2;0.0;
22/02/2025 09:34:46;100;0;145.19;-4;-19.37;-4.01;380.1;15.50;76123;2836.318;-1800.044;1;135;-70;-61.3;43.3;43.6;15;15.3;27.2;0.0;
22/02/2025 09:35:06;100;0;147.15;-4;-19.46;-4.06;382.3;15.50;76131;2836.316;-1800.043;1;135;-70;-62.9;43.3;43.6;15;15.3;27.2;0.0;
22/02/2025 09:35:26;100;0;148.14;-4;-19.49;-3.99;384.6;15.50;76121;2836.315;-1800.041;1;135;-70;-64.5;43.3;43.6;17;17.1;27.2;0.0;
22/02/2025 09:35:46;100;0;145.30;-4;-19.85;-2.69;386.9;15.40;76111;2836.313;-1800.040;1;135;-70;-62.9;43.3;43.6;15;14.9;27.2;0.0;
22/02/2025 09:36:06;100;0;143.85;-4;-19.01;-4.25;389.0;15.40;76114;2836.311;-1800.039;1;135;-70;-61.3;43.3;43.6;15;14.9;27.2;0.0;
22/02/2025 09:36:26;100;0;141.86;-4;-20.19;-4.35;391.2;15.40;76108;2836.310;-1800.037;1;135;-70;-62.9;43.3;43.6;15;14.9;27.1;0.0;
22/02/2025 09:36:46;100;0;142.20;-4;-18.49;-4.25;393.4;15.30;76098;2836.308;-1800.036;1;135;-70;-61.3;43.7;43.7;15;14.9;27.2;0.0;
22/02/2025 09:37:06;100;0;141.90;-4;-19.74;-4.24;395.4;15.30;76098;2836.307;-1800.035;1;135;-70;-61.3;43.7;44.0;15;14.9;27.2;0.0;
22/02/2025 09:37:26;100;0;139.08;-4;-20.19;-4.37;397.7;15.30;76080;2836.305;-1800.033;1;135;-70;-62.9;43.7;43.9;15;14.9;27.2;0.0;
22/02/2025 09:37:46;100;0;139.29;-4;-19.82;-4.23;399.8;15.30;76095;2836.304;-1800.032;1;135;-70;-62.9;43.7;43.9;15;14.9;27.2;0.0;
22/02/2025 09:38:06;100;0;138.97;-4;-20.12;-4.34;402.0;15.20;76085;2836.303;-1800.030;1;135;-70;-62.9;43.7;44.0;15;14.9;27.2;0.0;
22/02/2025 09:38:26;100;0;139.22;-4;-20.13;-4.20;404.2;15.20;76078;2836.301;-1800.028;1;135;-70;-62.9;43.7;44.0;15;14.9;27.2;0.0;
22/02/2025 09:38:46;100;0;137.57;-4;-19.89;-4.26;406.4;15.20;76079;2836.300;-1800.027;1;135;-70;-62.9;43.7;44.0;15;14.9;27.2;0.0;
22/02/2025 09:39:06;100;0;138.25;-4;-20.18;-4.38;408.7;15.20;76078;2836.298;-1800.025;1;135;-70;-62.9;43.7;44.0;15;14.9;27.2;0.0;
22/02/2025 09:39:26;100;0;138.72;-4;-20.01;-4.27;410.9;15.10;76071;2836.297;-1800.024;1;135;-70;-62.9;43.7;44.0;15;14.9;27.2;0.0;
22/02/2025 09:39:46;100;0;138.09;-4;-19.92;-4.23;413.2;15.10;76059;2836.295;-1800.022;1;135;-70;-61.3;43.7;43.9;15;14.9;27.2;0.0;
22/02/2025 09:40:06;100;0;137.48;-4;-19.90;-4.28;415.4;15.10;76055;2836.294;-1800.021;1;135;-70;-61.3;43.7;43.9;15;14.9;27.1;0.0;
22/02/2025 09:40:26;100;0;139.97;-4;-20.14;-4.25;417.7;15.00;76044;2836.293;-1800.019;1;135;-70;-62.9;43.7;43.9;15;14.9;27.2;0.0;
22/02/2025 09:40:46;100;0;140.55;-4;-20.30;-4.31;420.0;15.00;76041;2836.291;-1800.017;1;135;-70;-62.9;43.7;43.9;15;14.9;27.2;0.0;
22/02/2025 09:41:06;100;0;140.13;-4;-20.51;-4.28;422.5;15.00;76041;2836.289;-1800.016;1;135;-70;-61.3;43.7;44.0;15;14.9;27.2;0.0;
22/02/2025 09:41:26;100;0;139.55;-4;-20.54;-4.21;425.0;15.00;76028;2836.288;-1800.014;1;135;-70;-62.9;43.7;44.0;15;14.9;27.1;0.0;
22/02/2025 09:41:46;100;0;138.43;-4;-19.86;-4.25;427.5;14.90;76031;2836.286;-1800.012;1;135;-70;-62.9;43.7;43.9;15;14.9;27.2;0.0;
22/02/2025 09:42:06;100;0;140.39;-4;-20.12;-4.25;429.8;14.90;76029;2836.284;-1800.011;1;135;-70;-61.3;43.7;44.0;15;14.9;27.2;0.0;
22/02/2025 09:42:26;100;0;142.93;-4;-20.37;-4.19;432.3;14.90;76018;2836.283;-1800.009;1;135;-70;-61.3;43.7;43.9;15;14.9;27.2;0.0;
22/02/2025 09:42:46;100;0;145.83;-4;-20.03;-4.23;434.9;14.90;76017;2836.281;-1800.008;1;135;-70;-62.9;43.7;44.0;15;14.4;27.2;0.0;
22/02/2025 09:43:06;100;0;146.10;-4;-20.18;-4.28;437.5;14.80;76013;2836.279;-1800.006;1;135;-70;-62.9;43.7;43.9;17;17.1;27.2;0.0;
22/02/2025 09:43:26;100;0;147.01;-4;-20.33;-2.77;440.0;14.80;75993;2836.277;-1800.005;1;135;-70;-62.9;43.7;44.0;17;17.6;27.1;0.0;
22/02/2025 09:43:46;100;0;149.38;-4;-20.10;-2.80;442.5;14.80;75999;2836.275;-1800.003;1;135;-70;-62.9;43.7;43.9;20;19.9;27.2;0.0;
22/02/2025 09:44:06;100;0;151.98;-4;-20.32;-1.47;444.9;14.80;75999;2836.273;-1800.002;1;135;-70;-62.9;43.7;44.0;22;22.1;27.2;0.0;
22/02/2025 09:44:26;100;0;150.63;-4;-20.62;-0.40;447.4;14.70;75991;2836.271;-1800.001;1;135;-70;-62.9;43.7;44.0;20;19.9;27.2;0.0;
22/02/2025 09:44:46;100;0;150.39;-4;-20.33;-1.86;449.9;14.70;75983;2836.268;-1760.000;1;135;-70;-61.3;43.7;44.0;20;19.9;27.2;0.0;
22/02/2025 09:45:06;100;0;149.58;-4;-20.31;-1.92;452.3;14.70;75983;2836.267;-1759.999;1;135;-70;-62.9;43.7;44.0;20;19.4;27.2;0.0;
22/02/2025 09:45:26;100;0;149.01;-4;-20.21;-1.88;454.7;14.60;75984;2836.265;-1759.998;1;135;-70;-62.9;43.7;44.0;18;17.6;27.2;0.0;
22/02/2025 09:45:46;100;0;149.35;-4;-20.12;-2.90;457.1;14.60;75969;2836.263;-1759.996;1;135;-70;-62.9;43.7;43.9;18;17.6;27.2;0.0;
22/02/2025 09:46:06;100;0;149.56;-4;-20.16;-2.97;459.5;14.60;75970;2836.261;-1759.995;1;135;-70;-61.3;43.7;44.0;18;17.6;27.2;0.0;
22/02/2025 09:46:27;100;0;150.56;-4;-19.90;-2.97;461.8;14.60;75966;2836.259;-1759.994;1;135;-70;-61.3;43.7;44.0;20;19.9;27.2;0.0;
22/02/2025 09:46:47;100;0;149.88;-4;-20.31;-1.40;464.1;14.50;75948;2836.257;-1759.993;1;135;-70;-62.9;43.7;44.0;20;20.3;27.1;0.0;
22/02/2025 09:47:07;100;0;150.22;-4;-20.39;-1.41;466.4;14.50;75949;2836.255;-1759.992;1;135;-70;-62.9;43.7;44.0;20;20.3;27.2;0.0;
22/02/2025 09:47:27;100;0;149.15;-4;-20.49;-1.42;468.9;14.50;75963;2836.253;-1759.991;1;135;-70;-62.9;43.7;44.0;20;20.3;27.1;0.0;
22/02/2025 09:47:47;100;0;147.24;-4;-20.24;-1.37;471.1;14.50;75950;2836.251;-1759.989;1;135;-70;-62.9;43.7;43.9;17;17.1;27.2;0.0;
22/02/2025 09:48:07;100;0;144.41;-4;-19.96;-3.42;473.4;14.40;75950;2836.250;-1759.988;1;135;-70;-64.5;43.7;44.0;17;16.7;27.2;0.0;
22/02/2025 09:48:27;100;0;143.17;-4;-19.82;-3.44;475.7;14.40;75948;2836.248;-1759.987;1;135;-70;-61.3;43.7;44.0;15;14.4;27.2;0.0;
22/02/2025 09:48:47;100;0;144.41;-4;-19.98;-4.48;477.9;14.40;75940;2836.247;-1759.985;1;135;-70;-62.9;43.7;44.0;15;14.4;27.2;0.0;
22/02/2025 09:49:07;100;0;145.23;-4;-19.79;-4.52;480.2;14.40;75926;2836.245;-1759.984;1;135;-70;-61.3;43.7;44.0;15;14.4;27.2;0.0;
22/02/2025 09:49:27;100;0;145.15;-4;-19.95;-4.52;482.5;14.40;75923;2836.243;-1759.983;1;135;-70;-62.9;43.7;43.9;15;14.4;27.2;0.0;
22/02/2025 09:49:47;100;0;145.56;-4;-19.69;-4.51;484.7;14.30;75922;2836.242;-1759.982;1;135;-70;-62.9;43.7;44.0;15;14.4;27.2;0.0;
22/02/2025 09:50:07;100;0;143.57;-4;-19.77;-4.54;486.9;14.30;75920;2836.240;-1759.980;1;135;-70;-62.9;43.7;43.9;15;14.4;27.2;0.0;
22/02/2025 09:50:27;100;0;143.10;-4;-19.83;-4.52;489.2;14.30;75910;2836.238;-1759.979;1;135;-70;-62.9;43.7;44.0;15;14.4;27.2;0.0;
22/02/2025 09:50:47;100;0;141.74;-4;-20.00;-4.50;491.5;14.30;75898;2836.237;-1759.977;1;135;-70;-64.5;43.7;43.9;15;14.4;27.2;0.0;
22/02/2025 09:51:07;100;0;141.24;-4;-20.09;-4.46;493.9;14.20;75895;2836.235;-1759.976;1;135;-70;-61.3;43.7;44.0;15;14.4;27.2;0.0;
22/02/2025 09:51:27;100;0;140.36;-4;-20.00;-4.47;496.2;14.20;75897;2836.234;-1759.974;1;135;-70;-62.9;43.7;44.0;15;14.4;27.2;0.0;
22/02/2025 09:51:47;100;0;140.44;-4;-20.03;-4.53;498.5;14.20;75885;2836.232;-1759.973;1;135;-70;-62.9;43.7;44.0;15;14.4;27.2;0.0;
22/02/2025 09:52:07;100;0;140.43;-4;-19.91;-4.71;500.8;14.20;75886;2836.230;-1759.971;1;135;-70;-62.9;43.7;43.9;15;14.4;27.2;0.0;
22/02/2025 09:52:27;100;0;140.07;-4;-20.04;-4.45;503.2;14.10;75882;2836.229;-1759.969;1;135;-70;-62.9;43.7;44.0;15;14.4;27.2;0.0;
22/02/2025 09:52:47;100;0;142.07;-4;-19.84;-4.47;505.6;14.10;75878;2836.227;-1759.968;1;135;-70;-62.9;43.7;44.0;15;14.4;27.2;0.0;
22/02/2025 09:53:07;100;0;141.95;-4;-19.79;-4.47;507.8;14.10;75870;2836.225;-1759.966;1;135;-70;-61.3;43.7;44.0;15;14.4;27.2;0.0;
22/02/2025 09:53:27;100;0;142.36;-4;-19.44;-4.44;510.1;14.10;75868;2836.224;-1759.965;1;135;-70;-61.3;43.7;44.0;15;14.4;27.2;0.0;
22/02/2025 09:53:47;100;0;141.48;-4;-19.75;-4.49;512.3;14.10;75874;2836.222;-1759.964;1;135;-70;-62.9;43.7;44.0;15;14.4;27.2;0.0;
22/02/2025 09:54:07;100;0;139.41;-4;-19.99;-4.50;514.5;14.00;75863;2836.221;-1759.962;1;135;-70;-62.9;43.7;44.0;15;14.4;27.2;0.0;
22/02/2025 09:54:27;100;0;138.51;-4;-19.84;-4.42;516.8;14.00;75858;2836.219;-1759.960;1;135;-70;-62.9;43.7;44.0;15;14.4;27.2;0.0;
22/02/2025 09:54:47;100;0;137.93;-4;-19.85;-4.53;519.1;14.00;75851;2836.218;-1759.959;1;135;-70;-61.3;43.7;44.0;15;14.4;27.2;0.0;
22/02/2025 09:55:07;100;0;136.43;-4;-19.75;-4.51;521.4;14.00;75852;2836.216;-1759.957;1;135;-70;-62.9;43.7;44.0;15;14.4;27.1;0.0;
22/02/2025 09:55:27;100;0;133.43;-4;-19.51;-4.53;523.6;13.90;75853;2836.215;-1759.955;1;135;-70;-62.9;43.7;44.0;15;14.4;27.2;0.0;
22/02/2025 09:55:47;100;0;131.29;-4;-19.77;-4.48;525.8;13.90;75851;2836.214;-1759.953;1;135;-70;-64.5;43.7;44.0;15;14.4;27.2;0.0;
22/02/2025 09:56:07;100;0;130.82;-4;-19.71;-4.41;528.0;13.90;75849;2836.213;-1759.952;1;135;-70;-61.3;43.7;44.0;15;14.4;27.2;0.0;
22/02/2025 09:56:27;100;0;127.66;-4;-19.64;-4.50;530.3;13.90;75842;2836.212;-1759.950;1;135;-70;-62.9;43.7;44.0;12;12.2;27.2;0.0;
22/02/2025 09:56:47;100;0;126.47;-4;-19.89;-5.74;532.5;13.90;75837;2836.211;-1759.948;1;135;-70;-62.9;43.7;44.0;10;9.9;27.2;0.0;
22/02/2025 09:57:07;100;0;127.46;-4;-19.89;-6.83;534.8;13.80;75828;2836.210;-1759.945;1;135;-70;-61.3;43.7;44.0;10;9.9;27.2;0.0;
22/02/2025 09:57:27;100;0;129.51;-4;-19.72;-6.80;537.2;13.80;75819;2836.209;-1759.943;1;135;-70;-62.9;43.7;44.0;13;13.1;27.2;0.0;
22/02/2025 09:57:47;100;0;129.13;-4;-19.73;-4.76;539.5;13.80;75818;2836.207;-1759.941;1;135;-70;-61.3;43.7;44.0;13;13.5;27.2;0.0;
22/02/2025 09:58:07;100;0;127.63;-4;-19.70;-4.82;541.8;13.80;75813;2836.206;-1759.939;1;135;-70;-61.3;43.7;44.0;11;10.8;27.2;0.0;
22/02/2025 09:58:27;100;0;127.66;-4;-19.57;-6.20;544.1;13.80;75818;2836.205;-1759.937;1;135;-70;-61.3;43.7;43.9;11;10.8;27.2;0.0;
22/02/2025 09:58:47;100;0;127.60;-4;-19.55;-6.16;546.3;13.70;75808;2836.204;-1759.935;1;135;-70;-61.3;43.7;43.9;11;10.8;27.2;0.0;
22/02/2025 09:59:07;100;0;127.46;-4;-19.35;-6.19;548.6;13.70;75803;2836.203;-1759.933;1;135;-70;-62.9;43.7;44.0;11;10.8;27.2;0.0;
22/02/2025 09:59:27;100;0;130.95;-4;-19.60;-6.19;550.9;13.70;75790;2836.202;-1759.931;1;135;-70;-62.9;43.7;43.9;13;13.1;27.2;0.0;
22/02/2025 09:59:47;100;0;132.71;-4;-19.66;-4.90;553.3;13.70;75788;2836.201;-1759.929;1;135;-70;-61.3;43.7;44.0;13;13.5;27.2;0.0;
22/02/2025 10:00:07;100;0;132.69;-4;-19.40;-4.94;555.6;13.70;75791;2836.199;-1759.927;1;135;-70;-61.3;43.7;44.0;13;13.5;27.2;0.0;
22/02/2025 10:00:27;100;0;132.56;-4;-19.65;-4.94;557.9;13.60;75787;2836.198;-1759.925;1;135;-70;-62.9;43.7;44.0;13;13.5;27.1;0.0;
22/02/2025 10:00:47;100;0;132.18;-4;-19.09;-4.83;560.1;13.60;75788;2836.197;-1759.923;1;135;-70;-61.3;43.7;44.0;13;13.5;27.2;0.0;
22/02/2025 10:01:07;100;0;133.93;-4;-19.90;-4.90;562.4;13.60;75780;2836.195;-1759.922;1;135;-70;-62.9;43.7;44.0;13;13.5;27.2;0.0;
22/02/2025 10:01:27;100;0;135.81;-4;-19.68;-4.89;564.8;13.60;75771;2836.194;-1759.920;1;135;-70;-61.3;43.7;44.0;13;13.5;27.2;0.0;
22/02/2025 10:01:47;100;0;135.79;-4;-19.73;-4.88;567.2;13.60;75768;2836.192;-1759.918;1;135;-70;-62.9;43.7;44.0;13;13.5;27.2;0.0;
22/02/2025 10:02:07;100;0;135.09;-4;-19.81;-4.84;569.6;13.50;75775;2836.191;-1759.916;1;135;-70;-62.9;43.7;44.0;13;13.5;27.2;0.0;
22/02/2025 10:02:27;100;0;135.99;-4;-19.76;-4.89;572.1;13.50;75768;2836.189;-1759.914;1;135;-70;-61.3;43.7;44.0;13;13.5;27.2;0.0;
22/02/2025 10:02:47;100;0;136.72;-4;-19.71;-4.90;574.5;13.50;75755;2836.188;-1759.912;1;135;-70;-62.9;43.7;44.0;13;13.5;27.2;0.0;
22/02/2025 10:03:07;100;0;138.05;-4;-19.48;-4.85;577.0;13.50;75748;2836.186;-1759.910;1;135;-70;-62.9;43.7;44.0;15;14.9;27.2;0.0;
22/02/2025 10:03:27;100;0;137.89;-4;-19.53;-3.99;579.3;13.40;75745;2836.185;-1759.909;1;135;-70;-62.9;43.7;44.0;15;15.3;27.2;0.0;
22/02/2025 10:03:47;100;0;138.04;-4;-19.46;-3.99;581.8;13.40;75737;2836.183;-1759.907;1;135;-70;-62.9;43.7;44.0;15;15.3;27.2;0.0;
22/02/2025 10:04:07;100;0;138.53;-4;-19.20;-3.99;584.2;13.40;75731;2836.181;-1759.905;1;135;-70;-61.3;43.7;44.0;15;15.3;27.2;0.0;
22/02/2025 10:04:27;100;0;137.75;-4;-19.13;-3.96;586.5;13.40;75726;2836.180;-1759.903;1;135;-70;-61.3;43.7;44.0;15;15.3;27.1;0.0;
22/02/2025 10:04:47;100;0;137.87;-4;-19.14;-4.07;588.8;13.40;75719;2836.178;-1759.901;1;135;-70;-66.1;43.7;44.0;15;15.3;27.1;0.0;
22/02/2025 10:05:07;100;0;138.31;-4;-19.15;-3.95;591.0;13.30;75715;2836.177;-1759.900;1;135;-70;-62.9;43.7;43.9;15;15.3;27.2;0.0;
22/02/2025 10:05:27;100;0;138.81;-4;-19.32;-4.00;593.4;13.30;75710;2836.175;-1759.898;1;135;-70;-62.9;43.7;43.9;15;15.3;27.2;0.0;
22/02/2025 10:05:47;100;0;140.75;-4;-19.11;-4.02;595.7;13.30;75708;2836.173;-1759.896;1;135;-70;-62.9;43.7;44.0;15;15.3;27.2;0.0;
22/02/2025 10:06:07;100;0;142.54;-4;-19.13;-3.99;598.0;13.30;75709;2836.171;-1759.895;1;135;-70;-61.3;43.7;44.0;15;15.3;27.2;0.0;
22/02/2025 10:06:27;100;0;144.09;-4;-19.15;-3.98;600.4;13.30;75704;2836.170;-1759.893;1;135;-70;-61.3;43.7;44.0;15;15.3;27.2;0.0;
22/02/2025 10:06:47;100;0;145.65;-4;-19.04;-4.01;602.7;13.20;75686;2836.168;-1759.892;1;135;-70;-61.3;43.7;44.0;15;15.3;27.2;0.0;
22/02/2025 10:07:07;100;0;150.27;-4;-19.14;-4.11;605.0;13.20;75678;2836.166;-1759.891;1;135;-70;-61.3;43.7;44.0;20;19.9;27.2;0.0;
22/02/2025 10:07:27;100;0;149.90;-4;-19.76;-1.38;607.4;13.20;75674;2836.164;-1759.890;1;135;-70;-62.9;43.7;44.0;20;20.3;27.2;0.0;
22/02/2025 10:07:47;100;0;148.57;-4;-19.78;-1.36;610.0;13.20;75666;2836.162;-1759.888;1;135;-70;-62.9;43.7;43.9;20;20.8;27.2;0.0;
22/02/2025 10:08:07;100;0;147.50;-4;-19.89;-1.33;612.5;13.10;75651;2836.160;-1759.887;1;135;-70;-62.9;43.7;44.0;18;18.1;27.2;0.0;
22/02/2025 10:08:27;100;0;147.22;-4;-19.50;-2.77;615.0;13.10;75645;2836.158;-1759.885;1;135;-70;-61.3;43.7;44.0;18;18.1;27.2;0.0;
22/02/2025 10:08:47;100;0;147.17;-4;-19.82;-2.79;617.5;13.10;75646;2836.156;-1759.884;1;135;-70;-62.9;43.7;44.2;18;18.1;27.2;0.0;
22/02/2025 10:09:07;100;0;146.22;-4;-19.52;-2.75;620.0;13.10;75641;2836.154;-1759.883;1;135;-70;-61.3;43.7;44.0;18;18.1;27.2;0.0;
22/02/2025 10:09:27;100;0;143.69;-4;-19.36;-2.80;622.4;13.00;75630;2836.152;-1759.881;1;135;-70;-62.9;43.7;44.0;16;15.3;27.2;0.0;
22/02/2025 10:09:47;100;0;141.89;-4;-19.43;-4.10;624.8;13.00;75627;2836.150;-1759.879;1;135;-70;-61.3;43.7;44.0;16;15.3;27.2;0.0;
22/02/2025 10:10:07;100;0;140.67;-4;-19.49;-4.05;627.2;13.00;75621;2836.149;-1759.878;1;135;-70;-61.3;43.7;43.9;16;15.3;27.2;0.0;
22/02/2025 10:10:27;100;0;139.80;-4;-19.44;-4.10;629.7;13.00;75622;2836.147;-1759.876;1;135;-70;-61.3;43.7;44.0;16;15.3;27.2;0.0;
22/02/2025 10:10:47;100;0;140.10;-4;-19.47;-4.05;632.1;13.00;75617;2836.145;-1759.874;1;135;-70;-61.3;43.7;44.0;16;15.3;27.2;0.0;
22/02/2025 10:11:07;100;0;139.86;-4;-19.34;-4.06;634.5;12.90;75612;2836.143;-1759.872;1;135;-70;-62.9;43.7;44.0;16;15.3;27.2;0.0;
22/02/2025 10:11:27;100;0;140.69;-4;-19.18;-4.09;636.9;12.90;75593;2836.141;-1759.871;1;135;-70;-61.3;43.7;44.0;16;15.3;27.1;0.0;
22/02/2025 10:11:47;100;0;141.70;-4;-19.52;-4.13;639.3;12.90;75612;2836.140;-1759.869;1;135;-70;-61.3;43.7;43.9;16;15.3;27.2;0.0;
22/02/2025 10:12:07;100;0;142.85;-4;-19.35;-4.06;641.8;12.90;75605;2836.138;-1759.867;1;135;-70;-66.1;43.7;44.0;16;15.3;27.2;0.0;
22/02/2025 10:12:27;100;0;144.46;-4;-19.33;-4.06;644.2;12.80;75593;2836.136;-1759.866;1;135;-70;-62.9;43.7;44.0;16;15.3;27.2;0.0;
22/02/2025 10:12:47;100;0;145.65;-4;-19.38;-4.12;646.6;12.80;75588;2836.134;-1759.864;1;135;-70;-62.9;43.7;44.0;16;15.3;27.1;0.0;
22/02/2025 10:13:07;100;0;144.60;-4;-19.43;-4.13;649.1;12.80;75594;2836.132;-1759.863;1;135;-70;-61.3;43.7;44.0;16;15.3;27.2;0.0;
22/02/2025 10:13:27;100;0;143.56;-4;-19.51;-3.99;651.6;12.80;75587;2836.130;-1759.861;1;135;-70;-62.9;43.7;44.0;16;15.3;27.2;0.0;
22/02/2025 10:13:47;100;0;142.75;-4;-19.26;-4.07;654.0;12.80;75573;2836.128;-1759.860;1;135;-70;-62.9;43.7;44.0;16;15.3;27.2;0.0;
22/02/2025 10:14:07;100;0;141.94;-4;-19.09;-4.19;656.4;12.70;75578;2836.127;-1759.858;1;135;-70;-62.9;43.7;44.0;16;15.3;27.1;0.0;
22/02/2025 10:14:27;100;0;138.48;-4;-18.56;-4.14;658.8;12.70;75565;2836.125;-1759.856;1;135;-70;-61.3;44.2;44.2;16;15.3;27.1;0.0;
22/02/2025 10:14:47;100;0;139.81;-4;-19.42;-4.10;661.1;12.70;75560;2836.123;-1759.855;1;135;-70;-61.3;44.2;44.5;16;15.3;27.2;0.0;
22/02/2025 10:15:07;100;0;139.84;-4;-20.40;-4.16;663.3;12.70;75551;2836.122;-1759.853;1;135;-70;-62.9;44.2;44.5;16;15.3;27.2;0.0;
22/02/2025 10:15:27;100;0;139.68;-4;-20.41;-4.02;665.8;12.70;75551;2836.120;-1759.851;1;135;-70;-61.3;44.2;44.5;16;15.3;27.2;0.0;
22/02/2025 10:15:47;100;0;139.79;-4;-19.82;-4.12;668.3;12.60;75550;2836.118;-1759.849;1;135;-70;-61.3;44.2;44.5;16;15.3;27.2;0.0;
22/02/2025 10:16:07;100;0;139.34;-4;-20.35;-4.21;670.7;12.60;75545;2836.117;-1759.848;1;135;-70;-62.9;44.2;44.5;16;15.3;27.2;0.0;
22/02/2025 10:16:27;100;0;139.65;-4;-18.96;-3.90;673.3;12.60;75532;2836.115;-1759.846;1;135;-70;-61.3;44.5;44.5;16;15.3;27.2;0.0;
22/02/2025 10:16:47;100;0;142.87;-4;-20.20;-4.15;675.7;12.60;75525;2836.113;-1759.844;1;135;-70;-61.3;44.5;44.5;16;15.3;27.2;0.0;
22/02/2025 10:17:07;100;0;145.97;-4;-19.81;-4.09;678.0;12.50;75532;2836.111;-1759.843;1;135;-70;-61.3;44.5;44.5;16;15.3;27.2;0.0;
22/02/2025 10:17:27;100;0;146.61;-4;-19.95;-4.02;680.4;12.50;75506;2836.109;-1759.842;1;135;-70;-62.9;44.5;44.5;16;15.3;27.2;0.0;
22/02/2025 10:17:47;100;0;146.80;-4;-19.73;-4.11;682.8;12.50;75522;2836.108;-1759.840;1;135;-70;-61.3;44.5;44.3;18;18.1;27.1;0.0;
22/02/2025 10:18:07;100;0;146.63;-4;-19.92;-2.38;685.2;12.50;75511;2836.106;-1759.839;1;135;-70;-64.5;44.5;44.5;18;18.5;27.2;0.0;
22/02/2025 10:18:27;100;0;146.83;-4;-20.01;-2.38;687.6;12.40;75509;2836.104;-1759.838;1;135;-70;-62.9;44.5;44.5;18;18.5;27.2;0.0;
22/02/2025 10:18:47;100;0;145.90;-4;-19.89;-2.37;689.9;12.40;75500;2836.102;-1759.836;1;135;-70;-61.3;44.5;44.6;18;18.5;27.1;0.0;
22/02/2025 10:19:07;100;0;146.79;-4;-19.76;-2.33;692.3;12.40;75489;2836.100;-1759.835;1;135;-70;-61.3;44.5;44.5;18;18.5;27.2;0.0;
22/02/2025 10:19:27;100;0;146.96;-4;-19.78;-2.44;694.7;12.40;75498;2836.098;-1759.834;1;135;-70;-61.3;44.5;44.5;18;18.5;27.2;0.0;
22/02/2025 10:19:47;100;0;148.68;-4;-19.79;-2.39;697.1;12.40;75486;2836.097;-1759.833;1;135;-70;-61.3;44.5;44.5;18;18.5;27.2;0.0;
22/02/2025 10:20:07;100;0;150.08;-4;-19.85;-2.39;699.4;12.30;75487;2836.095;-1759.831;1;135;-70;-62.9;44.5;44.5;21;21.2;27.2;0.0;
22/02/2025 10:20:27;100;0;150.06;-4;-20.12;-0.81;701.7;12.30;75479;2836.093;-1759.830;1;135;-70;-61.3;44.5;44.5;21;21.7;27.2;0.0;
22/02/2025 10:20:47;100;0;152.51;-4;-19.48;-0.70;704.0;12.30;75470;2836.091;-1759.829;1;135;-70;-62.9;44.5;44.5;24;23.9;27.2;0.0;
22/02/2025 10:21:07;100;0;159.49;-4;-20.51;0.41;706.3;12.30;75472;2836.089;-1759.829;1;135;-70;-62.9;44.5;44.5;35;35.2;27.1;0.0;
22/02/2025 10:21:27;100;0;154.49;-4;-21.79;5.82;708.7;12.30;75456;2836.087;-1759.828;1;135;-70;-62.9;44.5;44.5;27;27.1;27.1;0.0;
22/02/2025 10:21:47;100;0;149.73;-4;-20.98;1.68;711.2;12.20;75436;2836.085;-1759.827;1;135;-70;-62.9;44.5;44.5;21;21.2;27.2;0.0;
22/02/2025 10:22:08;100;0;146.07;-4;-19.58;-0.79;713.7;12.20;75434;2836.083;-1759.825;1;135;-70;-61.3;44.5;44.5;18;18.1;27.2;0.0;
22/02/2025 10:22:28;100;0;142.04;-4;-20.58;-3.09;716.1;12.20;75433;2836.082;-1759.824;1;135;-70;-62.9;44.5;44.5;16;15.8;27.2;0.0;
22/02/2025 10:22:48;100;0;140.92;-4;-20.62;-3.99;718.7;12.20;75433;2836.080;-1759.822;1;135;-70;-62.9;44.5;44.5;16;15.8;27.2;0.0;
22/02/2025 10:23:08;100;0;139.55;-4;-20.28;-4.11;721.1;12.10;75429;2836.078;-1759.821;1;135;-70;-62.9;44.5;44.5;16;15.8;27.2;0.0;
22/02/2025 10:23:28;100;0;137.73;-4;-19.87;-3.94;723.6;12.10;75416;2836.076;-1759.819;1;135;-70;-61.3;44.5;44.8;16;15.3;27.2;0.0;
22/02/2025 10:23:48;100;0;136.43;-4;-20.30;-3.94;726.1;12.10;75413;2836.075;-1759.817;1;135;-70;-61.3;44.5;44.5;16;15.8;27.2;0.0;
22/02/2025 10:24:08;100;0;136.61;-4;-20.02;-3.68;728.5;12.10;75415;2836.073;-1759.815;1;135;-70;-61.3;44.5;44.5;16;15.3;27.2;0.0;
22/02/2025 10:24:28;100;0;136.35;-4;-20.01;-3.93;730.8;12.00;75404;2836.072;-1759.813;1;135;-70;-61.3;44.5;44.5;16;15.3;27.2;0.0;
22/02/2025 10:24:48;100;0;137.74;-4;-19.91;-3.94;733.4;12.00;75409;2836.070;-1759.811;1;135;-70;-62.9;44.5;44.5;16;15.8;27.2;0.0;
22/02/2025 10:25:08;100;0;136.71;-4;-20.39;-4.02;735.7;12.00;75406;2836.069;-1759.809;1;135;-70;-62.9;44.5;44.5;16;15.8;27.2;0.0;
22/02/2025 10:25:28;100;0;137.70;-4;-20.30;-4.05;738.2;12.00;75400;2836.067;-1759.808;1;135;-70;-61.3;44.5;44.5;16;15.8;27.2;0.0;
22/02/2025 10:25:48;100;0;139.25;-4;-20.14;-3.91;740.7;11.90;75392;2836.065;-1759.806;1;135;-70;-62.9;44.5;44.5;16;15.3;27.1;0.0;
22/02/2025 10:26:08;100;0;140.14;-4;-19.80;-4.00;743.2;11.90;75398;2836.064;-1759.804;1;135;-70;-62.9;44.5;44.5;16;15.8;27.1;0.0;
22/02/2025 10:26:28;100;0;140.42;-4;-20.00;-3.99;745.6;11.90;75388;2836.062;-1759.802;1;135;-70;-61.3;44.5;44.6;16;15.8;27.2;0.0;
22/02/2025 10:26:48;100;0;141.74;-4;-20.40;-3.99;748.0;11.90;75381;2836.060;-1759.801;1;135;-70;-62.9;44.5;44.5;16;15.8;27.2;0.0;
22/02/2025 10:27:08;100;0;142.51;-4;-20.55;-4.01;750.6;11.90;75383;2836.058;-1759.799;1;135;-70;-61.3;44.5;44.5;16;15.8;27.2;0.0;
22/02/2025 10:27:28;100;0;139.69;-4;-19.97;-4.05;753.2;11.90;75380;2836.057;-1759.797;1;135;-70;-61.3;44.5;44.5;16;15.3;27.1;0.0;
22/02/2025 10:27:48;100;0;139.12;-4;-20.06;-4.02;755.7;11.80;75366;2836.055;-1759.795;1;135;-70;-62.9;44.5;44.5;16;15.3;27.2;0.0;
22/02/2025 10:28:08;100;0;139.60;-4;-19.88;-3.96;758.3;11.80;75371;2836.053;-1759.794;1;135;-70;-59.7;44.5;44.5;16;15.3;27.2;0.0;
22/02/2025 10:28:28;100;0;140.32;-4;-20.47;-3.98;760.8;11.80;75368;2836.051;-1759.792;1;135;-70;-61.3;44.5;44.5;16;15.8;27.2;0.0;
22/02/2025 10:28:48;100;0;137.43;-4;-20.14;-3.95;763.5;11.80;75356;2836.049;-1759.790;1;135;-70;-62.9;44.5;44.5;16;15.3;27.2;0.0;
22/02/2025 10:29:08;100;0;137.73;-4;-19.56;-3.95;766.1;11.80;75349;2836.048;-1759.788;1;135;-70;-62.9;44.5;44.5;16;15.3;27.1;0.0;
22/02/2025 10:29:28;100;0;135.10;-4;-19.95;-3.93;768.6;11.70;75355;2836.046;-1759.786;1;135;-70;-61.3;44.5;44.5;16;15.8;27.2;0.0;
22/02/2025 10:29:48;100;0;133.52;-4;-20.09;-3.95;771.3;11.70;75343;2836.044;-1759.784;1;135;-70;-62.9;44.5;44.5;16;15.8;27.2;0.0;
22/02/2025 10:30:08;100;0;132.52;-4;-19.86;-4.07;774.0;11.70;75345;2836.043;-1759.781;1;135;-70;-62.9;44.5;44.5;16;15.8;27.1;0.0;
22/02/2025 10:30:28;100;0;131.64;-4;-19.28;-4.00;776.8;11.70;75326;2836.041;-1759.779;1;135;-70;-62.9;44.5;44.5;16;15.3;27.1;0.0;
22/02/2025 10:30:48;100;0;132.17;-4;-19.99;-4.05;779.4;11.70;75341;2836.040;-1759.777;1;135;-70;-64.5;44.5;44.5;16;15.3;27.2;0.0;
22/02/2025 10:31:08;100;0;133.10;-4;-19.73;-4.05;782.1;11.60;75325;2836.038;-1759.774;1;135;-70;-61.3;44.5;44.5;16;15.3;27.2;0.0;
22/02/2025 10:31:28;100;0;135.60;-4;-20.77;-3.90;784.7;11.60;75323;2836.036;-1759.772;1;135;-70;-62.9;44.5;44.5;16;15.8;27.2;0.0;
22/02/2025 10:31:48;100;0;138.02;-4;-19.52;-3.97;787.5;11.60;75327;2836.034;-1759.770;1;135;-70;-61.3;44.5;44.5;16;15.8;27.2;0.0;
22/02/2025 10:32:08;100;0;137.30;-4;-19.95;-4.12;790.1;11.60;75322;2836.033;-1759.768;1;135;-70;-61.3;44.5;44.5;16;15.8;27.2;0.0;
22/02/2025 10:32:28;100;0;136.45;-4;-20.12;-4.02;792.6;11.60;75315;2836.031;-1759.766;1;135;-70;-61.3;44.5;44.5;16;15.3;27.2;0.0;
22/02/2025 10:32:48;100;0;135.94;-4;-20.04;-4.00;795.4;11.50;75313;2836.029;-1759.764;1;135;-70;-62.9;44.5;44.5;16;15.3;27.2;0.0;
22/02/2025 10:33:08;100;0;133.57;-4;-19.77;-4.03;798.1;11.50;75322;2836.028;-1759.762;1;135;-70;-59.7;44.5;44.5;16;15.3;27.1;0.0;
22/02/2025 10:33:28;100;0;133.20;-4;-19.75;-4.07;800.7;11.50;75301;2836.026;-1759.759;1;135;-70;-62.9;44.5;44.5;16;15.8;27.2;0.0;
22/02/2025 10:33:48;100;0;132.19;-4;-19.75;-4.00;803.2;11.50;75308;2836.024;-1759.757;1;135;-70;-62.9;44.5;44.5;16;15.8;27.2;0.0;
22/02/2025 10:34:08;100;0;134.22;-4;-19.32;-4.02;805.8;11.50;75298;2836.023;-1759.755;1;135;-70;-62.9;44.5;44.5;16;15.8;27.2;0.0;
22/02/2025 10:34:28;100;0;131.87;-4;-19.76;-4.01;808.4;11.40;75292;2836.021;-1759.753;1;135;-70;-62.9;44.5;44.6;16;15.3;27.1;0.0;
22/02/2025 10:34:48;100;0;128.51;-4;-19.51;-4.01;810.9;11.40;75285;2836.020;-1759.751;1;135;-70;-61.3;44.5;44.5;14;14.0;27.2;0.0;
22/02/2025 10:35:08;100;0;129.45;-4;-19.73;-5.12;813.3;11.40;75265;2836.019;-1759.749;1;135;-70;-62.9;44.5;44.5;14;13.5;27.2;0.0;
22/02/2025 10:35:28;100;0;129.44;-4;-19.49;-5.00;815.9;11.40;75255;2836.017;-1759.746;1;135;-70;-62.9;44.5;44.6;14;13.5;27.1;0.0;
22/02/2025 10:35:48;100;0;127.75;-4;-18.48;-5.09;818.5;11.40;75254;2836.016;-1759.744;1;135;-70;-62.9;44.9;44.9;14;13.5;27.2;0.0;
22/02/2025 10:36:08;100;0;124.59;-4;-20.34;-5.12;820.9;11.30;75249;2836.015;-1759.741;1;135;-70;-61.3;44.9;45.1;9;8.6;27.2;0.0;
22/02/2025 10:36:28;100;0;126.18;-4;-20.44;-7.53;823.5;11.30;75250;2836.014;-1759.739;1;135;-70;-59.7;44.9;45.1;12;12.2;27.2;0.0;
22/02/2025 10:36:48;100;0;127.02;-4;-20.69;-5.35;826.1;11.30;75241;2836.012;-1759.736;1;135;-70;-61.3;44.9;45.1;12;12.6;27.1;0.0;
22/02/2025 10:37:08;100;0;126.60;-4;-20.61;-5.37;828.7;11.30;75239;2836.011;-1759.734;1;135;-70;-61.3;44.9;45.1;12;12.6;27.2;0.0;
22/02/2025 10:37:28;100;0;128.92;-4;-20.42;-5.30;831.4;11.20;75234;2836.010;-1759.732;1;135;-70;-62.9;44.9;45.1;14;14.0;27.2;0.0;
22/02/2025 10:37:48;100;0;132.57;-4;-21.05;-4.50;833.8;11.20;75232;2836.008;-1759.730;1;135;-70;-61.3;44.9;45.1;14;14.4;27.2;0.0;
22/02/2025 10:38:08;100;0;135.17;-4;-20.78;-4.36;836.5;11.20;75217;2836.007;-1759.728;1;135;-70;-61.3;44.9;45.2;14;14.4;27.2;0.0;
22/02/2025 10:38:28;100;0;136.85;-4;-21.08;-4.15;839.1;11.20;75213;2836.005;-1759.726;1;135;-70;-61.3;44.9;45.1;14;14.4;27.1;0.0;
22/02/2025 10:38:48;100;0;140.00;-4;-20.64;-4.41;841.8;11.20;75211;2836.003;-1759.724;1;135;-70;-61.3;44.9;45.1;16;15.8;27.2;0.0;
22/02/2025 10:39:08;100;0;142.24;-4;-20.87;-3.53;844.3;11.10;75196;2836.001;-1759.722;1;135;-70;-61.3;44.9;45.1;16;16.2;27.2;0.0;
22/02/2025 10:39:28;100;0;146.06;-4;-20.88;-3.52;846.8;11.10;75203;2836.000;-1759.721;1;135;-70;-64.5;44.9;45.1;16;16.2;27.2;0.0;
22/02/2025 10:39:48;100;0;147.08;-4;-21.06;-3.58;849.4;11.10;75196;2835.998;-1759.720;1;135;-70;-62.9;44.9;45.1;18;18.5;27.1;0.0;
22/02/2025 10:40:08;100;0;148.86;-4;-20.80;-2.20;851.9;11.10;75201;2835.996;-1759.718;1;135;-70;-62.9;44.9;45.1;18;19.0;27.2;0.0;
22/02/2025 10:40:28;100;0;149.63;-4;-21.10;-2.17;854.3;11.10;75194;2835.994;-1759.717;1;135;-70;-61.3;44.9;45.1;20;20.3;27.2;0.0;
22/02/2025 10:40:48;100;0;149.56;-4;-21.22;-1.34;856.7;11.00;75184;2835.992;-1759.716;1;135;-70;-62.9;44.9;45.1;20;20.8;27.2;0.0;
22/02/2025 10:41:08;100;0;148.57;-4;-21.12;-1.35;859.2;11.00;75182;2835.990;-1759.715;1;135;-70;-62.9;44.9;45.1;20;20.8;27.2;0.0;
22/02/2025 10:41:28;100;0;146.59;-4;-21.17;-1.36;861.7;11.00;75189;2835.988;-1759.713;1;135;-70;-61.3;44.9;45.1;18;18.1;27.2;0.0;
22/02/2025 10:41:48;100;0;145.37;-4;-20.95;-2.67;864.2;11.00;75191;2835.986;-1759.712;1;135;-70;-62.9;44.9;45.1;18;18.1;27.2;0.0;
22/02/2025 10:42:08;100;0;144.14;-4;-21.00;-2.72;866.6;11.00;75185;2835.985;-1759.711;1;135;-70;-61.3;44.9;45.1;18;18.1;27.2;0.0;
22/02/2025 10:42:28;100;0;146.77;-4;-20.92;-2.74;869.1;10.90;75187;2835.983;-1759.709;1;135;-70;-62.9;44.9;45.1;18;18.1;27.2;0.0;
22/02/2025 10:42:48;100;0;147.26;-4;-20.99;-2.64;871.6;10.90;75184;2835.981;-1759.708;1;135;-70;-62.9;44.9;45.1;18;18.1;27.2;0.0;
22/02/2025 10:43:08;100;0;147.36;-4;-20.95;-2.67;874.1;10.90;75175;2835.979;-1759.707;1;135;-70;-61.3;44.9;45.1;18;18.1;27.2;0.0;
22/02/2025 10:43:28;100;0;147.19;-4;-21.06;-2.66;876.6;10.90;75184;2835.977;-1759.705;1;135;-70;-61.3;44.9;45.1;18;18.1;27.1;0.0;
22/02/2025 10:43:48;100;0;144.92;-4;-21.07;-2.64;879.1;10.90;75165;2835.975;-1759.704;1;135;-70;-61.3;44.9;45.1;18;18.1;27.2;0.0;
22/02/2025 10:44:08;100;0;142.96;-4;-21.06;-2.77;881.6;10.90;75180;2835.974;-1759.702;1;135;-70;-61.3;44.9;45.2;16;15.8;27.2;0.0;
22/02/2025 10:44:28;100;0;143.46;-4;-21.00;-3.92;884.2;10.80;75179;2835.972;-1759.701;1;135;-70;-61.3;44.9;45.1;16;15.8;27.2;0.0;
22/02/2025 10:44:48;100;0;144.06;-4;-20.64;-3.89;886.7;10.80;75174;2835.970;-1759.699;1;135;-70;-59.7;44.9;45.2;16;15.3;27.2;0.0;
22/02/2025 10:45:08;100;0;142.82;-4;-20.67;-3.95;889.2;10.80;75170;2835.968;-1759.698;1;135;-70;-61.3;44.9;45.2;16;15.8;27.2;0.0;
22/02/2025 10:45:28;100;0;139.39;-4;-20.55;-3.96;891.6;10.80;75167;2835.967;-1759.696;1;135;-70;-61.3;44.9;45.1;16;15.8;27.1;0.0;
22/02/2025 10:45:48;100;0;138.22;-4;-20.83;-4.00;893.9;10.80;75162;2835.965;-1759.695;1;135;-70;-61.3;44.9;45.1;16;15.8;27.2;0.0;
22/02/2025 10:46:08;100;0;136.03;-4;-20.97;-3.96;896.2;10.80;75169;2835.964;-1759.693;1;135;-70;-64.5;44.9;45.1;16;15.8;27.2;0.0;
22/02/2025 10:46:28;100;0;135.42;-4;-20.98;-3.98;898.6;10.70;75156;2835.963;-1759.691;1;135;-70;-62.9;44.9;45.1;16;15.8;27.2;0.0;
22/02/2025 10:46:48;100;0;137.03;-4;-20.98;-3.99;900.8;10.70;75158;2835.961;-1759.690;1;135;-70;-61.3;44.9;45.1;16;15.8;27.2;0.0;
22/02/2025 10:47:08;100;0;140.53;-4;-20.59;-3.98;903.3;10.70;75155;2835.960;-1759.688;1;135;-70;-61.3;44.9;45.1;16;15.3;27.2;0.0;
22/02/2025 10:47:28;100;0;140.07;-4;-20.29;-3.91;905.7;10.70;75150;2835.958;-1759.686;1;135;-70;-61.3;44.9;45.1;16;15.8;27.1;0.0;
22/02/2025 10:47:48;100;0;140.09;-4;-20.30;-3.92;908.0;10.70;75149;2835.956;-1759.685;1;135;-70;-62.9;44.9;45.1;16;15.8;27.1;0.0;
22/02/2025 10:48:08;100;0;142.35;-4;-20.12;-3.90;910.5;10.70;75136;2835.955;-1759.683;1;135;-70;-64.5;44.9;45.1;16;15.8;27.2;0.0;
22/02/2025 10:48:28;100;0;144.91;-4;-20.72;-3.95;912.6;10.70;75143;2835.953;-1759.682;1;135;-70;-62.9;44.9;45.1;16;15.8;27.2;0.0;
22/02/2025 10:48:48;100;0;142.53;-4;-20.53;-3.94;915.1;10.60;75138;2835.951;-1759.680;1;135;-70;-61.3;44.9;45.1;16;15.8;27.2;0.0;
22/02/2025 10:49:08;100;0;140.76;-4;-20.45;-3.97;917.3;10.60;75136;2835.950;-1759.679;1;135;-70;-62.9;44.9;45.1;16;15.8;27.2;0.0;
22/02/2025 10:49:28;100;0;139.62;-4;-20.30;-3.99;919.6;10.60;75137;2835.948;-1759.677;1;135;-70;-62.9;44.9;45.2;16;15.8;27.2;0.0;
22/02/2025 10:49:48;100;0;139.20;-4;-20.29;-4.00;921.8;10.60;75132;2835.947;-1759.676;1;135;-70;-62.9;44.9;45.1;16;15.8;27.2;0.0;
22/02/2025 10:50:08;100;0;137.85;-4;-20.42;-4.01;924.0;10.60;75124;2835.946;-1759.674;1;135;-70;-61.3;44.9;45.1;16;15.8;27.2;0.0;
22/02/2025 10:50:28;100;0;136.81;-4;-20.37;-4.00;926.1;10.50;75111;2835.944;-1759.673;1;135;-70;-61.3;44.9;45.1;16;15.3;27.2;0.0;
22/02/2025 10:50:48;100;0;134.89;-4;-20.44;-4.00;928.3;10.50;75109;2835.943;-1759.671;1;135;-70;-61.3;44.9;45.1;16;15.8;27.2;0.0;
22/02/2025 10:51:08;100;0;132.48;-4;-20.29;-4.00;930.3;10.50;75105;2835.942;-1759.670;1;135;-90;-90.3;44.9;45.1;16;15.8;27.1;0.0;
22/02/2025 10:51:28;100;0;130.61;-4;-19.54;-3.83;932.6;10.50;75166;2835.941;-1759.668;1;135;-90;-95.2;44.9;45.2;16;15.8;27.2;0.0;
22/02/2025 10:51:48;100;0;128.23;-4;-19.55;-3.85;934.8;10.50;75167;2835.940;-1759.666;1;135;-90;-91.9;44.9;45.1;13;13.1;27.1;0.0;
22/02/2025 10:52:08;100;0;128.70;-4;-19.73;-5.10;937.0;10.50;75155;2835.939;-1759.664;1;135;-90;-93.5;44.9;45.1;13;13.1;27.1;0.0;
22/02/2025 10:52:28;100;0;131.25;-4;-19.71;-5.07;939.4;10.40;75159;2835.938;-1759.662;1;135;-90;-93.5;44.9;45.1;15;14.9;27.2;0.0;
22/02/2025 10:52:48;100;0;133.27;-4;-19.88;-3.91;941.6;10.40;75159;2835.936;-1759.660;1;135;-90;-95.2;44.9;45.1;15;15.3;27.2;0.0;
22/02/2025 10:53:08;100;0;135.54;-4;-20.04;-3.86;944.1;10.40;75155;2835.935;-1759.658;1;135;-90;-95.2;44.9;45.1;15;15.8;27.2;0.0;
22/02/2025 10:53:28;100;0;137.20;-4;-20.14;-3.74;946.5;10.40;75151;2835.933;-1759.656;1;135;-90;-95.2;44.9;45.1;15;15.3;27.2;0.0;
22/02/2025 10:53:48;100;0;139.45;-4;-19.90;-3.86;949.0;10.30;75142;2835.932;-1759.655;1;135;-90;-95.2;44.9;45.2;15;15.3;27.2;0.0;
22/02/2025 10:54:08;100;0;140.02;-4;-19.76;-3.94;951.3;10.30;75136;2835.930;-1759.653;1;135;-90;-96.8;44.9;45.1;15;15.3;27.2;0.0;
22/02/2025 10:54:28;100;0;142.10;-4;-19.75;-3.87;953.8;10.30;75129;2835.928;-1759.651;1;135;-90;-95.2;44.9;45.1;15;15.3;27.2;0.0;
22/02/2025 10:54:48;100;0;143.22;-4;-19.78;-3.86;956.1;10.30;75132;2835.926;-1759.650;1;135;-90;-95.2;44.9;45.1;17;17.1;27.2;0.0;
22/02/2025 10:55:08;100;0;142.48;-4;-20.11;-2.92;958.4;10.30;75130;2835.925;-1759.648;1;135;-90;-96.8;44.9;45.1;17;17.6;27.2;0.0;
22/02/2025 10:55:28;100;0;141.32;-4;-20.26;-2.82;960.7;10.30;75128;2835.923;-1759.647;1;135;-90;-95.2;44.9;45.1;17;17.6;27.2;0.0;
22/02/2025 10:55:48;100;0;140.94;-4;-20.00;-2.79;963.1;10.30;75129;2835.922;-1759.645;1;135;-90;-95.2;44.9;45.2;17;17.6;27.2;0.0;
22/02/2025 10:56:08;100;0;141.21;-4;-20.16;-2.78;965.5;10.20;75130;2835.920;-1759.644;1;135;-90;-95.2;44.9;45.2;17;17.6;27.2;0.0;
22/02/2025 10:56:28;100;0;139.62;-4;-20.00;-2.80;967.9;10.20;75125;2835.918;-1759.642;1;135;-90;-95.2;44.9;45.1;17;17.6;27.2;0.0;
22/02/2025 10:56:49;100;0;138.23;-4;-19.98;-2.87;970.2;10.20;75118;2835.917;-1759.640;1;135;-90;-96.8;44.9;45.1;17;17.6;27.2;0.0;
22/02/2025 10:57:09;100;0;135.12;-4;-20.16;-2.85;972.6;10.20;75119;2835.915;-1759.638;1;135;-90;-96.8;44.9;45.1;17;17.6;27.2;0.0;
22/02/2025 10:57:29;100;0;134.38;-4;-20.24;-2.89;975.0;10.20;75122;2835.914;-1759.637;1;135;-90;-95.2;44.9;45.1;17;17.6;27.2;0.0;
22/02/2025 10:57:49;100;0;132.52;-4;-19.83;-2.78;977.5;10.20;75106;2835.912;-1759.634;1;135;-90;-96.8;44.9;45.1;17;17.6;27.2;0.0;
22/02/2025 10:58:09;100;0;132.19;-4;-20.53;-2.70;980.1;10.10;75110;2835.911;-1759.632;1;135;-90;-95.2;44.9;45.1;15;14.9;27.1;0.0;
22/02/2025 10:58:29;100;0;133.38;-4;-20.17;-4.28;982.7;10.10;75106;2835.909;-1759.630;1;135;-90;-95.2;44.9;45.1;15;14.9;27.2;0.0;
22/02/2025 10:58:49;100;0;133.61;-4;-19.57;-4.33;985.3;10.10;75109;2835.908;-1759.628;1;135;-90;-95.2;44.9;45.1;15;14.4;27.2;0.0;
22/02/2025 10:59:09;100;0;134.06;-4;-19.87;-4.14;987.9;10.10;75108;2835.906;-1759.626;1;135;-90;-96.8;44.9;45.2;15;14.4;27.1;0.0;
22/02/2025 10:59:29;100;0;135.04;-4;-19.80;-4.27;990.6;10.10;75097;2835.904;-1759.624;1;135;-90;-96.8;44.9;45.1;15;14.4;27.2;0.0;
22/02/2025 10:59:49;100;0;137.66;-4;-20.05;-4.33;993.2;10.10;75108;2835.903;-1759.622;1;135;-90;-96.8;44.9;45.2;15;14.4;27.2;0.0;
22/02/2025 11:00:09;100;0;138.37;-4;-19.73;-4.37;996.1;10.10;75096;2835.901;-1759.619;1;135;-90;-95.2;44.9;45.1;15;14.4;27.2;0.0;
22/02/2025 11:00:29;100;0;137.36;-4;-19.81;-4.27;999.0;10.00;75089;2835.899;-1759.617;1;135;-90;-95.2;44.9;45.1;15;14.4;27.1;0.0;
22/02/2025 11:00:31;118;0;137.41;-4;-19.72;-4.43;999.4;10.00;75103;2835.898;-1759.617;1;135;270;-93.5;25.6;25.6;6;5.9;27.2;0.0;
22/02/2025 11:00:41;118;0;113.79;-4;-6.03;-9.68;1000.4;10.00;75086;2835.898;-1759.615;1;135;270;33.9;25.6;25.3;6;5.9;25.9;-1.0;
22/02/2025 11:00:51;118;0;101.26;-4;16.41;-9.52;1000.8;10.00;74811;2835.898;-1759.615;1;135;270;158.1;25.6;25.0;6;5.9;25.9;-1.0;
22/02/2025 11:01:01;118;0;97.57;-4;23.07;-9.74;1000.2;10.00;74566;2835.899;-1759.615;1;135;270;274.2;25.6;25.8;6;5.9;25.9;-1.0;
22/02/2025 11:01:11;118;0;139.06;-4;21.28;-8.68;999.3;10.00;74355;2835.898;-1759.614;1;135;270;271.0;25.6;25.8;6;5.9;27.1;-1.0;
22/02/2025 11:01:21;118;0;135.85;-4;19.55;-9.40;998.4;10.00;74353;2835.898;-1759.614;1;135;270;274.2;25.6;25.8;6;5.9;27.1;-1.0;
22/02/2025 11:01:42;117;0;130.43;-4;18.79;-9.06;996.7;10.10;74347;2835.897;-1759.612;1;135;270;272.6;25.6;25.9;6;5.9;27.1;-1.0;
22/02/2025 11:02:02;117;0;125.95;-4;18.85;-9.11;994.5;10.10;74344;2835.896;-1759.610;1;135;270;274.2;25.2;24.7;34;33.8;27.1;-1.0;
22/02/2025 11:02:22;117;0;126.35;-4;22.20;5.70;992.5;10.10;74352;2835.895;-1759.609;1;135;270;274.2;25.9;25.9;34;34.3;27.1;-1.0;
22/02/2025 11:02:42;117;0;129.47;-4;21.10;5.79;990.1;10.10;74352;2835.894;-1759.607;1;135;270;269.4;25.9;25.9;31;30.7;27.2;-1.0;
22/02/2025 11:03:02;117;0;131.17;-4;20.81;3.86;987.9;10.10;74344;2835.893;-1759.605;1;135;270;272.6;25.9;26.1;31;30.2;27.1;-1.0;
22/02/2025 11:03:22;117;0;131.32;-4;20.42;3.89;985.7;10.10;74347;2835.892;-1759.603;1;135;270;274.2;25.9;26.1;31;30.7;27.2;-1.0;
22/02/2025 11:03:42;117;0;132.45;-4;20.83;3.77;983.3;10.10;74338;2835.891;-1759.601;1;135;270;272.6;25.9;26.1;31;30.7;27.2;-1.0;
22/02/2025 11:04:02;117;0;132.42;-4;20.75;3.99;980.9;10.10;74352;2835.889;-1759.599;1;135;270;272.6;25.9;26.1;31;30.7;27.1;-1.0;
22/02/2025 11:04:22;117;0;133.95;-4;20.59;3.86;978.4;10.10;74340;2835.888;-1759.597;1;135;270;274.2;25.9;25.9;29;28.4;27.1;-1.0;
22/02/2025 11:04:42;117;0;132.95;-4;20.22;2.96;975.9;10.10;74331;2835.886;-1759.595;1;135;270;272.6;25.9;26.1;29;28.4;27.1;-1.0;
22/02/2025 11:05:02;117;0;132.98;-4;20.02;2.80;973.2;10.00;74327;2835.885;-1759.593;1;135;270;272.6;25.9;26.1;29;28.4;27.1;-1.0;
22/02/2025 11:05:22;117;0;131.89;-4;19.87;2.78;970.8;10.00;74322;2835.883;-1759.591;1;135;270;272.6;25.9;25.9;29;28.4;27.2;-1.0;
22/02/2025 11:05:42;117;0;130.11;-4;20.09;2.65;968.4;10.00;74324;2835.882;-1759.589;1;135;270;272.6;25.9;25.9;31;31.1;27.2;-1.0;
22/02/2025 11:06:02;117;0;130.61;-4;19.63;4.37;965.9;10.00;74319;2835.881;-1759.587;1;135;270;272.6;25.9;25.9;31;31.6;27.1;-1.0;
22/02/2025 11:06:22;117;0;130.85;-4;20.51;4.28;963.5;10.00;74319;2835.879;-1759.585;1;135;270;274.2;25.9;26.1;31;31.6;27.2;-1.0;
22/02/2025 11:06:42;117;0;131.14;-4;19.18;4.37;961.1;10.00;74320;2835.878;-1759.583;1;135;270;272.6;25.9;25.9;31;31.6;27.1;-1.0;
22/02/2025 11:07:02;117;0;135.16;-4;20.53;4.26;958.7;10.00;74320;2835.877;-1759.581;1;135;270;272.6;25.9;26.1;29;28.4;27.1;-1.0;
22/02/2025 11:07:22;117;0;130.70;-4;19.38;2.63;956.2;10.00;74310;2835.875;-1759.578;1;135;270;272.6;25.9;26.1;29;28.4;27.1;-1.0;
22/02/2025 11:07:42;117;0;129.33;-4;19.98;2.76;954.0;9.90;74310;2835.874;-1759.577;1;135;270;272.6;25.9;25.9;31;31.1;27.1;-1.0;
22/02/2025 11:08:02;117;0;129.73;-4;20.26;4.41;951.7;9.90;74305;2835.873;-1759.575;1;135;270;272.6;25.9;26.1;31;31.6;27.1;-1.0;
22/02/2025 11:08:22;117;0;130.69;-4;20.29;4.43;949.5;9.90;74306;2835.872;-1759.573;1;135;270;274.2;25.9;26.1;31;31.6;27.1;-1.0;
22/02/2025 11:08:42;117;0;131.21;-4;20.46;4.40;947.4;9.90;74295;2835.871;-1759.571;1;135;270;272.6;25.9;26.1;31;31.6;27.2;-1.0;
22/02/2025 11:09:02;117;0;133.13;-4;20.64;4.42;945.0;9.90;74296;2835.869;-1759.569;1;135;270;272.6;25.9;26.1;31;31.6;27.1;-1.0;
22/02/2025 11:09:22;117;0;134.23;-4;20.55;4.41;942.6;9.90;74301;2835.868;-1759.567;1;135;270;272.6;25.9;26.1;31;31.6;27.1;-1.0;
22/02/2025 11:09:42;117;0;136.53;-4;20.55;4.47;940.3;9.90;74298;2835.867;-1759.566;1;135;270;272.6;25.9;26.1;29;28.9;27.1;-1.0;
22/02/2025 11:10:02;117;0;136.65;-4;20.16;2.98;937.8;9.80;74292;2835.865;-1759.564;1;135;270;272.6;25.9;26.1;29;28.9;27.2;-1.0;
22/02/2025 11:10:22;117;0;137.20;-4;20.26;2.97;935.3;9.80;74287;2835.864;-1759.562;1;135;270;272.6;25.9;25.9;29;28.9;27.2;-1.0;
22/02/2025 11:10:42;117;0;138.04;-4;20.13;2.99;932.8;9.80;74287;2835.862;-1759.560;1;135;270;272.6;25.9;26.1;29;28.9;27.2;-1.0;
22/02/2025 11:11:02;117;0;138.34;-4;20.05;2.96;930.4;9.80;74281;2835.860;-1759.558;1;135;270;272.6;25.9;26.1;29;28.9;27.2;-1.0;
22/02/2025 11:11:22;117;0;139.24;-4;20.05;2.97;927.9;9.80;74288;2835.859;-1759.556;1;135;270;272.6;25.9;26.2;29;28.9;27.2;-1.0;
22/02/2025 11:11:42;117;0;139.80;-4;20.23;2.97;925.3;9.80;74289;2835.857;-1759.555;1;135;270;275.8;25.9;26.1;29;28.9;27.2;-1.0;
22/02/2025 11:12:02;117;0;141.05;-4;20.15;2.93;922.8;9.80;74286;2835.855;-1759.553;1;135;270;272.6;25.9;26.1;29;28.9;27.1;-1.0;
22/02/2025 11:12:22;117;0;141.19;-4;19.94;3.01;920.2;9.80;74286;2835.853;-1759.551;1;135;270;272.6;25.9;26.1;29;28.9;27.2;-1.0;
22/02/2025 11:12:42;117;0;141.84;-4;20.05;2.99;917.8;9.80;74292;2835.851;-1759.550;1;135;270;274.2;25.9;26.1;29;28.9;27.1;-1.0;
22/02/2025 11:13:02;117;0;142.15;-4;20.11;2.97;915.2;9.80;74288;2835.849;-1759.548;1;135;270;272.6;25.9;26.1;29;28.9;27.2;-1.0;
22/02/2025 11:13:22;117;0;142.43;-4;20.08;2.95;912.6;9.80;74291;2835.848;-1759.546;1;135;270;272.6;25.9;26.1;29;28.9;27.1;-1.0;
22/02/2025 11:13:42;117;0;141.48;-4;19.53;3.01;910.1;9.80;74291;2835.846;-1759.544;1;135;270;272.6;25.9;25.9;29;28.9;27.2;-1.0;
22/02/2025 11:14:02;117;0;141.79;-4;19.88;3.02;907.7;9.80;74299;2835.844;-1759.543;1;135;270;272.6;25.9;26.1;29;28.9;27.1;-1.0;
