Timestamp;NavState;SecurityLevel;Heading;Declination;Pitch;Roll;Depth;Temperature;Pa;Lat;Lon;DeadReckoning;DesiredH;BallastCmd;BallastPos;LinCmd;LinPos;AngCmd;AngPos;Voltage;Altitude;
13/02/2025 14:08:36;119;0;293.15;-4;-52.89;-14.90;0.2;18.20;76186;2837.383;-1800.450;0;282;500;509.7;100.0;100.6;0;-0.5;28.7;-1.0;
13/02/2025 14:08:46;116;0;305.11;-4;-49.32;-18.10;0.0;18.20;76204;2837.385;-1800.449;0;282;500;509.7;100.0;100.6;0;-0.9;28.7;-1.0;
13/02/2025 14:09:19;116;0;295.91;-4;-58.15;-7.87;0.2;18.30;76209;2837.386;-1800.449;0;282;500;509.7;100.0;100.6;0;-0.9;28.7;-1.0;
13/02/2025 14:09:37;116;0;307.44;-4;-52.38;-11.80;0.4;18.40;76231;2837.386;-1800.449;0;281;500;509.7;100.0;100.6;0;-0.5;28.7;-1.0;
13/02/2025 14:09:56;116;0;286.79;-4;-56.32;-11.23;0.2;18.40;76239;2837.389;-1800.447;0;281;500;509.7;100.0;100.6;0;-0.9;28.7;-1.0;
13/02/2025 14:10:16;116;0;287.90;-4;-51.61;-21.95;0.3;18.50;76249;2837.393;-1800.448;0;281;500;509.7;100.0;100.6;0;-0.9;28.7;-1.0;
13/02/2025 14:10:36;116;0;288.21;-4;-52.00;-7.47;0.3;18.50;76252;2837.395;-1800.448;0;281;500;509.7;100.0;100.6;0;-0.9;28.7;-1.0;
13/02/2025 14:11:39;116;0;303.46;-4;-53.27;-14.85;0.4;18.80;76285;2837.402;-1800.447;0;281;500;508.1;100.0;100.6;0;-0.9;28.7;-1.0;
13/02/2025 14:11:46;116;0;306.80;-4;-53.79;-21.81;0.5;18.80;76283;2837.403;-1800.446;0;280;500;509.7;100.0;100.6;0;-0.9;28.7;-1.0;
13/02/2025 14:13:31;116;0;285.32;-4;-55.52;-9.79;0.4;19.30;76320;2837.409;-1800.441;0;280;500;511.3;100.0;100.6;0;-0.9;28.7;-1.0;
13/02/2025 14:13:42;116;0;279.41;-4;-54.93;-15.88;0.4;19.40;76339;2837.410;-1800.441;0;280;500;509.7;100.0;100.6;0;-0.5;28.7;-1.0;
13/02/2025 14:14:02;110;0;278.52;-4;-50.64;-9.57;0.0;19.40;76334;2837.410;-1800.441;0;280;-100;396.8;100.0;99.9;-13;-13.5;28.7;-1.0;
13/02/2025 14:14:12;110;0;274.03;-4;-51.57;-15.60;0.2;19.50;76680;2837.410;-1800.441;1;280;-100;246.8;100.0;99.9;-13;-13.5;28.7;-1.0;
13/02/2025 14:14:22;110;0;289.33;-4;-58.36;-21.63;0.7;19.50;76926;2837.410;-1800.442;1;280;-100;88.7;100.0;99.9;-13;-13.5;28.7;-1.0;
13/02/2025 14:14:32;110;0;308.24;-4;-63.40;-20.34;0.8;19.60;77261;2837.411;-1800.442;1;280;-100;-69.4;100.0;100.0;-13;-13.5;28.7;-1.0;
13/02/2025 14:14:42;110;0;327.55;-4;-68.68;-21.23;1.2;19.60;77593;2837.411;-1800.442;1;280;-100;-100.0;49.2;49.2;-13;-14.0;28.7;-1.0;
13/02/2025 14:14:52;110;0;343.42;-4;-53.29;-17.82;2.6;19.70;77605;2837.412;-1800.442;1;280;-100;-101.6;49.2;48.9;-13;-13.5;28.7;-1.0;
13/02/2025 14:15:12;100;0;358.74;-4;-30.83;-18.76;6.9;19.70;77596;2837.416;-1800.442;1;279;-100;-96.8;49.2;48.7;-13;-13.5;28.7;-1.0;
13/02/2025 14:15:32;100;0;7.42;-4;-30.09;-18.31;11.6;19.80;77588;2837.420;-1800.441;1;279;-100;-96.8;49.2;48.7;70;69.9;28.7;-1.0;
13/02/2025 14:15:52;100;0;4.87;-4;-34.90;23.40;16.3;19.80;77599;2837.424;-1800.441;1;279;-100;-98.4;47.8;47.7;70;70.4;28.7;0.0;
13/02/2025 14:16:12;100;0;353.91;-4;-33.17;23.60;21.3;19.80;77598;2837.428;-1800.441;1;278;-100;-96.8;46.8;46.8;70;70.4;28.7;0.0;
13/02/2025 14:16:32;100;0;342.92;-4;-31.54;23.72;26.1;19.80;77608;2837.432;-1800.443;1;278;-100;-96.8;46.8;46.5;70;70.4;28.7;0.0;
13/02/2025 14:16:52;100;0;331.87;-4;-30.67;23.77;30.8;19.80;77608;2837.436;-1800.445;1;278;-100;-100.0;46.8;46.7;70;70.4;28.7;0.0;
13/02/2025 14:17:12;100;0;321.45;-4;-30.60;23.74;35.5;19.90;77617;2837.440;-1800.448;1;278;-100;-96.8;46.8;46.5;68;67.7;28.7;0.0;
13/02/2025 14:17:32;100;0;312.84;-4;-31.31;22.00;40.2;19.80;77602;2837.443;-1800.451;1;277;-100;-96.8;46.8;46.5;59;59.1;28.7;0.0;
13/02/2025 14:17:52;100;0;298.83;-4;-29.58;17.38;44.9;19.90;77606;2837.445;-1800.455;1;277;-100;-96.8;46.8;46.5;39;38.8;28.7;0.0;
13/02/2025 14:18:12;100;0;288.84;-4;-27.95;7.23;49.3;19.90;77592;2837.447;-1800.459;1;277;-100;-98.4;47.4;47.7;20;19.9;28.7;0.0;
13/02/2025 14:18:32;100;0;283.15;-4;-28.75;-1.76;53.6;19.90;77591;2837.448;-1800.464;1;277;-100;-96.8;47.8;48.2;14;13.5;28.7;0.0;
13/02/2025 14:18:52;100;0;278.81;-4;-29.63;-5.01;58.1;19.90;77605;2837.449;-1800.468;1;277;-100;-96.8;47.8;48.2;11;10.8;28.7;0.0;
13/02/2025 14:19:12;100;0;277.72;-4;-29.37;-6.58;62.5;19.90;77605;2837.450;-1800.473;1;277;-100;-96.8;47.8;48.2;11;10.4;28.7;0.0;
13/02/2025 14:19:32;100;0;277.99;-4;-29.07;-6.48;67.0;19.90;77593;2837.451;-1800.477;1;277;-100;-96.8;47.8;48.2;11;10.4;28.7;0.0;
13/02/2025 14:19:52;100;0;277.53;-4;-29.84;-6.47;71.5;19.90;77604;2837.452;-1800.482;1;277;-100;-96.8;47.8;48.2;11;10.4;28.7;0.0;
13/02/2025 14:20:12;100;0;277.63;-4;-29.94;-6.48;76.3;19.90;77598;2837.452;-1800.486;1;277;-100;-96.8;47.8;48.2;11;10.4;28.7;0.0;
13/02/2025 14:20:33;100;0;276.98;-4;-29.62;-6.45;80.9;19.90;77601;2837.453;-1800.491;1;277;-100;-96.8;47.8;48.2;11;10.4;28.7;0.0;
13/02/2025 14:20:53;100;0;278.51;-4;-29.38;-6.40;85.7;19.90;77601;2837.454;-1800.496;1;277;-100;-96.8;47.8;48.2;11;10.4;28.7;0.0;
13/02/2025 14:21:13;100;0;277.57;-4;-29.42;-6.36;90.4;19.90;77606;2837.455;-1800.501;1;277;-100;-96.8;47.8;48.2;11;10.4;28.7;0.0;
13/02/2025 14:21:33;100;0;279.15;-4;-29.49;-6.47;95.0;19.90;77603;2837.456;-1800.506;1;277;-100;-96.8;47.8;48.2;11;10.4;28.7;0.0;
13/02/2025 14:21:53;100;0;270.83;-4;-28.41;-6.67;99.5;19.90;77561;2837.457;-1800.510;1;277;-100;-96.8;48.3;48.3;11;10.4;28.7;0.0;
13/02/2025 14:22:13;100;0;269.57;-4;-28.04;-6.53;103.7;19.90;77511;2837.457;-1800.515;1;277;-100;-96.8;48.9;48.9;11;10.4;28.7;0.0;
13/02/2025 14:22:33;100;0;272.45;-4;-30.08;-6.65;107.8;19.90;77489;2837.457;-1800.519;1;277;-100;-96.8;48.9;49.2;11;10.4;28.7;0.0;
13/02/2025 14:22:53;100;0;275.56;-4;-29.74;-6.46;112.2;19.90;77470;2837.458;-1800.523;1;277;-100;-96.8;48.9;49.2;11;10.4;28.7;0.0;
13/02/2025 14:23:13;100;0;274.09;-4;-30.59;-6.99;116.6;19.80;77449;2837.459;-1800.527;1;277;-100;-98.4;48.9;49.2;11;10.4;28.7;0.0;
13/02/2025 14:23:33;100;0;274.52;-4;-29.52;-6.11;120.9;19.80;77445;2837.459;-1800.532;1;277;-100;-98.4;48.9;49.2;11;10.4;28.7;0.0;
13/02/2025 14:23:53;100;0;271.61;-4;-30.14;-6.45;125.2;19.80;77435;2837.460;-1800.536;1;277;-100;-96.8;48.9;49.2;11;10.4;28.7;0.0;
13/02/2025 14:24:13;100;0;272.17;-4;-30.98;-6.76;129.4;19.80;77416;2837.460;-1800.540;1;277;-100;-96.8;48.9;49.2;11;10.4;28.7;0.0;
13/02/2025 14:24:33;100;0;268.73;-4;-32.11;-6.66;134.5;19.70;77386;2837.460;-1800.545;1;277;-100;-96.8;48.2;48.2;11;10.4;28.7;0.0;
13/02/2025 14:24:53;100;0;269.56;-4;-29.40;-6.33;139.4;19.70;77365;2837.461;-1800.550;1;277;-100;-96.8;48.2;48.2;11;10.4;28.7;0.0;
13/02/2025 14:25:13;100;0;266.75;-4;-30.01;-6.48;144.0;19.70;77353;2837.461;-1800.554;1;277;-100;-96.8;48.2;48.2;11;10.4;28.7;0.0;
13/02/2025 14:25:33;100;0;265.38;-4;-29.51;-6.39;148.6;19.60;77337;2837.461;-1800.559;1;277;-100;-96.8;48.2;48.2;9;9.0;28.7;0.0;
13/02/2025 14:25:53;100;0;268.80;-4;-30.01;-7.24;153.1;19.60;77319;2837.461;-1800.563;1;277;-100;-96.8;48.2;48.0;9;9.0;28.7;0.0;
13/02/2025 14:26:13;100;0;272.87;-4;-29.28;-7.10;157.6;19.60;77304;2837.461;-1800.568;1;277;-100;-98.4;48.2;48.0;9;9.0;28.7;0.0;
13/02/2025 14:26:33;100;0;270.42;-4;-29.40;-7.24;161.9;19.50;77283;2837.462;-1800.573;1;277;-100;-96.8;48.2;48.0;9;9.0;28.7;0.0;
13/02/2025 14:26:53;100;0;271.52;-4;-28.83;-7.21;166.3;19.50;77259;2837.462;-1800.577;1;277;-100;-96.8;48.6;48.6;9;9.0;28.7;0.0;
13/02/2025 14:27:13;100;0;272.23;-4;-28.41;-7.26;170.5;19.40;77243;2837.463;-1800.582;1;277;-100;-96.8;49.1;49.0;9;9.0;28.7;0.0;
13/02/2025 14:27:33;100;0;271.32;-4;-29.32;-7.02;174.5;19.40;77234;2837.463;-1800.586;1;277;-100;-95.2;49.1;49.3;9;9.0;28.7;0.0;
13/02/2025 14:27:53;100;0;275.65;-4;-30.68;-7.31;178.7;19.30;77219;2837.464;-1800.590;1;277;-100;-95.2;49.1;49.3;11;10.8;28.7;0.0;
13/02/2025 14:28:13;100;0;276.88;-4;-31.04;-5.98;182.9;19.30;77215;2837.465;-1800.594;1;277;-100;-96.8;49.1;49.3;11;10.8;28.7;0.0;
13/02/2025 14:28:33;100;0;274.98;-4;-31.00;-6.02;187.2;19.30;77200;2837.465;-1800.598;1;277;-100;-98.4;49.1;49.3;11;10.8;28.7;0.0;
13/02/2025 14:28:53;100;0;273.95;-4;-31.06;-6.03;191.7;19.20;77180;2837.466;-1800.602;1;277;-100;-96.8;49.1;49.3;11;11.3;28.7;0.0;
13/02/2025 14:29:13;100;0;274.44;-4;-30.99;-6.03;196.0;19.20;77173;2837.466;-1800.606;1;277;-100;-96.8;49.1;49.3;11;10.8;28.7;0.0;
13/02/2025 14:29:33;100;0;274.32;-4;-31.11;-5.91;200.3;19.10;77162;2837.467;-1800.610;1;277;-100;-96.8;49.1;49.3;11;11.3;28.7;0.0;
13/02/2025 14:29:53;100;0;270.68;-4;-31.12;-6.04;204.7;19.10;77149;2837.467;-1800.615;1;277;-100;-96.8;49.1;49.3;11;11.3;28.7;0.0;
13/02/2025 14:30:13;100;0;268.40;-4;-31.21;-6.03;209.1;19.00;77140;2837.468;-1800.619;1;277;-100;-96.8;49.1;49.3;11;11.3;28.7;0.0;
13/02/2025 14:30:33;100;0;268.19;-4;-30.93;-5.97;213.6;19.00;77125;2837.468;-1800.623;1;277;-100;-100.0;49.1;49.5;11;11.3;28.7;0.0;
13/02/2025 14:30:53;100;0;269.01;-4;-30.57;-6.02;217.9;18.90;77118;2837.468;-1800.627;1;277;-100;-96.8;49.1;49.5;11;11.3;28.7;0.0;
13/02/2025 14:31:13;100;0;267.96;-4;-30.90;-6.01;222.2;18.90;77097;2837.468;-1800.631;1;277;-100;-96.8;49.1;49.3;11;10.8;28.7;0.0;
13/02/2025 14:31:33;100;0;265.95;-4;-30.18;-5.98;226.5;18.80;77085;2837.468;-1800.636;1;277;-100;-96.8;49.1;49.3;11;10.8;28.7;0.0;
13/02/2025 14:31:53;100;0;261.01;-4;-30.19;-6.14;230.6;18.80;77074;2837.468;-1800.640;1;277;-100;-96.8;49.1;49.5;6;5.9;28.7;0.0;
13/02/2025 14:32:13;100;0;260.33;-4;-30.20;-8.96;234.7;18.70;77056;2837.468;-1800.644;1;277;-100;-98.4;49.1;49.3;6;5.4;28.7;0.0;
13/02/2025 14:32:33;100;0;264.86;-4;-30.23;-8.94;238.8;18.70;77050;2837.468;-1800.648;1;277;-100;-96.8;49.1;49.3;9;9.0;28.7;0.0;
13/02/2025 14:32:53;100;0;268.46;-4;-30.70;-6.93;242.9;18.60;77032;2837.468;-1800.652;1;277;-100;-96.8;49.1;49.3;9;9.5;28.7;0.0;
13/02/2025 14:33:13;100;0;272.45;-4;-30.25;-6.83;247.1;18.60;77020;2837.468;-1800.656;1;277;-100;-96.8;49.1;49.3;9;9.5;28.7;0.0;
13/02/2025 14:33:33;100;0;274.29;-4;-29.83;-6.96;251.1;18.50;77017;2837.469;-1800.660;1;277;-100;-96.8;49.1;49.3;9;9.0;28.7;0.0;
13/02/2025 14:33:53;100;0;277.04;-4;-30.11;-7.02;255.1;18.50;77007;2837.470;-1800.664;1;277;-100;-98.4;49.1;49.3;11;10.8;28.7;0.0;
13/02/2025 14:34:13;100;0;278.34;-4;-29.92;-5.93;258.8;18.40;76987;2837.471;-1800.667;1;277;-100;-96.8;49.1;49.3;11;11.3;28.7;0.0;
13/02/2025 14:34:33;100;0;279.00;-4;-30.04;-5.99;262.6;18.40;76975;2837.471;-1800.671;1;277;-100;-96.8;49.1;49.3;11;11.3;28.7;0.0;
13/02/2025 14:34:53;100;0;279.33;-4;-30.18;-5.96;266.3;18.30;76966;2837.472;-1800.675;1;277;-100;-96.8;49.1;49.5;11;11.3;28.7;0.0;
13/02/2025 14:35:13;100;0;277.11;-4;-29.85;-5.92;270.0;18.30;76957;2837.473;-1800.678;1;277;-100;-96.8;49.1;49.3;11;11.3;28.7;0.0;
13/02/2025 14:35:33;100;0;274.89;-4;-30.47;-5.90;273.6;18.20;76949;2837.474;-1800.682;1;277;-100;-96.8;49.1;49.3;11;11.3;28.7;0.0;
13/02/2025 14:35:53;100;0;274.10;-4;-30.67;-5.89;277.5;18.20;76920;2837.474;-1800.686;1;277;-100;-96.8;49.1;49.3;11;11.3;28.7;0.0;
13/02/2025 14:36:13;100;0;272.75;-4;-31.05;-5.89;281.5;18.10;76905;2837.475;-1800.690;1;277;-100;-96.8;49.1;49.3;11;11.3;28.7;0.0;
13/02/2025 14:36:33;100;0;271.33;-4;-30.85;-5.89;285.5;18.00;76897;2837.475;-1800.693;1;277;-100;-96.8;49.1;49.3;11;11.3;28.7;0.0;
13/02/2025 14:36:53;100;0;269.07;-4;-30.49;-5.94;289.5;18.00;76887;2837.475;-1800.697;1;277;-100;-96.8;49.1;49.3;11;11.3;28.7;0.0;
13/02/2025 14:37:13;100;0;270.57;-4;-30.92;-5.89;293.4;18.00;76877;2837.476;-1800.701;1;277;-100;-95.2;49.1;49.3;11;11.3;28.7;0.0;
13/02/2025 14:37:33;100;0;266.57;-4;-31.10;-5.81;297.5;17.90;76863;2837.476;-1800.705;1;277;-100;-96.8;49.1;49.3;11;11.3;28.7;0.0;
13/02/2025 14:37:53;100;0;262.55;-4;-31.38;-5.83;301.7;17.80;76823;2837.476;-1800.709;1;277;-100;-96.8;49.1;49.5;8;8.1;28.7;0.0;
13/02/2025 14:38:13;100;0;263.57;-4;-30.68;-7.57;306.1;17.80;76826;2837.476;-1800.713;1;277;-100;-96.8;49.1;49.3;8;8.1;28.7;0.0;
13/02/2025 14:38:33;100;0;266.36;-4;-30.34;-7.64;310.2;17.70;76819;2837.476;-1800.717;1;277;-100;-95.2;49.1;49.3;10;9.9;28.7;0.0;
13/02/2025 14:38:53;100;0;270.03;-4;-30.39;-6.49;314.3;17.70;76792;2837.476;-1800.721;1;277;-100;-96.8;49.1;49.3;10;9.9;28.7;0.0;
13/02/2025 14:39:13;100;0;275.52;-4;-30.53;-6.57;318.3;17.60;76791;2837.477;-1800.725;1;277;-100;-96.8;49.1;49.3;10;9.9;28.7;0.0;
13/02/2025 14:39:33;100;0;278.10;-4;-30.35;-6.52;322.4;17.60;76784;2837.477;-1800.729;1;277;-100;-96.8;49.1;49.5;10;9.9;28.7;0.0;
13/02/2025 14:39:53;100;0;277.70;-4;-30.46;-6.59;326.4;17.50;76770;2837.478;-1800.733;1;277;-100;-96.8;49.1;49.3;10;9.9;28.7;0.0;
13/02/2025 14:40:13;100;0;273.53;-4;-30.81;-6.58;330.5;17.50;76755;2837.479;-1800.737;1;277;-100;-96.8;49.1;49.3;10;9.9;28.7;0.0;
13/02/2025 14:40:33;100;0;270.79;-4;-31.04;-6.47;334.9;17.40;76732;2837.479;-1800.741;1;277;-100;-96.8;49.1;49.3;10;9.9;28.7;0.0;
13/02/2025 14:40:53;100;0;266.69;-4;-30.33;-6.55;339.2;17.40;76721;2837.479;-1800.746;1;277;-100;-98.4;49.1;49.5;10;9.9;28.7;0.0;
13/02/2025 14:41:13;100;0;269.94;-4;-30.66;-6.52;343.4;17.30;76715;2837.480;-1800.750;1;277;-100;-96.8;49.1;49.3;10;9.9;28.7;0.0;
13/02/2025 14:41:33;100;0;271.63;-4;-30.30;-6.56;347.8;17.20;76698;2837.480;-1800.754;1;277;-100;-96.8;49.1;49.3;10;9.9;28.7;0.0;
13/02/2025 14:41:53;100;0;272.33;-4;-29.55;-6.55;351.9;17.20;76681;2837.481;-1800.758;1;277;-100;-96.8;49.1;49.3;10;9.9;28.7;0.0;
13/02/2025 14:42:13;100;0;271.31;-4;-29.34;-6.61;355.9;17.10;76666;2837.481;-1800.762;1;277;-100;-96.8;49.1;49.3;10;10.4;28.7;0.0;
13/02/2025 14:42:33;100;0;270.75;-4;-30.48;-6.59;360.1;17.10;76673;2837.481;-1800.766;1;277;-100;-96.8;49.1;49.3;10;9.9;28.7;0.0;
13/02/2025 14:42:53;100;0;269.18;-4;-30.12;-6.54;364.5;17.00;76647;2837.482;-1800.771;1;277;-100;-98.4;49.1;49.3;10;9.9;28.7;0.0;
13/02/2025 14:43:13;100;0;266.85;-4;-30.08;-6.58;368.7;17.00;76649;2837.482;-1800.775;1;277;-100;-96.8;49.1;49.3;10;9.9;28.7;0.0;
13/02/2025 14:43:33;100;0;266.01;-4;-29.40;-6.62;372.8;16.90;76642;2837.482;-1800.779;1;277;-100;-96.8;49.1;49.3;10;9.9;28.7;0.0;
13/02/2025 14:43:53;100;0;262.95;-4;-29.84;-6.67;376.8;16.90;76616;2837.482;-1800.783;1;277;-100;-96.8;49.1;49.3;8;7.7;28.7;0.0;
13/02/2025 14:44:13;100;0;260.99;-4;-29.26;-7.84;380.8;16.80;76613;2837.481;-1800.787;1;277;-100;-96.8;49.1;49.3;6;5.9;28.7;0.0;
13/02/2025 14:44:33;100;0;261.92;-4;-29.48;-8.82;384.8;16.80;76593;2837.481;-1800.791;1;277;-100;-98.4;49.1;49.3;6;5.4;28.7;0.0;
13/02/2025 14:44:53;100;0;265.49;-4;-29.69;-8.88;388.9;16.70;76592;2837.481;-1800.795;1;278;-100;-95.2;49.1;49.3;9;9.0;28.7;0.0;
13/02/2025 14:45:13;100;0;268.04;-4;-29.72;-6.78;393.1;16.70;76575;2837.481;-1800.800;1;278;-100;-96.8;49.1;49.3;9;9.5;28.7;0.0;
13/02/2025 14:45:33;100;0;268.70;-4;-29.43;-6.93;397.5;16.60;76577;2837.482;-1800.804;1;278;-100;-96.8;49.1;49.5;9;9.5;28.7;0.0;
13/02/2025 14:45:53;100;0;267.43;-4;-29.45;-6.92;401.7;16.60;76563;2837.482;-1800.808;1;278;-100;-96.8;49.1;49.5;9;9.5;28.7;0.0;
13/02/2025 14:46:13;100;0;270.59;-4;-30.37;-6.97;406.0;16.50;76546;2837.482;-1800.813;1;278;-100;-96.8;49.1;49.3;9;9.5;28.7;0.0;
13/02/2025 14:46:33;100;0;271.78;-4;-30.16;-6.89;410.5;16.50;76537;2837.483;-1800.817;1;278;-100;-96.8;49.1;49.3;9;9.5;28.7;0.0;
13/02/2025 14:46:53;100;0;272.54;-4;-30.52;-6.88;415.1;16.40;76530;2837.483;-1800.822;1;278;-100;-96.8;49.1;49.3;9;9.5;28.7;0.0;
13/02/2025 14:47:13;100;0;272.19;-4;-31.02;-6.99;419.6;16.40;76519;2837.484;-1800.826;1;278;-100;-98.4;49.1;49.3;9;9.5;28.7;0.0;
13/02/2025 14:47:33;100;0;271.12;-4;-30.87;-6.77;424.4;16.30;76500;2837.484;-1800.830;1;278;-100;-96.8;49.1;49.3;9;9.5;28.7;0.0;
13/02/2025 14:47:53;100;0;268.57;-4;-30.58;-6.97;429.0;16.30;76504;2837.484;-1800.835;1;278;-100;-96.8;49.1;49.5;9;9.5;28.7;0.0;
13/02/2025 14:48:13;100;0;269.02;-4;-30.80;-6.82;433.6;16.20;76491;2837.484;-1800.839;1;278;-100;-98.4;49.1;49.3;9;9.5;28.7;0.0;
13/02/2025 14:48:33;100;0;269.36;-4;-30.51;-6.71;438.3;16.20;76479;2837.485;-1800.844;1;278;-100;-96.8;49.1;49.3;9;9.5;28.7;0.0;
13/02/2025 14:48:53;100;0;270.55;-4;-30.39;-6.88;443.0;16.10;76471;2837.485;-1800.849;1;278;-100;-96.8;49.1;49.3;9;9.5;28.7;0.0;
13/02/2025 14:49:13;100;0;270.45;-4;-30.55;-6.86;447.6;16.10;76456;2837.485;-1800.853;1;278;-100;-96.8;49.1;49.3;9;9.5;28.7;0.0;
13/02/2025 14:49:33;100;0;269.11;-4;-30.40;-6.93;452.2;16.00;76458;2837.486;-1800.858;1;278;-100;-96.8;49.1;49.3;9;9.5;28.7;0.0;
13/02/2025 14:49:53;100;0;271.01;-4;-30.49;-6.88;456.8;16.00;76452;2837.486;-1800.862;1;278;-100;-100.0;49.1;49.3;9;9.5;28.7;0.0;
13/02/2025 14:50:13;100;0;273.39;-4;-29.81;-6.92;461.3;15.90;76441;2837.487;-1800.867;1;278;-100;-96.8;49.1;49.3;9;9.5;28.7;0.0;
13/02/2025 14:50:33;100;0;273.21;-4;-29.88;-6.91;465.7;15.90;76429;2837.487;-1800.871;1;278;-100;-100.0;49.1;49.3;9;9.5;28.7;0.0;
13/02/2025 14:50:53;100;0;274.29;-4;-29.67;-6.93;470.1;15.80;76415;2837.488;-1800.875;1;278;-100;-96.8;49.1;49.3;9;9.0;28.7;0.0;
13/02/2025 14:51:13;100;0;273.61;-4;-29.52;-7.00;474.4;15.80;76414;2837.488;-1800.880;1;278;-100;-96.8;49.1;49.3;9;9.5;28.7;0.0;
13/02/2025 14:51:33;100;0;275.20;-4;-29.99;-6.93;478.7;15.70;76400;2837.489;-1800.884;1;278;-100;-96.8;49.1;49.3;9;9.5;28.7;0.0;
13/02/2025 14:51:53;100;0;276.05;-4;-30.20;-6.93;483.3;15.70;76390;2837.490;-1800.888;1;278;-100;-96.8;49.1;49.3;9;9.5;28.7;0.0;
13/02/2025 14:52:13;100;0;279.15;-4;-30.02;-6.89;487.7;15.60;76379;2837.491;-1800.893;1;278;-100;-96.8;49.1;49.3;11;10.8;28.7;0.0;
13/02/2025 14:52:33;100;0;282.29;-4;-29.50;-6.14;492.1;15.60;76365;2837.492;-1800.897;1;278;-100;-96.8;49.1;49.3;13;13.5;28.7;0.0;
13/02/2025 14:52:53;100;0;282.27;-4;-29.34;-4.56;496.4;15.60;76350;2837.493;-1800.902;1;278;-100;-96.8;49.1;49.3;13;13.5;28.7;0.0;
13/02/2025 14:53:13;100;0;281.88;-4;-29.46;-4.94;500.6;15.50;76358;2837.494;-1800.906;1;277;-100;-96.8;49.1;49.3;13;13.5;28.7;0.0;
13/02/2025 14:53:33;100;0;281.92;-4;-29.26;-4.64;504.7;15.50;76343;2837.495;-1800.910;1;277;-100;-96.8;49.1;49.3;13;13.5;28.7;0.0;
13/02/2025 14:53:53;100;0;281.49;-4;-28.96;-4.92;508.8;15.40;76339;2837.496;-1800.914;1;277;-100;-96.8;49.4;49.3;13;13.5;28.7;0.0;
13/02/2025 14:54:13;100;0;277.37;-4;-29.56;-5.01;513.0;15.40;76322;2837.497;-1800.918;1;277;-100;-95.2;49.4;49.3;11;10.8;28.7;0.0;
13/02/2025 14:54:33;100;0;278.16;-4;-29.76;-6.79;517.4;15.30;76319;2837.498;-1800.923;1;277;-100;-96.8;49.4;49.3;11;10.8;28.7;0.0;
13/02/2025 14:54:53;100;0;279.81;-4;-29.80;-6.40;522.0;15.30;76301;2837.499;-1800.927;1;277;-100;-96.8;49.4;49.3;11;10.8;28.7;0.0;
13/02/2025 14:55:13;100;0;281.70;-4;-30.20;-6.45;526.6;15.20;76303;2837.500;-1800.932;1;277;-100;-96.8;49.4;49.3;13;13.1;28.7;0.0;
13/02/2025 14:55:33;100;0;284.18;-4;-30.56;-4.81;531.3;15.20;76289;2837.502;-1800.936;1;277;-100;-96.8;49.4;49.3;16;15.8;28.7;0.0;
13/02/2025 14:55:53;100;0;280.46;-4;-30.68;-3.71;536.2;15.20;76276;2837.503;-1800.941;1;277;-100;-96.8;49.4;49.3;12;12.2;28.7;0.0;
13/02/2025 14:56:14;100;0;278.94;-4;-30.43;-5.63;541.1;15.10;76275;2837.504;-1800.945;1;277;-100;-96.8;49.4;49.3;12;12.2;28.7;0.0;
13/02/2025 14:56:34;100;0;277.72;-4;-30.82;-5.64;546.0;15.10;76262;2837.504;-1800.950;1;277;-100;-96.8;49.4;49.3;12;12.2;28.7;0.0;
13/02/2025 14:56:54;100;0;274.48;-4;-29.50;-5.69;550.9;15.00;76240;2837.505;-1800.955;1;277;-100;-96.8;49.4;49.3;10;9.9;28.7;0.0;
13/02/2025 14:57:14;100;0;272.76;-4;-28.87;-6.73;555.3;15.00;76226;2837.506;-1800.959;1;277;-100;-96.8;49.7;49.8;10;9.9;28.7;0.0;
13/02/2025 14:57:34;100;0;271.28;-4;-29.15;-6.65;559.4;14.90;76227;2837.506;-1800.964;1;277;-100;-96.8;49.7;49.9;10;9.9;28.7;0.0;
13/02/2025 14:57:54;100;0;273.49;-4;-30.10;-6.79;563.4;14.90;76205;2837.507;-1800.968;1;277;-100;-96.8;49.7;49.9;10;9.9;28.7;0.0;
13/02/2025 14:58:14;100;0;273.64;-4;-30.00;-6.68;567.8;14.90;76206;2837.507;-1800.972;1;277;-100;-96.8;49.7;49.9;10;9.9;28.7;0.0;
13/02/2025 14:58:34;100;0;274.58;-4;-29.81;-6.79;572.1;14.80;76193;2837.508;-1800.976;1;277;-100;-96.8;49.7;49.9;10;9.9;28.7;0.0;
13/02/2025 14:58:54;100;0;276.20;-4;-30.12;-6.71;576.4;14.80;76177;2837.509;-1800.981;1;276;-100;-96.8;49.7;49.9;10;9.9;28.7;0.0;
13/02/2025 14:59:14;100;0;277.79;-4;-29.73;-6.90;580.8;14.70;76167;2837.509;-1800.985;1;276;-100;-100.0;49.7;49.9;12;12.2;28.7;0.0;
13/02/2025 14:59:34;100;0;277.81;-4;-30.14;-5.32;585.1;14.70;76158;2837.510;-1800.989;1;276;-100;-96.8;49.7;49.9;12;12.6;28.7;0.0;
13/02/2025 14:59:54;100;0;279.16;-4;-30.05;-5.55;589.4;14.60;76141;2837.511;-1800.993;1;276;-100;-96.8;49.7;49.9;12;12.6;28.7;0.0;
13/02/2025 15:00:14;100;0;280.57;-4;-30.22;-5.37;593.8;14.60;76151;2837.512;-1800.998;1;276;-100;-96.8;49.7;50.1;12;12.6;28.7;0.0;
13/02/2025 15:00:34;100;0;281.37;-4;-30.45;-5.57;598.3;14.60;76132;2837.513;-1801.002;1;276;-100;-96.8;49.7;49.9;14;14.0;28.7;0.0;
13/02/2025 15:00:54;100;0;282.83;-4;-29.87;-4.44;602.5;14.50;76122;2837.514;-1801.006;1;276;-100;-96.8;49.7;49.9;16;15.8;28.7;0.0;
13/02/2025 15:01:14;100;0;282.60;-4;-30.52;-3.69;606.8;14.50;76122;2837.516;-1801.010;1;276;-100;-96.8;49.7;50.1;16;16.2;28.7;0.0;
13/02/2025 15:01:34;100;0;282.21;-4;-30.34;-3.72;611.1;14.40;76122;2837.517;-1801.014;1;275;-100;-96.8;49.7;49.9;16;15.8;28.7;0.0;
13/02/2025 15:01:54;100;0;281.65;-4;-30.94;-3.74;615.4;14.40;76112;2837.518;-1801.018;1;275;-100;-96.8;49.7;49.9;16;16.2;28.7;0.0;
13/02/2025 15:02:14;100;0;281.76;-4;-30.88;-3.63;619.9;14.40;76106;2837.519;-1801.023;1;275;-100;-96.8;49.7;50.1;16;16.2;28.7;0.0;
13/02/2025 15:02:34;100;0;279.68;-4;-30.99;-3.70;624.4;14.30;76091;2837.520;-1801.027;1;275;-100;-96.8;49.7;49.9;14;13.5;28.7;0.0;
13/02/2025 15:02:54;100;0;278.76;-4;-30.48;-4.78;628.8;14.30;76074;2837.521;-1801.031;1;275;-100;-95.2;49.7;49.9;14;14.0;28.7;0.0;
13/02/2025 15:03:14;100;0;277.90;-4;-30.50;-4.82;633.2;14.20;76072;2837.522;-1801.035;1;275;-100;-96.8;49.7;50.1;14;14.0;28.7;0.0;
13/02/2025 15:03:34;100;0;278.78;-4;-30.29;-4.79;637.6;14.20;76066;2837.523;-1801.040;1;275;-100;-96.8;49.7;49.9;14;13.5;28.7;0.0;
13/02/2025 15:03:54;100;0;279.75;-4;-30.37;-4.76;641.9;14.20;76054;2837.523;-1801.044;1;275;-100;-96.8;49.7;50.1;14;14.0;28.7;0.0;
13/02/2025 15:04:14;100;0;280.91;-4;-30.43;-4.83;646.1;14.10;76045;2837.524;-1801.048;1;274;-100;-96.8;49.7;50.1;16;16.2;28.7;0.0;
13/02/2025 15:04:34;100;0;279.83;-4;-30.86;-3.45;650.5;14.10;76038;2837.525;-1801.052;1;274;-100;-96.8;49.7;50.1;16;16.7;28.7;0.0;
13/02/2025 15:04:54;100;0;279.03;-4;-30.42;-3.48;654.8;14.00;76027;2837.526;-1801.056;1;274;-100;-96.8;49.7;50.1;14;12.6;28.7;0.0;
13/02/2025 15:05:14;100;0;278.78;-4;-30.21;-4.93;659.0;14.00;76028;2837.527;-1801.061;1;274;-100;-96.8;49.7;50.1;14;13.1;28.7;0.0;
13/02/2025 15:05:34;100;0;278.75;-4;-30.41;-4.96;663.2;14.00;76013;2837.528;-1801.065;1;274;-100;-96.8;49.7;50.1;14;13.1;28.7;0.0;
13/02/2025 15:05:54;100;0;279.46;-4;-30.59;-4.99;667.4;13.90;76013;2837.529;-1801.069;1;274;-100;-96.8;49.7;49.9;14;13.1;28.7;0.0;
13/02/2025 15:06:14;100;0;280.51;-4;-30.29;-4.93;671.8;13.90;75998;2837.530;-1801.073;1;273;-100;-96.8;49.7;50.1;17;17.6;28.7;0.0;
13/02/2025 15:06:34;100;0;279.67;-4;-29.85;-2.79;676.0;13.90;75999;2837.531;-1801.077;1;273;-100;-96.8;49.7;50.1;17;17.6;28.7;0.0;
13/02/2025 15:06:54;100;0;274.84;-4;-30.53;-2.98;680.1;13.80;75983;2837.532;-1801.081;1;273;-100;-96.8;49.7;49.9;12;12.2;28.7;0.0;
13/02/2025 15:07:14;100;0;272.26;-4;-30.45;-5.73;684.4;13.80;75982;2837.532;-1801.085;1;273;-100;-96.8;49.7;50.1;12;12.2;28.7;0.0;
13/02/2025 15:07:34;100;0;269.05;-4;-30.29;-5.48;688.8;13.70;75974;2837.532;-1801.090;1;273;-100;-98.4;49.7;49.9;12;12.2;28.7;0.0;
13/02/2025 15:07:54;100;0;268.61;-4;-30.35;-5.63;693.0;13.70;75964;2837.533;-1801.094;1;273;-100;-96.8;49.7;50.1;12;12.2;28.7;0.0;
13/02/2025 15:08:14;100;0;267.50;-4;-30.84;-5.58;697.3;13.70;75959;2837.533;-1801.098;1;273;-100;-96.8;49.7;50.1;12;12.2;28.7;0.0;
13/02/2025 15:08:34;100;0;264.29;-4;-29.95;-5.37;701.6;13.60;75943;2837.533;-1801.102;1;273;-100;-96.8;49.7;49.9;12;12.2;28.7;0.0;
13/02/2025 15:08:54;100;0;260.70;-4;-30.66;-6.02;705.6;13.60;75949;2837.533;-1801.106;1;273;-100;-96.8;49.7;49.9;10;9.5;28.7;0.0;
13/02/2025 15:09:14;100;0;262.28;-4;-31.20;-7.15;709.6;13.60;75939;2837.532;-1801.110;1;273;-100;-96.8;49.7;50.1;10;9.5;28.7;0.0;
13/02/2025 15:09:34;100;0;260.73;-4;-30.69;-6.97;713.8;13.50;75936;2837.532;-1801.114;1;273;-100;-96.8;49.7;50.1;10;9.5;28.7;0.0;
13/02/2025 15:09:54;100;0;257.38;-4;-29.80;-6.23;718.1;13.50;75933;2837.532;-1801.118;1;274;-100;-96.8;49.7;50.1;7;7.2;28.7;0.0;
13/02/2025 15:10:14;100;0;252.30;-4;-30.38;-8.24;722.2;13.50;75926;2837.531;-1801.122;1;274;-100;-96.8;49.7;50.1;0;-0.5;28.7;0.0;
13/02/2025 15:10:34;100;0;254.56;-4;-29.70;-11.92;726.5;13.40;75913;2837.530;-1801.126;1;274;-100;-96.8;49.7;49.9;3;3.2;28.7;0.0;
13/02/2025 15:10:54;100;0;258.97;-4;-29.85;-9.90;730.5;13.40;75904;2837.530;-1801.130;1;274;-100;-96.8;49.7;50.1;8;8.1;28.7;0.0;
13/02/2025 15:11:14;100;0;262.22;-4;-29.75;-7.37;734.6;13.40;75907;2837.530;-1801.134;1;275;-100;-96.8;49.7;50.1;10;9.9;28.7;0.0;
13/02/2025 15:11:34;100;0;265.49;-4;-30.07;-6.37;738.6;13.30;75898;2837.530;-1801.138;1;275;-100;-96.8;49.7;49.9;10;10.8;28.7;0.0;
13/02/2025 15:11:54;100;0;266.95;-4;-29.92;-6.40;742.7;13.30;75891;2837.530;-1801.142;1;275;-100;-95.2;49.7;50.1;10;10.4;28.7;0.0;
13/02/2025 15:12:14;100;0;266.66;-4;-30.19;-6.37;747.0;13.30;75880;2837.530;-1801.146;1;275;-100;-96.8;49.7;50.1;10;10.8;28.7;0.0;
13/02/2025 15:12:34;100;0;269.63;-4;-30.06;-6.35;751.2;13.20;75873;2837.530;-1801.151;1;275;-100;-95.2;49.7;50.1;10;10.4;28.7;0.0;
13/02/2025 15:12:54;100;0;270.84;-4;-29.60;-6.41;755.3;13.20;75853;2837.531;-1801.155;1;275;-100;-95.2;49.7;49.9;10;10.8;28.7;0.0;
13/02/2025 15:13:14;100;0;272.24;-4;-29.52;-6.29;759.3;13.20;75850;2837.531;-1801.159;1;275;-100;-96.8;49.7;50.1;10;10.4;28.7;0.0;
13/02/2025 15:13:34;100;0;273.47;-4;-29.66;-6.40;763.3;13.10;75845;2837.532;-1801.163;1;275;-100;-96.8;49.7;50.1;10;10.4;28.7;0.0;
13/02/2025 15:13:54;100;0;271.57;-4;-29.78;-6.54;767.3;13.10;75836;2837.532;-1801.166;1;275;-100;-96.8;49.7;50.1;10;10.4;28.7;0.0;
13/02/2025 15:14:14;100;0;270.90;-4;-30.10;-6.38;771.5;13.10;75832;2837.532;-1801.171;1;275;-100;-96.8;49.7;50.1;10;10.8;28.7;0.0;
13/02/2025 15:14:34;100;0;270.35;-4;-29.69;-6.22;775.5;13.00;75822;2837.533;-1801.175;1;275;-100;-96.8;49.7;50.1;10;10.8;28.7;0.0;
13/02/2025 15:14:54;100;0;265.49;-4;-29.88;-6.42;779.7;13.00;75802;2837.533;-1801.179;1;275;-100;-96.8;49.7;50.1;10;10.8;28.7;0.0;
13/02/2025 15:15:14;100;0;264.87;-4;-30.08;-6.35;783.9;13.00;75789;2837.533;-1801.183;1;275;-100;-96.8;49.7;50.1;10;10.4;28.7;0.0;
13/02/2025 15:15:34;100;0;263.78;-4;-29.96;-6.35;788.1;12.90;75761;2837.533;-1801.187;1;275;-100;-96.8;49.7;50.1;10;10.4;28.7;0.0;
13/02/2025 15:15:54;100;0;264.71;-4;-30.11;-6.38;792.3;12.90;75765;2837.533;-1801.191;1;275;-100;-96.8;49.7;50.1;10;10.4;28.7;0.0;
13/02/2025 15:16:14;100;0;268.97;-4;-30.94;-6.41;796.7;12.80;75759;2837.533;-1801.196;1;275;-100;-96.8;49.7;49.9;10;10.8;28.7;0.0;
13/02/2025 15:16:34;100;0;268.63;-4;-30.03;-6.43;801.0;12.80;75742;2837.533;-1801.200;1;275;-100;-96.8;49.7;50.1;10;10.8;28.7;0.0;
13/02/2025 15:16:54;100;0;267.69;-4;-29.94;-6.40;805.3;12.80;75749;2837.533;-1801.204;1;275;-100;-96.8;49.7;50.1;10;10.8;28.7;0.0;
13/02/2025 15:17:14;100;0;266.09;-4;-30.29;-6.43;809.4;12.70;75742;2837.533;-1801.208;1;275;-100;-96.8;49.7;49.9;10;10.8;28.7;0.0;
13/02/2025 15:17:34;100;0;265.02;-4;-30.00;-6.43;813.7;12.70;75740;2837.533;-1801.212;1;276;-100;-96.8;49.7;50.1;10;10.8;28.7;0.0;
13/02/2025 15:17:54;100;0;260.78;-4;-29.87;-6.43;817.8;12.70;75725;2837.533;-1801.216;1;276;-100;-96.8;49.7;50.1;8;8.1;28.7;0.0;
13/02/2025 15:18:14;100;0;255.14;-4;-29.58;-7.85;821.8;12.60;75723;2837.533;-1801.220;1;276;-100;-96.8;49.7;49.9;1;0.9;28.7;0.0;
13/02/2025 15:18:34;100;0;253.56;-4;-29.33;-11.33;825.9;12.60;75698;2837.532;-1801.224;1;277;-100;-96.8;49.7;50.1;-3;-3.2;28.7;0.0;
13/02/2025 15:18:54;100;0;257.32;-4;-29.18;-13.16;829.9;12.60;75685;2837.531;-1801.228;1;278;-100;-96.8;49.7;50.1;1;0.9;28.7;0.0;
13/02/2025 15:19:14;100;0;259.16;-4;-29.39;-10.94;833.9;12.50;75679;2837.531;-1801.232;1;278;-100;-96.8;49.7;50.1;4;4.1;28.7;0.0;
13/02/2025 15:19:34;100;0;258.23;-4;-29.37;-9.51;838.0;12.50;75675;2837.530;-1801.237;1;279;-100;-96.8;49.7;50.1;1;0.9;28.7;0.0;
13/02/2025 15:19:54;100;0;259.50;-4;-29.65;-11.30;842.2;12.40;75660;2837.530;-1801.241;1;279;-100;-96.8;49.7;49.9;3;3.2;28.7;0.0;
13/02/2025 15:20:14;100;0;262.06;-4;-29.26;-10.05;846.3;12.40;75662;2837.530;-1801.245;1;280;-100;-96.8;49.7;50.1;5;5.0;28.7;0.0;
13/02/2025 15:20:34;100;0;263.50;-4;-29.63;-9.00;850.4;12.40;75648;2837.530;-1801.249;1;280;-100;-96.8;49.7;50.1;5;5.4;28.7;0.0;
13/02/2025 15:20:54;100;0;265.67;-4;-29.51;-9.04;854.4;12.30;75641;2837.530;-1801.253;1;281;-100;-96.8;49.7;49.9;7;7.7;28.7;0.0;
13/02/2025 15:21:14;100;0;267.58;-4;-29.81;-7.83;858.6;12.30;75640;2837.530;-1801.257;1;281;-100;-96.8;49.7;49.9;9;9.0;28.7;0.0;
13/02/2025 15:21:34;100;0;271.04;-4;-29.70;-6.87;862.6;12.30;75636;2837.530;-1801.261;1;281;-100;-96.8;49.7;49.9;9;9.9;28.7;0.0;
13/02/2025 15:21:54;100;0;275.74;-4;-29.55;-6.76;866.6;12.20;75627;2837.531;-1801.265;1;281;-100;-96.8;49.7;50.1;11;10.8;28.7;0.0;
13/02/2025 15:22:14;100;0;280.75;-4;-30.29;-6.09;870.7;12.20;75618;2837.532;-1801.269;1;281;-100;-96.8;49.7;50.1;11;11.3;28.7;0.0;
13/02/2025 15:22:34;100;0;284.47;-4;-29.56;-6.37;874.8;12.20;75603;2837.533;-1801.273;1;281;-100;-96.8;49.7;49.9;13;13.1;28.7;0.0;
13/02/2025 15:22:54;100;0;286.46;-4;-29.93;-5.05;878.7;12.10;75605;2837.535;-1801.277;1;280;-100;-96.8;49.7;49.9;15;14.9;28.7;0.0;
13/02/2025 15:23:14;100;0;286.43;-4;-29.32;-4.24;882.6;12.10;75594;2837.536;-1801.281;1;279;-100;-96.8;49.7;50.1;15;15.3;28.7;0.0;
13/02/2025 15:23:34;100;0;285.86;-4;-29.71;-3.99;886.5;12.10;75598;2837.537;-1801.284;1;278;-100;-96.8;49.7;49.9;17;17.1;28.7;0.0;
13/02/2025 15:23:54;100;0;286.45;-4;-29.63;-3.23;890.3;12.00;75594;2837.539;-1801.288;1;277;-100;-96.8;49.7;49.9;20;19.9;28.7;0.0;
13/02/2025 15:24:14;100;0;285.07;-4;-29.89;-1.89;894.0;12.00;75596;2837.540;-1801.291;1;276;-100;-96.8;49.7;50.1;20;19.9;28.7;0.0;
13/02/2025 15:24:34;100;0;281.45;-4;-29.89;-1.87;897.8;12.00;75585;2837.541;-1801.295;1;275;-100;-96.8;49.7;49.9;16;15.8;28.7;0.0;
13/02/2025 15:24:54;100;0;279.42;-4;-29.76;-4.05;901.6;12.00;75589;2837.542;-1801.299;1;274;-100;-96.8;49.7;50.1;16;15.8;28.7;0.0;
13/02/2025 15:25:14;100;0;278.41;-4;-29.71;-3.90;905.3;11.90;75586;2837.542;-1801.302;1;273;-100;-96.8;49.7;49.9;16;15.8;28.7;0.0;
13/02/2025 15:25:34;100;0;278.75;-4;-29.80;-4.09;909.1;11.90;75573;2837.543;-1801.306;1;272;-100;-100.0;49.7;50.1;16;15.8;28.7;0.0;
13/02/2025 15:25:54;100;0;279.70;-4;-29.97;-3.96;912.9;11.90;75583;2837.544;-1801.310;1;270;-100;-95.2;49.7;49.9;21;21.2;28.7;0.0;
13/02/2025 15:26:14;100;0;282.93;-4;-30.85;-1.23;916.8;11.80;75570;2837.545;-1801.314;1;267;-100;-96.8;49.7;50.1;29;28.9;28.7;0.0;
13/02/2025 15:26:34;100;0;281.19;-4;-30.65;2.56;920.7;11.80;75566;2837.546;-1801.317;1;263;-100;-96.8;49.7;50.1;33;32.9;28.7;0.0;
13/02/2025 15:26:54;100;0;276.99;-4;-30.57;4.66;924.5;11.80;75573;2837.547;-1801.321;1;259;-100;-96.8;49.7;49.9;33;33.4;28.7;0.0;
13/02/2025 15:27:14;100;0;274.19;-4;-30.90;4.71;928.5;11.70;75561;2837.547;-1801.325;1;254;-100;-96.8;49.7;49.9;37;37.0;28.7;0.0;
13/02/2025 15:27:34;100;0;268.60;-4;-31.38;6.45;932.5;11.70;75565;2837.548;-1801.329;1;246;-100;-96.8;49.7;50.1;41;41.1;28.7;0.0;
13/02/2025 15:27:54;100;0;261.44;-4;-32.03;8.52;936.7;11.70;75554;2837.547;-1801.332;1;235;-100;-96.8;49.1;48.7;45;45.1;28.7;0.0;
13/02/2025 15:28:14;100;0;253.76;-4;-30.17;10.57;940.7;11.70;75558;2837.547;-1801.336;1;210;-100;-96.8;49.1;48.7;66;65.9;28.7;0.0;
13/02/2025 15:28:34;100;0;245.30;-4;-30.27;20.78;944.7;11.60;75541;2837.546;-1801.340;1;136;-100;-96.8;49.1;48.6;70;69.9;28.7;0.0;
13/02/2025 15:28:54;100;0;234.23;-4;-31.67;22.89;948.6;11.60;75549;2837.544;-1801.343;1;91;-100;-96.8;49.1;48.7;70;70.4;28.7;0.0;
13/02/2025 15:29:14;100;0;222.65;-4;-32.14;22.88;952.5;11.60;75546;2837.542;-1801.345;1;72;-100;-96.8;48.5;48.5;70;70.4;28.7;0.0;
13/02/2025 15:29:34;100;0;211.21;-4;-31.15;22.73;956.4;11.50;75551;2837.540;-1801.347;1;61;-100;-96.8;48.5;48.2;70;69.9;28.7;0.0;
13/02/2025 15:29:54;100;0;198.81;-4;-30.74;22.82;960.3;11.50;75536;2837.537;-1801.348;1;51;-100;-96.8;48.5;48.2;70;70.4;28.7;0.0;
13/02/2025 15:30:14;100;0;186.73;-4;-30.33;22.75;964.1;11.50;75534;2837.534;-1801.349;1;42;-100;-96.8;48.5;48.3;70;70.4;28.7;0.0;
13/02/2025 15:30:34;100;0;175.65;-4;-30.86;22.74;967.9;11.40;75533;2837.531;-1801.348;1;34;-100;-96.8;48.5;48.3;70;70.4;28.7;0.0;
13/02/2025 15:30:54;100;0;166.52;-4;-30.58;22.62;971.7;11.40;75529;2837.528;-1801.347;1;27;-100;-98.4;48.5;48.2;70;70.4;28.7;0.0;
13/02/2025 15:31:15;100;0;157.00;-4;-30.70;22.85;975.5;11.40;75511;2837.525;-1801.346;1;20;-100;-96.8;48.5;48.2;70;70.4;28.7;0.0;
13/02/2025 15:31:35;100;0;144.80;-4;-29.86;23.05;979.3;11.40;75523;2837.523;-1801.344;1;13;-100;-96.8;48.5;48.2;70;70.4;28.7;0.0;
13/02/2025 15:31:55;100;0;134.45;-4;-30.47;22.81;983.1;11.30;75510;2837.521;-1801.341;1;6;-100;-96.8;48.5;48.2;70;70.4;28.7;0.0;
13/02/2025 15:32:15;100;0;121.14;-4;-29.17;22.70;986.8;11.30;75499;2837.519;-1801.337;1;359;-100;-96.8;48.5;48.2;70;70.4;28.7;0.0;
13/02/2025 15:32:35;100;0;108.53;-4;-30.81;22.81;990.6;11.30;75503;2837.519;-1801.334;1;352;-100;-96.8;48.5;48.2;70;70.4;28.7;0.0;
13/02/2025 15:32:55;100;0;95.02;-4;-30.46;22.73;994.6;11.20;75496;2837.519;-1801.330;1;344;-100;-96.8;48.5;48.2;70;70.4;28.7;0.0;
13/02/2025 15:33:15;100;0;82.61;-4;-31.17;23.17;998.7;11.20;75492;2837.519;-1801.326;1;337;-100;-96.8;48.5;48.2;70;70.4;28.7;0.0;
13/02/2025 15:33:17;118;0;80.30;-4;-31.13;23.19;999.3;11.20;75492;2837.520;-1801.325;1;335;220;-88.7;20.4;20.5;12;11.7;28.7;0.0;
13/02/2025 15:33:27;118;0;92.02;-4;-14.60;-7.21;1000.9;11.20;75451;2837.520;-1801.323;1;331;220;41.9;20.4;20.0;12;11.7;27.4;-1.0;
13/02/2025 15:33:37;118;0;77.63;-4;18.14;-7.06;1001.4;11.20;75192;2837.520;-1801.322;1;329;220;166.1;20.4;20.6;12;11.7;27.6;-1.0;
13/02/2025 15:33:47;118;0;72.96;-4;31.98;-7.18;1000.6;11.20;74948;2837.520;-1801.321;1;328;220;222.6;20.4;20.8;12;11.7;27.5;-1.0;
13/02/2025 15:33:57;118;0;78.23;-4;33.38;-7.18;999.0;11.20;74838;2837.521;-1801.320;1;325;220;222.6;20.4;20.6;12;11.7;28.7;-1.0;
13/02/2025 15:34:17;117;0;75.45;-4;31.68;-6.63;995.9;11.20;74847;2837.522;-1801.317;1;320;220;222.6;20.4;20.8;12;11.7;28.7;-1.0;
13/02/2025 15:34:37;117;0;72.79;-4;32.69;-6.79;992.3;11.20;74841;2837.523;-1801.314;1;315;220;222.6;21.2;21.2;-70;-69.9;28.7;-1.0;
13/02/2025 15:34:57;117;0;59.60;-4;26.88;-48.56;988.9;11.20;74838;2837.525;-1801.310;1;308;220;222.6;20.3;20.2;-70;-70.4;28.7;-1.0;
13/02/2025 15:35:17;117;0;50.85;-4;27.82;-48.53;985.7;11.20;74836;2837.527;-1801.307;1;302;220;224.2;19.6;19.6;-70;-70.4;28.7;-1.0;
13/02/2025 15:35:37;117;0;42.47;-4;29.36;-48.71;982.4;11.20;74840;2837.530;-1801.305;1;296;220;224.2;19.6;19.3;-70;-70.4;28.7;-1.0;
13/02/2025 15:35:57;117;0;34.29;-4;29.17;-48.61;978.9;11.20;74829;2837.533;-1801.303;1;290;220;222.6;19.6;19.3;-70;-70.4;28.7;-1.0;
13/02/2025 15:36:18;117;0;27.58;-4;28.85;-48.48;975.5;11.20;74821;2837.536;-1801.301;1;284;220;222.6;19.3;19.3;-70;-70.4;28.7;-1.0;
13/02/2025 15:36:38;117;0;20.03;-4;29.89;-48.89;972.1;11.20;74820;2837.539;-1801.300;1;279;220;222.6;19.3;19.1;-70;-70.4;28.7;-1.0;
13/02/2025 15:36:58;117;0;13.06;-4;29.92;-48.68;968.5;11.20;74828;2837.542;-1801.299;1;273;220;222.6;19.3;19.0;-70;-70.4;28.7;-1.0;
13/02/2025 15:37:18;117;0;6.76;-4;30.64;-48.72;965.0;11.20;74810;2837.546;-1801.299;1;267;220;222.6;19.3;19.1;-70;-70.4;28.7;-1.0;
13/02/2025 15:37:38;117;0;0.06;-4;30.37;-48.69;961.4;11.10;74813;2837.549;-1801.299;1;262;220;222.6;19.3;19.1;-70;-70.4;28.7;-1.0;
13/02/2025 15:37:58;117;0;353.99;-4;30.72;-49.19;957.6;11.10;74795;2837.553;-1801.299;1;256;220;222.6;19.3;19.1;-70;-70.4;28.7;-1.0;
13/02/2025 15:38:18;117;0;348.08;-4;29.83;-48.43;953.8;11.10;74795;2837.556;-1801.300;1;250;220;222.6;19.3;19.0;-70;-70.4;28.7;-1.0;
13/02/2025 15:38:38;117;0;340.69;-4;30.18;-48.64;950.1;11.10;74782;2837.560;-1801.301;1;244;220;224.2;19.3;19.1;-70;-70.4;28.7;-1.0;
13/02/2025 15:38:58;117;0;334.37;-4;30.44;-48.65;946.4;11.10;74796;2837.563;-1801.303;1;239;220;224.2;19.3;19.0;-70;-70.4;28.7;-1.0;
13/02/2025 15:39:18;117;0;324.64;-4;29.54;-48.64;942.5;11.10;74786;2837.566;-1801.305;1;233;220;222.6;19.3;19.0;-70;-70.4;28.7;-1.0;
13/02/2025 15:39:38;117;0;317.31;-4;30.07;-48.48;938.8;11.10;74773;2837.569;-1801.307;1;227;220;222.6;19.3;19.1;-70;-70.4;28.7;-1.0;
13/02/2025 15:39:58;117;0;308.71;-4;30.30;-48.91;934.9;11.00;74785;2837.571;-1801.310;1;222;220;224.2;19.3;19.0;-70;-70.4;28.7;-1.0;
13/02/2025 15:40:18;117;0;301.07;-4;29.78;-48.88;931.2;11.00;74777;2837.573;-1801.313;1;216;220;222.6;19.3;19.0;-70;-70.4;28.7;-1.0;
13/02/2025 15:40:38;117;0;292.51;-4;29.59;-48.77;927.5;11.00;74767;2837.575;-1801.317;1;211;220;224.2;19.3;19.0;-65;-65.0;28.7;-1.0;
13/02/2025 15:40:58;117;0;282.67;-4;29.77;-45.26;923.8;11.00;74763;2837.576;-1801.320;1;206;220;224.2;19.3;19.0;-59;-59.1;28.7;-1.0;
13/02/2025 15:41:18;117;0;272.22;-4;30.00;-42.65;920.4;11.00;74766;2837.576;-1801.324;1;201;220;222.6;19.3;19.1;-51;-50.5;28.7;-1.0;
13/02/2025 15:41:38;117;0;262.56;-4;30.25;-38.28;917.0;11.00;74764;2837.576;-1801.327;1;197;220;222.6;19.3;19.1;-45;-45.1;28.7;-1.0;
13/02/2025 15:41:58;117;0;251.82;-4;30.44;-35.40;913.6;11.00;74765;2837.576;-1801.330;1;192;220;222.6;19.3;19.1;-36;-36.1;28.6;-1.0;
13/02/2025 15:42:18;117;0;240.38;-4;31.02;-30.28;910.2;11.00;74759;2837.575;-1801.333;1;188;220;224.2;19.3;19.1;-28;-27.5;28.7;-1.0;
13/02/2025 15:42:38;117;0;228.99;-4;31.44;-26.34;906.8;10.90;74750;2837.573;-1801.336;1;184;220;224.2;19.3;19.1;-19;-19.0;28.7;-1.0;
13/02/2025 15:42:58;117;0;219.61;-4;32.06;-21.49;903.5;10.90;74755;2837.571;-1801.337;1;181;220;222.6;19.9;20.0;-9;-9.0;28.7;-1.0;
13/02/2025 15:43:18;117;0;210.12;-4;31.35;-16.88;900.1;10.90;74750;2837.569;-1801.339;1;178;220;224.2;19.9;20.0;0;0.5;28.7;-1.0;
13/02/2025 15:43:38;117;0;201.71;-4;32.08;-11.95;896.8;10.90;74747;2837.567;-1801.340;1;175;220;224.2;20.5;20.8;10;9.9;28.7;-1.0;
13/02/2025 15:43:58;117;0;192.86;-4;31.91;-7.27;893.5;10.90;74743;2837.564;-1801.341;1;173;220;224.2;20.5;20.9;22;22.1;28.7;-1.0;
13/02/2025 15:44:18;117;0;187.88;-4;32.98;-0.57;890.0;10.80;74736;2837.562;-1801.341;1;171;220;224.2;21.4;21.6;27;27.1;28.7;-1.0;
13/02/2025 15:44:38;117;0;184.18;-4;32.10;2.05;886.6;10.80;74745;2837.560;-1801.341;1;169;220;224.2;22.1;22.2;29;28.9;28.7;-1.0;
13/02/2025 15:44:58;117;0;182.41;-4;31.45;2.98;883.3;10.80;74727;2837.557;-1801.341;1;167;220;224.2;22.1;22.2;29;29.3;28.7;-1.0;
13/02/2025 15:45:18;117;0;179.57;-4;31.26;3.00;880.0;10.80;74727;2837.555;-1801.341;1;165;220;224.2;22.1;22.2;29;29.3;28.7;-1.0;
13/02/2025 15:45:38;117;0;176.85;-4;31.29;2.96;876.6;10.80;74729;2837.552;-1801.341;1;161;220;224.2;22.1;22.4;29;29.3;28.7;-1.0;
13/02/2025 15:45:58;117;0;173.48;-4;30.57;2.80;873.4;10.70;74730;2837.550;-1801.341;1;157;220;224.2;22.1;22.2;29;29.3;28.7;-1.0;
13/02/2025 15:46:18;117;0;171.80;-4;30.97;2.84;870.3;10.70;74715;2837.547;-1801.340;1;150;220;224.2;22.1;22.2;22;22.1;28.7;-1.0;
13/02/2025 15:46:38;117;0;167.96;-4;30.52;-0.92;867.3;10.70;74718;2837.545;-1801.340;1;130;220;224.2;22.1;22.2;-2;-1.8;28.7;-1.0;
13/02/2025 15:46:58;117;0;160.14;-4;28.47;-14.01;864.2;10.70;74705;2837.543;-1801.338;1;16;220;222.6;21.6;21.2;-70;-69.9;28.7;-1.0;
13/02/2025 15:47:18;117;0;150.92;-4;26.57;-48.64;861.3;10.70;74700;2837.541;-1801.337;1;342;220;224.2;20.6;20.6;-70;-70.4;28.7;-1.0;
13/02/2025 15:47:38;117;0;144.78;-4;27.33;-48.28;858.4;10.70;74694;2837.539;-1801.335;1;333;220;222.6;19.8;19.7;-70;-70.4;28.7;-1.0;
13/02/2025 15:47:58;117;0;140.77;-4;29.12;-48.47;855.2;10.70;74687;2837.537;-1801.333;1;328;220;224.2;19.8;19.6;-70;-70.4;28.7;-1.0;
13/02/2025 15:48:18;117;0;134.83;-4;29.05;-48.42;852.0;10.70;74687;2837.535;-1801.330;1;323;220;224.2;19.8;19.6;-70;-70.4;28.7;-1.0;
13/02/2025 15:48:38;117;0;128.34;-4;28.72;-48.56;848.7;10.60;74680;2837.533;-1801.327;1;319;220;224.2;19.4;19.3;-70;-70.4;28.7;-1.0;
13/02/2025 15:48:58;117;0;121.72;-4;30.33;-48.91;845.3;10.60;74678;2837.532;-1801.325;1;315;220;224.2;19.4;19.1;-70;-70.4;28.7;-1.0;
13/02/2025 15:49:18;117;0;113.28;-4;29.64;-48.81;841.9;10.60;74680;2837.531;-1801.321;1;311;220;224.2;19.4;19.1;-70;-70.4;28.7;-1.0;
13/02/2025 15:49:38;117;0;103.88;-4;29.69;-48.98;838.6;10.70;74680;2837.531;-1801.318;1;307;220;224.2;19.4;19.1;-70;-70.4;28.7;-1.0;
13/02/2025 15:49:58;117;0;95.23;-4;29.88;-48.77;835.2;10.60;74678;2837.531;-1801.315;1;303;220;224.2;19.4;19.1;-70;-70.4;28.7;-1.0;
13/02/2025 15:50:18;117;0;86.58;-4;30.01;-49.03;831.8;10.60;74681;2837.531;-1801.311;1;298;220;224.2;19.4;19.3;-70;-70.4;28.7;-1.0;
13/02/2025 15:50:38;117;0;78.03;-4;30.23;-49.07;828.5;10.60;74675;2837.532;-1801.308;1;294;220;224.2;19.4;19.1;-70;-70.4;28.7;-1.0;
13/02/2025 15:50:58;117;0;69.21;-4;30.28;-48.52;825.3;10.60;74682;2837.534;-1801.305;1;290;220;222.6;19.4;19.1;-70;-70.4;28.7;-1.0;
13/02/2025 15:51:18;117;0;59.71;-4;29.50;-48.67;822.0;10.60;74676;2837.535;-1801.302;1;285;220;224.2;19.4;19.1;-70;-70.4;28.7;-1.0;
13/02/2025 15:51:38;117;0;50.02;-4;29.39;-48.94;818.8;10.60;74670;2837.538;-1801.299;1;281;220;225.8;19.4;19.0;-70;-70.4;28.7;-1.0;
13/02/2025 15:51:58;117;0;39.03;-4;29.00;-48.75;815.7;10.60;74678;2837.540;-1801.297;1;276;220;222.6;19.4;19.1;-70;-70.4;28.7;-1.0;
13/02/2025 15:52:18;117;0;30.70;-4;29.79;-48.99;812.7;10.60;74680;2837.543;-1801.296;1;272;220;224.2;19.4;19.1;-70;-70.4;28.7;-1.0;
13/02/2025 15:52:38;117;0;21.89;-4;29.79;-48.82;809.7;10.60;74689;2837.545;-1801.294;1;268;220;224.2;19.4;19.1;-70;-70.4;28.7;-1.0;
13/02/2025 15:52:58;117;0;13.42;-4;29.94;-48.77;806.6;10.60;74682;2837.548;-1801.294;1;263;220;224.2;19.4;19.1;-70;-70.4;28.7;-1.0;
13/02/2025 15:53:18;117;0;6.32;-4;30.02;-48.86;803.6;10.60;74685;2837.551;-1801.293;1;259;220;224.2;19.4;19.1;-70;-70.4;28.7;-1.0;
13/02/2025 15:53:38;117;0;358.45;-4;30.22;-49.19;800.3;10.60;74685;2837.555;-1801.293;1;255;220;222.6;19.4;19.1;-70;-70.4;28.7;-1.0;
13/02/2025 15:53:58;117;0;350.09;-4;29.42;-49.19;797.0;10.50;74680;2837.558;-1801.294;1;250;220;224.2;19.4;19.1;-70;-70.4;28.7;-1.0;
13/02/2025 15:54:18;117;0;343.16;-4;29.68;-48.77;793.8;10.50;74680;2837.561;-1801.295;1;246;220;224.2;19.4;19.1;-70;-70.4;28.7;-1.0;
13/02/2025 15:54:38;117;0;336.37;-4;29.97;-48.83;790.6;10.50;74673;2837.564;-1801.296;1;242;220;224.2;19.4;19.1;-70;-70.4;28.7;-1.0;
13/02/2025 15:54:58;117;0;326.22;-4;30.22;-49.76;787.2;10.50;74682;2837.567;-1801.298;1;237;220;224.2;19.4;19.1;-70;-70.4;28.7;-1.0;
13/02/2025 15:55:18;117;0;318.95;-4;29.77;-48.85;783.8;10.50;74671;2837.569;-1801.300;1;233;220;224.2;19.4;19.1;-70;-70.4;28.7;-1.0;
13/02/2025 15:55:38;117;0;312.11;-4;29.90;-48.84;780.3;10.50;74669;2837.572;-1801.302;1;228;220;224.2;19.4;19.1;-70;-70.4;28.7;-1.0;
13/02/2025 15:55:58;117;0;305.66;-4;30.13;-48.79;776.8;10.50;74678;2837.574;-1801.305;1;224;220;224.2;19.4;19.1;-68;-68.1;28.7;-1.0;
13/02/2025 15:56:18;117;0;298.67;-4;29.79;-47.18;773.2;10.50;74677;2837.576;-1801.308;1;219;220;224.2;19.4;19.1;-64;-64.1;28.7;-1.0;
13/02/2025 15:56:38;117;0;290.93;-4;29.79;-45.16;769.7;10.50;74666;2837.577;-1801.312;1;215;220;224.2;19.4;19.1;-60;-60.0;28.7;-1.0;
13/02/2025 15:56:58;117;0;283.91;-4;30.10;-43.11;766.1;10.50;74661;2837.578;-1801.315;1;210;220;224.2;19.4;19.0;-56;-56.0;28.7;-1.0;
13/02/2025 15:57:18;117;0;276.37;-4;30.04;-40.92;762.6;10.50;74661;2837.579;-1801.319;1;206;220;224.2;19.4;19.1;-52;-51.9;28.7;-1.0;
13/02/2025 15:57:38;117;0;268.48;-4;30.40;-38.91;759.1;10.50;74660;2837.579;-1801.322;1;202;220;224.2;19.4;19.1;-46;-46.0;28.7;-1.0;
13/02/2025 15:57:58;117;0;258.09;-4;30.53;-35.91;755.5;10.50;74665;2837.579;-1801.325;1;198;220;224.2;19.4;19.1;-38;-37.9;28.7;-1.0;
13/02/2025 15:58:18;117;0;245.47;-4;30.64;-31.76;751.9;10.50;74674;2837.578;-1801.329;1;194;220;224.2;19.4;19.1;-28;-28.0;28.7;-1.0;
13/02/2025 15:58:38;117;0;236.36;-4;31.09;-26.40;748.4;10.50;74694;2837.577;-1801.331;1;190;220;224.2;19.4;19.1;-21;-20.8;28.7;-1.0;
13/02/2025 15:58:58;117;0;224.86;-4;31.82;-22.76;744.9;10.50;74687;2837.575;-1801.334;1;187;220;224.2;19.4;19.1;-10;-9.9;28.7;-1.0;
13/02/2025 15:59:18;117;0;214.60;-4;32.41;-17.36;741.3;10.50;74695;2837.573;-1801.336;1;184;220;224.2;20.1;20.3;0;0.0;28.7;-1.0;
13/02/2025 15:59:38;117;0;206.98;-4;31.48;-12.03;737.8;10.50;74704;2837.570;-1801.337;1;182;220;225.8;20.1;20.3;11;10.8;28.7;-1.0;
13/02/2025 15:59:58;117;0;201.47;-4;32.35;-6.91;734.4;10.50;74708;2837.568;-1801.338;1;180;220;224.2;20.8;21.1;17;17.1;28.7;-1.0;
13/02/2025 16:00:18;117;0;196.63;-4;32.05;-3.28;731.1;10.50;74711;2837.566;-1801.339;1;178;220;225.8;21.4;21.6;22;22.1;28.7;-1.0;
13/02/2025 16:00:38;117;0;193.85;-4;31.15;-0.70;727.9;10.50;74706;2837.563;-1801.340;1;176;220;224.2;21.4;21.8;22;22.6;28.7;-1.0;
13/02/2025 16:00:58;117;0;190.49;-4;31.11;-0.65;724.7;10.50;74718;2837.561;-1801.340;1;174;220;224.2;21.4;21.6;27;27.1;28.7;-1.0;
13/02/2025 16:01:18;117;0;187.34;-4;31.48;2.04;721.6;10.50;74724;2837.559;-1801.340;1;172;220;224.2;21.4;21.8;27;27.5;28.7;-1.0;
13/02/2025 16:01:38;117;0;184.53;-4;31.42;1.98;718.4;10.50;74721;2837.556;-1801.341;1;169;220;224.2;21.4;21.8;27;27.5;28.7;-1.0;
13/02/2025 16:01:58;117;0;182.20;-4;31.54;1.88;715.2;10.50;74724;2837.554;-1801.341;1;167;220;224.2;21.4;21.6;29;28.9;28.7;-1.0;
13/02/2025 16:02:18;117;0;180.34;-4;31.84;3.02;711.9;10.50;74724;2837.552;-1801.341;1;163;220;224.2;21.4;21.6;27;26.6;28.7;-1.0;
13/02/2025 16:02:38;117;0;177.37;-4;32.01;1.34;708.5;10.50;74724;2837.549;-1801.341;1;157;220;224.2;22.0;22.2;22;21.7;28.7;-1.0;
13/02/2025 16:02:58;117;0;175.20;-4;30.95;-1.35;705.1;10.50;74738;2837.547;-1801.340;1;145;220;224.2;22.0;22.2;7;7.2;28.7;-1.0;
13/02/2025 16:03:18;117;0;167.42;-4;29.62;-9.36;701.8;10.50;74734;2837.544;-1801.339;1;100;220;224.2;22.0;22.2;-39;-38.8;28.7;-1.0;
13/02/2025 16:03:38;117;0;155.41;-4;25.84;-33.34;698.8;10.50;74731;2837.542;-1801.338;1;357;220;224.2;20.8;20.5;-70;-69.9;28.7;-1.0;
13/02/2025 16:03:58;117;0;147.22;-4;27.28;-48.82;695.6;10.50;74733;2837.539;-1801.336;1;338;220;224.2;20.0;20.0;-70;-69.9;28.7;-1.0;
13/02/2025 16:04:18;117;0;140.51;-4;28.40;-48.52;692.2;10.50;74739;2837.537;-1801.333;1;330;220;224.2;19.5;19.4;-70;-69.9;28.7;-1.0;
13/02/2025 16:04:38;117;0;132.55;-4;29.94;-48.85;688.7;10.50;74731;2837.535;-1801.331;1;324;220;224.2;19.5;19.1;-70;-69.9;28.7;-1.0;
13/02/2025 16:04:58;117;0;124.31;-4;29.89;-48.60;685.0;10.60;74738;2837.534;-1801.328;1;318;220;224.2;19.5;19.3;-70;-69.9;28.7;-1.0;
13/02/2025 16:05:18;117;0;115.51;-4;29.69;-48.66;681.4;10.60;74743;2837.533;-1801.324;1;313;220;224.2;19.5;19.1;-70;-69.9;28.7;-1.0;
13/02/2025 16:05:38;117;0;105.55;-4;29.01;-48.77;677.8;10.60;74742;2837.532;-1801.321;1;308;220;224.2;19.5;19.1;-70;-69.9;28.7;-1.0;
13/02/2025 16:05:58;117;0;96.58;-4;29.56;-48.73;674.3;10.60;74736;2837.532;-1801.317;1;303;220;224.2;19.5;19.1;-70;-69.9;28.7;-1.0;
13/02/2025 16:06:18;117;0;86.67;-4;29.44;-48.66;670.6;10.60;74734;2837.533;-1801.313;1;297;220;224.2;19.5;19.1;-70;-69.9;28.7;-1.0;
13/02/2025 16:06:38;117;0;79.08;-4;29.61;-48.58;667.2;10.60;74736;2837.534;-1801.310;1;293;220;224.2;19.5;19.3;-70;-69.9;28.7;-1.0;
13/02/2025 16:06:58;117;0;72.01;-4;29.40;-48.53;663.8;10.60;74736;2837.535;-1801.306;1;288;220;224.2;19.5;19.1;-70;-69.9;28.7;-1.0;
13/02/2025 16:07:18;117;0;66.44;-4;30.05;-48.51;660.3;10.60;74736;2837.537;-1801.303;1;284;220;224.2;19.5;19.1;-70;-69.9;28.7;-1.0;
13/02/2025 16:07:38;117;0;60.91;-4;30.21;-48.53;656.7;10.60;74738;2837.538;-1801.300;1;280;220;224.2;19.5;19.1;-70;-69.9;28.7;-1.0;
13/02/2025 16:07:58;117;0;55.34;-4;29.75;-48.41;653.2;10.60;74743;2837.540;-1801.297;1;276;220;224.2;19.5;19.1;-70;-69.9;28.7;-1.0;
13/02/2025 16:08:18;117;0;47.33;-4;29.93;-48.86;649.6;10.60;74743;2837.543;-1801.294;1;272;220;222.6;19.5;19.1;-70;-69.9;28.7;-1.0;
13/02/2025 16:08:38;117;0;38.90;-4;29.92;-48.77;645.9;10.60;74746;2837.546;-1801.292;1;267;220;224.2;19.5;19.3;-70;-69.9;28.7;-1.0;
13/02/2025 16:08:58;117;0;30.48;-4;29.65;-48.81;642.3;10.60;74756;2837.549;-1801.290;1;263;220;224.2;19.5;19.3;-70;-69.9;28.7;-1.0;
13/02/2025 16:09:18;117;0;22.19;-4;29.67;-48.72;638.8;10.60;74762;2837.552;-1801.289;1;259;220;224.2;19.5;19.3;-70;-69.9;28.7;-1.0;
13/02/2025 16:09:38;117;0;14.79;-4;29.86;-48.80;635.2;10.70;74763;2837.556;-1801.288;1;255;220;224.2;19.5;19.1;-70;-69.9;28.7;-1.0;
13/02/2025 16:09:58;117;0;8.79;-4;30.02;-48.74;631.5;10.70;74760;2837.559;-1801.287;1;251;220;225.8;19.5;19.3;-70;-69.9;28.7;-1.0;
13/02/2025 16:10:19;117;0;1.59;-4;29.30;-48.80;628.0;10.70;74776;2837.563;-1801.287;1;248;220;224.2;19.5;19.1;-70;-69.9;28.7;-1.0;
13/02/2025 16:10:39;117;0;354.47;-4;29.96;-49.00;624.4;10.70;74767;2837.566;-1801.287;1;244;220;225.8;19.5;19.3;-70;-69.9;28.7;-1.0;
13/02/2025 16:10:59;117;0;347.50;-4;29.51;-48.89;620.9;10.70;74777;2837.569;-1801.288;1;240;220;224.2;19.5;19.1;-70;-69.9;28.7;-1.0;
13/02/2025 16:11:19;117;0;341.04;-4;29.83;-48.59;617.5;10.70;74787;2837.573;-1801.289;1;236;220;224.2;19.5;19.1;-70;-69.9;28.7;-1.0;
13/02/2025 16:11:39;117;0;333.25;-4;29.95;-49.05;614.1;10.70;74782;2837.576;-1801.290;1;233;220;224.2;19.5;19.1;-70;-69.9;28.7;-1.0;
13/02/2025 16:11:59;117;0;328.75;-4;30.08;-48.70;610.7;10.70;74789;2837.578;-1801.292;1;229;220;224.2;19.5;19.3;-70;-69.9;28.7;-1.0;
13/02/2025 16:12:19;117;0;321.52;-4;29.40;-48.74;607.3;10.70;74785;2837.581;-1801.294;1;226;220;224.2;19.5;19.3;-70;-69.9;28.7;-1.0;
13/02/2025 16:12:39;117;0;314.92;-4;29.69;-48.67;603.8;10.80;74796;2837.584;-1801.297;1;222;220;224.2;19.5;19.3;-70;-69.9;28.7;-1.0;
13/02/2025 16:12:59;117;0;308.21;-4;29.63;-48.73;600.5;10.80;74787;2837.586;-1801.299;1;219;220;224.2;19.5;19.3;-70;-69.9;28.7;-1.0;
13/02/2025 16:13:19;117;0;301.88;-4;29.92;-48.69;597.2;10.80;74787;2837.588;-1801.302;1;216;220;224.2;19.5;19.3;-70;-69.9;28.7;-1.0;
13/02/2025 16:13:39;117;0;293.61;-4;29.59;-48.92;593.9;10.80;74796;2837.589;-1801.305;1;213;220;224.2;19.5;19.1;-66;-65.9;28.7;-1.0;
13/02/2025 16:13:59;117;0;286.23;-4;29.40;-46.09;590.7;10.80;74794;2837.590;-1801.308;1;209;220;225.8;19.5;19.1;-61;-60.9;28.7;-1.0;
13/02/2025 16:14:19;117;0;278.35;-4;29.49;-43.58;587.4;10.80;74796;2837.591;-1801.312;1;206;220;222.6;19.5;19.3;-55;-55.1;28.7;-1.0;
13/02/2025 16:14:39;117;0;268.87;-4;29.66;-40.38;584.3;10.80;74806;2837.591;-1801.315;1;203;220;225.8;19.5;19.3;-47;-46.9;28.7;-1.0;
13/02/2025 16:14:59;117;0;258.50;-4;29.75;-36.53;581.1;10.80;74803;2837.591;-1801.318;1;201;220;224.2;19.5;19.3;-36;-36.1;28.7;-1.0;
13/02/2025 16:15:19;117;0;246.01;-4;30.10;-30.77;578.0;10.80;74808;2837.590;-1801.321;1;198;220;225.8;19.5;19.3;-24;-23.5;28.7;-1.0;
13/02/2025 16:15:39;117;0;236.66;-4;31.82;-24.44;575.0;10.80;74802;2837.589;-1801.323;1;196;220;224.2;19.5;19.3;-15;-14.9;28.7;-1.0;
13/02/2025 16:15:59;117;0;225.42;-4;31.10;-19.66;572.0;10.90;74815;2837.588;-1801.325;1;195;220;225.8;19.5;19.1;-1;-0.9;28.7;-1.0;
13/02/2025 16:16:19;117;0;218.86;-4;32.93;-13.18;568.9;10.90;74826;2837.586;-1801.327;1;193;220;224.2;20.4;20.5;6;5.9;28.7;-1.0;
13/02/2025 16:16:39;117;0;211.77;-4;31.99;-9.57;565.8;10.90;74828;2837.584;-1801.328;1;192;220;225.8;20.4;20.5;16;15.8;28.7;-1.0;
13/02/2025 16:16:59;117;0;205.71;-4;32.59;-4.22;562.6;10.90;74841;2837.582;-1801.329;1;191;220;224.2;21.2;21.4;26;26.2;28.7;-1.0;
13/02/2025 16:17:19;117;0;205.26;-4;31.63;1.43;559.6;10.90;74838;2837.581;-1801.330;1;190;220;225.8;21.2;21.4;26;26.6;28.7;-1.0;
13/02/2025 16:17:39;117;0;204.81;-4;31.62;1.43;556.5;10.90;74853;2837.579;-1801.332;1;189;220;224.2;21.2;21.4;24;23.9;28.7;-1.0;
13/02/2025 16:17:59;117;0;203.08;-4;31.44;-0.17;553.7;11.00;74860;2837.577;-1801.333;1;188;220;225.8;21.2;21.4;24;23.9;28.7;-1.0;
13/02/2025 16:18:19;117;0;202.04;-4;31.48;-0.17;550.8;11.00;74860;2837.575;-1801.334;1;187;220;225.8;21.2;21.4;24;23.9;28.7;-1.0;
13/02/2025 16:18:39;117;0;200.98;-4;31.69;-0.22;547.8;11.00;74862;2837.573;-1801.335;1;186;220;224.2;21.2;21.4;24;23.9;28.7;-1.0;
13/02/2025 16:18:59;117;0;198.88;-4;31.52;-0.14;544.8;11.00;74863;2837.571;-1801.335;1;185;220;224.2;21.2;21.4;27;27.1;28.7;-1.0;
13/02/2025 16:19:19;117;0;197.35;-4;31.88;1.81;541.6;11.00;74874;2837.569;-1801.336;1;184;220;225.8;21.2;21.4;29;28.9;28.7;-1.0;
13/02/2025 16:19:39;117;0;196.78;-4;32.01;2.99;538.5;11.00;74868;2837.566;-1801.337;1;182;220;225.8;21.8;21.9;27;27.1;28.7;-1.0;
13/02/2025 16:19:59;117;0;195.90;-4;31.06;1.54;535.4;11.00;74881;2837.564;-1801.338;1;180;220;225.8;21.8;21.8;25;24.8;28.7;-1.0;
13/02/2025 16:20:19;117;0;195.01;-4;30.76;0.31;532.4;11.00;74875;2837.562;-1801.338;1;179;220;225.8;21.8;21.8;25;24.8;28.7;-1.0;
13/02/2025 16:20:39;117;0;193.60;-4;30.22;0.17;529.5;11.10;74885;2837.560;-1801.339;1;176;220;222.6;21.8;21.9;23;23.0;28.7;-1.0;
13/02/2025 16:20:59;117;0;192.59;-4;30.41;-0.68;526.5;11.10;74879;2837.558;-1801.340;1;174;220;225.8;21.8;21.9;23;23.0;28.7;-1.0;
13/02/2025 16:21:19;117;0;191.91;-4;30.32;-0.64;523.5;11.10;74881;2837.555;-1801.340;1;170;220;225.8;21.8;21.9;17;17.1;28.7;-1.0;
13/02/2025 16:21:39;117;0;188.28;-4;30.06;-3.96;520.5;11.10;74879;2837.553;-1801.341;1;165;220;224.2;21.8;21.9;17;16.7;28.7;-1.0;
13/02/2025 16:21:59;117;0;182.61;-4;29.79;-3.87;517.5;11.10;74885;2837.551;-1801.341;1;160;220;224.2;21.8;21.9;17;16.7;28.7;-1.0;
13/02/2025 16:22:19;117;0;172.79;-4;29.80;-3.87;514.4;11.10;74890;2837.548;-1801.340;1;154;220;225.8;21.8;21.9;25;24.8;28.7;-1.0;
13/02/2025 16:22:39;117;0;163.98;-4;30.15;0.67;511.3;11.20;74905;2837.546;-1801.339;1;147;220;224.2;21.8;21.9;29;28.9;28.7;-1.0;
13/02/2025 16:22:59;117;0;159.00;-4;30.36;2.81;508.2;11.20;74901;2837.544;-1801.338;1;46;220;225.8;21.8;21.8;-70;-69.9;28.7;-1.0;
13/02/2025 16:23:19;117;0;145.94;-4;24.76;-48.48;505.2;11.20;74912;2837.541;-1801.336;1;328;220;224.2;20.2;20.0;70;69.9;28.7;-1.0;
13/02/2025 16:23:39;117;0;149.96;-4;35.27;25.38;502.2;11.20;74904;2837.540;-1801.335;1;327;220;225.8;21.8;21.8;70;69.9;28.7;-1.0;
13/02/2025 16:23:59;117;0;153.94;-4;34.49;25.41;498.5;11.20;74914;2837.538;-1801.333;1;328;220;225.8;23.1;23.3;70;69.9;28.7;-1.0;
13/02/2025 16:24:19;117;0;157.71;-4;31.38;25.24;495.1;11.20;74923;2837.535;-1801.332;1;329;220;224.2;23.1;23.4;70;69.9;28.7;-1.0;
13/02/2025 16:24:39;117;0;163.82;-4;30.85;25.42;491.7;11.30;74921;2837.533;-1801.331;1;332;220;224.2;23.1;23.4;70;69.9;28.7;-1.0;
13/02/2025 16:24:59;117;0;171.30;-4;30.96;25.37;488.4;11.30;74921;2837.530;-1801.331;1;335;220;224.2;23.1;23.4;70;69.9;28.7;-1.0;
13/02/2025 16:25:19;117;0;178.86;-4;30.74;25.37;485.0;11.30;74934;2837.528;-1801.330;1;338;220;225.8;23.1;23.4;70;69.9;28.7;-1.0;
13/02/2025 16:25:39;117;0;186.00;-4;30.81;25.43;481.6;11.30;74918;2837.525;-1801.331;1;341;220;225.8;23.1;23.4;70;69.9;28.7;-1.0;
13/02/2025 16:25:59;117;0;194.04;-4;30.82;25.32;478.3;11.30;74922;2837.523;-1801.331;1;345;220;225.8;23.1;23.4;70;69.9;28.7;-1.0;
13/02/2025 16:26:19;117;0;199.29;-4;30.68;25.37;474.9;11.30;74931;2837.520;-1801.333;1;349;220;225.8;23.1;23.4;70;69.9;28.7;-1.0;
13/02/2025 16:26:39;117;0;206.02;-4;30.52;25.41;471.5;11.40;74939;2837.518;-1801.334;1;352;220;224.2;23.1;23.4;70;69.9;28.7;-1.0;
13/02/2025 16:26:59;117;0;211.86;-4;30.60;25.30;468.2;11.40;74936;2837.516;-1801.336;1;356;220;225.8;23.1;23.4;70;69.9;28.7;-1.0;
13/02/2025 16:27:19;117;0;217.27;-4;30.76;25.31;464.8;11.40;74947;2837.514;-1801.337;1;359;220;227.4;23.1;23.4;70;69.9;28.7;-1.0;
13/02/2025 16:27:39;117;0;221.22;-4;31.01;25.32;461.4;11.40;74945;2837.512;-1801.340;1;3;220;225.8;23.1;23.4;70;69.9;28.7;-1.0;
13/02/2025 16:27:59;117;0;225.10;-4;31.42;25.26;457.9;11.40;74950;2837.510;-1801.342;1;6;220;224.2;23.1;23.4;70;69.9;28.7;-1.0;
13/02/2025 16:28:19;117;0;225.98;-4;30.47;25.38;454.4;11.40;74954;2837.508;-1801.344;1;9;220;224.2;23.1;23.4;70;69.9;28.7;-1.0;
13/02/2025 16:28:39;117;0;233.62;-4;30.17;25.41;451.1;11.50;74961;2837.507;-1801.347;1;12;220;225.8;23.1;23.4;70;69.9;28.7;-1.0;
13/02/2025 16:28:59;117;0;240.77;-4;30.47;25.24;447.9;11.50;74968;2837.506;-1801.350;1;15;220;225.8;23.1;23.4;70;69.9;28.7;-1.0;
13/02/2025 16:29:19;117;0;249.33;-4;30.41;25.41;444.6;11.50;74968;2837.505;-1801.353;1;19;220;225.8;23.1;23.4;70;69.9;28.7;-1.0;
13/02/2025 16:29:39;117;0;257.15;-4;30.48;25.36;441.3;11.50;74959;2837.505;-1801.356;1;22;220;225.8;23.1;23.4;70;69.9;28.7;-1.0;
13/02/2025 16:29:59;117;0;264.73;-4;30.91;25.19;438.2;11.50;74968;2837.505;-1801.359;1;25;220;225.8;23.1;23.4;70;69.9;28.7;-1.0;
13/02/2025 16:30:19;117;0;273.74;-4;30.35;25.40;435.0;11.50;74970;2837.506;-1801.362;1;29;220;224.2;23.1;23.4;70;69.9;28.7;-1.0;
13/02/2025 16:30:39;117;0;281.69;-4;30.41;25.40;431.7;11.60;74980;2837.506;-1801.365;1;33;220;225.8;23.1;23.4;70;69.9;28.7;-1.0;
13/02/2025 16:30:59;117;0;289.26;-4;30.56;25.33;428.6;11.60;74978;2837.508;-1801.368;1;36;220;224.2;23.1;23.4;70;69.9;28.7;-1.0;
13/02/2025 16:31:19;117;0;297.42;-4;30.17;25.23;425.3;11.60;74977;2837.509;-1801.371;1;40;220;225.8;23.1;23.4;70;69.9;28.7;-1.0;
13/02/2025 16:31:39;117;0;302.83;-4;30.30;25.51;422.2;11.60;74979;2837.511;-1801.374;1;44;220;225.8;23.1;23.4;70;69.9;28.7;-1.0;
13/02/2025 16:31:59;117;0;310.61;-4;30.64;25.41;419.1;11.60;74985;2837.513;-1801.376;1;47;220;225.8;23.1;23.4;70;69.9;28.7;-1.0;
13/02/2025 16:32:19;117;0;318.73;-4;30.40;25.31;415.8;11.60;74985;2837.516;-1801.378;1;51;220;225.8;23.1;23.6;70;69.9;28.7;-1.0;
13/02/2025 16:32:39;117;0;325.45;-4;30.76;25.32;412.7;11.70;74998;2837.518;-1801.380;1;55;220;225.8;23.1;23.4;70;69.9;28.7;-1.0;
13/02/2025 16:32:59;117;0;330.08;-4;30.29;25.28;409.5;11.70;74997;2837.521;-1801.381;1;59;220;225.8;23.1;23.4;70;69.9;28.7;-1.0;
13/02/2025 16:33:19;117;0;334.69;-4;31.30;25.50;406.4;11.70;75002;2837.524;-1801.383;1;63;220;225.8;23.1;23.4;70;69.9;28.7;-1.0;
13/02/2025 16:33:39;117;0;341.98;-4;30.23;25.78;403.1;11.70;75016;2837.527;-1801.383;1;67;220;224.2;23.1;23.4;70;69.9;28.7;-1.0;
13/02/2025 16:33:59;117;0;347.81;-4;30.67;25.27;399.8;11.70;75032;2837.530;-1801.384;1;71;220;224.2;23.1;23.4;70;69.9;28.7;-1.0;
13/02/2025 16:34:19;117;0;352.06;-4;30.74;25.38;396.6;11.70;75034;2837.533;-1801.384;1;75;220;225.8;23.1;23.4;70;69.9;28.7;-1.0;
13/02/2025 16:34:39;117;0;359.42;-4;30.86;25.60;393.3;11.80;75024;2837.536;-1801.384;1;79;220;225.8;23.1;23.4;70;69.9;28.7;-1.0;
13/02/2025 16:34:59;117;0;6.84;-4;30.10;25.67;390.0;11.80;75039;2837.539;-1801.384;1;83;220;225.8;23.1;23.4;70;69.9;28.7;-1.0;
13/02/2025 16:35:19;117;0;15.77;-4;30.29;25.37;386.7;11.80;75040;2837.542;-1801.383;1;88;220;225.8;23.1;23.4;70;69.9;28.7;-1.0;
13/02/2025 16:35:39;117;0;20.56;-4;30.83;26.31;383.5;11.80;75055;2837.545;-1801.382;1;92;220;224.2;23.1;23.4;70;69.9;28.7;-1.0;
13/02/2025 16:35:59;117;0;27.70;-4;30.09;24.88;380.2;11.80;75049;2837.548;-1801.380;1;96;220;224.2;23.1;23.4;70;69.9;28.7;-1.0;
13/02/2025 16:36:19;117;0;33.71;-4;30.01;25.20;377.2;11.90;75050;2837.551;-1801.379;1;101;220;224.2;23.1;23.4;70;69.9;28.7;-1.0;
13/02/2025 16:36:39;117;0;45.66;-4;27.85;24.64;374.1;11.90;75058;2837.553;-1801.376;1;105;220;224.2;22.5;22.5;70;69.9;28.7;-1.0;
13/02/2025 16:36:59;117;0;51.79;-4;32.23;25.21;371.3;11.90;75063;2837.555;-1801.374;1;109;220;225.8;23.1;23.1;70;69.9;28.7;-1.0;
13/02/2025 16:37:19;117;0;56.85;-4;31.65;25.31;368.4;11.90;75064;2837.556;-1801.372;1;113;220;225.8;23.1;23.1;70;69.9;28.7;-1.0;
13/02/2025 16:37:39;117;0;62.78;-4;30.59;25.41;365.4;11.90;75075;2837.558;-1801.369;1;117;220;225.8;23.1;23.3;70;69.9;28.7;-1.0;
13/02/2025 16:37:59;117;0;68.29;-4;30.63;25.35;362.4;11.90;75082;2837.559;-1801.366;1;121;220;224.2;23.1;23.3;70;69.9;28.7;-1.0;
13/02/2025 16:38:19;117;0;75.39;-4;30.68;25.41;359.5;12.00;75081;2837.560;-1801.364;1;126;220;224.2;23.1;23.3;70;69.9;28.7;-1.0;
13/02/2025 16:38:39;117;0;81.66;-4;30.45;25.27;356.7;12.00;75082;2837.561;-1801.361;1;130;220;224.2;23.1;23.3;70;69.9;28.7;-1.0;
13/02/2025 16:38:59;117;0;86.81;-4;30.85;25.41;353.8;12.00;75084;2837.561;-1801.358;1;135;220;224.2;23.1;23.3;70;69.9;28.7;-1.0;
13/02/2025 16:39:19;117;0;93.85;-4;30.92;25.53;350.8;12.00;75106;2837.561;-1801.355;1;140;220;225.8;23.1;23.3;70;69.9;28.7;-1.0;
13/02/2025 16:39:39;117;0;100.96;-4;31.08;25.53;347.8;12.10;75107;2837.561;-1801.352;1;145;220;224.2;23.1;23.3;70;69.9;28.7;-1.0;
13/02/2025 16:39:59;117;0;106.55;-4;30.62;25.37;344.6;12.10;75106;2837.561;-1801.349;1;150;220;224.2;23.1;23.3;70;69.9;28.7;-1.0;
13/02/2025 16:40:19;117;0;115.00;-4;30.70;25.59;341.5;12.10;75106;2837.560;-1801.346;1;156;220;225.8;23.1;23.1;70;69.9;28.7;-1.0;
13/02/2025 16:40:39;117;0;119.51;-4;30.74;25.26;338.6;12.10;75115;2837.559;-1801.344;1;162;220;225.8;23.1;23.3;70;69.9;28.7;-1.0;
