Timestamp;NavState;SecurityLevel;Heading;Declination;Pitch;Roll;Depth;Temperature;Pa;Lat;Lon;DeadReckoning;DesiredH;BallastCmd;BallastPos;LinCmd;LinPos;AngCmd;AngPos;Voltage;Altitude;
14/02/2025 15:54:57;119;0;284.06;-4;-48.95;-9.85;-0.1;17.60;75870;2836.738;-1757.948;0;312;500;508.1;100.0;100.4;0;0.5;28.6;-1.0;
14/02/2025 15:55:06;116;0;279.66;-4;-55.62;-9.59;0.1;17.60;75878;2836.742;-1757.950;0;312;500;508.1;100.0;100.6;0;0.5;28.6;-1.0;
14/02/2025 15:55:30;116;0;258.77;-4;-54.16;-9.59;0.1;17.70;75898;2836.742;-1757.949;0;312;500;506.5;100.0;100.6;0;0.5;28.6;-1.0;
14/02/2025 15:55:56;116;0;276.18;-4;-55.76;-7.76;0.1;17.80;75916;2836.742;-1757.949;0;312;500;508.1;100.0;100.6;0;0.5;28.6;-1.0;
14/02/2025 15:56:07;116;0;277.57;-4;-46.27;-12.87;0.1;17.80;75915;2836.742;-1757.949;0;312;500;508.1;100.0;100.6;0;0.5;28.6;-1.0;
14/02/2025 15:56:27;116;0;264.36;-4;-55.74;-15.00;0.1;17.90;75925;2836.743;-1757.948;0;312;500;508.1;100.0;100.4;0;0.5;28.6;-1.0;
14/02/2025 15:57:30;116;0;279.45;-4;-50.91;-9.51;0.3;18.10;75964;2836.744;-1757.945;0;312;500;508.1;100.0;100.6;0;0.5;28.6;-1.0;
14/02/2025 15:57:36;116;0;277.54;-4;-51.70;-7.84;0.2;18.20;75969;2836.743;-1757.945;0;312;500;508.1;100.0;100.6;0;0.5;28.5;-1.0;
14/02/2025 15:58:38;116;0;287.60;-4;-53.23;-10.83;0.2;18.40;76000;2836.745;-1757.942;0;312;500;508.1;100.0;100.6;0;0.5;28.6;-1.0;
14/02/2025 15:59:33;116;0;279.87;-4;-54.96;-12.51;0.1;18.70;76022;2836.744;-1757.940;0;311;500;508.1;100.0;100.4;0;0.5;28.6;-1.0;
14/02/2025 15:59:43;116;0;282.88;-4;-51.60;-18.10;0.3;18.80;76026;2836.744;-1757.940;0;311;500;508.1;100.0;100.6;0;0.5;28.6;-1.0;
14/02/2025 16:00:03;110;0;285.58;-4;-50.19;-14.59;0.0;18.90;76046;2836.744;-1757.940;0;311;-100;390.3;100.0;100.6;-9;-9.0;28.6;-1.0;
14/02/2025 16:00:13;110;0;271.68;-4;-54.39;-15.93;0.1;18.90;76389;2836.744;-1757.940;1;311;-100;243.5;100.0;100.6;-9;-9.5;28.6;-1.0;
14/02/2025 16:00:23;110;0;269.80;-4;-58.43;-18.23;0.5;19.00;76630;2836.744;-1757.941;1;311;-100;87.1;100.0;100.6;-9;-9.5;28.6;-1.0;
14/02/2025 16:00:34;110;0;263.74;-4;-63.86;-13.67;0.8;19.00;76949;2836.744;-1757.941;1;311;-100;-67.7;100.0;100.6;-9;-9.5;28.5;-1.0;
14/02/2025 16:00:44;110;0;249.38;-4;-69.09;-6.78;1.0;19.10;77284;2836.744;-1757.941;1;311;-100;-98.4;44.2;44.9;-9;-9.5;28.6;-1.0;
14/02/2025 16:00:54;110;0;274.20;-4;-55.37;-16.78;2.3;19.10;77300;2836.745;-1757.942;1;311;-100;-98.4;44.2;44.2;-9;-9.5;28.6;-1.0;
14/02/2025 16:01:14;100;0;292.21;-4;-23.43;-16.36;5.7;19.20;77296;2836.746;-1757.946;1;312;-100;-93.5;44.2;43.7;-9;-9.5;28.6;-1.0;
14/02/2025 16:01:34;100;0;301.29;-4;-20.81;-16.71;9.0;19.20;77282;2836.748;-1757.950;1;312;-100;-93.5;44.2;43.6;11;11.3;28.6;-1.0;
14/02/2025 16:01:54;100;0;305.19;-4;-22.03;-5.89;12.0;19.30;77272;2836.751;-1757.953;1;312;-100;-91.9;43.6;43.7;13;13.1;28.6;-1.0;
14/02/2025 16:02:14;100;0;305.65;-4;-23.28;-4.89;15.0;19.30;77275;2836.753;-1757.956;1;312;-100;-93.5;42.6;42.6;13;13.5;28.6;0.0;
14/02/2025 16:02:34;100;0;306.48;-4;-20.53;-5.03;18.0;19.30;77283;2836.755;-1757.960;1;312;-100;-93.5;42.6;42.3;13;13.5;28.6;0.0;
14/02/2025 16:02:54;100;0;306.60;-4;-19.69;-4.91;20.8;19.30;77283;2836.757;-1757.963;1;312;-100;-93.5;42.6;42.3;13;14.0;28.6;0.0;
14/02/2025 16:03:14;100;0;307.05;-4;-19.42;-5.01;23.6;19.40;77282;2836.760;-1757.966;1;312;-100;-93.5;42.6;42.3;13;13.5;28.6;0.0;
14/02/2025 16:03:34;100;0;308.07;-4;-19.40;-5.01;26.2;19.40;77288;2836.762;-1757.970;1;312;-100;-93.5;42.6;42.4;13;13.5;28.6;0.0;
14/02/2025 16:03:54;100;0;309.11;-4;-19.16;-4.90;28.9;19.40;77289;2836.764;-1757.973;1;312;-100;-91.9;42.6;42.3;13;13.5;28.6;0.0;
14/02/2025 16:04:14;100;0;309.18;-4;-19.50;-4.99;31.6;19.40;77298;2836.767;-1757.976;1;312;-100;-93.5;42.6;42.4;13;13.5;28.6;0.0;
14/02/2025 16:04:34;100;0;308.85;-4;-19.11;-4.88;34.2;19.40;77305;2836.769;-1757.979;1;312;-100;-91.9;42.6;42.3;13;13.5;28.6;0.0;
14/02/2025 16:04:54;100;0;308.90;-4;-19.35;-4.95;37.0;19.40;77305;2836.772;-1757.982;1;312;-100;-93.5;42.6;42.4;13;14.0;28.6;0.0;
14/02/2025 16:05:14;100;0;307.98;-4;-19.17;-4.92;39.6;19.40;77301;2836.774;-1757.985;1;312;-100;-93.5;42.6;42.3;13;13.5;28.6;0.0;
14/02/2025 16:05:34;100;0;306.70;-4;-19.33;-4.99;42.2;19.40;77306;2836.776;-1757.989;1;312;-100;-91.9;42.6;42.3;13;14.0;28.6;0.0;
14/02/2025 16:05:54;100;0;304.95;-4;-19.00;-4.95;45.0;19.40;77300;2836.778;-1757.992;1;312;-100;-93.5;42.9;42.9;13;13.5;28.6;0.0;
14/02/2025 16:06:14;100;0;303.43;-4;-19.14;-4.91;47.6;19.50;77298;2836.780;-1757.995;1;312;-100;-93.5;42.9;43.2;13;13.5;28.6;0.0;
14/02/2025 16:06:34;100;0;301.81;-4;-19.76;-4.97;50.2;19.50;77303;2836.782;-1757.999;1;312;-100;-91.9;42.9;43.2;11;10.8;28.6;0.0;
14/02/2025 16:06:54;100;0;301.87;-4;-19.25;-6.54;53.0;19.50;77300;2836.784;-1758.002;1;312;-100;-91.9;42.9;43.2;11;10.4;28.6;0.0;
14/02/2025 16:07:14;100;0;302.24;-4;-19.31;-6.56;55.5;19.50;77308;2836.786;-1758.006;1;312;-100;-93.5;42.9;43.2;11;10.4;28.6;0.0;
14/02/2025 16:07:34;100;0;303.67;-4;-19.30;-6.62;58.2;19.50;77311;2836.788;-1758.009;1;312;-100;-93.5;42.9;43.2;11;10.8;28.6;0.0;
14/02/2025 16:07:54;100;0;305.65;-4;-19.21;-6.58;60.8;19.50;77311;2836.790;-1758.012;1;312;-100;-93.5;42.9;43.2;13;13.1;28.6;0.0;
14/02/2025 16:08:14;100;0;306.61;-4;-19.38;-5.06;63.4;19.50;77316;2836.793;-1758.015;1;312;-100;-93.5;42.9;43.0;13;13.5;28.6;0.0;
14/02/2025 16:08:34;100;0;305.70;-4;-19.38;-5.02;66.0;19.50;77316;2836.795;-1758.019;1;312;-100;-91.9;42.9;43.2;13;13.5;28.6;0.0;
14/02/2025 16:08:54;100;0;304.67;-4;-19.48;-5.04;68.7;19.50;77316;2836.797;-1758.022;1;312;-100;-93.5;42.9;43.2;13;13.5;28.6;0.0;
14/02/2025 16:09:14;100;0;303.09;-4;-19.36;-5.06;71.3;19.50;77318;2836.799;-1758.025;1;313;-100;-91.9;42.9;43.0;11;10.8;28.6;0.0;
14/02/2025 16:09:34;100;0;303.60;-4;-19.37;-6.32;73.9;19.50;77327;2836.801;-1758.029;1;313;-100;-91.9;42.9;43.2;11;11.3;28.6;0.0;
14/02/2025 16:09:54;100;0;305.47;-4;-19.33;-6.37;76.5;19.50;77331;2836.803;-1758.032;1;313;-100;-91.9;42.9;43.2;11;10.8;28.6;0.0;
14/02/2025 16:10:14;100;0;307.48;-4;-19.12;-6.32;79.1;19.50;77340;2836.805;-1758.035;1;313;-100;-93.5;42.9;43.0;11;10.8;28.6;0.0;
14/02/2025 16:10:34;100;0;308.65;-4;-19.33;-6.32;81.7;19.50;77324;2836.808;-1758.038;1;313;-100;-93.5;42.9;43.2;13;13.1;28.6;0.0;
14/02/2025 16:10:54;100;0;309.45;-4;-19.15;-5.14;84.3;19.50;77334;2836.810;-1758.041;1;313;-100;-93.5;42.9;43.2;13;13.5;28.6;0.0;
14/02/2025 16:11:14;100;0;307.93;-4;-19.39;-5.16;86.9;19.50;77337;2836.812;-1758.044;1;313;-100;-95.2;42.9;43.0;13;13.5;28.6;0.0;
14/02/2025 16:11:34;100;0;307.48;-4;-19.26;-5.19;89.4;19.50;77332;2836.814;-1758.047;1;313;-100;-93.5;42.9;43.2;13;13.5;28.6;0.0;
14/02/2025 16:11:54;100;0;306.42;-4;-19.26;-5.20;91.9;19.50;77345;2836.817;-1758.050;1;313;-100;-93.5;42.9;43.2;13;13.1;28.6;0.0;
14/02/2025 16:12:14;100;0;306.84;-4;-19.37;-5.18;94.5;19.50;77342;2836.819;-1758.053;1;313;-100;-93.5;42.9;43.2;13;13.5;28.6;0.0;
14/02/2025 16:12:34;100;0;305.75;-4;-19.32;-5.12;97.0;19.50;77354;2836.821;-1758.056;1;313;-100;-93.5;42.9;43.2;13;13.5;28.6;0.0;
14/02/2025 16:12:54;100;0;305.75;-4;-19.29;-5.15;99.6;19.50;77357;2836.823;-1758.060;1;313;-100;-93.5;42.9;43.0;13;13.1;28.6;0.0;
14/02/2025 16:13:14;100;0;306.02;-4;-19.43;-5.16;102.0;19.50;77343;2836.825;-1758.063;1;313;-100;-91.9;42.9;43.2;13;13.5;28.6;0.0;
14/02/2025 16:13:34;100;0;306.15;-4;-19.27;-5.11;104.5;19.50;77342;2836.827;-1758.066;1;313;-100;-93.5;42.9;43.2;13;13.5;28.6;0.0;
14/02/2025 16:13:54;100;0;306.86;-4;-19.35;-5.13;107.0;19.50;77345;2836.829;-1758.069;1;313;-100;-93.5;42.9;43.2;13;13.5;28.6;0.0;
14/02/2025 16:14:14;100;0;307.89;-4;-19.20;-5.15;109.5;19.50;77354;2836.831;-1758.072;1;313;-100;-93.5;42.9;43.0;13;13.5;28.6;0.0;
14/02/2025 16:14:34;100;0;311.40;-4;-19.11;-5.19;112.0;19.50;77357;2836.834;-1758.074;1;313;-100;-93.5;42.9;43.2;13;13.5;28.6;0.0;
14/02/2025 16:14:54;100;0;315.35;-4;-18.70;-5.18;114.3;19.50;77340;2836.836;-1758.077;1;313;-100;-93.5;43.3;43.4;13;13.5;28.6;0.0;
14/02/2025 16:15:14;100;0;310.76;-4;-20.43;-5.23;116.7;19.50;77315;2836.838;-1758.080;1;313;-100;-93.5;43.3;43.7;13;13.5;28.6;0.0;
14/02/2025 16:15:34;100;0;303.76;-4;-19.95;-4.89;119.2;19.50;77286;2836.840;-1758.083;1;313;-100;-96.8;43.3;43.7;11;10.8;28.6;0.0;
14/02/2025 16:15:54;100;0;301.03;-4;-20.16;-6.52;121.7;19.50;77266;2836.842;-1758.086;1;313;-100;-91.9;43.3;43.7;9;9.0;28.6;0.0;
14/02/2025 16:16:14;100;0;302.53;-4;-20.06;-7.61;124.3;19.50;77255;2836.844;-1758.089;1;313;-100;-91.9;43.3;43.7;11;10.8;28.6;0.0;
14/02/2025 16:16:34;100;0;307.26;-4;-20.13;-6.17;126.9;19.40;77242;2836.846;-1758.092;1;313;-100;-93.5;43.3;43.7;11;11.7;28.6;0.0;
14/02/2025 16:16:54;100;0;309.78;-4;-20.27;-6.08;129.5;19.40;77238;2836.848;-1758.095;1;313;-100;-91.9;43.3;43.7;11;11.3;28.6;0.0;
14/02/2025 16:17:14;100;0;312.05;-4;-20.31;-6.08;132.4;19.40;77223;2836.851;-1758.098;1;313;-100;-91.9;43.3;43.7;11;11.3;28.6;0.0;
14/02/2025 16:17:34;100;0;312.34;-4;-20.12;-6.19;135.0;19.40;77234;2836.853;-1758.101;1;313;-100;-93.5;43.3;43.7;11;11.3;28.6;0.0;
14/02/2025 16:17:54;100;0;313.72;-4;-20.52;-6.22;137.9;19.40;77232;2836.856;-1758.104;1;313;-100;-93.5;43.3;43.7;13;13.1;28.6;0.0;
14/02/2025 16:18:14;100;0;314.03;-4;-20.31;-5.08;140.9;19.40;77232;2836.859;-1758.107;1;313;-100;-93.5;43.3;43.7;13;13.5;28.6;0.0;
14/02/2025 16:18:34;100;0;312.51;-4;-21.24;-4.98;143.8;19.30;77219;2836.861;-1758.110;1;313;-100;-91.9;43.3;43.7;13;13.5;28.6;0.0;
14/02/2025 16:18:54;100;0;309.98;-4;-21.08;-4.93;147.0;19.30;77201;2836.864;-1758.114;1;313;-100;-93.5;43.3;43.7;13;13.5;28.6;0.0;
14/02/2025 16:19:14;100;0;307.26;-4;-21.27;-4.92;150.0;19.30;77167;2836.866;-1758.117;1;313;-100;-93.5;43.3;43.7;13;13.5;28.6;0.0;
14/02/2025 16:19:34;100;0;307.34;-4;-21.06;-4.97;153.2;19.30;77129;2836.869;-1758.121;1;313;-100;-93.5;43.3;43.7;13;13.5;28.6;0.0;
14/02/2025 16:19:54;100;0;309.29;-4;-20.84;-4.98;156.2;19.20;77114;2836.871;-1758.124;1;314;-100;-93.5;43.3;43.7;13;13.5;28.6;0.0;
14/02/2025 16:20:14;100;0;311.21;-4;-20.87;-5.04;159.1;19.20;77106;2836.874;-1758.127;1;314;-100;-91.9;43.3;43.7;13;13.5;28.6;0.0;
14/02/2025 16:20:34;100;0;307.70;-4;-19.82;-5.05;162.0;19.10;77069;2836.876;-1758.130;1;314;-100;-91.9;43.3;43.7;13;13.5;28.6;0.0;
14/02/2025 16:20:54;100;0;310.43;-4;-19.65;-5.05;164.6;19.10;77054;2836.878;-1758.133;1;314;-100;-91.9;43.3;43.7;13;13.5;28.6;0.0;
14/02/2025 16:21:14;100;0;313.94;-4;-19.60;-5.07;167.1;19.10;77041;2836.881;-1758.136;1;314;-100;-93.5;43.3;43.7;13;13.5;28.6;0.0;
14/02/2025 16:21:34;100;0;315.86;-4;-19.32;-5.11;169.5;19.00;77029;2836.883;-1758.138;1;314;-100;-95.2;43.3;43.9;13;13.5;28.6;0.0;
14/02/2025 16:21:54;100;0;316.16;-4;-20.05;-5.09;172.0;19.00;77002;2836.886;-1758.141;1;314;-100;-91.9;43.3;43.7;13;13.5;28.6;0.0;
14/02/2025 16:22:14;100;0;312.11;-4;-19.86;-5.10;174.6;18.90;76984;2836.888;-1758.144;1;314;-100;-91.9;43.3;43.7;13;13.5;28.6;0.0;
14/02/2025 16:22:34;100;0;312.92;-4;-19.90;-5.07;177.1;18.90;76963;2836.890;-1758.146;1;313;-100;-91.9;43.3;43.7;13;13.5;28.6;0.0;
14/02/2025 16:22:54;100;0;313.21;-4;-20.13;-5.02;179.8;18.90;76951;2836.893;-1758.149;1;313;-100;-93.5;43.3;43.7;13;13.5;28.6;0.0;
14/02/2025 16:23:14;100;0;311.66;-4;-20.03;-5.05;182.6;18.80;76938;2836.895;-1758.152;1;313;-100;-93.5;43.3;43.7;13;13.5;28.6;0.0;
14/02/2025 16:23:34;100;0;308.35;-4;-19.85;-5.09;185.3;18.80;76907;2836.898;-1758.155;1;314;-100;-93.5;43.3;43.7;13;13.5;28.6;0.0;
14/02/2025 16:23:54;100;0;307.94;-4;-19.63;-5.03;187.8;18.70;76904;2836.900;-1758.158;1;314;-100;-91.9;43.3;43.7;13;13.5;28.6;0.0;
14/02/2025 16:24:14;100;0;307.39;-4;-19.64;-5.09;190.5;18.70;76892;2836.902;-1758.162;1;314;-100;-91.9;43.3;43.7;13;13.5;28.6;0.0;
14/02/2025 16:24:34;100;0;308.46;-4;-19.71;-5.10;193.2;18.60;76892;2836.904;-1758.165;1;314;-100;-93.5;43.3;43.7;13;13.5;28.6;0.0;
14/02/2025 16:24:54;100;0;309.14;-4;-19.70;-5.13;195.9;18.60;76868;2836.907;-1758.168;1;314;-100;-93.5;43.3;43.7;13;13.5;28.6;0.0;
14/02/2025 16:25:14;100;0;307.73;-4;-19.70;-5.09;198.6;18.50;76857;2836.909;-1758.171;1;314;-100;-91.9;43.3;43.7;13;13.5;28.6;0.0;
14/02/2025 16:25:34;100;0;306.28;-4;-19.74;-5.09;201.3;18.50;76842;2836.911;-1758.174;1;314;-100;-93.5;43.3;43.7;11;10.8;28.6;0.0;
14/02/2025 16:25:54;100;0;306.06;-4;-19.65;-6.65;204.0;18.40;76847;2836.913;-1758.177;1;314;-100;-91.9;43.3;43.7;11;10.4;28.6;0.0;
14/02/2025 16:26:14;100;0;306.98;-4;-19.79;-6.66;206.8;18.40;76829;2836.915;-1758.180;1;314;-100;-93.5;43.3;43.7;11;10.4;28.6;0.0;
14/02/2025 16:26:34;100;0;308.83;-4;-19.51;-6.66;209.6;18.30;76823;2836.918;-1758.184;1;314;-100;-93.5;43.3;43.7;11;10.4;28.6;0.0;
14/02/2025 16:26:54;100;0;308.95;-4;-19.47;-6.68;212.3;18.30;76811;2836.920;-1758.187;1;314;-100;-93.5;43.3;43.7;11;10.4;28.6;0.0;
14/02/2025 16:27:14;100;0;313.76;-4;-19.50;-6.68;214.9;18.30;76791;2836.923;-1758.190;1;314;-100;-91.9;43.3;43.7;11;10.4;28.6;0.0;
14/02/2025 16:27:34;100;0;318.65;-4;-19.48;-6.69;217.7;18.20;76779;2836.926;-1758.193;1;314;-100;-91.9;43.3;43.7;13;13.1;28.6;0.0;
14/02/2025 16:27:54;100;0;321.38;-4;-19.60;-5.18;220.5;18.20;76769;2836.929;-1758.195;1;314;-100;-93.5;43.3;43.7;13;13.1;28.6;0.0;
14/02/2025 16:28:14;100;0;323.32;-4;-19.31;-5.21;223.4;18.10;76749;2836.932;-1758.198;1;314;-100;-91.9;43.3;43.7;16;15.8;28.6;0.0;
14/02/2025 16:28:34;100;0;323.08;-4;-19.48;-3.65;226.2;18.10;76741;2836.935;-1758.200;1;314;-100;-91.9;43.3;43.7;16;16.2;28.6;0.0;
14/02/2025 16:28:54;100;0;323.52;-4;-20.17;-3.71;229.1;18.00;76741;2836.938;-1758.203;1;313;-100;-93.5;43.3;43.7;16;16.2;28.6;0.0;
14/02/2025 16:29:14;100;0;323.41;-4;-19.76;-3.76;232.1;18.00;76736;2836.941;-1758.205;1;313;-100;-93.5;43.3;43.7;16;16.2;28.6;0.0;
14/02/2025 16:29:34;100;0;321.58;-4;-19.34;-3.80;235.0;17.90;76721;2836.944;-1758.208;1;313;-100;-93.5;43.3;43.7;16;16.2;28.6;0.0;
14/02/2025 16:29:54;100;0;320.97;-4;-19.91;-3.88;238.0;17.90;76709;2836.948;-1758.211;1;313;-100;-93.5;43.3;43.7;16;16.2;28.6;0.0;
14/02/2025 16:30:14;100;0;323.02;-4;-19.69;-3.88;241.1;17.80;76711;2836.951;-1758.214;1;312;-100;-91.9;43.3;43.7;18;18.1;28.6;0.0;
14/02/2025 16:30:34;100;0;323.28;-4;-19.89;-2.59;244.2;17.80;76710;2836.954;-1758.216;1;312;-100;-93.5;43.3;43.7;18;18.5;28.6;0.0;
14/02/2025 16:30:54;100;0;322.50;-4;-19.98;-2.43;247.4;17.80;76697;2836.958;-1758.219;1;312;-100;-93.5;43.3;43.7;18;18.5;28.6;0.0;
14/02/2025 16:31:14;100;0;318.68;-4;-19.58;-2.69;250.4;17.70;76679;2836.961;-1758.222;1;312;-100;-93.5;43.3;43.7;14;14.0;28.6;0.0;
14/02/2025 16:31:34;100;0;317.02;-4;-19.62;-5.03;253.3;17.70;76674;2836.963;-1758.225;1;312;-100;-91.9;43.3;43.7;14;14.0;28.6;0.0;
14/02/2025 16:31:54;100;0;318.40;-4;-19.20;-5.05;256.4;17.60;76670;2836.967;-1758.228;1;311;-100;-93.5;43.3;43.7;14;14.0;28.6;0.0;
14/02/2025 16:32:14;100;0;320.39;-4;-19.11;-5.09;259.2;17.60;76650;2836.970;-1758.231;1;311;-100;-91.9;43.3;43.7;16;15.8;28.6;0.0;
14/02/2025 16:32:34;100;0;320.66;-4;-19.75;-3.87;262.1;17.50;76641;2836.973;-1758.234;1;311;-100;-93.5;43.3;43.7;16;15.8;28.6;0.0;
14/02/2025 16:32:54;100;0;319.54;-4;-19.90;-3.84;265.0;17.50;76629;2836.976;-1758.236;1;311;-100;-91.9;43.3;43.7;16;16.2;28.6;0.0;
14/02/2025 16:33:14;100;0;318.35;-4;-19.67;-3.86;268.0;17.40;76627;2836.979;-1758.239;1;310;-100;-93.5;43.3;43.7;16;15.8;28.6;0.0;
14/02/2025 16:33:34;100;0;317.03;-4;-19.76;-3.92;270.8;17.40;76617;2836.981;-1758.242;1;310;-100;-93.5;43.3;43.7;16;16.2;28.6;0.0;
14/02/2025 16:33:54;100;0;316.44;-4;-19.83;-3.82;273.7;17.30;76606;2836.984;-1758.245;1;310;-100;-96.8;43.3;43.7;14;12.6;28.6;0.0;
14/02/2025 16:34:14;100;0;317.67;-4;-19.62;-5.09;276.5;17.30;76602;2836.987;-1758.248;1;310;-100;-93.5;43.3;43.7;16;15.8;28.6;0.0;
14/02/2025 16:34:34;100;0;319.18;-4;-19.69;-3.57;279.3;17.20;76593;2836.990;-1758.250;1;309;-100;-91.9;43.3;43.7;18;18.1;28.6;0.0;
14/02/2025 16:34:54;100;0;321.96;-4;-19.34;-2.51;282.2;17.20;76587;2836.993;-1758.253;1;309;-100;-95.2;43.3;43.7;20;19.9;28.6;0.0;
14/02/2025 16:35:14;100;0;322.06;-4;-20.30;-1.60;285.0;17.20;76575;2836.996;-1758.256;1;309;-100;-93.5;43.3;43.7;22;22.1;28.6;0.0;
14/02/2025 16:35:34;100;0;322.76;-4;-20.47;-0.74;287.7;17.10;76573;2836.999;-1758.258;1;308;-100;-93.5;43.3;43.7;25;24.8;28.6;0.0;
14/02/2025 16:35:54;100;0;320.10;-4;-19.97;0.68;290.7;17.10;76568;2837.002;-1758.261;1;308;-100;-93.5;43.3;43.7;19;18.5;28.6;0.0;
14/02/2025 16:36:15;100;0;317.15;-4;-19.90;-2.12;293.5;17.10;76552;2837.005;-1758.264;1;307;-100;-93.5;43.3;43.7;19;19.4;28.6;0.0;
14/02/2025 16:36:35;100;0;317.94;-4;-19.81;-2.20;296.2;17.00;76538;2837.007;-1758.266;1;307;-100;-93.5;43.3;43.7;19;19.4;28.6;0.0;
14/02/2025 16:36:55;100;0;314.22;-4;-19.16;-2.25;298.9;16.90;76526;2837.010;-1758.269;1;307;-100;-93.5;43.3;43.9;16;15.8;28.6;0.0;
14/02/2025 16:37:15;100;0;311.17;-4;-19.29;-4.27;301.4;16.90;76522;2837.012;-1758.272;1;307;-100;-91.9;43.3;43.7;14;14.0;28.6;0.0;
14/02/2025 16:37:35;100;0;309.93;-4;-18.89;-5.01;303.9;16.90;76507;2837.015;-1758.275;1;306;-100;-91.9;43.6;43.6;14;13.5;28.6;0.0;
14/02/2025 16:37:55;100;0;308.22;-4;-18.95;-4.90;306.4;16.80;76505;2837.017;-1758.278;1;306;-100;-93.5;43.9;43.9;14;13.5;28.5;0.0;
14/02/2025 16:38:15;100;0;308.10;-4;-19.98;-5.02;308.9;16.80;76496;2837.019;-1758.281;1;306;-100;-91.9;43.9;44.2;14;14.0;28.6;0.0;
14/02/2025 16:38:35;100;0;307.94;-4;-20.12;-5.22;311.4;16.80;76495;2837.021;-1758.284;1;306;-100;-91.9;43.9;44.2;14;14.0;28.6;0.0;
14/02/2025 16:38:55;100;0;307.04;-4;-20.22;-5.10;314.0;16.70;76485;2837.023;-1758.287;1;306;-100;-93.5;43.9;44.2;14;14.0;28.6;0.0;
14/02/2025 16:39:15;100;0;308.42;-4;-20.16;-5.04;316.5;16.70;76487;2837.025;-1758.290;1;306;-100;-93.5;43.9;44.2;14;14.0;28.6;0.0;
14/02/2025 16:39:35;100;0;310.82;-4;-20.22;-5.11;319.0;16.60;76468;2837.028;-1758.293;1;305;-100;-93.5;43.9;44.2;14;14.0;28.6;0.0;
14/02/2025 16:39:55;100;0;311.16;-4;-20.56;-5.13;321.6;16.60;76460;2837.030;-1758.295;1;305;-100;-93.5;43.9;44.2;14;14.0;28.6;0.0;
14/02/2025 16:40:15;100;0;310.47;-4;-20.91;-5.19;324.0;16.60;76446;2837.032;-1758.298;1;305;-100;-93.5;43.9;44.3;14;13.5;28.6;0.0;
14/02/2025 16:40:35;100;0;310.35;-4;-19.93;-5.02;326.7;16.50;76439;2837.034;-1758.301;1;304;-100;-91.9;43.9;44.2;14;14.0;28.6;0.0;
14/02/2025 16:40:55;100;0;310.78;-4;-20.74;-5.04;329.2;16.50;76430;2837.036;-1758.304;1;304;-100;-93.5;43.9;44.2;16;16.2;28.6;0.0;
14/02/2025 16:41:15;100;0;311.53;-4;-20.84;-3.66;331.7;16.40;76426;2837.038;-1758.306;1;304;-100;-91.9;43.9;44.2;16;16.2;28.6;0.0;
14/02/2025 16:41:35;100;0;312.41;-4;-21.13;-3.46;334.1;16.40;76427;2837.041;-1758.309;1;303;-100;-95.2;43.9;44.2;18;18.1;28.6;0.0;
14/02/2025 16:41:55;100;0;312.94;-4;-20.80;-2.53;336.6;16.40;76413;2837.043;-1758.311;1;302;-100;-91.9;43.9;44.2;20;20.3;28.6;0.0;
14/02/2025 16:42:15;100;0;312.53;-4;-20.86;-1.27;339.1;16.30;76406;2837.045;-1758.314;1;302;-100;-93.5;43.9;44.2;20;21.2;28.6;0.0;
14/02/2025 16:42:35;100;0;312.93;-4;-21.10;-1.38;341.7;16.30;76403;2837.047;-1758.317;1;301;-100;-91.9;43.9;44.2;20;20.8;28.6;0.0;
14/02/2025 16:42:55;100;0;311.48;-4;-21.00;-1.31;344.1;16.20;76381;2837.050;-1758.319;1;300;-100;-93.5;43.9;44.3;20;21.2;28.6;0.0;
14/02/2025 16:43:15;100;0;310.82;-4;-21.02;-1.37;346.6;16.20;76398;2837.052;-1758.322;1;299;-100;-93.5;43.9;44.2;20;20.8;28.6;0.0;
14/02/2025 16:43:35;100;0;308.43;-4;-21.00;-1.25;349.1;16.20;76383;2837.054;-1758.325;1;299;-100;-93.5;43.9;44.2;18;18.1;28.6;0.0;
14/02/2025 16:43:55;100;0;304.35;-4;-21.03;-3.19;351.5;16.10;76375;2837.056;-1758.327;1;298;-100;-91.9;43.9;44.2;16;15.8;28.6;0.0;
14/02/2025 16:44:15;100;0;307.77;-4;-20.28;-4.38;354.0;16.10;76378;2837.058;-1758.330;1;297;-100;-93.5;43.9;44.2;20;19.9;28.6;0.0;
14/02/2025 16:44:35;100;0;307.76;-4;-20.32;-1.53;356.3;16.10;76363;2837.060;-1758.333;1;296;-100;-93.5;43.9;44.2;20;20.8;28.6;0.0;
14/02/2025 16:44:55;100;0;306.47;-4;-20.25;-1.87;358.4;16.00;76352;2837.061;-1758.336;1;295;-100;-93.5;43.9;44.2;20;20.3;28.6;0.0;
14/02/2025 16:45:15;100;0;302.83;-4;-20.31;-1.65;360.7;16.00;76358;2837.063;-1758.338;1;294;-100;-91.9;43.9;44.2;18;17.6;28.6;0.0;
14/02/2025 16:45:35;100;0;300.01;-4;-20.38;-3.29;363.0;16.00;76352;2837.065;-1758.341;1;293;-100;-91.9;43.9;44.2;16;15.8;28.6;0.0;
14/02/2025 16:45:55;100;0;298.87;-4;-19.96;-4.30;365.2;15.90;76331;2837.066;-1758.344;1;291;-100;-93.5;43.9;44.2;16;15.3;28.6;0.0;
14/02/2025 16:46:15;100;0;297.93;-4;-19.45;-4.41;367.6;15.90;76333;2837.068;-1758.347;1;290;-100;-93.5;43.9;44.2;16;15.3;28.6;0.0;
14/02/2025 16:46:35;100;0;296.34;-4;-20.51;-4.18;370.0;15.90;76320;2837.069;-1758.350;1;288;-100;-93.5;43.9;44.2;18;18.1;28.6;0.0;
14/02/2025 16:46:55;100;0;294.02;-4;-20.27;-2.70;372.5;15.80;76317;2837.071;-1758.354;1;286;-100;-91.9;43.9;44.3;18;18.5;28.6;0.0;
14/02/2025 16:47:15;100;0;292.12;-4;-20.18;-2.69;375.0;15.80;76321;2837.072;-1758.357;1;283;-100;-93.5;43.9;44.2;18;18.5;28.6;0.0;
14/02/2025 16:47:35;100;0;290.71;-4;-20.11;-2.81;377.5;15.80;76314;2837.073;-1758.361;1;277;-100;-91.9;43.9;44.2;24;23.9;28.6;0.0;
14/02/2025 16:47:55;100;0;288.60;-4;-20.55;0.13;380.1;15.70;76313;2837.074;-1758.364;1;262;-100;-91.9;43.9;44.2;46;46.0;28.6;0.0;
14/02/2025 16:48:15;100;0;281.75;-4;-21.35;11.17;382.7;15.70;76303;2837.075;-1758.368;1;156;-100;-91.9;43.9;44.2;70;69.9;28.6;0.0;
14/02/2025 16:48:35;100;0;272.22;-4;-22.94;23.12;385.4;15.60;76297;2837.075;-1758.371;1;112;-100;-93.5;43.1;43.0;70;69.9;28.6;0.0;
14/02/2025 16:48:55;100;0;258.55;-4;-20.13;22.94;388.4;15.60;76287;2837.075;-1758.375;1;96;-100;-93.5;43.1;42.7;70;69.9;28.6;0.0;
14/02/2025 16:49:15;100;0;240.84;-4;-19.25;23.05;391.0;15.60;76278;2837.073;-1758.379;1;86;-100;-91.9;43.1;42.7;70;70.4;28.6;0.0;
14/02/2025 16:49:35;100;0;226.70;-4;-19.50;22.94;393.5;15.50;76260;2837.071;-1758.381;1;78;-100;-93.5;43.1;42.7;70;69.9;28.6;0.0;
14/02/2025 16:49:55;100;0;213.46;-4;-19.20;22.83;396.1;15.50;76256;2837.068;-1758.384;1;69;-100;-93.5;43.1;42.7;70;69.9;28.6;0.0;
14/02/2025 16:50:15;100;0;200.28;-4;-19.34;23.17;398.7;15.50;76243;2837.065;-1758.385;1;61;-100;-91.9;43.1;42.9;70;69.9;28.6;0.0;
14/02/2025 16:50:35;100;0;187.17;-4;-19.28;23.04;401.2;15.40;76237;2837.062;-1758.386;1;54;-100;-93.5;43.1;42.7;70;69.9;28.6;0.0;
14/02/2025 16:50:55;100;0;174.01;-4;-19.41;23.04;403.8;15.40;76218;2837.059;-1758.385;1;46;-100;-91.9;43.1;42.7;70;70.4;28.6;0.0;
14/02/2025 16:51:15;100;0;160.11;-4;-19.31;22.82;406.4;15.30;76217;2837.056;-1758.384;1;39;-100;-91.9;43.1;42.7;70;69.9;28.6;0.0;
14/02/2025 16:51:35;100;0;147.11;-4;-19.41;22.99;409.1;15.30;76204;2837.053;-1758.382;1;31;-100;-93.5;43.1;42.7;70;69.9;28.6;0.0;
14/02/2025 16:51:55;100;0;135.44;-4;-19.52;22.73;411.7;15.30;76216;2837.051;-1758.379;1;24;-100;-91.9;43.1;42.7;70;69.9;28.6;0.0;
14/02/2025 16:52:15;100;0;123.64;-4;-19.50;23.01;414.5;15.20;76203;2837.049;-1758.376;1;17;-100;-93.5;43.1;42.9;70;69.9;28.6;0.0;
14/02/2025 16:52:35;100;0;112.96;-4;-19.30;22.92;417.2;15.20;76191;2837.047;-1758.372;1;9;-100;-91.9;43.1;42.7;70;69.9;28.6;0.0;
14/02/2025 16:52:55;100;0;102.25;-4;-19.53;22.96;419.9;15.20;76191;2837.047;-1758.368;1;2;-100;-93.5;43.1;42.7;70;69.9;28.6;0.0;
14/02/2025 16:53:15;100;0;92.93;-4;-19.51;22.89;422.7;15.10;76178;2837.047;-1758.364;1;354;-100;-91.9;43.1;42.7;70;69.9;28.6;0.0;
14/02/2025 16:53:35;100;0;84.88;-4;-19.91;22.93;425.4;15.10;76187;2837.047;-1758.360;1;347;-100;-91.9;43.1;42.7;70;69.9;28.6;0.0;
14/02/2025 16:53:55;100;0;76.10;-4;-19.83;22.98;428.3;15.10;76170;2837.048;-1758.356;1;339;-100;-91.9;43.1;42.7;70;69.9;28.6;0.0;
14/02/2025 16:54:15;100;0;65.07;-4;-19.59;22.99;431.1;15.00;76170;2837.050;-1758.352;1;332;-100;-93.5;43.1;42.7;70;69.9;28.6;0.0;
14/02/2025 16:54:35;100;0;53.75;-4;-19.35;22.98;434.1;15.00;76158;2837.052;-1758.349;1;323;-100;-93.5;43.1;42.7;70;69.9;28.6;0.0;
14/02/2025 16:54:55;100;0;40.09;-4;-19.29;23.20;437.2;15.00;76150;2837.056;-1758.346;1;314;-100;-93.5;43.1;42.9;70;69.9;28.6;0.0;
14/02/2025 16:55:15;100;0;27.69;-4;-19.25;22.92;440.3;14.90;76140;2837.059;-1758.343;1;305;-100;-93.5;43.1;42.7;70;70.4;28.6;0.0;
14/02/2025 16:55:35;100;0;15.94;-4;-18.95;22.90;443.4;14.90;76131;2837.064;-1758.342;1;295;-100;-93.5;43.4;43.3;70;70.4;28.6;0.0;
14/02/2025 16:55:55;100;0;4.43;-4;-19.90;22.83;446.5;14.90;76138;2837.068;-1758.342;1;286;-100;-91.9;43.4;43.4;70;69.9;28.6;0.0;
14/02/2025 16:56:15;100;0;354.13;-4;-19.94;22.73;449.6;14.80;76125;2837.072;-1758.342;1;276;-100;-91.9;43.4;43.4;70;69.9;28.6;0.0;
14/02/2025 16:56:35;100;0;343.51;-4;-20.23;23.07;452.8;14.80;76133;2837.076;-1758.344;1;265;-100;-93.5;43.4;43.4;70;70.4;28.6;0.0;
14/02/2025 16:56:55;100;0;331.39;-4;-19.91;22.99;455.9;14.80;76120;2837.079;-1758.346;1;254;-100;-90.3;43.4;43.4;70;69.9;28.6;0.0;
14/02/2025 16:57:15;100;0;318.45;-4;-19.78;23.05;459.1;14.80;76119;2837.083;-1758.349;1;242;-100;-93.5;43.4;43.4;70;69.9;28.6;0.0;
14/02/2025 16:57:35;100;0;306.24;-4;-19.96;22.91;462.1;14.70;76112;2837.085;-1758.352;1;229;-100;-91.9;43.4;43.4;70;69.9;28.6;0.0;
14/02/2025 16:57:55;100;0;297.24;-4;-20.33;23.08;465.2;14.70;76109;2837.087;-1758.356;1;216;-100;-93.5;43.4;43.4;70;69.9;28.6;0.0;
14/02/2025 16:58:15;100;0;285.01;-4;-20.36;23.21;468.2;14.70;76117;2837.088;-1758.361;1;201;-100;-93.5;43.4;43.4;70;69.9;28.6;0.0;
14/02/2025 16:58:35;100;0;272.63;-4;-20.14;23.12;471.4;14.60;76104;2837.088;-1758.365;1;186;-100;-91.9;43.4;43.4;70;69.9;28.6;0.0;
14/02/2025 16:58:55;100;0;258.57;-4;-20.12;23.02;474.5;14.60;76102;2837.088;-1758.370;1;170;-100;-93.5;43.4;43.4;70;70.4;28.6;0.0;
14/02/2025 16:59:15;100;0;243.76;-4;-19.92;23.34;477.7;14.60;76088;2837.086;-1758.374;1;153;-100;-93.5;43.4;43.6;70;69.9;28.6;0.0;
14/02/2025 16:59:35;100;0;229.77;-4;-20.02;23.04;480.7;14.60;76081;2837.084;-1758.377;1;137;-100;-93.5;43.4;43.4;70;70.4;28.6;0.0;
14/02/2025 16:59:55;100;0;214.95;-4;-19.90;23.10;483.9;14.50;76083;2837.081;-1758.380;1;119;-100;-91.9;43.4;43.4;70;69.9;28.6;0.0;
14/02/2025 17:00:15;100;0;202.24;-4;-20.15;23.21;487.0;14.50;76081;2837.077;-1758.382;1;103;-100;-93.5;43.4;43.4;70;69.9;28.6;0.0;
14/02/2025 17:00:35;100;0;189.56;-4;-19.97;23.06;490.2;14.50;76073;2837.073;-1758.383;1;86;-100;-93.5;43.4;43.4;70;69.9;28.6;0.0;
14/02/2025 17:00:55;100;0;176.77;-4;-20.00;23.11;493.2;14.50;76078;2837.069;-1758.382;1;71;-100;-95.2;43.4;43.4;70;69.9;28.6;0.0;
14/02/2025 17:01:15;100;0;164.44;-4;-20.26;23.17;496.2;14.40;76063;2837.066;-1758.381;1;57;-100;-91.9;43.4;43.4;70;69.9;28.6;0.0;
14/02/2025 17:01:35;100;0;152.39;-4;-20.61;23.22;499.3;14.40;76055;2837.063;-1758.379;1;43;-100;-93.5;43.4;43.4;70;69.9;28.6;0.0;
14/02/2025 17:01:55;100;0;140.09;-4;-20.54;23.17;502.5;14.40;76060;2837.060;-1758.376;1;30;-100;-91.9;43.4;43.4;70;69.9;28.6;0.0;
14/02/2025 17:02:15;100;0;128.29;-4;-20.77;23.27;505.6;14.40;76058;2837.057;-1758.373;1;18;-100;-93.5;43.4;43.6;70;70.4;28.6;0.0;
14/02/2025 17:02:35;100;0;116.24;-4;-20.21;23.12;508.9;14.30;76051;2837.056;-1758.369;1;4;-100;-91.9;43.4;43.4;70;69.9;28.6;0.0;
14/02/2025 17:02:55;100;0;104.05;-4;-20.16;23.23;512.1;14.30;76040;2837.055;-1758.364;1;353;-100;-91.9;43.4;43.4;70;69.9;28.6;0.0;
14/02/2025 17:03:15;100;0;91.81;-4;-20.00;23.24;515.2;14.30;76032;2837.055;-1758.360;1;341;-100;-93.5;43.4;43.4;70;69.9;28.6;0.0;
14/02/2025 17:03:35;100;0;78.99;-4;-19.87;23.30;518.3;14.30;76032;2837.056;-1758.355;1;330;-100;-93.5;43.4;43.4;70;69.9;28.6;0.0;
14/02/2025 17:03:55;100;0;69.09;-4;-20.01;22.97;521.4;14.20;76008;2837.057;-1758.351;1;320;-100;-91.9;43.4;43.4;70;70.4;28.6;0.0;
14/02/2025 17:04:15;100;0;61.36;-4;-20.38;23.19;524.4;14.20;76010;2837.059;-1758.347;1;310;-100;-93.5;43.4;43.4;70;69.9;28.6;0.0;
14/02/2025 17:04:35;100;0;52.45;-4;-20.28;23.12;527.4;14.20;75985;2837.062;-1758.344;1;301;-100;-93.5;43.4;43.6;70;69.9;28.6;0.0;
14/02/2025 17:04:55;100;0;40.25;-4;-19.57;23.03;530.3;14.10;75984;2837.065;-1758.341;1;292;-100;-91.9;43.4;43.6;70;69.9;28.6;0.0;
14/02/2025 17:05:15;100;0;27.86;-4;-19.26;22.98;533.1;14.10;75977;2837.068;-1758.339;1;284;-100;-91.9;43.4;43.4;70;70.4;28.6;0.0;
14/02/2025 17:05:35;100;0;16.74;-4;-19.48;22.94;535.6;14.10;75969;2837.072;-1758.338;1;276;-100;-93.5;43.4;43.4;70;69.9;28.6;0.0;
14/02/2025 17:05:55;100;0;8.26;-4;-20.07;22.99;538.3;14.10;75973;2837.075;-1758.337;1;268;-100;-91.9;43.4;43.4;70;69.9;28.6;0.0;
14/02/2025 17:06:15;100;0;359.93;-4;-20.65;23.19;541.1;14.00;75964;2837.079;-1758.337;1;260;-100;-91.9;43.4;43.4;70;69.9;28.6;0.0;
14/02/2025 17:06:35;100;0;348.65;-4;-20.17;23.06;543.9;14.00;75952;2837.082;-1758.338;1;252;-100;-91.9;43.4;43.4;70;69.9;28.6;0.0;
14/02/2025 17:06:55;100;0;337.66;-4;-20.06;23.24;546.8;14.00;75944;2837.086;-1758.340;1;244;-100;-93.5;43.4;43.4;70;69.9;28.6;0.0;
14/02/2025 17:07:15;100;0;325.58;-4;-20.04;23.06;549.6;13.90;75946;2837.089;-1758.342;1;236;-100;-91.9;43.4;43.6;70;69.9;28.6;0.0;
14/02/2025 17:07:35;100;0;313.37;-4;-19.83;22.98;552.4;13.90;75944;2837.092;-1758.345;1;228;-100;-93.5;43.4;43.4;70;69.9;28.6;0.0;
14/02/2025 17:07:55;100;0;300.30;-4;-19.74;23.01;555.2;13.90;75937;2837.093;-1758.349;1;220;-100;-91.9;43.4;43.6;70;70.4;28.6;0.0;
14/02/2025 17:08:15;100;0;286.82;-4;-19.40;23.13;558.0;13.80;75920;2837.095;-1758.353;1;211;-100;-93.5;43.4;43.4;70;70.4;28.6;0.0;
14/02/2025 17:08:35;100;0;273.10;-4;-19.32;22.90;560.7;13.80;75917;2837.095;-1758.357;1;203;-100;-91.9;43.4;43.4;70;69.9;28.6;0.0;
14/02/2025 17:08:55;100;0;261.18;-4;-19.63;22.81;563.4;13.80;75919;2837.095;-1758.361;1;195;-100;-91.9;43.4;43.4;70;70.4;28.6;0.0;
14/02/2025 17:09:15;100;0;250.24;-4;-19.78;23.24;566.1;13.80;75924;2837.094;-1758.364;1;187;-100;-91.9;43.4;43.6;70;69.9;28.6;0.0;
14/02/2025 17:09:35;100;0;236.44;-4;-19.49;23.21;568.7;13.70;75902;2837.092;-1758.368;1;178;-100;-93.5;43.4;43.4;70;69.9;28.6;0.0;
14/02/2025 17:09:55;100;0;221.32;-4;-19.39;23.05;571.1;13.70;75893;2837.089;-1758.370;1;170;-100;-91.9;43.4;43.4;70;69.9;28.6;0.0;
14/02/2025 17:10:15;100;0;208.84;-4;-19.53;23.00;573.6;13.70;75890;2837.087;-1758.372;1;161;-100;-93.5;43.4;43.4;70;69.9;28.6;0.0;
14/02/2025 17:10:35;100;0;196.69;-4;-19.77;23.30;576.1;13.70;75879;2837.084;-1758.373;1;152;-100;-93.5;43.4;43.4;67;66.8;28.6;0.0;
14/02/2025 17:10:55;100;0;187.99;-4;-19.90;21.21;578.6;13.60;75886;2837.081;-1758.374;1;140;-100;-91.9;43.4;43.4;70;69.9;28.6;0.0;
14/02/2025 17:11:15;100;0;175.81;-4;-19.87;23.21;581.0;13.60;75886;2837.078;-1758.373;1;125;-100;-93.5;43.4;43.4;70;70.4;28.6;0.0;
14/02/2025 17:11:36;100;0;163.65;-4;-19.68;23.02;583.4;13.60;75871;2837.075;-1758.372;1;103;-100;-91.9;43.4;43.6;70;70.4;28.6;0.0;
14/02/2025 17:11:56;100;0;150.61;-4;-19.42;23.03;585.9;13.60;75859;2837.072;-1758.370;1;61;-100;-93.5;43.4;43.4;70;70.4;28.6;0.0;
14/02/2025 17:12:16;100;0;141.15;-4;-19.19;23.21;588.2;13.50;75854;2837.070;-1758.368;1;16;-100;-93.5;43.4;43.4;70;70.4;28.6;0.0;
14/02/2025 17:12:36;100;0;129.74;-4;-19.42;23.06;590.5;13.50;75842;2837.068;-1758.366;1;348;-100;-91.9;43.4;43.4;70;70.4;28.6;0.0;
14/02/2025 17:12:56;100;0;119.26;-4;-19.30;22.92;592.5;13.50;75838;2837.067;-1758.363;1;333;-100;-93.5;43.4;43.6;70;70.4;28.6;0.0;
14/02/2025 17:13:16;100;0;109.59;-4;-20.02;23.09;594.6;13.40;75823;2837.066;-1758.360;1;322;-100;-93.5;43.4;43.6;70;70.4;28.6;0.0;
14/02/2025 17:13:36;100;0;98.00;-4;-19.54;23.12;596.9;13.40;75818;2837.066;-1758.357;1;312;-100;-91.9;43.4;43.6;70;70.4;28.6;0.0;
14/02/2025 17:13:56;100;0;85.73;-4;-18.92;23.00;598.9;13.40;75822;2837.066;-1758.354;1;303;-100;-91.9;43.7;43.9;70;69.9;28.6;0.0;
14/02/2025 17:14:16;100;0;74.91;-4;-20.73;23.08;601.0;13.40;75801;2837.067;-1758.351;1;296;-100;-91.9;43.7;44.0;70;70.4;28.6;0.0;
14/02/2025 17:14:36;100;0;65.49;-4;-21.11;22.97;603.1;13.30;75800;2837.068;-1758.348;1;289;-100;-93.5;43.7;44.0;70;70.4;28.6;0.0;
14/02/2025 17:14:56;100;0;55.03;-4;-21.31;23.03;605.4;13.30;75795;2837.070;-1758.346;1;282;-100;-93.5;43.7;44.2;70;70.4;28.6;0.0;
14/02/2025 17:15:16;100;0;45.28;-4;-21.27;22.97;607.7;13.30;75786;2837.072;-1758.343;1;275;-100;-91.9;43.7;44.2;70;70.4;28.6;0.0;
14/02/2025 17:15:36;100;0;35.30;-4;-21.62;22.93;610.0;13.30;75783;2837.075;-1758.342;1;268;-100;-93.5;43.7;44.2;70;69.9;28.6;0.0;
14/02/2025 17:15:56;100;0;28.63;-4;-21.42;23.29;612.6;13.20;75774;2837.078;-1758.340;1;261;-100;-93.5;43.7;44.2;70;70.4;28.6;0.0;
14/02/2025 17:16:16;100;0;19.73;-4;-20.61;23.34;614.9;13.20;75754;2837.080;-1758.339;1;255;-100;-91.9;43.7;44.0;70;69.9;28.6;0.0;
14/02/2025 17:16:36;100;0;5.72;-4;-21.25;22.86;617.4;13.20;75752;2837.084;-1758.338;1;249;-100;-91.9;43.7;44.0;70;70.4;28.6;0.0;
14/02/2025 17:16:56;100;0;352.82;-4;-19.93;22.80;620.0;13.10;75748;2837.087;-1758.339;1;242;-100;-91.9;43.7;44.2;70;70.4;28.6;0.0;
14/02/2025 17:17:16;100;0;341.62;-4;-20.63;23.29;622.1;13.10;75737;2837.090;-1758.340;1;237;-100;-90.3;43.7;44.2;70;70.4;28.6;0.0;
14/02/2025 17:17:36;100;0;334.25;-4;-21.15;23.24;624.5;13.10;75735;2837.092;-1758.341;1;231;-100;-91.9;43.7;44.0;70;70.4;28.6;0.0;
14/02/2025 17:17:56;100;0;325.64;-4;-21.21;23.15;627.1;13.10;75729;2837.095;-1758.343;1;224;-100;-91.9;43.7;44.0;70;69.9;28.6;0.0;
14/02/2025 17:18:16;100;0;311.57;-4;-20.95;22.99;629.5;13.00;75722;2837.097;-1758.346;1;218;-100;-93.5;43.7;44.2;70;70.4;28.6;0.0;
14/02/2025 17:18:36;100;0;299.23;-4;-20.13;22.94;631.9;13.00;75725;2837.099;-1758.349;1;212;-100;-93.5;43.7;44.2;70;69.9;28.6;0.0;
14/02/2025 17:18:56;100;0;288.24;-4;-21.04;23.22;634.3;13.00;75726;2837.100;-1758.352;1;206;-100;-95.2;43.7;44.2;70;70.4;28.6;0.0;
14/02/2025 17:19:16;100;0;280.18;-4;-20.60;22.55;636.9;13.00;75712;2837.101;-1758.356;1;200;-100;-91.9;43.7;44.2;70;70.4;28.6;0.0;
14/02/2025 17:19:36;100;0;267.08;-4;-21.72;23.03;639.4;12.90;75705;2837.101;-1758.359;1;194;-100;-91.9;43.7;44.2;70;69.9;28.6;0.0;
14/02/2025 17:19:56;100;0;254.90;-4;-20.54;23.15;642.1;12.90;75709;2837.100;-1758.363;1;188;-100;-91.9;43.7;44.2;70;70.4;28.6;0.0;
14/02/2025 17:20:16;100;0;246.29;-4;-21.64;23.05;644.7;12.90;75710;2837.099;-1758.366;1;181;-100;-91.9;43.7;44.0;70;70.4;28.6;0.0;
14/02/2025 17:20:36;100;0;237.64;-4;-21.55;23.43;647.4;12.90;75689;2837.097;-1758.369;1;175;-100;-91.9;43.7;44.0;70;70.4;28.6;0.0;
14/02/2025 17:20:56;100;0;224.21;-4;-21.17;23.29;650.0;12.80;75690;2837.095;-1758.372;1;168;-100;-91.9;43.7;44.2;70;69.9;28.6;0.0;
14/02/2025 17:21:16;100;0;214.91;-4;-20.85;23.13;652.6;12.80;75683;2837.093;-1758.374;1;162;-100;-93.5;43.7;44.0;70;70.4;28.6;0.0;
14/02/2025 17:21:36;100;0;204.22;-4;-21.57;23.10;655.2;12.80;75695;2837.090;-1758.376;1;155;-100;-93.5;43.7;44.0;70;70.4;28.6;0.0;
14/02/2025 17:21:56;100;0;192.47;-4;-21.33;23.12;657.8;12.80;75683;2837.087;-1758.376;1;148;-100;-91.9;43.7;44.0;66;65.4;28.6;0.0;
14/02/2025 17:22:16;100;0;183.21;-4;-20.90;20.62;660.6;12.70;75678;2837.084;-1758.377;1;139;-100;-93.5;43.7;44.2;66;65.4;28.6;0.0;
14/02/2025 17:22:36;100;0;172.02;-4;-20.73;20.59;663.0;12.70;75675;2837.081;-1758.376;1;131;-100;-91.9;43.7;44.2;61;60.5;28.6;0.0;
14/02/2025 17:22:56;100;0;162.62;-4;-20.72;17.88;665.6;12.70;75669;2837.078;-1758.375;1;119;-100;-96.8;43.7;44.2;64;64.1;28.6;0.0;
14/02/2025 17:23:16;100;0;152.17;-4;-20.87;20.07;668.1;12.70;75668;2837.075;-1758.373;1;103;-100;-93.5;43.7;44.0;70;69.9;28.6;0.0;
14/02/2025 17:23:36;100;0;140.20;-4;-21.58;23.18;670.7;12.70;75669;2837.073;-1758.371;1;76;-100;-93.5;43.7;44.2;70;70.4;28.6;0.0;
14/02/2025 17:23:56;100;0;133.88;-4;-21.18;23.10;673.4;12.60;75653;2837.071;-1758.368;1;22;-100;-93.5;43.7;44.2;70;69.9;28.6;0.0;
14/02/2025 17:24:16;100;0;123.25;-4;-21.71;23.14;676.0;12.60;75649;2837.069;-1758.365;1;344;-100;-91.9;43.7;44.2;70;69.9;28.6;0.0;
14/02/2025 17:24:36;100;0;112.03;-4;-20.99;22.95;678.6;12.60;75632;2837.068;-1758.362;1;323;-100;-91.9;43.7;44.2;70;69.9;28.6;0.0;
14/02/2025 17:24:56;100;0;100.53;-4;-21.16;23.22;681.3;12.60;75630;2837.068;-1758.358;1;309;-100;-93.5;43.7;44.2;70;69.9;28.6;0.0;
14/02/2025 17:25:16;100;0;89.01;-4;-20.84;23.14;683.9;12.50;75628;2837.068;-1758.355;1;299;-100;-93.5;43.7;44.2;70;69.9;28.6;0.0;
14/02/2025 17:25:36;100;0;78.89;-4;-21.13;23.08;686.6;12.50;75621;2837.069;-1758.351;1;291;-100;-91.9;43.7;44.2;70;70.4;28.6;0.0;
14/02/2025 17:25:56;100;0;67.89;-4;-21.08;22.94;689.3;12.50;75604;2837.070;-1758.347;1;283;-100;-91.9;43.7;44.2;70;69.9;28.6;0.0;
14/02/2025 17:26:16;100;0;57.46;-4;-21.12;23.07;691.9;12.50;75610;2837.072;-1758.344;1;276;-100;-91.9;43.7;44.2;70;69.9;28.6;0.0;
14/02/2025 17:26:36;100;0;46.72;-4;-20.13;23.01;694.7;12.40;75597;2837.075;-1758.341;1;269;-100;-93.5;43.7;44.2;70;69.9;28.6;0.0;
14/02/2025 17:26:56;100;0;37.21;-4;-20.83;23.15;697.2;12.40;75593;2837.077;-1758.339;1;262;-100;-93.5;43.7;44.2;70;69.9;28.6;0.0;
14/02/2025 17:27:09;118;0;30.31;-4;-21.19;23.23;698.9;12.40;75591;2837.079;-1758.338;1;259;380;-87.1;24.7;24.4;8;8.1;28.6;0.0;
14/02/2025 17:27:19;118;0;61.62;-4;-6.27;-8.87;699.8;12.40;75564;2837.080;-1758.337;1;258;380;43.5;24.7;24.3;8;8.6;27.7;-1.0;
14/02/2025 17:27:29;118;0;55.08;-4;17.11;-8.52;699.9;12.40;75301;2837.080;-1758.337;1;257;380;164.5;24.7;24.7;8;8.1;27.6;-1.0;
14/02/2025 17:27:39;118;0;51.42;-4;22.98;-8.79;699.3;12.40;75039;2837.080;-1758.336;1;257;380;290.3;24.7;24.9;8;8.1;27.6;-1.0;
14/02/2025 17:27:49;118;0;51.43;-4;22.07;-8.65;698.4;12.30;74776;2837.081;-1758.335;1;256;380;383.9;24.7;25.0;8;8.1;27.6;-1.0;
14/02/2025 17:27:59;118;0;22.00;-4;19.56;-8.11;697.1;12.40;74605;2837.083;-1758.334;1;253;380;383.9;24.7;25.0;8;8.1;28.6;-1.0;
14/02/2025 17:28:19;117;0;15.86;-4;16.79;-7.84;694.7;12.40;74601;2837.086;-1758.333;1;248;380;383.9;24.7;24.9;8;8.6;28.6;-1.0;
14/02/2025 17:28:39;117;0;8.43;-4;16.15;-7.67;692.3;12.40;74603;2837.090;-1758.333;1;242;380;383.9;23.5;23.7;-70;-69.9;28.6;-1.0;
14/02/2025 17:28:59;117;0;353.07;-4;9.12;-47.64;690.0;12.40;74604;2837.094;-1758.333;1;236;380;383.9;20.3;20.2;-70;-69.9;28.5;-1.0;
14/02/2025 17:29:19;117;0;343.32;-4;14.42;-48.02;687.7;12.40;74588;2837.097;-1758.334;1;231;380;383.9;18.6;18.6;-70;-69.9;28.6;-1.0;
14/02/2025 17:29:39;117;0;334.25;-4;20.10;-46.94;684.8;12.40;74601;2837.101;-1758.336;1;225;380;385.5;18.6;17.8;-70;-70.4;28.6;-1.0;
14/02/2025 17:29:59;117;0;324.19;-4;20.67;-47.35;681.4;12.40;74602;2837.105;-1758.339;1;219;380;383.9;18.6;17.8;-70;-69.9;28.6;-1.0;
14/02/2025 17:30:19;117;0;313.36;-4;20.28;-47.18;677.9;12.30;74591;2837.108;-1758.343;1;212;380;383.9;18.6;17.8;-70;-70.4;28.6;-1.0;
14/02/2025 17:30:39;117;0;302.93;-4;20.48;-47.39;674.5;12.30;74600;2837.110;-1758.347;1;206;380;382.3;18.6;17.8;-70;-69.9;28.6;-1.0;
14/02/2025 17:30:59;117;0;292.53;-4;20.39;-47.19;670.9;12.30;74603;2837.112;-1758.352;1;199;380;383.9;18.6;17.8;-70;-69.9;28.6;-1.0;
14/02/2025 17:31:19;117;0;282.63;-4;20.48;-46.98;667.5;12.30;74601;2837.113;-1758.357;1;193;380;383.9;18.6;17.8;-70;-69.9;28.6;-1.0;
14/02/2025 17:31:39;117;0;272.51;-4;20.43;-47.14;664.1;12.30;74600;2837.114;-1758.362;1;187;380;385.5;18.6;17.8;-70;-69.9;28.6;-1.0;
14/02/2025 17:31:59;117;0;259.96;-4;20.81;-47.48;660.5;12.30;74595;2837.113;-1758.367;1;180;380;385.5;18.6;18.9;-65;-65.0;28.6;-1.0;
14/02/2025 17:32:19;117;0;247.95;-4;19.64;-44.28;656.9;12.30;74598;2837.111;-1758.372;1;174;380;385.5;18.6;18.9;-58;-58.2;28.6;-1.0;
14/02/2025 17:32:39;117;0;235.24;-4;20.59;-40.81;653.5;12.30;74591;2837.109;-1758.375;1;168;380;385.5;18.6;18.7;-50;-50.1;28.6;-1.0;
14/02/2025 17:32:59;117;0;220.58;-4;20.94;-36.51;650.1;12.30;74591;2837.106;-1758.379;1;162;380;383.9;18.6;18.9;-40;-40.2;28.6;-1.0;
14/02/2025 17:33:19;117;0;210.02;-4;22.93;-31.41;646.7;12.20;74592;2837.103;-1758.381;1;157;380;385.5;19.5;19.6;-32;-32.0;28.6;-1.0;
14/02/2025 17:33:39;117;0;197.40;-4;22.83;-27.49;643.3;12.20;74577;2837.099;-1758.382;1;152;380;385.5;20.3;20.6;-23;-23.0;28.6;-1.0;
14/02/2025 17:33:59;117;0;183.47;-4;21.63;-22.73;640.1;12.20;74589;2837.095;-1758.382;1;148;380;385.5;20.3;20.5;-10;-9.9;28.6;-1.0;
14/02/2025 17:34:19;117;0;172.23;-4;23.45;-16.23;637.1;12.20;74586;2837.092;-1758.382;1;144;380;383.9;21.3;21.5;1;0.9;28.5;-1.0;
14/02/2025 17:34:39;117;0;163.43;-4;22.61;-11.44;634.0;12.20;74587;2837.089;-1758.381;1;141;380;385.5;22.1;22.4;11;10.8;28.6;-1.0;
14/02/2025 17:34:59;117;0;156.09;-4;22.72;-6.12;631.1;12.20;74582;2837.086;-1758.379;1;138;380;383.9;22.9;23.1;18;18.1;28.6;-1.0;
14/02/2025 17:35:19;117;0;151.94;-4;22.24;-2.31;628.2;12.10;74584;2837.083;-1758.377;1;135;380;385.5;23.6;23.7;20;19.9;28.6;-1.0;
14/02/2025 17:35:39;117;0;149.05;-4;20.73;-1.77;625.5;12.10;74574;2837.080;-1758.375;1;130;380;383.9;23.6;23.7;18;18.1;28.6;-1.0;
14/02/2025 17:35:59;117;0;145.52;-4;20.42;-3.09;623.0;12.10;74587;2837.078;-1758.373;1;124;380;385.5;23.6;23.7;14;14.0;28.6;-1.0;
14/02/2025 17:36:19;117;0;142.04;-4;19.90;-4.79;620.5;12.10;74572;2837.076;-1758.371;1;112;380;385.5;23.6;23.9;0;0.0;28.6;-1.0;
14/02/2025 17:36:39;117;0;131.88;-4;18.54;-12.31;618.3;12.10;74576;2837.074;-1758.369;1;79;380;385.5;23.2;23.4;-30;-29.8;28.6;-1.0;
14/02/2025 17:36:59;117;0;116.87;-4;15.28;-27.65;616.4;12.10;74568;2837.073;-1758.366;1;327;400;401.6;21.8;21.4;-70;-69.9;28.6;-1.0;
14/02/2025 17:37:19;117;0;102.91;-4;12.38;-46.94;614.6;12.10;74543;2837.072;-1758.363;1;299;420;421.0;19.5;19.4;-70;-69.9;28.6;-1.0;
14/02/2025 17:37:39;117;0;86.12;-4;14.78;-47.26;612.8;12.00;74499;2837.072;-1758.360;1;284;440;441.9;17.9;17.8;-70;-69.9;28.6;-1.0;
14/02/2025 17:37:59;117;0;79.84;-4;17.67;-46.77;610.6;12.00;74456;2837.073;-1758.357;1;276;440;443.5;17.2;17.2;-70;-69.9;28.6;-1.0;
14/02/2025 17:38:19;117;0;65.95;-4;17.40;-46.76;608.1;12.10;74456;2837.075;-1758.353;1;267;440;441.9;16.4;16.3;-70;-69.9;28.6;-1.0;
14/02/2025 17:38:39;117;0;54.35;-4;20.17;-46.93;605.4;12.00;74456;2837.077;-1758.350;1;260;440;443.5;16.4;16.1;-70;-69.9;28.6;-1.0;
14/02/2025 17:38:59;117;0;41.58;-4;20.61;-46.46;602.5;12.00;74452;2837.080;-1758.347;1;252;440;443.5;16.4;16.1;-70;-69.9;28.6;-1.0;
14/02/2025 17:39:19;117;0;29.55;-4;20.22;-46.59;599.5;12.10;74459;2837.083;-1758.345;1;245;440;443.5;16.4;16.1;-70;-69.9;28.6;-1.0;
14/02/2025 17:39:39;117;0;17.76;-4;20.52;-46.74;596.6;12.10;74465;2837.087;-1758.344;1;238;440;443.5;16.4;16.1;-70;-69.9;28.6;-1.0;
14/02/2025 17:39:59;117;0;5.85;-4;20.41;-47.16;593.8;12.10;74462;2837.090;-1758.343;1;232;440;443.5;16.4;16.1;-70;-69.9;28.6;-1.0;
14/02/2025 17:40:19;117;0;355.18;-4;20.39;-46.79;590.9;12.00;74468;2837.094;-1758.344;1;225;440;441.9;16.4;16.1;-70;-69.9;28.6;-1.0;
14/02/2025 17:40:39;117;0;344.85;-4;20.28;-46.54;587.7;12.00;74476;2837.098;-1758.345;1;219;440;443.5;16.4;16.1;-70;-69.9;28.6;-1.0;
14/02/2025 17:40:59;117;0;334.35;-4;20.12;-46.85;584.4;12.00;74487;2837.102;-1758.347;1;212;440;443.5;16.4;16.1;-70;-69.9;28.6;-1.0;
14/02/2025 17:41:19;117;0;323.28;-4;19.85;-46.74;581.0;12.00;74472;2837.106;-1758.350;1;205;440;441.9;16.4;16.1;-70;-69.9;28.6;-1.0;
14/02/2025 17:41:39;117;0;311.45;-4;19.91;-46.72;577.7;12.00;74477;2837.109;-1758.354;1;199;440;443.5;16.4;16.1;-70;-69.9;28.6;-1.0;
14/02/2025 17:41:59;117;0;301.66;-4;20.54;-46.66;574.3;12.00;74476;2837.111;-1758.358;1;192;440;443.5;16.4;16.1;-70;-69.9;28.6;-1.0;
14/02/2025 17:42:19;117;0;290.26;-4;20.57;-46.95;570.7;12.00;74469;2837.113;-1758.362;1;186;440;443.5;16.4;16.1;-70;-69.9;28.6;-1.0;
14/02/2025 17:42:39;117;0;279.21;-4;20.33;-46.58;567.1;12.00;74482;2837.114;-1758.368;1;179;440;443.5;16.4;16.1;-70;-69.9;28.6;-1.0;
14/02/2025 17:42:59;117;0;267.31;-4;20.64;-47.11;563.4;12.00;74478;2837.114;-1758.373;1;173;440;443.5;16.4;16.1;-70;-69.9;28.6;-1.0;
14/02/2025 17:43:19;117;0;254.75;-4;20.06;-46.69;559.6;12.00;74483;2837.112;-1758.378;1;166;440;443.5;16.4;16.1;-70;-69.9;28.6;-1.0;
14/02/2025 17:43:39;117;0;242.65;-4;19.79;-46.94;555.9;12.00;74483;2837.110;-1758.383;1;159;440;443.5;16.4;16.1;-70;-69.9;28.6;-1.0;
14/02/2025 17:43:59;117;0;230.36;-4;19.76;-46.38;552.3;12.00;74489;2837.108;-1758.387;1;152;440;443.5;16.4;16.1;-63;-63.2;28.6;-1.0;
14/02/2025 17:44:19;117;0;218.10;-4;20.40;-43.02;548.9;12.00;74490;2837.104;-1758.390;1;146;440;443.5;16.4;16.1;-55;-55.1;28.6;-1.0;
14/02/2025 17:44:39;117;0;207.23;-4;21.89;-38.89;545.5;12.00;74489;2837.101;-1758.392;1;140;440;443.5;16.4;16.1;-49;-49.2;28.6;-1.0;
14/02/2025 17:45:00;117;0;194.97;-4;22.48;-36.00;542.0;12.00;74483;2837.097;-1758.394;1;134;440;443.5;17.2;17.5;-42;-42.0;28.6;-1.0;
14/02/2025 17:45:20;117;0;181.85;-4;21.80;-32.21;538.4;12.00;74489;2837.093;-1758.394;1;129;440;443.5;17.2;17.5;-32;-32.0;28.6;-1.0;
14/02/2025 17:45:40;117;0;169.42;-4;22.59;-27.14;534.9;12.00;74492;2837.089;-1758.393;1;123;440;443.5;18.0;18.1;-23;-22.6;28.6;-1.0;
14/02/2025 17:46:00;117;0;156.11;-4;23.36;-22.49;531.4;12.00;74495;2837.085;-1758.391;1;118;440;443.5;19.0;19.3;-12;-12.2;28.6;-1.0;
14/02/2025 17:46:20;117;0;143.67;-4;23.09;-17.05;527.6;12.00;74497;2837.082;-1758.388;1;113;440;441.9;19.9;20.0;-1;-0.9;28.6;-1.0;
14/02/2025 17:46:40;117;0;131.50;-4;22.95;-12.01;523.9;12.00;74509;2837.079;-1758.384;1;109;440;441.9;20.8;21.1;13;13.1;28.6;-1.0;
14/02/2025 17:47:00;117;0;124.66;-4;23.03;-4.94;520.2;12.00;74502;2837.077;-1758.381;1;105;440;443.5;21.7;21.9;17;17.1;28.6;-1.0;
14/02/2025 17:47:20;117;0;117.38;-4;22.47;-2.95;516.7;12.00;74506;2837.075;-1758.376;1;99;440;443.5;22.4;22.4;19;19.0;28.6;-1.0;
14/02/2025 17:47:40;117;0;109.99;-4;21.04;-1.70;513.3;12.00;74510;2837.074;-1758.372;1;90;440;443.5;22.4;22.7;17;17.1;28.6;-1.0;
14/02/2025 17:48:00;117;0;102.78;-4;20.54;-3.23;510.0;12.10;74516;2837.073;-1758.367;1;20;440;441.9;22.4;22.5;-68;-68.1;28.6;-1.0;
14/02/2025 17:48:20;117;0;84.99;-4;9.81;-46.15;506.8;12.00;74505;2837.074;-1758.362;1;273;440;443.5;19.4;19.3;-70;-70.4;28.6;-1.0;
14/02/2025 17:48:40;117;0;71.11;-4;12.58;-46.76;504.2;12.10;74516;2837.075;-1758.357;1;262;440;443.5;17.1;17.1;-70;-70.4;28.6;-1.0;
14/02/2025 17:49:00;117;0;59.02;-4;18.53;-47.17;501.1;12.10;74528;2837.077;-1758.353;1;254;440;443.5;16.7;16.6;-70;-70.4;28.6;-1.0;
14/02/2025 17:49:20;117;0;46.59;-4;19.22;-46.90;497.5;12.10;74523;2837.081;-1758.349;1;246;440;441.9;16.7;16.6;-70;-70.4;28.6;-1.0;
14/02/2025 17:49:40;117;0;34.45;-4;19.11;-47.38;493.7;12.10;74534;2837.085;-1758.346;1;239;440;443.5;16.7;16.8;-70;-70.4;28.6;-1.0;
14/02/2025 17:50:00;117;0;22.78;-4;19.02;-47.12;490.1;12.10;74536;2837.090;-1758.344;1;232;440;441.9;16.7;16.6;-70;-70.4;28.6;-1.0;
14/02/2025 17:50:20;117;0;12.15;-4;18.96;-47.17;486.5;12.10;74542;2837.095;-1758.343;1;226;440;443.5;16.4;16.2;-70;-70.4;28.6;-1.0;
14/02/2025 17:50:40;117;0;1.73;-4;19.86;-47.08;482.9;12.10;74530;2837.099;-1758.343;1;220;440;443.5;16.4;15.9;-70;-70.4;28.6;-1.0;
14/02/2025 17:51:00;117;0;351.27;-4;19.79;-46.92;479.2;12.10;74539;2837.104;-1758.344;1;214;440;441.9;16.4;16.1;-70;-70.4;28.6;-1.0;
14/02/2025 17:51:20;117;0;339.28;-4;19.96;-47.28;475.6;12.10;74548;2837.109;-1758.346;1;209;440;443.5;16.4;15.9;-70;-70.4;28.6;-1.0;
14/02/2025 17:51:40;117;0;327.79;-4;19.93;-47.43;471.9;12.10;74536;2837.113;-1758.348;1;203;440;443.5;16.4;15.9;-70;-70.4;28.6;-1.0;
14/02/2025 17:52:00;117;0;315.49;-4;20.03;-47.19;468.4;12.10;74546;2837.116;-1758.352;1;197;440;443.5;16.4;15.9;-70;-70.4;28.6;-1.0;
14/02/2025 17:52:20;117;0;303.56;-4;20.14;-47.54;464.9;12.20;74557;2837.119;-1758.356;1;192;440;443.5;16.4;15.9;-70;-70.4;28.6;-1.0;
14/02/2025 17:52:40;117;0;290.90;-4;19.81;-47.27;461.3;12.20;74551;2837.120;-1758.361;1;186;440;443.5;16.4;16.1;-70;-70.4;28.6;-1.0;
14/02/2025 17:53:00;117;0;278.72;-4;19.82;-47.24;457.8;12.20;74560;2837.121;-1758.366;1;181;440;441.9;16.4;16.1;-70;-70.4;28.6;-1.0;
14/02/2025 17:53:20;117;0;266.50;-4;19.91;-47.39;454.1;12.20;74559;2837.121;-1758.372;1;175;440;443.5;16.4;16.1;-70;-70.4;28.6;-1.0;
14/02/2025 17:53:40;117;0;253.60;-4;19.54;-47.34;450.5;12.20;74563;2837.120;-1758.377;1;169;440;443.5;16.4;16.1;-70;-70.4;28.6;-1.0;
14/02/2025 17:54:00;117;0;242.24;-4;19.93;-47.07;447.0;12.20;74566;2837.118;-1758.381;1;164;440;443.5;16.4;16.1;-64;-64.1;28.6;-1.0;
14/02/2025 17:54:20;117;0;229.59;-4;20.59;-43.89;443.5;12.20;74562;2837.115;-1758.385;1;159;440;443.5;16.4;15.9;-55;-55.1;28.6;-1.0;
14/02/2025 17:54:40;117;0;216.52;-4;21.42;-38.39;439.9;12.20;74567;2837.112;-1758.388;1;154;440;443.5;16.4;16.1;-44;-44.2;28.6;-1.0;
14/02/2025 17:55:00;117;0;204.78;-4;23.22;-33.52;436.2;12.20;74568;2837.108;-1758.390;1;149;440;443.5;17.3;17.7;-36;-35.6;28.6;-1.0;
14/02/2025 17:55:20;117;0;192.46;-4;21.97;-29.21;432.5;12.20;74583;2837.104;-1758.391;1;145;440;443.5;17.3;17.7;-26;-25.7;28.6;-1.0;
14/02/2025 17:55:40;117;0;180.04;-4;23.08;-24.17;428.9;12.30;74582;2837.100;-1758.391;1;141;440;443.5;18.3;18.4;-15;-14.9;28.6;-1.0;
14/02/2025 17:56:00;117;0;169.04;-4;23.72;-18.42;425.2;12.30;74576;2837.096;-1758.390;1;137;440;443.5;19.4;19.6;-5;-5.0;28.6;-1.0;
14/02/2025 17:56:20;117;0;156.57;-4;23.15;-13.96;421.6;12.30;74586;2837.092;-1758.389;1;134;440;443.5;20.3;20.5;11;10.8;28.6;-1.0;
14/02/2025 17:56:40;117;0;148.28;-4;23.55;-6.04;418.0;12.30;74584;2837.089;-1758.386;1;132;440;443.5;21.4;21.4;21;21.2;28.6;-1.0;
14/02/2025 17:57:00;117;0;143.20;-4;23.37;-0.64;414.5;12.30;74585;2837.086;-1758.383;1;130;440;443.5;22.4;22.5;25;24.8;28.6;-1.0;
14/02/2025 17:57:20;117;0;141.01;-4;21.96;1.26;411.0;12.30;74604;2837.083;-1758.380;1;127;440;443.5;22.4;22.7;25;25.3;28.6;-1.0;
14/02/2025 17:57:40;117;0;139.83;-4;21.35;1.26;407.8;12.30;74604;2837.080;-1758.378;1;123;440;443.5;22.4;22.7;21;20.8;28.6;-1.0;
14/02/2025 17:58:00;117;0;134.98;-4;20.85;-0.99;404.5;12.30;74611;2837.077;-1758.374;1;118;440;443.5;22.4;22.7;21;21.2;28.6;-1.0;
14/02/2025 17:58:20;117;0;130.83;-4;20.73;-0.96;401.4;12.30;74611;2837.075;-1758.371;1;105;440;441.9;22.4;22.5;6;5.9;28.6;-1.0;
14/02/2025 17:58:40;117;0;119.53;-4;18.97;-9.03;398.4;12.30;74614;2837.073;-1758.367;1;2;440;441.9;22.1;21.6;-70;-69.9;28.6;-1.0;
14/02/2025 17:59:00;117;0;101.82;-4;9.58;-48.01;395.6;12.40;74629;2837.072;-1758.362;1;292;440;443.5;19.0;19.0;-70;-70.4;28.6;-1.0;
14/02/2025 17:59:20;117;0;89.10;-4;11.92;-47.35;393.3;12.40;74644;2837.073;-1758.358;1;281;440;441.9;16.5;16.5;-70;-70.4;28.6;-1.0;
14/02/2025 17:59:40;117;0;77.82;-4;18.46;-47.25;390.4;12.40;74653;2837.074;-1758.354;1;272;440;443.5;16.1;16.1;-70;-70.4;28.6;-1.0;
14/02/2025 18:00:00;117;0;66.67;-4;20.19;-47.25;386.9;12.40;74652;2837.075;-1758.349;1;265;440;443.5;16.1;16.1;-70;-70.4;28.6;-1.0;
14/02/2025 18:00:20;117;0;55.46;-4;20.32;-46.93;383.3;12.40;74654;2837.078;-1758.345;1;258;440;441.9;16.1;16.1;-70;-70.4;28.6;-1.0;
14/02/2025 18:00:40;117;0;44.98;-4;20.00;-47.07;379.7;12.50;74655;2837.082;-1758.341;1;251;440;443.5;16.1;16.1;-70;-70.4;28.6;-1.0;
14/02/2025 18:01:00;117;0;33.05;-4;20.25;-46.92;376.0;12.50;74661;2837.086;-1758.338;1;245;440;443.5;16.1;16.1;-70;-70.4;28.6;-1.0;
14/02/2025 18:01:20;117;0;21.53;-4;20.17;-47.21;372.3;12.50;74667;2837.090;-1758.336;1;239;440;443.5;16.1;16.1;-70;-70.4;28.6;-1.0;
14/02/2025 18:01:40;117;0;11.16;-4;19.93;-46.86;368.6;12.50;74678;2837.095;-1758.335;1;233;440;443.5;16.1;16.1;-70;-70.4;28.6;-1.0;
14/02/2025 18:02:00;117;0;0.62;-4;20.18;-47.25;364.9;12.50;74671;2837.100;-1758.335;1;227;440;443.5;16.1;16.1;-70;-70.4;28.6;-1.0;
14/02/2025 18:02:20;117;0;349.78;-4;20.05;-47.35;361.1;12.60;74673;2837.105;-1758.336;1;221;440;443.5;16.1;16.1;-70;-70.4;28.6;-1.0;
14/02/2025 18:02:40;117;0;339.63;-4;19.68;-46.95;357.3;12.60;74690;2837.109;-1758.338;1;215;440;441.9;16.1;16.1;-70;-70.4;28.6;-1.0;
14/02/2025 18:03:00;117;0;328.20;-4;19.89;-47.11;353.6;12.60;74690;2837.114;-1758.341;1;210;440;443.5;16.1;16.1;-70;-70.4;28.6;-1.0;
14/02/2025 18:03:20;117;0;316.37;-4;19.72;-47.13;350.1;12.60;74699;2837.117;-1758.345;1;204;440;443.5;16.1;16.2;-70;-70.4;28.6;-1.0;
14/02/2025 18:03:40;117;0;304.21;-4;19.95;-47.11;346.3;12.60;74707;2837.120;-1758.349;1;199;440;443.5;16.1;16.1;-70;-69.9;28.6;-1.0;
14/02/2025 18:04:00;117;0;292.24;-4;19.69;-47.12;342.7;12.60;74711;2837.122;-1758.354;1;193;440;443.5;16.1;16.2;-70;-70.4;28.6;-1.0;
14/02/2025 18:04:20;117;0;280.64;-4;19.67;-46.91;339.0;12.70;74721;2837.123;-1758.359;1;188;440;443.5;16.1;16.1;-70;-70.4;28.6;-1.0;
14/02/2025 18:04:40;117;0;268.38;-4;20.16;-46.76;335.5;12.70;74723;2837.123;-1758.365;1;182;440;441.9;16.1;16.2;-70;-70.4;28.6;-1.0;
14/02/2025 18:05:00;117;0;256.55;-4;20.24;-47.40;331.9;12.70;74736;2837.122;-1758.370;1;177;440;443.5;16.1;16.1;-66;-65.9;28.6;-1.0;
14/02/2025 18:05:20;117;0;243.18;-4;20.07;-44.58;328.4;12.70;74748;2837.120;-1758.374;1;172;440;443.5;16.1;16.1;-56;-56.0;28.6;-1.0;
14/02/2025 18:05:40;117;0;230.62;-4;21.44;-39.12;324.9;12.80;74758;2837.117;-1758.378;1;167;440;443.5;16.1;16.1;-46;-46.0;28.6;-1.0;
14/02/2025 18:06:00;117;0;216.87;-4;22.31;-34.69;321.3;12.80;74764;2837.114;-1758.381;1;163;440;443.5;16.8;16.9;-35;-34.7;28.6;-1.0;
14/02/2025 18:06:20;117;0;201.72;-4;22.78;-28.86;317.6;12.80;74759;2837.110;-1758.383;1;159;440;443.5;17.6;17.8;-21;-20.8;28.6;-1.0;
14/02/2025 18:06:40;117;0;188.15;-4;23.07;-21.21;314.2;12.80;74769;2837.107;-1758.384;1;156;440;443.5;18.5;19.0;-5;-5.0;28.6;-1.0;
14/02/2025 18:07:00;117;0;180.21;-4;23.75;-13.90;310.8;12.80;74784;2837.103;-1758.384;1;153;440;443.5;19.7;20.0;2;1.8;28.6;-1.0;
14/02/2025 18:07:20;117;0;171.58;-4;23.58;-11.07;307.3;12.90;74799;2837.099;-1758.383;1;151;440;445.2;20.7;20.9;14;14.0;28.6;-1.0;
14/02/2025 18:07:40;117;0;166.34;-4;23.17;-4.44;303.8;12.90;74820;2837.095;-1758.382;1;149;440;443.5;21.7;21.8;19;19.0;28.6;-1.0;
14/02/2025 18:08:00;117;0;161.07;-4;22.66;-1.90;300.5;12.90;74824;2837.092;-1758.380;1;147;440;443.5;22.5;22.8;23;23.0;28.6;-1.0;
14/02/2025 18:08:20;117;0;156.48;-4;21.09;0.40;297.2;13.00;74828;2837.088;-1758.379;1;145;440;443.5;22.5;22.7;26;26.2;28.6;-1.0;
14/02/2025 18:08:40;117;0;153.47;-4;20.62;1.90;294.1;13.00;74841;2837.085;-1758.377;1;142;440;443.5;22.5;22.8;26;26.6;28.6;-1.0;
14/02/2025 18:09:00;117;0;151.35;-4;20.45;1.99;291.1;13.00;74845;2837.082;-1758.375;1;139;440;443.5;22.5;22.8;26;26.6;28.6;-1.0;
14/02/2025 18:09:20;117;0;149.23;-4;20.18;1.96;288.3;13.00;74860;2837.079;-1758.373;1;135;440;443.5;22.5;22.8;23;22.6;28.6;-1.0;
14/02/2025 18:09:40;117;0;145.14;-4;20.37;-0.04;285.5;13.10;74881;2837.076;-1758.370;1;126;440;443.5;22.5;22.8;18;18.1;28.6;-1.0;
14/02/2025 18:10:00;117;0;139.44;-4;19.45;-2.80;282.7;13.10;74890;2837.073;-1758.368;1;37;440;443.5;22.5;22.7;-70;-69.9;28.6;-1.0;
14/02/2025 18:10:20;117;0;123.06;-4;8.39;-47.49;280.1;13.20;74891;2837.071;-1758.363;1;311;440;443.5;19.0;19.0;-70;-69.9;28.6;-1.0;
14/02/2025 18:10:40;117;0;109.99;-4;11.57;-46.91;278.1;13.20;74901;2837.070;-1758.360;1;302;460;462.9;16.5;16.2;-70;-69.9;28.6;-1.0;
14/02/2025 18:11:00;117;0;97.47;-4;17.44;-47.38;275.6;13.20;74860;2837.070;-1758.356;1;294;460;462.9;15.7;15.8;-70;-69.9;28.6;-1.0;
14/02/2025 18:11:20;117;0;83.74;-4;18.96;-47.07;272.5;13.30;74871;2837.070;-1758.351;1;285;460;462.9;15.4;15.5;-70;-69.9;28.6;-1.0;
14/02/2025 18:11:40;117;0;70.14;-4;19.05;-46.99;269.2;13.30;74875;2837.072;-1758.347;1;276;460;462.9;15.4;15.6;-70;-69.9;28.6;-1.0;
14/02/2025 18:12:00;117;0;57.90;-4;18.98;-46.68;265.9;13.30;74890;2837.074;-1758.343;1;269;460;462.9;15.1;14.7;-70;-69.9;28.6;-1.0;
14/02/2025 18:12:20;117;0;46.27;-4;20.66;-46.71;262.4;13.40;74896;2837.078;-1758.339;1;262;460;462.9;15.1;14.7;-70;-69.9;28.6;-1.0;
14/02/2025 18:12:40;117;0;33.24;-4;20.89;-47.05;258.8;13.40;74892;2837.081;-1758.336;1;254;460;462.9;15.1;14.7;-70;-69.9;28.6;-1.0;
14/02/2025 18:13:00;117;0;21.49;-4;20.85;-47.06;255.1;13.40;74904;2837.086;-1758.334;1;248;460;461.3;15.1;14.6;-70;-69.9;28.6;-1.0;
14/02/2025 18:13:20;117;0;8.83;-4;20.42;-46.68;251.3;13.40;74906;2837.091;-1758.333;1;240;460;462.9;15.1;14.7;-70;-69.9;28.6;-1.0;
14/02/2025 18:13:40;117;0;355.91;-4;20.06;-47.06;247.6;13.50;74915;2837.096;-1758.334;1;233;460;462.9;15.1;14.6;-70;-69.9;28.6;-1.0;
14/02/2025 18:14:00;117;0;343.88;-4;20.17;-46.88;244.2;13.50;74919;2837.100;-1758.335;1;227;460;462.9;15.1;14.6;-70;-69.9;28.6;-1.0;
14/02/2025 18:14:20;117;0;333.31;-4;20.73;-46.83;240.7;13.50;74933;2837.104;-1758.338;1;221;460;462.9;15.1;14.6;-70;-69.9;28.6;-1.0;
14/02/2025 18:14:40;117;0;322.22;-4;21.03;-46.50;237.1;13.60;74946;2837.108;-1758.341;1;215;460;459.7;15.1;14.6;-70;-69.9;28.6;-1.0;
14/02/2025 18:15:00;117;0;310.81;-4;20.85;-46.84;233.7;13.60;74952;2837.111;-1758.344;1;209;460;462.9;15.1;14.7;-70;-69.9;28.6;-1.0;
14/02/2025 18:15:20;117;0;299.60;-4;20.56;-46.95;230.1;13.60;74964;2837.113;-1758.349;1;203;460;462.9;15.1;14.6;-70;-69.9;28.6;-1.0;
14/02/2025 18:15:40;117;0;287.51;-4;20.37;-46.94;226.7;13.70;74968;2837.114;-1758.353;1;196;460;462.9;15.1;14.6;-70;-69.9;28.6;-1.0;
14/02/2025 18:16:00;117;0;274.85;-4;20.34;-46.92;223.3;13.70;74985;2837.115;-1758.358;1;190;460;464.5;15.1;14.6;-70;-69.9;28.6;-1.0;
14/02/2025 18:16:20;117;0;262.82;-4;20.51;-46.84;219.9;13.80;74997;2837.114;-1758.363;1;185;460;464.5;15.1;14.6;-64;-64.1;28.6;-1.0;
14/02/2025 18:16:40;117;0;250.75;-4;21.16;-43.72;216.4;13.80;75017;2837.113;-1758.368;1;179;460;462.9;15.1;14.6;-57;-56.9;28.6;-1.0;
14/02/2025 18:17:00;117;0;238.66;-4;21.89;-39.62;212.9;13.80;75026;2837.111;-1758.372;1;173;460;464.5;15.1;14.7;-49;-49.2;28.6;-1.0;
14/02/2025 18:17:20;117;0;224.21;-4;23.02;-36.07;209.2;13.90;75030;2837.108;-1758.375;1;168;460;462.9;16.0;16.3;-38;-37.9;28.6;-1.0;
14/02/2025 18:17:40;117;0;209.33;-4;22.49;-30.50;205.6;13.90;75047;2837.105;-1758.378;1;163;460;462.9;16.7;16.9;-26;-25.7;28.6;-1.0;
14/02/2025 18:18:00;117;0;194.36;-4;22.97;-24.02;202.1;14.00;75056;2837.101;-1758.379;1;159;460;462.9;17.6;18.0;-10;-9.9;28.6;-1.0;
14/02/2025 18:18:21;117;0;180.01;-4;23.59;-16.39;198.7;14.00;75063;2837.097;-1758.379;1;156;460;462.9;18.7;18.9;8;8.1;28.6;-1.0;
14/02/2025 18:18:41;117;0;170.93;-4;24.74;-7.52;195.2;14.00;75072;2837.094;-1758.378;1;153;460;461.3;20.1;20.5;18;18.5;28.6;-1.0;
14/02/2025 18:19:01;117;0;163.57;-4;23.95;-2.18;191.7;14.10;75092;2837.090;-1758.377;1;151;460;462.9;21.3;21.5;25;24.8;28.6;-1.0;
14/02/2025 18:19:21;117;0;160.59;-4;22.71;1.46;188.4;14.10;75094;2837.087;-1758.376;1;149;460;462.9;22.1;22.1;25;25.3;28.6;-1.0;
14/02/2025 18:19:41;117;0;160.20;-4;21.63;1.53;185.3;14.20;75105;2837.083;-1758.374;1;146;460;464.5;22.1;22.4;23;22.6;28.6;-1.0;
14/02/2025 18:20:01;117;0;157.42;-4;20.66;-0.25;182.3;14.20;75117;2837.080;-1758.373;1;141;460;462.9;22.1;22.2;20;19.4;28.6;-1.0;
14/02/2025 18:20:21;117;0;152.86;-4;19.92;-1.46;179.4;14.20;75142;2837.077;-1758.371;1;132;460;462.9;22.1;22.4;13;13.1;28.6;-1.0;
14/02/2025 18:20:41;117;0;146.67;-4;19.01;-5.37;176.6;14.30;75147;2837.074;-1758.368;1;83;460;461.3;22.1;22.4;-45;-45.1;28.6;-1.0;
14/02/2025 18:21:01;117;0;130.21;-4;11.30;-34.56;174.0;14.30;75152;2837.072;-1758.365;1;325;460;462.9;19.5;19.3;-70;-69.9;28.6;-1.0;
14/02/2025 18:21:21;117;0;115.40;-4;9.18;-47.72;171.8;14.40;75153;2837.070;-1758.361;1;307;460;462.9;16.3;16.2;-70;-69.9;28.6;-1.0;
14/02/2025 18:21:41;117;0;102.82;-4;15.78;-47.15;169.3;14.40;75163;2837.069;-1758.357;1;298;460;462.9;15.0;15.0;-70;-69.9;28.6;-1.0;
14/02/2025 18:22:01;117;0;91.23;-4;20.11;-46.76;166.2;14.40;75163;2837.069;-1758.352;1;290;460;462.9;15.0;14.4;-70;-70.4;28.6;-1.0;
14/02/2025 18:22:21;117;0;77.34;-4;20.86;-47.37;162.5;14.50;75185;2837.070;-1758.347;1;281;460;462.9;15.0;14.4;-70;-69.9;28.6;-1.0;
14/02/2025 18:22:41;117;0;62.88;-4;20.69;-46.93;158.7;14.50;75191;2837.073;-1758.343;1;273;460;462.9;15.0;14.4;-70;-70.4;28.6;-1.0;
14/02/2025 18:23:01;117;0;45.66;-4;20.62;-47.33;155.0;14.60;75203;2837.076;-1758.339;1;265;460;462.9;15.0;14.4;-70;-69.9;28.6;-1.0;
14/02/2025 18:23:21;117;0;31.66;-4;20.41;-47.27;151.2;14.60;75236;2837.080;-1758.336;1;257;460;462.9;15.0;14.4;-70;-69.9;28.6;-1.0;
14/02/2025 18:23:41;117;0;16.90;-4;20.36;-47.03;147.4;14.70;75253;2837.085;-1758.334;1;249;460;462.9;15.0;14.4;-70;-69.9;28.6;-1.0;
14/02/2025 18:24:01;117;0;2.15;-4;20.30;-47.16;143.5;14.70;75282;2837.090;-1758.334;1;241;460;462.9;15.0;14.4;-70;-69.9;28.6;-1.0;
14/02/2025 18:24:21;117;0;351.40;-4;20.67;-46.90;139.8;14.80;75309;2837.095;-1758.335;1;233;460;461.3;15.0;14.4;-70;-70.4;28.6;-1.0;
14/02/2025 18:24:41;117;0;339.45;-4;20.23;-47.17;136.3;14.80;75329;2837.099;-1758.337;1;226;460;461.3;15.0;14.4;-70;-69.9;28.6;-1.0;
14/02/2025 18:25:01;117;0;328.50;-4;20.75;-46.68;132.7;14.90;75361;2837.103;-1758.339;1;220;460;464.5;15.0;14.4;-70;-69.9;28.6;-1.0;
14/02/2025 18:25:21;117;0;317.35;-4;20.52;-47.47;129.2;14.90;75360;2837.107;-1758.343;1;213;460;462.9;15.0;14.4;-70;-70.4;28.6;-1.0;
14/02/2025 18:25:41;117;0;303.95;-4;19.91;-47.15;125.7;15.00;75381;2837.109;-1758.347;1;206;460;462.9;15.0;14.4;-70;-69.9;28.6;-1.0;
14/02/2025 18:26:01;117;0;291.47;-4;20.41;-47.19;122.4;15.10;75402;2837.111;-1758.352;1;200;460;462.9;15.0;14.4;-70;-70.4;28.6;-1.0;
14/02/2025 18:26:21;117;0;280.41;-4;20.59;-46.88;119.0;15.10;75422;2837.112;-1758.356;1;194;460;462.9;15.0;14.4;-70;-70.4;28.6;-1.0;
