Timestamp;NavState;SecurityLevel;Heading;Declination;Pitch;Roll;Depth;Temperature;Pa;Lat;Lon;DeadReckoning;DesiredH;BallastCmd;BallastPos;LinCmd;LinPos;AngCmd;AngPos;Voltage;Altitude;
02/03/2025 16:51:31;119;0;232.36;-4;-44.16;-8.58;0.0;16.40;75502;2835.272;-1758.518;0;140;500;508.1;100.0;100.4;0;-0.5;25.3;-1.0;
02/03/2025 16:51:41;116;0;258.74;-4;-63.56;-8.43;-0.1;16.50;75495;2835.270;-1758.517;0;140;500;504.8;100.0;100.6;0;-0.5;25.3;-1.0;
02/03/2025 16:52:06;116;0;283.91;-4;-53.03;-0.39;0.2;16.60;75515;2835.273;-1758.518;0;140;500;508.1;100.0;100.4;0;-0.5;25.3;-1.0;
02/03/2025 16:52:33;116;0;304.95;-4;-51.95;-6.57;-0.1;16.70;75530;2835.275;-1758.517;0;140;500;506.5;100.0;100.6;0;0.0;25.3;-1.0;
02/03/2025 16:52:53;116;0;301.74;-4;-50.68;-11.66;-0.0;16.70;75535;2835.278;-1758.518;0;140;500;506.5;100.0;100.6;0;-0.5;25.2;-1.0;
02/03/2025 16:53:00;116;0;306.56;-4;-48.99;-15.25;-0.1;16.70;75545;2835.279;-1758.518;0;140;500;504.8;100.0;100.6;0;-0.5;25.3;-1.0;
02/03/2025 16:53:20;116;0;329.30;-4;-56.64;-15.71;0.1;16.80;75551;2835.283;-1758.518;0;140;500;506.5;100.0;100.6;0;-0.5;25.3;-1.0;
02/03/2025 16:53:40;116;0;306.40;-4;-57.84;-24.50;0.1;16.90;75552;2835.286;-1758.517;0;140;500;506.5;100.0;100.6;0;-0.5;25.3;-1.0;
02/03/2025 16:54:00;116;0;305.67;-4;-54.31;-12.86;0.1;17.00;75570;2835.288;-1758.517;0;140;500;506.5;100.0;100.4;0;-0.5;25.3;-1.0;
02/03/2025 16:54:20;116;0;328.68;-4;-53.53;-16.16;-0.0;17.00;75578;2835.291;-1758.516;0;140;500;506.5;100.0;100.6;0;-0.5;25.3;-1.0;
02/03/2025 16:54:40;116;0;340.90;-4;-52.98;-12.08;0.1;17.10;75574;2835.297;-1758.516;0;140;500;506.5;100.0;100.6;0;-0.5;25.3;-1.0;
02/03/2025 16:55:06;116;0;340.08;-4;-48.22;-12.47;-0.0;17.20;75599;2835.297;-1758.515;0;145;500;508.1;100.0;100.6;0;-0.5;25.3;-1.0;
02/03/2025 16:55:24;116;0;314.02;-4;-56.22;-20.45;0.0;17.30;75599;2835.300;-1758.515;0;145;500;508.1;100.0;100.6;0;-0.5;25.3;-1.0;
02/03/2025 16:56:28;116;0;331.25;-4;-50.94;-11.95;-0.1;17.50;75635;2835.308;-1758.514;0;145;500;506.5;100.0;100.6;0;-0.5;25.3;-1.0;
02/03/2025 16:57:57;116;0;322.07;-4;-58.13;-17.77;-0.1;17.90;75658;2835.322;-1758.512;0;145;500;506.5;100.0;100.6;0;-0.5;25.3;-1.0;
02/03/2025 16:59:07;116;0;332.59;-4;-49.50;-17.91;0.1;18.20;75681;2835.331;-1758.511;0;145;500;506.5;100.0;100.6;0;-0.5;25.3;-1.0;
02/03/2025 16:59:27;110;0;325.53;-4;-49.74;-12.82;-0.2;18.30;75682;2835.331;-1758.511;0;145;-110;385.5;100.0;100.4;-7;-7.2;25.3;-1.0;
02/03/2025 16:59:37;110;0;325.51;-4;-59.14;-7.84;-0.1;18.30;76058;2835.332;-1758.512;1;145;-110;243.5;100.0;100.6;-7;-7.2;25.2;-1.0;
02/03/2025 16:59:47;110;0;335.17;-4;-51.90;-22.19;0.4;18.40;76290;2835.332;-1758.512;1;145;-110;90.3;100.0;100.6;-7;-7.2;25.2;-1.0;
02/03/2025 16:59:57;110;0;324.17;-4;-62.28;-22.16;0.8;18.40;76600;2835.333;-1758.512;1;145;-110;-64.5;100.0;100.6;-7;-7.2;25.2;-1.0;
02/03/2025 17:00:07;110;0;310.50;-4;-67.55;-20.32;1.0;18.40;76932;2835.334;-1758.513;1;145;-110;-109.7;41.2;54.8;-7;-7.2;25.2;-1.0;
02/03/2025 17:00:17;110;0;308.45;-4;-53.32;-15.65;2.0;18.50;76979;2835.334;-1758.513;1;145;-110;-109.7;41.2;41.1;-7;-7.2;25.2;-1.0;
02/03/2025 17:00:37;100;0;314.62;-4;-20.38;-15.30;5.0;18.50;76973;2835.338;-1758.517;1;145;-110;-104.8;41.2;40.8;-7;-7.2;25.3;-1.0;
02/03/2025 17:00:57;100;0;313.62;-4;-17.28;-15.38;7.7;18.60;76978;2835.342;-1758.520;1;145;-110;-103.2;42.0;42.3;70;69.9;25.3;-1.0;
02/03/2025 17:01:17;100;0;309.91;-4;-21.53;23.91;10.3;18.60;76992;2835.345;-1758.524;1;145;-110;-103.2;42.0;42.3;70;70.4;25.3;-1.0;
02/03/2025 17:01:37;100;0;298.01;-4;-21.81;23.78;13.2;18.60;76991;2835.348;-1758.527;1;145;-110;-103.2;42.0;42.3;70;70.4;25.3;0.0;
02/03/2025 17:01:57;100;0;287.20;-4;-21.67;24.10;15.9;18.60;76993;2835.350;-1758.531;1;145;-110;-103.2;42.0;42.3;70;70.4;25.3;0.0;
02/03/2025 17:02:17;100;0;276.89;-4;-21.49;23.83;18.7;18.60;76993;2835.352;-1758.536;1;145;-110;-106.5;42.0;42.3;70;70.4;25.3;0.0;
02/03/2025 17:02:37;100;0;264.58;-4;-21.65;24.08;21.7;18.60;76996;2835.353;-1758.540;1;145;-110;-104.8;42.0;42.3;70;69.9;25.3;0.0;
02/03/2025 17:02:57;100;0;253.63;-4;-21.64;23.75;24.6;18.70;77004;2835.353;-1758.544;1;145;-110;-103.2;42.0;42.3;70;70.4;25.3;0.0;
02/03/2025 17:03:17;100;0;242.10;-4;-21.54;24.05;27.4;18.70;77004;2835.352;-1758.548;1;145;-110;-103.2;42.0;42.3;70;70.4;25.3;0.0;
02/03/2025 17:03:37;100;0;232.11;-4;-21.98;23.95;30.3;18.70;77012;2835.351;-1758.552;1;145;-110;-103.2;42.0;42.3;70;70.4;25.3;0.0;
02/03/2025 17:03:57;100;0;220.97;-4;-21.52;23.80;33.4;18.70;77015;2835.350;-1758.555;1;145;-110;-103.2;42.0;42.3;70;70.4;25.3;0.0;
02/03/2025 17:04:17;100;0;209.86;-4;-20.95;23.83;36.3;18.70;77029;2835.348;-1758.557;1;145;-110;-103.2;42.0;42.3;70;70.4;25.3;0.0;
02/03/2025 17:04:37;100;0;198.74;-4;-21.30;23.81;39.1;18.70;77018;2835.346;-1758.559;1;145;-110;-103.2;42.0;42.4;70;70.4;25.3;0.0;
02/03/2025 17:04:57;100;0;186.75;-4;-20.98;23.82;41.9;18.70;77034;2835.343;-1758.560;1;145;-110;-103.2;42.0;42.4;57;56.9;25.3;0.0;
02/03/2025 17:05:17;100;0;176.82;-4;-20.57;16.64;44.6;18.70;77031;2835.341;-1758.560;1;145;-110;-103.2;42.0;42.3;41;41.1;25.3;0.0;
02/03/2025 17:05:37;100;0;169.09;-4;-20.21;8.55;47.1;18.70;77033;2835.339;-1758.560;1;145;-110;-103.2;42.0;42.3;28;28.0;25.3;0.0;
02/03/2025 17:05:57;100;0;164.46;-4;-19.82;2.10;49.6;18.70;77033;2835.337;-1758.559;1;145;-110;-103.2;42.0;42.3;21;21.2;25.2;0.0;
02/03/2025 17:06:17;100;0;161.03;-4;-19.77;-1.37;52.1;18.70;77038;2835.336;-1758.559;1;145;-110;-104.8;42.0;42.3;18;18.1;25.3;0.0;
02/03/2025 17:06:37;100;0;158.74;-4;-19.37;-2.96;54.7;18.80;77036;2835.333;-1758.558;1;145;-110;-103.2;42.0;42.3;16;15.8;25.3;0.0;
02/03/2025 17:06:57;100;0;157.89;-4;-18.68;-3.94;57.3;18.80;77042;2835.331;-1758.557;1;145;-110;-103.2;42.4;42.4;16;15.3;25.3;0.0;
02/03/2025 17:07:17;100;0;157.80;-4;-19.95;-3.86;59.8;18.80;77052;2835.330;-1758.556;1;145;-110;-103.2;42.4;42.4;16;15.3;25.3;0.0;
02/03/2025 17:07:37;100;0;158.17;-4;-19.65;-4.29;62.3;18.80;77057;2835.328;-1758.555;1;145;-110;-103.2;42.4;42.4;16;15.3;25.3;0.0;
02/03/2025 17:07:57;100;0;159.10;-4;-18.77;-4.01;64.9;18.80;77049;2835.326;-1758.554;1;145;-110;-103.2;42.7;42.7;16;15.3;25.3;0.0;
02/03/2025 17:08:17;100;0;161.54;-4;-20.20;-4.10;67.4;18.80;77050;2835.324;-1758.553;1;145;-110;-103.2;42.7;42.9;18;18.1;25.3;0.0;
02/03/2025 17:08:37;100;0;164.40;-4;-22.36;-2.39;69.9;18.80;77059;2835.322;-1758.552;1;145;-110;-103.2;42.0;41.8;20;19.9;25.2;0.0;
02/03/2025 17:08:57;100;0;168.06;-4;-18.38;-1.67;72.5;18.80;77059;2835.320;-1758.552;1;145;-110;-103.2;42.5;42.9;27;27.1;25.3;0.0;
02/03/2025 17:09:17;100;0;166.54;-4;-21.03;2.06;74.7;18.80;77068;2835.318;-1758.552;1;145;-110;-103.2;42.5;42.9;22;22.1;25.3;0.0;
02/03/2025 17:09:37;100;0;164.75;-4;-20.76;-0.66;77.1;18.80;77059;2835.316;-1758.551;1;145;-110;-103.2;42.5;42.9;22;21.7;25.3;0.0;
02/03/2025 17:09:57;100;0;161.82;-4;-20.48;-0.75;79.7;18.80;77053;2835.315;-1758.551;1;145;-110;-103.2;42.5;42.9;19;18.5;25.3;0.0;
02/03/2025 17:10:17;100;0;161.06;-4;-20.19;-2.42;82.1;18.80;77059;2835.313;-1758.550;1;145;-110;-103.2;42.5;42.9;19;18.1;25.3;0.0;
02/03/2025 17:10:37;100;0;162.07;-4;-20.35;-2.59;84.3;18.80;77050;2835.311;-1758.549;1;145;-110;-103.2;42.5;42.9;19;18.1;25.3;0.0;
02/03/2025 17:10:57;100;0;162.65;-4;-20.29;-2.57;86.6;18.80;77030;2835.310;-1758.549;1;145;-110;-103.2;42.5;42.9;19;18.1;25.3;0.0;
02/03/2025 17:11:17;100;0;163.69;-4;-20.69;-2.56;89.1;18.80;77025;2835.308;-1758.548;1;145;-110;-103.2;42.5;42.9;21;21.2;25.3;0.0;
02/03/2025 17:11:37;100;0;159.94;-4;-20.59;-0.83;91.5;18.80;77016;2835.306;-1758.547;1;145;-110;-103.2;42.5;42.9;17;17.1;25.3;0.0;
02/03/2025 17:11:57;100;0;156.99;-4;-20.13;-3.31;93.8;18.80;77014;2835.305;-1758.547;1;145;-110;-103.2;42.5;42.9;17;16.7;25.3;0.0;
02/03/2025 17:12:17;100;0;155.76;-4;-19.72;-3.30;96.1;18.80;76999;2835.303;-1758.546;1;145;-110;-103.2;42.5;42.9;15;14.4;25.3;0.0;
02/03/2025 17:12:37;100;0;155.46;-4;-19.97;-4.59;98.1;18.80;76991;2835.302;-1758.545;1;145;-110;-103.2;42.5;42.9;15;14.4;25.3;0.0;
02/03/2025 17:12:57;100;0;153.48;-4;-19.80;-4.58;100.4;18.80;76986;2835.300;-1758.544;1;145;-110;-103.2;42.5;42.9;15;14.4;25.3;0.0;
02/03/2025 17:13:17;100;0;151.91;-4;-19.99;-4.40;102.6;18.80;76967;2835.299;-1758.543;1;145;-110;-104.8;42.5;42.9;15;14.0;25.3;0.0;
02/03/2025 17:13:37;100;0;150.00;-4;-20.10;-4.36;104.8;18.70;76963;2835.298;-1758.541;1;145;-110;-103.2;42.5;42.9;15;14.0;25.3;0.0;
02/03/2025 17:13:57;100;0;148.86;-4;-19.15;-4.65;107.0;18.70;76963;2835.296;-1758.540;1;145;-110;-103.2;42.5;42.9;15;14.0;25.3;0.0;
02/03/2025 17:14:17;100;0;151.33;-4;-19.84;-4.62;108.9;18.70;76972;2835.295;-1758.539;1;145;-130;-130.6;42.5;42.9;15;14.4;25.3;0.0;
02/03/2025 17:14:38;100;0;153.17;-4;-19.16;-4.49;111.2;18.70;77029;2835.294;-1758.538;1;145;-130;-132.3;42.5;42.9;15;14.4;25.3;0.0;
02/03/2025 17:14:58;100;0;156.43;-4;-18.79;-4.44;113.6;18.70;77023;2835.292;-1758.537;1;145;-130;-132.3;42.9;42.9;15;14.0;25.3;0.0;
02/03/2025 17:15:18;100;0;154.79;-4;-19.09;-4.49;116.0;18.70;77012;2835.290;-1758.536;1;145;-130;-132.3;42.9;42.9;15;14.4;25.3;0.0;
02/03/2025 17:15:38;100;0;150.08;-4;-19.51;-4.40;118.4;18.60;76985;2835.289;-1758.535;1;145;-130;-132.3;42.9;42.9;15;14.4;25.3;0.0;
02/03/2025 17:15:58;100;0;146.96;-4;-19.56;-4.42;120.9;18.60;76980;2835.287;-1758.533;1;145;-130;-132.3;42.9;42.9;15;14.4;25.3;0.0;
02/03/2025 17:16:18;100;0;145.63;-4;-19.76;-4.38;123.6;18.60;76970;2835.286;-1758.531;1;145;-130;-132.3;42.9;42.9;15;14.4;25.3;0.0;
02/03/2025 17:16:38;100;0;144.32;-4;-19.58;-4.39;126.3;18.60;76970;2835.284;-1758.529;1;145;-130;-132.3;42.9;42.9;15;14.4;25.3;0.0;
02/03/2025 17:16:58;100;0;142.47;-4;-19.46;-4.46;128.9;18.50;76969;2835.282;-1758.528;1;145;-130;-132.3;42.9;42.9;13;13.1;25.3;0.0;
02/03/2025 17:17:18;100;0;140.29;-4;-19.23;-5.18;131.7;18.50;76951;2835.281;-1758.525;1;145;-130;-132.3;42.9;42.9;13;12.6;25.3;0.0;
02/03/2025 17:17:38;100;0;138.33;-4;-18.84;-5.20;134.3;18.50;76949;2835.279;-1758.523;1;145;-130;-132.3;43.2;43.4;9;9.0;25.3;0.0;
02/03/2025 17:17:58;100;0;141.11;-4;-19.19;-7.15;137.0;18.50;76933;2835.278;-1758.521;1;145;-130;-132.3;43.2;43.4;12;12.2;25.3;0.0;
02/03/2025 17:18:18;100;0;142.71;-4;-20.07;-5.25;139.7;18.50;76917;2835.276;-1758.519;1;145;-130;-132.3;43.2;43.4;12;12.6;25.2;0.0;
02/03/2025 17:18:38;100;0;142.52;-4;-20.00;-5.22;142.4;18.40;76907;2835.274;-1758.517;1;145;-130;-132.3;43.2;43.4;12;12.6;25.3;0.0;
02/03/2025 17:18:58;100;0;146.50;-4;-19.87;-5.19;145.5;18.40;76899;2835.272;-1758.515;1;145;-130;-135.5;43.2;43.4;15;14.9;25.3;0.0;
02/03/2025 17:19:18;100;0;146.52;-4;-20.04;-3.77;148.6;18.40;76878;2835.270;-1758.513;1;145;-130;-132.3;43.2;43.4;15;15.3;25.3;0.0;
02/03/2025 17:19:38;100;0;148.21;-4;-20.39;-3.77;151.7;18.30;76880;2835.268;-1758.511;1;145;-130;-132.3;43.2;43.6;15;15.3;25.3;0.0;
02/03/2025 17:19:58;100;0;150.78;-4;-20.09;-3.78;154.8;18.30;76865;2835.266;-1758.509;1;145;-130;-132.3;43.2;43.4;15;15.3;25.3;0.0;
02/03/2025 17:20:18;100;0;151.44;-4;-20.24;-3.78;157.9;18.30;76853;2835.263;-1758.507;1;145;-130;-132.3;43.2;43.6;15;15.3;25.3;0.0;
02/03/2025 17:20:38;100;0;151.69;-4;-20.37;-3.73;161.3;18.20;76860;2835.261;-1758.505;1;145;-130;-132.3;43.2;43.6;15;15.3;25.3;0.0;
02/03/2025 17:20:58;100;0;152.91;-4;-20.17;-3.76;164.4;18.20;76853;2835.258;-1758.504;1;145;-130;-132.3;43.2;43.4;15;15.3;25.3;0.0;
02/03/2025 17:21:18;100;0;153.67;-4;-20.46;-3.73;167.8;18.20;76849;2835.255;-1758.502;1;145;-130;-132.3;43.2;43.4;15;15.3;25.3;0.0;
02/03/2025 17:21:38;100;0;153.47;-4;-20.22;-3.80;171.0;18.10;76834;2835.253;-1758.500;1;145;-130;-132.3;43.2;43.4;15;15.3;25.3;0.0;
02/03/2025 17:21:58;100;0;152.32;-4;-20.32;-3.80;174.1;18.10;76832;2835.250;-1758.499;1;145;-130;-132.3;43.2;43.4;15;15.3;25.3;0.0;
02/03/2025 17:22:18;100;0;153.83;-4;-20.32;-3.68;177.6;18.10;76816;2835.248;-1758.497;1;145;-130;-132.3;43.2;43.4;15;15.3;25.3;0.0;
02/03/2025 17:22:38;100;0;154.18;-4;-20.37;-3.83;180.8;18.00;76812;2835.245;-1758.495;1;145;-130;-130.6;43.2;43.6;15;15.3;25.3;0.0;
02/03/2025 17:22:58;100;0;157.02;-4;-20.24;-3.86;184.2;18.00;76805;2835.242;-1758.494;1;145;-130;-133.9;43.2;43.4;15;15.3;25.3;0.0;
02/03/2025 17:23:18;100;0;159.05;-4;-19.98;-3.64;187.4;18.00;76792;2835.240;-1758.492;1;145;-130;-132.3;43.2;43.4;18;18.1;25.3;0.0;
02/03/2025 17:23:38;100;0;159.24;-4;-20.16;-2.38;190.5;17.90;76786;2835.237;-1758.491;1;145;-130;-130.6;43.2;43.4;18;18.1;25.3;0.0;
02/03/2025 17:23:58;100;0;162.91;-4;-20.32;-2.34;193.7;17.90;76779;2835.234;-1758.490;1;145;-130;-132.3;43.2;43.4;21;21.2;25.2;0.0;
02/03/2025 17:24:18;100;0;162.25;-4;-20.72;-0.76;197.5;17.90;76769;2835.231;-1758.489;1;145;-130;-132.3;43.2;43.4;21;21.2;25.3;0.0;
02/03/2025 17:24:38;100;0;161.93;-4;-20.64;-0.77;200.7;17.80;76765;2835.228;-1758.488;1;145;-130;-132.3;43.2;43.4;21;21.2;25.3;0.0;
02/03/2025 17:24:58;100;0;161.16;-4;-20.83;-0.74;204.1;17.80;76753;2835.225;-1758.487;1;145;-130;-133.9;43.2;43.4;21;21.7;25.3;0.0;
02/03/2025 17:25:18;100;0;157.16;-4;-20.82;-0.76;207.4;17.80;76755;2835.223;-1758.486;1;145;-130;-132.3;43.2;43.4;17;17.1;25.3;0.0;
02/03/2025 17:25:38;100;0;155.38;-4;-20.16;-3.05;210.6;17.70;76727;2835.220;-1758.484;1;145;-130;-132.3;43.2;43.4;17;16.7;25.3;0.0;
02/03/2025 17:25:58;100;0;151.30;-4;-20.08;-3.19;214.0;17.70;76726;2835.218;-1758.482;1;145;-130;-132.3;43.2;43.4;15;14.9;25.3;0.0;
02/03/2025 17:26:18;100;0;150.04;-4;-20.28;-4.13;217.1;17.70;76716;2835.215;-1758.480;1;145;-130;-133.9;43.2;43.4;15;14.9;25.3;0.0;
02/03/2025 17:26:38;100;0;149.74;-4;-20.14;-4.14;220.5;17.60;76699;2835.213;-1758.478;1;145;-130;-132.3;43.2;43.4;15;14.9;25.3;0.0;
02/03/2025 17:26:58;100;0;150.04;-4;-20.32;-4.20;223.7;17.60;76694;2835.210;-1758.476;1;145;-130;-133.9;43.2;43.4;15;14.9;25.3;0.0;
02/03/2025 17:27:18;100;0;148.58;-4;-20.13;-4.13;226.9;17.60;76688;2835.208;-1758.474;1;145;-130;-135.5;43.2;43.4;15;14.9;25.3;0.0;
02/03/2025 17:27:38;100;0;146.10;-4;-20.10;-4.19;230.2;17.50;76681;2835.206;-1758.472;1;145;-130;-132.3;43.2;43.4;15;14.9;25.3;0.0;
02/03/2025 17:27:58;100;0;143.59;-4;-20.15;-4.17;233.4;17.50;76676;2835.204;-1758.470;1;145;-130;-132.3;43.2;43.4;15;14.9;25.3;0.0;
02/03/2025 17:28:18;100;0;143.12;-4;-19.99;-4.17;236.4;17.50;76675;2835.202;-1758.468;1;145;-130;-132.3;43.2;43.4;15;14.9;25.3;0.0;
02/03/2025 17:28:38;100;0;141.07;-4;-19.97;-4.23;239.7;17.40;76658;2835.199;-1758.465;1;145;-130;-132.3;43.2;43.4;13;13.1;25.3;0.0;
02/03/2025 17:28:58;100;0;140.58;-4;-20.02;-5.18;242.5;17.40;76657;2835.198;-1758.463;1;145;-130;-132.3;43.2;43.4;13;12.6;25.3;0.0;
02/03/2025 17:29:18;100;0;137.45;-4;-19.64;-5.49;246.0;17.40;76650;2835.196;-1758.460;1;145;-130;-132.3;43.2;43.4;10;9.9;25.3;0.0;
02/03/2025 17:29:38;100;0;135.09;-4;-19.33;-6.71;249.4;17.30;76637;2835.194;-1758.457;1;145;-130;-132.3;43.2;43.4;6;5.9;25.3;0.0;
02/03/2025 17:29:58;100;0;136.62;-4;-19.19;-8.77;252.5;17.30;76633;2835.192;-1758.454;1;145;-130;-133.9;43.2;43.4;8;8.1;25.3;0.0;
02/03/2025 17:30:18;100;0;138.20;-4;-19.17;-7.17;255.3;17.20;76624;2835.190;-1758.451;1;145;-130;-132.3;43.2;43.4;10;9.9;25.3;0.0;
02/03/2025 17:30:38;100;0;137.66;-4;-19.18;-6.31;258.6;17.20;76606;2835.188;-1758.448;1;145;-130;-132.3;43.2;43.4;10;10.4;25.3;0.0;
02/03/2025 17:30:58;100;0;137.47;-4;-19.60;-6.24;261.6;17.20;76589;2835.186;-1758.446;1;145;-130;-132.3;43.2;43.4;10;10.4;25.3;0.0;
02/03/2025 17:31:18;100;0;136.83;-4;-19.63;-6.22;264.9;17.10;76582;2835.185;-1758.443;1;145;-130;-132.3;43.2;43.4;10;10.4;25.3;0.0;
02/03/2025 17:31:38;100;0;135.55;-4;-19.92;-6.25;268.0;17.10;76581;2835.183;-1758.440;1;145;-130;-132.3;43.2;43.4;7;7.2;25.3;0.0;
02/03/2025 17:31:58;100;0;137.16;-4;-19.57;-7.90;271.3;17.00;76564;2835.181;-1758.437;1;145;-130;-133.9;43.2;43.4;9;9.0;25.3;0.0;
02/03/2025 17:32:18;100;0;142.24;-4;-19.78;-6.72;274.5;17.00;76562;2835.179;-1758.435;1;145;-130;-133.9;43.2;43.4;13;13.1;25.2;0.0;
02/03/2025 17:32:38;100;0;144.93;-4;-19.50;-4.73;277.9;17.00;76553;2835.176;-1758.433;1;145;-130;-132.3;43.2;43.4;13;13.5;25.3;0.0;
02/03/2025 17:32:58;100;0;151.75;-4;-19.89;-4.67;281.2;16.90;76540;2835.174;-1758.431;1;145;-130;-132.3;43.2;43.4;15;14.9;25.3;0.0;
02/03/2025 17:33:18;100;0;154.81;-4;-20.17;-3.74;284.6;16.90;76528;2835.171;-1758.429;1;145;-130;-132.3;43.2;43.4;15;15.3;25.3;0.0;
02/03/2025 17:33:38;100;0;157.42;-4;-19.85;-3.80;288.0;16.90;76522;2835.168;-1758.428;1;145;-130;-135.5;43.2;43.6;15;15.3;25.3;0.0;
02/03/2025 17:33:58;100;0;160.41;-4;-19.72;-3.73;291.5;16.80;76507;2835.165;-1758.426;1;145;-130;-130.6;43.2;43.4;18;18.1;25.3;0.0;
02/03/2025 17:34:18;100;0;161.10;-4;-20.27;-2.41;294.8;16.80;76496;2835.162;-1758.425;1;145;-130;-132.3;43.2;43.4;18;18.1;25.3;0.0;
02/03/2025 17:34:38;100;0;159.10;-4;-20.13;-2.40;298.4;16.70;76493;2835.159;-1758.424;1;145;-130;-132.3;43.2;43.4;18;18.5;25.3;0.0;
02/03/2025 17:34:58;100;0;156.89;-4;-20.26;-2.35;301.8;16.70;76478;2835.156;-1758.422;1;145;-130;-132.3;43.2;43.4;16;15.8;25.3;0.0;
02/03/2025 17:35:18;100;0;155.78;-4;-20.15;-3.78;305.1;16.70;76473;2835.153;-1758.421;1;145;-130;-132.3;43.2;43.4;16;15.3;25.3;0.0;
02/03/2025 17:35:38;100;0;154.26;-4;-20.06;-3.72;308.6;16.60;76468;2835.151;-1758.419;1;145;-130;-132.3;43.2;43.4;16;15.3;25.3;0.0;
02/03/2025 17:35:58;100;0;152.01;-4;-20.14;-3.69;311.7;16.60;76447;2835.148;-1758.417;1;145;-130;-133.9;43.2;43.4;16;15.8;25.3;0.0;
02/03/2025 17:36:18;100;0;150.47;-4;-19.84;-3.55;315.0;16.50;76436;2835.146;-1758.415;1;145;-130;-132.3;43.2;43.4;16;15.8;25.3;0.0;
02/03/2025 17:36:38;100;0;149.56;-4;-19.63;-3.51;318.2;16.50;76432;2835.143;-1758.413;1;145;-130;-132.3;43.2;43.4;16;15.3;25.3;0.0;
02/03/2025 17:36:58;100;0;149.41;-4;-20.14;-3.72;321.1;16.50;76425;2835.141;-1758.412;1;145;-130;-132.3;43.2;43.4;16;15.8;25.3;0.0;
02/03/2025 17:37:18;100;0;148.87;-4;-20.13;-3.79;324.1;16.40;76432;2835.139;-1758.410;1;145;-130;-132.3;43.2;43.4;16;15.8;25.3;0.0;
02/03/2025 17:37:38;100;0;148.16;-4;-20.76;-3.37;327.2;16.40;76416;2835.137;-1758.408;1;145;-130;-132.3;43.2;43.4;16;15.8;25.3;0.0;
02/03/2025 17:37:58;100;0;144.19;-4;-21.08;-3.54;330.3;16.40;76416;2835.135;-1758.406;1;145;-130;-132.3;43.2;43.4;14;14.0;25.3;0.0;
02/03/2025 17:38:18;100;0;138.83;-4;-19.00;-4.73;333.4;16.30;76413;2835.133;-1758.403;1;145;-130;-132.3;43.2;43.4;11;10.8;25.3;0.0;
02/03/2025 17:38:38;100;0;138.88;-4;-19.07;-6.09;336.5;16.30;76398;2835.131;-1758.400;1;145;-130;-133.9;43.2;43.4;11;10.4;25.3;0.0;
02/03/2025 17:38:58;100;0;137.31;-4;-16.57;-6.33;339.5;16.20;76398;2835.129;-1758.398;1;145;-130;-132.3;44.2;44.2;9;9.0;25.3;0.0;
02/03/2025 17:39:18;100;0;142.50;-4;-19.97;-6.66;342.5;16.20;76398;2835.127;-1758.395;1;145;-130;-132.3;44.2;44.5;14;14.0;25.3;0.0;
02/03/2025 17:39:38;100;0;141.78;-4;-20.03;-4.12;345.4;16.20;76397;2835.126;-1758.393;1;145;-130;-132.3;44.2;44.5;12;12.2;25.3;0.0;
02/03/2025 17:39:58;100;0;144.41;-4;-21.88;-5.52;348.4;16.10;76369;2835.124;-1758.391;1;145;-130;-133.9;44.2;44.5;14;14.0;25.3;0.0;
02/03/2025 17:40:18;100;0;139.05;-4;-22.03;-4.19;351.9;16.10;76374;2835.122;-1758.389;1;145;-130;-132.3;43.6;43.4;11;10.8;25.3;0.0;
02/03/2025 17:40:38;100;0;139.74;-4;-19.91;-6.23;355.0;16.10;76378;2835.120;-1758.386;1;145;-130;-132.3;43.6;43.3;11;10.4;25.3;0.0;
02/03/2025 17:40:58;100;0;139.96;-4;-19.78;-6.27;358.1;16.00;76371;2835.118;-1758.384;1;145;-130;-132.3;43.6;43.3;11;10.4;25.3;0.0;
02/03/2025 17:41:18;100;0;140.69;-4;-19.89;-6.42;361.2;16.00;76364;2835.116;-1758.381;1;145;-130;-133.9;43.6;43.3;11;10.4;25.3;0.0;
02/03/2025 17:41:38;100;0;140.74;-4;-19.57;-6.31;364.3;16.00;76363;2835.114;-1758.379;1;145;-130;-132.3;43.6;43.3;11;10.4;25.3;0.0;
02/03/2025 17:41:58;100;0;142.58;-4;-19.37;-6.33;367.1;15.90;76354;2835.112;-1758.377;1;145;-130;-132.3;43.6;43.3;13;13.1;25.3;0.0;
02/03/2025 17:42:18;100;0;143.37;-4;-19.57;-4.74;370.0;15.90;76352;2835.111;-1758.374;1;145;-130;-133.9;43.6;43.3;13;13.5;25.3;0.0;
02/03/2025 17:42:38;100;0;143.38;-4;-19.48;-4.72;372.7;15.80;76335;2835.109;-1758.372;1;145;-130;-130.6;43.6;43.4;13;13.5;25.3;0.0;
02/03/2025 17:42:58;100;0;142.34;-4;-19.66;-4.73;375.3;15.80;76328;2835.107;-1758.370;1;145;-130;-133.9;43.6;43.3;13;13.5;25.3;0.0;
02/03/2025 17:43:18;100;0;141.93;-4;-19.65;-4.78;378.1;15.80;76324;2835.106;-1758.368;1;145;-130;-133.9;43.6;43.3;13;13.5;25.3;0.0;
02/03/2025 17:43:38;100;0;141.12;-4;-19.64;-4.75;380.9;15.70;76315;2835.104;-1758.366;1;145;-130;-133.9;43.6;43.3;11;10.8;25.3;0.0;
02/03/2025 17:43:58;100;0;141.88;-4;-19.41;-6.22;383.6;15.70;76318;2835.102;-1758.364;1;145;-130;-132.3;43.6;43.3;11;10.4;25.3;0.0;
02/03/2025 17:44:18;100;0;144.23;-4;-19.60;-6.22;386.4;15.70;76306;2835.101;-1758.362;1;145;-130;-133.9;43.6;43.3;13;13.1;25.3;0.0;
02/03/2025 17:44:38;100;0;146.03;-4;-19.67;-4.80;389.1;15.60;76311;2835.099;-1758.360;1;145;-130;-132.3;43.6;43.3;13;13.1;25.3;0.0;
02/03/2025 17:44:58;100;0;148.51;-4;-19.57;-4.87;392.0;15.60;76303;2835.097;-1758.359;1;145;-130;-133.9;43.6;43.3;13;13.5;25.3;0.0;
02/03/2025 17:45:18;100;0;149.40;-4;-19.60;-4.80;394.8;15.60;76286;2835.095;-1758.357;1;145;-130;-132.3;43.6;43.3;13;13.5;25.3;0.0;
02/03/2025 17:45:38;100;0;149.72;-4;-19.48;-4.90;397.6;15.60;76282;2835.093;-1758.355;1;145;-130;-132.3;43.6;43.3;13;13.5;25.3;0.0;
02/03/2025 17:45:58;100;0;151.12;-4;-19.68;-4.75;400.4;15.50;76281;2835.091;-1758.354;1;145;-130;-132.3;43.6;43.3;13;13.1;25.3;0.0;
02/03/2025 17:46:18;100;0;153.17;-4;-19.57;-4.68;403.3;15.50;76268;2835.089;-1758.352;1;145;-130;-133.9;43.6;43.2;13;13.5;25.3;0.0;
02/03/2025 17:46:38;100;0;157.21;-4;-19.80;-4.74;406.1;15.50;76258;2835.087;-1758.351;1;145;-130;-132.3;43.6;43.3;15;15.3;25.3;0.0;
02/03/2025 17:46:58;100;0;155.01;-4;-19.66;-3.67;409.1;15.40;76248;2835.084;-1758.350;1;145;-130;-133.9;43.6;43.2;15;15.3;25.3;0.0;
02/03/2025 17:47:18;100;0;150.46;-4;-19.76;-3.76;411.9;15.40;76236;2835.082;-1758.348;1;145;-130;-132.3;43.6;43.3;15;15.3;25.3;0.0;
02/03/2025 17:47:38;100;0;144.88;-4;-20.23;-3.76;415.0;15.40;76242;2835.080;-1758.346;1;145;-130;-133.9;43.6;43.3;15;15.8;25.3;0.0;
02/03/2025 17:47:58;100;0;145.24;-4;-20.20;-3.63;418.0;15.30;76214;2835.078;-1758.344;1;145;-130;-132.3;43.6;43.3;15;15.3;25.3;0.0;
02/03/2025 17:48:18;100;0;144.89;-4;-20.11;-3.60;421.2;15.30;76218;2835.076;-1758.342;1;145;-130;-132.3;43.6;43.3;15;15.8;25.3;0.0;
02/03/2025 17:48:38;100;0;144.31;-4;-20.20;-3.62;424.3;15.20;76198;2835.074;-1758.339;1;145;-130;-132.3;43.6;43.2;15;15.3;25.3;0.0;
02/03/2025 17:48:58;100;0;143.79;-4;-20.01;-3.67;427.5;15.20;76197;2835.072;-1758.337;1;145;-130;-132.3;43.6;43.3;13;12.6;25.3;0.0;
02/03/2025 17:49:18;100;0;143.87;-4;-19.70;-5.13;430.6;15.20;76194;2835.070;-1758.335;1;145;-130;-133.9;43.6;43.3;13;12.6;25.3;0.0;
02/03/2025 17:49:38;100;0;144.85;-4;-19.76;-5.15;433.5;15.20;76182;2835.068;-1758.333;1;145;-130;-132.3;43.6;43.3;13;12.6;25.3;0.0;
02/03/2025 17:49:59;100;0;144.60;-4;-19.56;-5.13;436.7;15.10;76181;2835.066;-1758.331;1;145;-130;-132.3;43.6;43.2;13;12.6;25.3;0.0;
02/03/2025 17:50:19;100;0;146.23;-4;-19.62;-5.06;439.7;15.10;76170;2835.064;-1758.329;1;145;-130;-133.9;43.6;43.3;13;12.6;25.3;0.0;
02/03/2025 17:50:39;100;0;146.51;-4;-19.48;-5.19;442.8;15.00;76160;2835.061;-1758.326;1;145;-130;-133.9;43.6;43.3;13;12.6;25.3;0.0;
02/03/2025 17:50:59;100;0;147.55;-4;-19.43;-5.25;445.8;15.00;76167;2835.059;-1758.324;1;145;-130;-132.3;43.6;43.2;13;12.6;25.3;0.0;
02/03/2025 17:51:19;100;0;148.39;-4;-19.46;-5.23;448.9;15.00;76168;2835.057;-1758.322;1;145;-130;-133.9;43.6;43.2;13;12.6;25.3;0.0;
02/03/2025 17:51:39;100;0;147.61;-4;-19.37;-5.20;451.9;15.00;76161;2835.055;-1758.320;1;145;-130;-133.9;43.6;43.2;13;12.6;25.2;0.0;
02/03/2025 17:51:59;100;0;146.59;-4;-19.34;-5.17;454.8;14.90;76149;2835.053;-1758.318;1;145;-130;-132.3;43.6;43.3;13;12.6;25.3;0.0;
02/03/2025 17:52:19;100;0;147.52;-4;-19.50;-5.24;457.9;14.90;76150;2835.050;-1758.316;1;145;-130;-133.9;43.6;43.3;13;12.6;25.3;0.0;
02/03/2025 17:52:39;100;0;148.53;-4;-19.53;-5.16;460.9;14.90;76146;2835.048;-1758.314;1;145;-130;-133.9;43.6;43.3;13;12.6;25.3;0.0;
02/03/2025 17:52:59;100;0;147.76;-4;-19.19;-5.32;463.9;14.80;76132;2835.046;-1758.312;1;145;-130;-135.5;43.6;43.2;13;12.6;25.3;0.0;
02/03/2025 17:53:19;100;0;146.91;-4;-19.31;-5.29;466.8;14.80;76122;2835.044;-1758.310;1;145;-130;-133.9;43.6;43.3;13;12.6;25.3;0.0;
02/03/2025 17:53:39;100;0;147.44;-4;-19.20;-5.24;469.9;14.80;76127;2835.042;-1758.308;1;145;-130;-132.3;43.6;43.3;13;12.6;25.3;0.0;
02/03/2025 17:53:59;100;0;147.24;-4;-19.38;-5.27;472.7;14.70;76112;2835.040;-1758.306;1;145;-130;-132.3;43.6;43.2;13;12.6;25.3;0.0;
02/03/2025 17:54:19;100;0;147.90;-4;-19.26;-5.28;475.8;14.70;76115;2835.037;-1758.304;1;145;-130;-132.3;43.6;43.3;13;12.6;25.3;0.0;
02/03/2025 17:54:39;100;0;148.60;-4;-19.10;-5.35;478.7;14.70;76103;2835.035;-1758.303;1;145;-130;-133.9;43.6;43.3;13;12.6;25.3;0.0;
02/03/2025 17:54:59;100;0;148.80;-4;-19.35;-5.26;481.8;14.60;76104;2835.033;-1758.301;1;145;-130;-133.9;43.6;43.3;13;12.6;25.3;0.0;
02/03/2025 17:55:19;100;0;150.47;-4;-19.53;-5.24;485.1;14.60;76092;2835.030;-1758.299;1;145;-130;-132.3;43.6;43.3;13;12.6;25.3;0.0;
02/03/2025 17:55:39;100;0;151.21;-4;-19.47;-5.17;488.3;14.60;76079;2835.028;-1758.297;1;145;-130;-133.9;43.6;43.3;13;12.6;25.3;0.0;
02/03/2025 17:55:59;100;0;152.72;-4;-19.14;-5.22;491.4;14.50;76074;2835.025;-1758.295;1;145;-130;-132.3;43.6;43.2;13;12.6;25.3;0.0;
02/03/2025 17:56:19;100;0;154.10;-4;-19.11;-5.30;494.7;14.50;76077;2835.022;-1758.293;1;145;-130;-133.9;43.6;43.3;13;12.6;25.3;0.0;
02/03/2025 17:56:39;100;0;155.72;-4;-19.09;-5.28;497.7;14.50;76070;2835.020;-1758.292;1;145;-130;-132.3;43.6;43.2;15;14.9;25.3;0.0;
02/03/2025 17:56:59;100;0;157.53;-4;-19.38;-3.88;500.9;14.50;76061;2835.017;-1758.290;1;145;-130;-132.3;43.6;43.3;15;15.3;25.3;0.0;
02/03/2025 17:57:19;100;0;159.04;-4;-19.47;-3.90;504.1;14.40;76068;2835.014;-1758.289;1;145;-130;-132.3;43.6;43.2;17;17.1;25.3;0.0;
02/03/2025 17:57:39;100;0;160.63;-4;-19.54;-2.69;507.3;14.40;76049;2835.011;-1758.288;1;145;-130;-135.5;43.6;43.3;17;17.6;25.3;0.0;
02/03/2025 17:57:59;100;0;161.63;-4;-19.31;-2.83;510.5;14.40;76050;2835.009;-1758.287;1;145;-130;-133.9;43.6;43.2;19;19.0;25.3;0.0;
02/03/2025 17:58:19;100;0;161.44;-4;-19.46;-1.99;513.6;14.40;76049;2835.006;-1758.286;1;145;-130;-132.3;43.6;43.3;19;19.0;25.3;0.0;
02/03/2025 17:58:39;100;0;161.06;-4;-19.41;-1.97;516.7;14.30;76037;2835.003;-1758.285;1;145;-130;-133.9;43.6;43.3;19;19.4;25.3;0.0;
02/03/2025 17:58:59;100;0;161.54;-4;-19.37;-1.92;519.8;14.30;76030;2835.000;-1758.284;1;145;-130;-132.3;43.6;43.3;19;19.4;25.3;0.0;
02/03/2025 17:59:19;100;0;159.94;-4;-19.27;-1.99;522.9;14.30;76025;2834.998;-1758.282;1;145;-130;-132.3;43.6;43.3;17;17.1;25.3;0.0;
02/03/2025 17:59:39;100;0;158.84;-4;-19.18;-3.28;525.7;14.20;76021;2834.995;-1758.281;1;145;-130;-133.9;43.6;43.2;17;16.7;25.3;0.0;
02/03/2025 17:59:59;100;0;159.87;-4;-18.90;-3.26;528.7;14.20;76015;2834.993;-1758.280;1;145;-130;-133.9;44.0;44.0;17;16.7;25.3;0.0;
02/03/2025 18:00:19;100;0;161.13;-4;-20.27;-3.24;531.8;14.20;76018;2834.990;-1758.279;1;145;-130;-133.9;44.0;44.3;19;19.0;25.3;0.0;
02/03/2025 18:00:39;100;0;158.79;-4;-20.85;-1.85;534.8;14.20;76014;2834.988;-1758.278;1;145;-130;-132.3;44.0;44.3;17;17.1;25.3;0.0;
02/03/2025 18:00:59;100;0;155.89;-4;-20.92;-3.03;537.8;14.10;76010;2834.986;-1758.277;1;145;-130;-133.9;44.0;44.3;15;14.9;25.3;0.0;
02/03/2025 18:01:19;100;0;154.37;-4;-21.09;-4.15;540.8;14.10;76008;2834.983;-1758.275;1;145;-130;-132.3;44.0;44.3;15;14.9;25.3;0.0;
02/03/2025 18:01:39;100;0;151.57;-4;-21.13;-3.97;544.0;14.10;75997;2834.981;-1758.274;1;145;-130;-133.9;44.0;44.3;15;14.9;25.3;0.0;
02/03/2025 18:01:59;100;0;150.42;-4;-20.88;-4.06;546.8;14.00;75991;2834.979;-1758.272;1;145;-130;-132.3;44.0;44.3;15;14.9;25.2;0.0;
02/03/2025 18:02:19;100;0;148.20;-4;-20.98;-4.07;549.7;14.00;75997;2834.977;-1758.270;1;145;-130;-132.3;44.0;44.3;15;14.9;25.3;0.0;
02/03/2025 18:02:39;100;0;148.92;-4;-20.69;-4.08;552.7;14.00;75983;2834.975;-1758.269;1;145;-130;-133.9;44.0;44.3;15;14.9;25.3;0.0;
02/03/2025 18:02:59;100;0;151.35;-4;-20.60;-4.08;555.6;14.00;75981;2834.973;-1758.267;1;145;-130;-132.3;44.0;44.3;15;14.9;25.3;0.0;
02/03/2025 18:03:19;100;0;156.21;-4;-20.56;-3.97;558.4;13.90;75974;2834.971;-1758.266;1;145;-130;-132.3;44.0;44.3;15;14.9;25.3;0.0;
02/03/2025 18:03:39;100;0;160.06;-4;-20.68;-3.99;561.4;13.90;75970;2834.969;-1758.265;1;145;-130;-133.9;44.0;44.3;17;17.1;25.3;0.0;
02/03/2025 18:03:59;100;0;160.63;-4;-20.90;-2.67;564.2;13.90;75962;2834.967;-1758.264;1;145;-130;-132.3;44.0;44.3;17;17.6;25.3;0.0;
02/03/2025 18:04:19;100;0;159.82;-4;-20.97;-2.71;567.0;13.90;75963;2834.965;-1758.263;1;145;-130;-132.3;44.0;44.3;17;17.6;25.3;0.0;
02/03/2025 18:04:39;100;0;157.20;-4;-21.02;-2.69;569.9;13.80;75940;2834.963;-1758.262;1;145;-130;-133.9;44.0;44.3;17;17.6;25.3;0.0;
02/03/2025 18:04:59;100;0;154.20;-4;-20.91;-2.70;572.8;13.80;75955;2834.961;-1758.261;1;145;-130;-132.3;44.0;44.3;15;14.9;25.2;0.0;
02/03/2025 18:05:19;100;0;151.94;-4;-20.75;-4.17;575.6;13.80;75939;2834.959;-1758.259;1;145;-130;-132.3;44.0;44.3;15;14.9;25.3;0.0;
02/03/2025 18:05:39;100;0;149.73;-4;-20.94;-4.23;578.5;13.80;75942;2834.957;-1758.258;1;145;-130;-132.3;44.0;44.3;15;14.4;25.3;0.0;
02/03/2025 18:05:59;100;0;148.10;-4;-20.90;-4.16;581.4;13.70;75933;2834.955;-1758.256;1;145;-130;-132.3;44.0;44.3;15;14.4;25.3;0.0;
02/03/2025 18:06:19;100;0;147.52;-4;-20.84;-4.19;584.3;13.70;75940;2834.953;-1758.254;1;145;-130;-133.9;44.0;44.3;15;14.4;25.3;0.0;
02/03/2025 18:06:39;100;0;146.11;-4;-20.98;-4.15;587.2;13.70;75935;2834.951;-1758.252;1;145;-130;-132.3;44.0;44.3;15;14.4;25.3;0.0;
02/03/2025 18:06:59;100;0;145.25;-4;-21.03;-4.13;590.3;13.70;75918;2834.949;-1758.250;1;145;-130;-133.9;44.0;44.3;15;14.4;25.3;0.0;
02/03/2025 18:07:19;100;0;144.55;-4;-21.01;-4.20;593.4;13.60;75922;2834.947;-1758.248;1;145;-130;-133.9;44.0;44.3;15;14.4;25.3;0.0;
02/03/2025 18:07:39;100;0;140.95;-4;-20.96;-4.23;596.4;13.60;75919;2834.946;-1758.246;1;145;-130;-132.3;44.0;44.3;11;10.8;25.3;0.0;
02/03/2025 18:07:59;100;0;138.90;-4;-20.57;-6.01;599.5;13.60;75912;2834.944;-1758.243;1;145;-130;-132.3;44.0;44.3;11;10.8;25.3;0.0;
02/03/2025 18:08:19;100;0;140.64;-4;-20.68;-6.07;602.4;13.60;75914;2834.942;-1758.241;1;145;-130;-133.9;44.0;44.3;11;10.8;25.3;0.0;
02/03/2025 18:08:39;100;0;141.89;-4;-20.19;-6.08;605.5;13.60;75898;2834.940;-1758.239;1;145;-130;-132.3;44.0;44.3;13;13.1;25.3;0.0;
02/03/2025 18:08:59;100;0;140.91;-4;-20.34;-4.80;608.4;13.50;75897;2834.938;-1758.237;1;145;-130;-133.9;44.0;44.3;11;10.8;25.3;0.0;
02/03/2025 18:09:19;100;0;142.16;-4;-20.25;-6.26;611.5;13.50;75890;2834.937;-1758.234;1;145;-130;-133.9;44.0;44.3;13;13.1;25.3;0.0;
02/03/2025 18:09:39;100;0;142.39;-4;-20.32;-4.94;614.4;13.50;75883;2834.935;-1758.232;1;145;-130;-133.9;44.0;44.3;13;13.1;25.3;0.0;
02/03/2025 18:09:59;100;0;142.47;-4;-20.11;-4.91;617.2;13.40;75889;2834.933;-1758.230;1;145;-130;-132.3;44.0;44.3;13;13.1;25.3;0.0;
02/03/2025 18:10:19;100;0;141.74;-4;-20.31;-4.92;620.2;13.40;75881;2834.931;-1758.228;1;145;-130;-132.3;44.0;44.3;13;13.1;25.2;0.0;
02/03/2025 18:10:39;100;0;139.96;-4;-20.36;-4.89;623.1;13.40;75868;2834.929;-1758.225;1;145;-130;-133.9;44.0;44.5;10;9.9;25.3;0.0;
02/03/2025 18:10:59;100;0;140.63;-4;-20.09;-6.57;626.1;13.40;75874;2834.928;-1758.223;1;145;-130;-132.3;44.0;44.3;12;12.2;25.3;0.0;
02/03/2025 18:11:19;100;0;140.60;-4;-20.42;-5.22;629.2;13.40;75863;2834.926;-1758.221;1;145;-130;-133.9;44.0;44.3;12;12.6;25.3;0.0;
02/03/2025 18:11:39;100;0;139.58;-4;-20.37;-5.08;632.2;13.30;75866;2834.924;-1758.218;1;145;-130;-133.9;44.0;44.2;12;12.6;25.3;0.0;
02/03/2025 18:11:59;100;0;136.22;-4;-20.42;-5.35;635.4;13.30;75858;2834.922;-1758.215;1;145;-130;-133.9;44.0;44.3;7;7.2;25.3;0.0;
02/03/2025 18:12:19;100;0;140.23;-4;-19.69;-8.01;638.6;13.30;75856;2834.920;-1758.213;1;145;-130;-132.3;44.0;44.3;11;10.8;25.3;0.0;
02/03/2025 18:12:39;100;0;142.29;-4;-20.17;-6.08;641.7;13.30;75848;2834.918;-1758.211;1;145;-130;-133.9;44.0;44.3;13;13.1;25.3;0.0;
02/03/2025 18:12:59;100;0;145.71;-4;-20.36;-4.77;644.9;13.30;75849;2834.916;-1758.208;1;145;-130;-133.9;44.0;44.3;13;13.5;25.3;0.0;
02/03/2025 18:13:19;100;0;148.33;-4;-20.11;-4.75;648.2;13.20;75843;2834.913;-1758.206;1;145;-130;-132.3;44.0;44.3;13;13.5;25.3;0.0;
02/03/2025 18:13:39;100;0;151.65;-4;-20.29;-4.64;651.4;13.20;75833;2834.911;-1758.204;1;145;-130;-133.9;44.0;44.3;13;13.5;25.3;0.0;
02/03/2025 18:13:59;100;0;152.82;-4;-20.18;-4.85;654.8;13.20;75834;2834.908;-1758.203;1;145;-130;-133.9;44.0;44.3;13;13.5;25.3;0.0;
02/03/2025 18:14:19;100;0;152.90;-4;-20.06;-4.84;658.1;13.20;75821;2834.906;-1758.201;1;145;-130;-132.3;44.0;44.3;13;13.5;25.3;0.0;
02/03/2025 18:14:39;100;0;153.00;-4;-20.82;-4.57;661.6;13.10;75828;2834.903;-1758.199;1;145;-130;-132.3;44.0;44.3;13;13.5;25.3;0.0;
02/03/2025 18:14:59;100;0;156.67;-4;-20.03;-4.76;664.8;13.10;75823;2834.900;-1758.198;1;145;-130;-133.9;44.0;44.3;15;14.9;25.3;0.0;
02/03/2025 18:15:19;100;0;156.66;-4;-20.90;-3.84;668.3;13.10;75819;2834.898;-1758.196;1;145;-130;-132.3;44.0;44.3;15;15.3;25.3;0.0;
02/03/2025 18:15:39;100;0;159.19;-4;-19.88;-3.69;671.7;13.10;75803;2834.895;-1758.195;1;145;-130;-133.9;44.0;44.2;17;17.1;25.3;0.0;
02/03/2025 18:15:59;100;0;162.03;-4;-20.66;-2.92;675.2;13.00;75807;2834.892;-1758.194;1;145;-130;-133.9;44.0;44.3;19;19.0;25.3;0.0;
02/03/2025 18:16:19;100;0;158.82;-4;-20.75;-1.86;678.5;13.00;75799;2834.889;-1758.192;1;145;-130;-132.3;44.0;44.3;16;15.8;25.3;0.0;
02/03/2025 18:16:39;100;0;157.92;-4;-20.42;-3.83;681.9;13.00;75796;2834.886;-1758.191;1;145;-130;-132.3;44.0;44.3;16;15.3;25.3;0.0;
02/03/2025 18:16:59;100;0;158.24;-4;-19.95;-3.76;685.1;13.00;75781;2834.883;-1758.190;1;145;-130;-133.9;44.0;44.5;16;15.3;25.2;0.0;
02/03/2025 18:17:19;100;0;157.87;-4;-20.13;-3.83;688.3;13.00;75781;2834.881;-1758.188;1;145;-130;-133.9;44.0;44.3;16;15.3;25.3;0.0;
02/03/2025 18:17:39;100;0;157.81;-4;-20.23;-3.78;691.3;12.90;75779;2834.878;-1758.187;1;145;-130;-132.3;44.0;44.3;16;15.3;25.3;0.0;
02/03/2025 18:17:59;100;0;156.95;-4;-20.13;-3.78;694.5;12.90;75773;2834.876;-1758.186;1;145;-130;-132.3;44.0;44.3;16;15.8;25.3;0.0;
02/03/2025 18:18:19;100;0;152.32;-4;-20.42;-3.87;697.4;12.90;75765;2834.874;-1758.184;1;145;-130;-133.9;44.0;44.3;16;15.8;25.3;0.0;
02/03/2025 18:18:39;100;0;146.68;-4;-20.83;-3.76;700.5;12.90;75764;2834.872;-1758.182;1;145;-130;-133.9;44.0;44.3;14;14.0;25.3;0.0;
02/03/2025 18:18:59;100;0;140.95;-4;-19.89;-4.81;703.6;12.80;75751;2834.870;-1758.180;1;145;-130;-133.9;44.0;44.3;12;12.2;25.3;0.0;
02/03/2025 18:19:19;100;0;141.43;-4;-19.50;-5.71;706.2;12.80;75742;2834.868;-1758.178;1;145;-130;-133.9;44.0;44.3;12;11.7;25.3;0.0;
02/03/2025 18:19:39;100;0;144.26;-4;-19.54;-5.70;709.0;12.80;75750;2834.867;-1758.176;1;145;-130;-132.3;44.0;44.3;12;11.7;25.3;0.0;
02/03/2025 18:19:59;100;0;144.76;-4;-19.42;-5.80;711.7;12.70;75736;2834.865;-1758.174;1;145;-130;-133.9;44.0;44.3;12;11.7;25.3;0.0;
02/03/2025 18:20:19;100;0;146.37;-4;-19.64;-5.75;714.1;12.70;75732;2834.863;-1758.172;1;145;-130;-132.3;44.0;44.3;14;14.0;25.3;0.0;
02/03/2025 18:20:39;100;0;146.23;-4;-19.67;-4.40;716.7;12.70;75731;2834.862;-1758.171;1;145;-130;-133.9;44.0;44.3;14;14.4;25.3;0.0;
02/03/2025 18:20:59;100;0;145.05;-4;-19.66;-4.50;719.2;12.70;75723;2834.860;-1758.169;1;145;-130;-132.3;44.0;44.3;14;14.4;25.3;0.0;
02/03/2025 18:21:19;100;0;142.84;-4;-19.79;-4.42;721.4;12.70;75713;2834.859;-1758.168;1;145;-130;-133.9;44.0;44.3;12;12.2;25.3;0.0;
02/03/2025 18:21:39;100;0;140.90;-4;-19.51;-5.61;723.7;12.70;75714;2834.858;-1758.166;1;145;-130;-133.9;44.0;44.3;10;9.5;25.3;0.0;
02/03/2025 18:21:59;100;0;139.79;-4;-19.45;-6.74;726.0;12.60;75697;2834.857;-1758.164;1;145;-130;-132.3;44.0;44.3;10;9.5;25.3;0.0;
02/03/2025 18:22:19;100;0;139.04;-4;-19.84;-6.71;728.2;12.60;75694;2834.856;-1758.162;1;145;-130;-132.3;44.0;44.2;8;7.7;25.3;0.0;
02/03/2025 18:22:39;100;0;141.46;-4;-19.73;-7.60;730.4;12.60;75682;2834.855;-1758.161;1;145;-130;-133.9;44.0;44.3;10;9.9;25.3;0.0;
02/03/2025 18:22:59;100;0;143.02;-4;-19.87;-6.29;732.7;12.50;75667;2834.854;-1758.159;1;145;-130;-135.5;44.0;44.3;12;12.2;25.3;0.0;
02/03/2025 18:23:19;100;0;145.17;-4;-20.00;-5.18;734.9;12.50;75663;2834.852;-1758.158;1;145;-130;-133.9;44.0;44.3;12;12.6;25.3;0.0;
02/03/2025 18:23:39;100;0;146.54;-4;-20.04;-5.24;737.1;12.50;75649;2834.851;-1758.157;1;145;-130;-133.9;44.0;44.3;12;12.6;25.3;0.0;
02/03/2025 18:23:59;100;0;149.01;-4;-19.90;-5.26;739.2;12.50;75651;2834.850;-1758.155;1;145;-130;-133.9;44.0;44.3;14;14.0;25.3;0.0;
02/03/2025 18:24:19;100;0;151.80;-4;-20.05;-4.44;741.5;12.40;75647;2834.849;-1758.154;1;145;-130;-132.3;44.0;44.3;14;14.4;25.3;0.0;
02/03/2025 18:24:40;100;0;153.75;-4;-19.97;-4.34;743.7;12.40;75638;2834.847;-1758.153;1;145;-130;-132.3;44.0;44.3;14;14.4;25.3;0.0;
02/03/2025 18:25:00;100;0;153.43;-4;-20.12;-4.42;745.8;12.40;75631;2834.846;-1758.152;1;145;-130;-132.3;44.0;44.3;14;14.4;25.3;0.0;
02/03/2025 18:25:20;100;0;153.87;-4;-19.97;-4.37;747.9;12.40;75626;2834.845;-1758.151;1;145;-130;-133.9;44.0;44.3;14;14.0;25.3;0.0;
02/03/2025 18:25:40;100;0;154.12;-4;-20.06;-4.32;750.1;12.30;75611;2834.843;-1758.150;1;145;-130;-132.3;44.0;44.3;14;14.4;25.3;0.0;
02/03/2025 18:26:00;100;0;156.19;-4;-19.19;-4.41;752.2;12.30;75614;2834.842;-1758.149;1;145;-130;-135.5;44.0;44.3;14;14.4;25.3;0.0;
02/03/2025 18:26:20;100;0;158.83;-4;-19.72;-4.48;753.9;12.30;75591;2834.841;-1758.149;1;145;-150;-153.2;44.0;44.3;14;14.4;25.3;0.0;
02/03/2025 18:26:40;100;0;158.92;-4;-19.50;-4.43;755.9;12.30;75623;2834.840;-1758.148;1;145;-170;-169.4;44.0;44.3;14;14.4;25.3;0.0;
02/03/2025 18:27:00;100;0;159.13;-4;-19.53;-4.31;758.3;12.20;75657;2834.838;-1758.148;1;145;-170;-171.0;44.0;44.3;14;14.4;25.3;0.0;
02/03/2025 18:27:20;100;0;158.65;-4;-19.16;-4.33;760.5;12.20;75649;2834.837;-1758.147;1;145;-170;-171.0;44.0;44.3;14;14.4;25.3;0.0;
02/03/2025 18:27:40;100;0;158.79;-4;-19.33;-4.22;762.9;12.20;75626;2834.835;-1758.146;1;145;-170;-171.0;44.0;44.3;16;15.8;25.3;0.0;
02/03/2025 18:28:00;100;0;159.12;-4;-19.47;-3.22;765.2;12.10;75625;2834.833;-1758.145;1;145;-170;-171.0;44.0;44.3;16;16.2;25.3;0.0;
02/03/2025 18:28:20;100;0;159.52;-4;-19.43;-3.34;767.5;12.10;75623;2834.831;-1758.144;1;145;-170;-172.6;44.0;44.3;16;16.2;25.3;0.0;
02/03/2025 18:28:40;100;0;158.19;-4;-19.37;-3.26;769.8;12.10;75603;2834.830;-1758.143;1;145;-170;-171.0;44.0;44.3;16;16.2;25.3;0.0;
02/03/2025 18:29:00;100;0;156.29;-4;-19.46;-3.22;772.3;12.00;75601;2834.828;-1758.142;1;145;-170;-171.0;44.0;44.3;16;16.7;25.3;0.0;
02/03/2025 18:29:20;100;0;156.12;-4;-19.40;-3.24;774.7;12.00;75591;2834.826;-1758.141;1;145;-170;-171.0;44.0;44.3;16;16.2;25.3;0.0;
02/03/2025 18:29:40;100;0;156.59;-4;-19.48;-3.24;777.1;12.00;75584;2834.824;-1758.140;1;145;-170;-171.0;44.0;44.2;16;16.2;25.3;0.0;
02/03/2025 18:30:00;100;0;156.72;-4;-19.42;-3.26;779.7;12.00;75588;2834.822;-1758.139;1;145;-170;-171.0;44.0;44.3;16;16.2;25.3;0.0;
02/03/2025 18:30:20;100;0;156.73;-4;-19.38;-3.14;782.0;11.90;75576;2834.821;-1758.138;1;145;-170;-169.4;44.0;44.3;16;16.2;25.3;0.0;
02/03/2025 18:30:40;100;0;155.48;-4;-19.20;-3.12;784.6;11.90;75569;2834.819;-1758.137;1;145;-170;-171.0;44.0;44.3;16;16.7;25.3;0.0;
02/03/2025 18:31:00;100;0;155.95;-4;-19.50;-3.40;787.2;11.90;75562;2834.817;-1758.136;1;145;-170;-171.0;44.0;44.3;16;16.7;25.3;0.0;
02/03/2025 18:31:20;100;0;156.04;-4;-19.19;-3.24;789.8;11.90;75566;2834.815;-1758.135;1;145;-170;-171.0;44.0;44.3;16;16.7;25.3;0.0;
02/03/2025 18:31:40;100;0;157.31;-4;-18.88;-3.29;792.4;11.80;75559;2834.813;-1758.134;1;145;-170;-171.0;44.3;44.3;16;16.7;25.3;0.0;
02/03/2025 18:32:00;100;0;156.99;-4;-19.12;-3.33;794.9;11.80;75552;2834.811;-1758.133;1;145;-170;-171.0;44.3;44.3;16;16.2;25.3;0.0;
02/03/2025 18:32:20;100;0;156.20;-4;-19.39;-3.30;797.5;11.80;75540;2834.809;-1758.131;1;145;-170;-171.0;44.3;44.3;16;16.2;25.3;0.0;
02/03/2025 18:32:40;100;0;155.32;-4;-19.67;-3.25;800.4;11.80;75535;2834.807;-1758.130;1;145;-170;-171.0;44.3;44.3;16;16.7;25.3;0.0;
02/03/2025 18:33:00;100;0;154.08;-4;-19.63;-3.23;803.2;11.70;75536;2834.805;-1758.129;1;145;-170;-172.6;44.3;44.3;16;16.2;25.3;0.0;
02/03/2025 18:33:20;100;0;152.14;-4;-19.81;-3.21;806.2;11.70;75525;2834.802;-1758.127;1;145;-170;-171.0;44.3;44.3;16;16.2;25.3;0.0;
02/03/2025 18:33:40;100;0;149.84;-4;-19.72;-3.16;809.1;11.70;75515;2834.800;-1758.125;1;145;-170;-171.0;44.3;44.3;16;16.7;25.3;0.0;
02/03/2025 18:34:00;100;0;149.97;-4;-19.26;-3.13;811.9;11.60;75503;2834.798;-1758.124;1;145;-170;-169.4;44.3;44.3;16;16.7;25.3;0.0;
02/03/2025 18:34:20;100;0;150.77;-4;-19.25;-3.18;815.0;11.60;75502;2834.796;-1758.122;1;145;-170;-172.6;44.3;44.3;16;16.2;25.3;0.0;
02/03/2025 18:34:40;100;0;152.03;-4;-19.01;-3.16;817.7;11.60;75492;2834.794;-1758.120;1;145;-170;-171.0;44.3;44.3;16;16.7;25.3;0.0;
02/03/2025 18:35:00;100;0;153.94;-4;-19.04;-3.18;820.4;11.50;75499;2834.792;-1758.119;1;145;-170;-171.0;44.3;44.3;16;16.2;25.3;0.0;
02/03/2025 18:35:20;100;0;154.24;-4;-19.53;-3.22;823.2;11.50;75483;2834.790;-1758.118;1;145;-170;-171.0;44.3;44.3;16;16.7;25.3;0.0;
02/03/2025 18:35:40;100;0;152.68;-4;-19.60;-3.24;826.1;11.50;75483;2834.787;-1758.116;1;145;-170;-171.0;44.3;44.3;16;16.2;25.3;0.0;
02/03/2025 18:36:00;100;0;154.14;-4;-19.29;-3.27;828.9;11.50;75473;2834.785;-1758.115;1;145;-170;-171.0;44.3;44.3;16;16.2;25.3;0.0;
02/03/2025 18:36:20;100;0;152.96;-4;-19.15;-3.28;831.9;11.40;75470;2834.783;-1758.113;1;145;-170;-171.0;44.3;44.3;16;16.2;25.3;0.0;
02/03/2025 18:36:40;100;0;152.09;-4;-19.16;-3.26;834.6;11.40;75463;2834.781;-1758.112;1;145;-170;-171.0;44.3;44.3;16;16.2;25.3;0.0;
02/03/2025 18:37:00;100;0;151.32;-4;-19.24;-3.23;837.5;11.40;75450;2834.778;-1758.110;1;145;-170;-169.4;44.3;44.3;16;16.7;25.3;0.0;
02/03/2025 18:37:20;100;0;150.87;-4;-19.44;-3.20;840.3;11.40;75462;2834.776;-1758.108;1;145;-170;-171.0;44.3;44.3;16;16.2;25.3;0.0;
02/03/2025 18:37:40;100;0;149.61;-4;-19.93;-3.07;843.3;11.30;75450;2834.774;-1758.106;1;145;-170;-171.0;44.3;44.3;16;16.2;25.3;0.0;
02/03/2025 18:38:00;100;0;149.53;-4;-19.33;-3.31;846.2;11.30;75446;2834.772;-1758.105;1;145;-170;-171.0;44.3;44.3;16;16.2;25.3;0.0;
02/03/2025 18:38:20;100;0;148.53;-4;-19.74;-3.25;849.2;11.30;75439;2834.770;-1758.103;1;145;-170;-171.0;44.3;44.3;16;16.2;25.3;0.0;
02/03/2025 18:38:40;100;0;147.10;-4;-20.04;-3.42;852.1;11.30;75442;2834.768;-1758.101;1;145;-170;-171.0;44.3;44.3;14;14.0;25.3;0.0;
02/03/2025 18:39:00;100;0;147.65;-4;-19.25;-4.43;855.2;11.20;75435;2834.766;-1758.099;1;145;-170;-171.0;44.3;44.3;14;13.5;25.3;0.0;
02/03/2025 18:39:20;100;0;149.02;-4;-19.20;-4.49;858.2;11.20;75425;2834.763;-1758.097;1;145;-170;-169.4;44.3;44.3;14;13.5;25.3;0.0;
02/03/2025 18:39:40;100;0;150.45;-4;-18.49;-4.59;861.3;11.20;75429;2834.761;-1758.095;1;145;-170;-174.2;44.8;44.9;14;13.5;25.3;0.0;
02/03/2025 18:40:00;100;0;148.70;-4;-20.39;-4.56;864.2;11.20;75434;2834.759;-1758.093;1;145;-170;-171.0;44.8;44.9;14;13.5;25.3;0.0;
02/03/2025 18:40:20;100;0;149.90;-4;-20.25;-4.43;867.2;11.10;75429;2834.757;-1758.091;1;145;-170;-171.0;44.8;45.1;14;13.5;25.3;0.0;
02/03/2025 18:40:40;100;0;149.96;-4;-20.64;-4.66;870.5;11.10;75411;2834.754;-1758.090;1;145;-170;-169.4;44.8;45.1;14;13.5;25.3;0.0;
02/03/2025 18:41:00;100;0;149.30;-4;-20.96;-4.53;873.6;11.10;75415;2834.752;-1758.088;1;145;-170;-171.0;44.8;44.9;14;13.5;25.3;0.0;
02/03/2025 18:41:20;100;0;148.59;-4;-20.83;-4.59;876.8;11.10;75416;2834.750;-1758.086;1;145;-170;-171.0;44.8;44.9;14;13.5;25.3;0.0;
02/03/2025 18:41:40;100;0;148.55;-4;-20.43;-4.51;880.1;11.00;75412;2834.747;-1758.084;1;145;-170;-171.0;44.8;44.9;14;13.5;25.3;0.0;
02/03/2025 18:42:00;100;0;149.39;-4;-20.11;-4.57;883.2;11.00;75402;2834.745;-1758.082;1;145;-170;-171.0;44.8;45.1;14;14.0;25.3;0.0;
02/03/2025 18:42:20;100;0;149.16;-4;-20.39;-4.59;886.1;11.00;75393;2834.743;-1758.080;1;145;-170;-171.0;44.8;45.1;14;13.5;25.2;0.0;
02/03/2025 18:42:40;100;0;149.34;-4;-20.23;-4.56;889.1;11.00;75385;2834.741;-1758.078;1;145;-170;-171.0;44.8;44.9;14;13.5;25.3;0.0;
02/03/2025 18:43:00;100;0;148.54;-4;-20.16;-4.69;892.2;11.00;75389;2834.739;-1758.076;1;145;-170;-171.0;44.8;44.9;14;13.5;25.3;0.0;
02/03/2025 18:43:20;100;0;148.99;-4;-19.78;-4.60;895.1;10.90;75384;2834.737;-1758.075;1;145;-170;-172.6;44.8;44.9;14;13.5;25.3;0.0;
02/03/2025 18:43:40;100;0;149.92;-4;-19.84;-4.64;898.0;10.90;75379;2834.735;-1758.073;1;145;-170;-171.0;44.8;44.9;14;13.5;25.3;0.0;
02/03/2025 18:44:00;100;0;151.03;-4;-19.75;-4.55;900.7;10.90;75385;2834.733;-1758.071;1;145;-170;-171.0;44.8;45.1;14;13.5;25.3;0.0;
02/03/2025 18:44:20;100;0;152.20;-4;-19.88;-4.67;903.5;10.90;75364;2834.731;-1758.070;1;145;-170;-171.0;44.8;45.1;14;13.5;25.3;0.0;
02/03/2025 18:44:40;100;0;153.87;-4;-19.97;-4.61;906.2;10.80;75368;2834.729;-1758.069;1;145;-170;-171.0;44.8;45.1;14;14.0;25.3;0.0;
02/03/2025 18:45:00;100;0;156.63;-4;-19.98;-4.63;909.0;10.80;75366;2834.727;-1758.067;1;145;-170;-169.4;44.8;44.9;14;13.5;25.3;0.0;
02/03/2025 18:45:20;100;0;156.97;-4;-19.95;-4.61;911.8;10.80;75359;2834.725;-1758.066;1;145;-170;-171.0;44.8;45.1;14;13.5;25.3;0.0;
02/03/2025 18:45:40;100;0;156.82;-4;-20.30;-4.72;914.7;10.80;75360;2834.722;-1758.065;1;145;-170;-171.0;44.8;44.9;14;13.5;25.3;0.0;
02/03/2025 18:46:00;100;0;157.71;-4;-20.34;-4.62;917.6;10.80;75353;2834.720;-1758.064;1;145;-170;-171.0;44.8;45.1;16;15.8;25.3;0.0;
02/03/2025 18:46:20;100;0;158.11;-4;-20.17;-3.47;920.5;10.70;75359;2834.718;-1758.063;1;145;-170;-171.0;44.8;45.1;16;16.2;25.3;0.0;
02/03/2025 18:46:40;100;0;157.15;-4;-20.37;-3.25;923.5;10.70;75347;2834.715;-1758.061;1;145;-170;-171.0;44.8;45.1;16;16.2;25.3;0.0;
02/03/2025 18:47:00;100;0;155.39;-4;-19.96;-3.25;926.3;10.70;75348;2834.713;-1758.060;1;145;-170;-172.6;44.8;45.1;16;16.2;25.3;0.0;
02/03/2025 18:47:20;100;0;154.87;-4;-20.40;-3.40;929.1;10.70;75348;2834.711;-1758.059;1;145;-170;-171.0;44.8;45.1;16;16.2;25.3;0.0;
02/03/2025 18:47:40;100;0;153.41;-4;-20.41;-3.29;932.0;10.70;75341;2834.709;-1758.057;1;145;-170;-171.0;44.8;45.1;16;16.2;25.3;0.0;
02/03/2025 18:48:00;100;0;154.02;-4;-20.46;-3.25;934.8;10.60;75343;2834.707;-1758.056;1;145;-170;-171.0;44.8;45.1;16;16.2;25.3;0.0;
02/03/2025 18:48:20;100;0;154.13;-4;-20.41;-3.47;937.7;10.60;75335;2834.705;-1758.055;1;145;-170;-171.0;44.8;45.1;16;16.2;25.2;0.0;
02/03/2025 18:48:40;100;0;153.44;-4;-20.12;-3.43;940.4;10.60;75322;2834.703;-1758.053;1;145;-170;-171.0;44.8;45.1;16;16.2;25.3;0.0;
02/03/2025 18:49:00;100;0;152.34;-4;-20.12;-3.36;943.3;10.60;75318;2834.701;-1758.052;1;145;-170;-171.0;44.8;45.1;16;16.2;25.3;0.0;
02/03/2025 18:49:20;100;0;151.31;-4;-20.16;-3.40;946.0;10.60;75322;2834.699;-1758.050;1;145;-170;-171.0;44.8;45.1;16;16.2;25.3;0.0;
02/03/2025 18:49:40;100;0;150.63;-4;-20.00;-3.40;948.7;10.50;75328;2834.697;-1758.049;1;145;-170;-171.0;44.8;45.1;16;16.2;25.3;0.0;
02/03/2025 18:50:00;100;0;150.30;-4;-20.07;-3.42;951.4;10.50;75328;2834.695;-1758.047;1;145;-170;-171.0;44.8;45.1;16;16.2;25.3;0.0;
02/03/2025 18:50:20;100;0;149.84;-4;-20.02;-3.34;954.2;10.50;75322;2834.693;-1758.046;1;145;-170;-171.0;44.8;45.2;16;16.2;25.3;0.0;
02/03/2025 18:50:40;100;0;148.30;-4;-20.04;-3.42;956.8;10.50;75314;2834.691;-1758.044;1;145;-170;-171.0;44.8;45.1;16;16.2;25.3;0.0;
02/03/2025 18:51:00;100;0;146.48;-4;-20.10;-3.39;959.5;10.50;75315;2834.690;-1758.042;1;145;-170;-171.0;44.8;45.1;14;14.0;25.3;0.0;
02/03/2025 18:51:20;100;0;146.51;-4;-20.00;-4.55;962.2;10.40;75311;2834.688;-1758.041;1;145;-170;-171.0;44.8;45.1;14;14.0;25.3;0.0;
02/03/2025 18:51:40;100;0;145.67;-4;-20.07;-4.56;964.8;10.40;75306;2834.686;-1758.039;1;145;-170;-171.0;44.8;44.9;14;14.0;25.3;0.0;
02/03/2025 18:52:00;100;0;144.96;-4;-20.12;-4.58;967.7;10.40;75295;2834.684;-1758.037;1;145;-170;-171.0;44.8;45.1;14;14.0;25.3;0.0;
02/03/2025 18:52:20;100;0;144.76;-4;-20.09;-4.55;970.4;10.40;75305;2834.683;-1758.035;1;145;-170;-171.0;44.8;45.1;14;14.0;25.3;0.0;
02/03/2025 18:52:40;100;0;146.13;-4;-20.05;-4.53;973.3;10.40;75295;2834.681;-1758.033;1;145;-170;-171.0;44.8;45.1;14;13.5;25.2;0.0;
02/03/2025 18:53:00;100;0;146.93;-4;-20.04;-4.53;976.1;10.30;75302;2834.679;-1758.031;1;145;-170;-171.0;44.8;45.1;14;14.0;25.3;0.0;
02/03/2025 18:53:20;100;0;149.02;-4;-20.29;-4.41;979.0;10.30;75297;2834.677;-1758.030;1;145;-170;-171.0;44.8;45.1;14;13.5;25.3;0.0;
02/03/2025 18:53:40;100;0;150.75;-4;-20.20;-4.45;981.9;10.30;75295;2834.675;-1758.028;1;145;-170;-171.0;44.8;45.1;14;14.0;25.3;0.0;
02/03/2025 18:54:00;100;0;151.01;-4;-20.22;-4.49;985.0;10.30;75287;2834.673;-1758.026;1;145;-170;-171.0;44.8;45.1;14;14.0;25.3;0.0;
02/03/2025 18:54:20;100;0;152.92;-4;-20.15;-4.48;988.1;10.30;75283;2834.670;-1758.025;1;145;-170;-171.0;44.8;45.1;14;14.0;25.3;0.0;
02/03/2025 18:54:40;100;0;154.94;-4;-19.97;-4.57;991.0;10.30;75278;2834.668;-1758.023;1;145;-170;-171.0;44.8;45.1;14;13.5;25.3;0.0;
02/03/2025 18:55:00;100;0;156.63;-4;-20.02;-4.53;994.1;10.30;75281;2834.665;-1758.022;1;145;-170;-171.0;44.8;45.1;16;16.2;25.3;0.0;
02/03/2025 18:55:20;100;0;155.34;-4;-20.22;-3.40;997.0;10.20;75274;2834.663;-1758.020;1;145;-170;-171.0;44.8;45.1;16;16.2;25.3;0.0;
02/03/2025 18:55:33;118;0;153.79;-4;-20.32;-3.30;999.0;10.20;75277;2834.662;-1758.019;1;145;450;-167.7;21.9;21.9;7;6.8;25.3;0.0;
02/03/2025 18:55:43;118;0;120.33;-4;-7.20;-8.75;1000.2;10.20;75269;2834.661;-1758.018;1;145;450;-40.3;21.9;21.8;7;6.8;23.9;-1.0;
02/03/2025 18:55:53;118;0;101.99;-4;19.03;-8.79;1000.4;10.20;74989;2834.662;-1758.017;1;145;450;82.3;21.9;21.9;7;6.8;23.7;-1.0;
02/03/2025 18:56:03;118;0;96.20;-4;29.25;-9.29;999.7;10.20;74745;2834.662;-1758.017;1;145;450;206.5;21.9;22.2;7;6.8;23.9;-1.0;
02/03/2025 18:56:13;118;0;96.25;-4;29.00;-9.09;998.7;10.20;74498;2834.663;-1758.016;1;145;450;329.0;21.9;22.2;7;6.8;23.7;-1.0;
02/03/2025 18:56:23;118;0;97.17;-4;26.73;-8.68;997.4;10.20;74247;2834.663;-1758.015;1;145;450;441.9;21.9;22.2;7;6.8;23.9;-1.0;
02/03/2025 18:56:33;118;0;98.73;-4;24.00;-8.10;995.6;10.30;74012;2834.663;-1758.013;1;145;450;451.6;21.9;22.1;7;6.8;23.8;-1.0;
02/03/2025 18:56:43;118;0;150.16;-4;21.68;-7.84;993.9;10.30;74006;2834.662;-1758.012;1;145;450;451.6;21.9;22.1;7;6.8;25.2;-1.0;
02/03/2025 18:57:03;117;0;141.98;-4;19.51;-7.92;990.6;10.30;73995;2834.660;-1758.009;1;145;450;451.6;21.9;22.1;7;6.8;25.2;-1.0;
02/03/2025 18:57:23;117;0;133.20;-4;18.71;-7.77;987.3;10.40;73990;2834.658;-1758.006;1;145;450;451.6;21.5;21.6;40;40.2;25.2;-1.0;
02/03/2025 18:57:43;117;0;137.57;-4;21.62;9.43;983.9;10.40;73997;2834.656;-1758.004;1;145;450;451.6;21.5;21.6;34;33.8;25.2;-1.0;
02/03/2025 18:58:03;117;0;139.37;-4;22.37;6.13;980.2;10.40;74008;2834.654;-1758.001;1;145;450;448.4;22.2;22.2;32;31.6;25.3;-1.0;
02/03/2025 18:58:23;117;0;139.69;-4;21.43;4.78;976.6;10.40;73992;2834.652;-1757.998;1;145;450;450.0;22.2;22.5;32;31.6;25.3;-1.0;
02/03/2025 18:58:44;117;0;141.22;-4;21.01;4.91;972.8;10.40;73990;2834.649;-1757.995;1;145;450;451.6;22.2;22.4;30;29.8;25.3;-1.0;
02/03/2025 18:59:04;117;0;141.96;-4;20.79;3.91;969.4;10.40;73985;2834.647;-1757.992;1;145;450;451.6;22.2;22.4;30;29.8;25.3;-1.0;
02/03/2025 18:59:24;117;0;142.86;-4;20.80;3.85;966.0;10.40;73980;2834.645;-1757.990;1;145;450;451.6;22.2;22.5;30;29.8;25.3;-1.0;
02/03/2025 18:59:44;117;0;144.13;-4;20.93;3.87;962.5;10.40;73972;2834.643;-1757.987;1;145;450;450.0;22.2;22.4;30;29.3;25.3;-1.0;
02/03/2025 19:00:04;117;0;145.21;-4;20.97;3.96;959.2;10.30;73976;2834.641;-1757.985;1;145;450;451.6;22.2;22.4;30;29.8;25.3;-1.0;
02/03/2025 19:00:24;117;0;145.73;-4;20.81;3.75;955.7;10.30;73979;2834.638;-1757.983;1;145;450;453.2;22.2;22.4;30;29.8;25.3;-1.0;
02/03/2025 19:00:44;117;0;147.56;-4;20.80;3.75;952.4;10.30;73969;2834.636;-1757.981;1;145;450;451.6;22.2;22.4;30;29.3;25.3;-1.0;
02/03/2025 19:01:04;117;0;148.75;-4;20.86;3.84;948.8;10.30;73967;2834.633;-1757.979;1;145;450;450.0;22.2;22.4;30;29.3;25.2;-1.0;
02/03/2025 19:01:24;117;0;148.87;-4;20.82;3.84;945.4;10.30;73960;2834.631;-1757.977;1;145;450;451.6;22.2;22.4;30;29.8;25.2;-1.0;
02/03/2025 19:01:44;117;0;148.96;-4;20.69;4.02;941.9;10.30;73966;2834.628;-1757.975;1;145;450;451.6;22.2;22.4;30;29.3;25.3;-1.0;
02/03/2025 19:02:04;117;0;148.92;-4;20.79;3.78;938.4;10.30;73958;2834.626;-1757.972;1;145;450;451.6;22.2;22.4;30;29.8;25.3;-1.0;
02/03/2025 19:02:24;117;0;149.11;-4;20.86;3.80;935.0;10.20;73960;2834.623;-1757.970;1;145;450;450.0;22.2;22.4;30;29.8;25.3;-1.0;
02/03/2025 19:02:44;117;0;150.33;-4;20.88;3.85;931.5;10.20;73952;2834.621;-1757.968;1;145;450;451.6;22.2;22.4;30;29.3;25.3;-1.0;
02/03/2025 19:03:04;117;0;151.36;-4;20.81;3.86;927.8;10.20;73948;2834.618;-1757.966;1;145;450;451.6;22.2;22.4;30;29.3;25.3;-1.0;
02/03/2025 19:03:24;117;0;151.92;-4;20.83;3.84;924.1;10.20;73949;2834.615;-1757.964;1;145;450;451.6;22.2;22.4;30;29.8;25.3;-1.0;
02/03/2025 19:03:44;117;0;153.00;-4;20.81;3.84;920.5;10.20;73940;2834.612;-1757.962;1;145;450;451.6;22.2;22.4;30;29.8;25.3;-1.0;
02/03/2025 19:04:04;117;0;153.51;-4;20.52;3.82;916.6;10.20;73944;2834.609;-1757.960;1;145;450;451.6;22.2;22.4;30;29.8;25.3;-1.0;
02/03/2025 19:04:24;117;0;154.61;-4;20.97;3.93;912.7;10.20;73939;2834.606;-1757.958;1;145;450;451.6;22.2;22.5;28;28.0;25.2;-1.0;
02/03/2025 19:04:44;117;0;156.07;-4;20.34;3.08;909.0;10.10;73926;2834.602;-1757.957;1;145;450;451.6;22.2;22.4;28;28.0;25.3;-1.0;
02/03/2025 19:05:04;117;0;157.41;-4;20.76;3.16;905.2;10.10;73925;2834.599;-1757.955;1;145;450;450.0;22.2;22.4;28;28.0;25.3;-1.0;
02/03/2025 19:05:24;117;0;156.15;-4;20.24;3.04;901.2;10.10;73925;2834.596;-1757.953;1;145;450;451.6;22.2;22.5;28;28.0;25.3;-1.0;
02/03/2025 19:05:44;117;0;156.78;-4;20.16;3.11;897.5;10.10;73928;2834.593;-1757.951;1;145;450;451.6;22.2;22.4;28;28.4;25.3;-1.0;
02/03/2025 19:06:04;117;0;156.22;-4;20.00;3.21;894.1;10.10;73934;2834.590;-1757.950;1;145;450;451.6;22.2;22.4;28;28.0;25.3;-1.0;
02/03/2025 19:06:24;117;0;156.61;-4;20.42;3.00;890.6;10.10;73918;2834.587;-1757.948;1;145;450;451.6;22.2;22.4;28;28.4;25.3;-1.0;
02/03/2025 19:06:44;117;0;156.20;-4;20.27;3.11;887.2;10.10;73932;2834.584;-1757.947;1;145;450;451.6;22.2;22.4;28;28.0;25.3;-1.0;
02/03/2025 19:07:04;117;0;155.89;-4;20.55;3.18;883.6;10.10;73932;2834.581;-1757.945;1;145;450;451.6;22.2;22.4;28;28.0;25.3;-1.0;
02/03/2025 19:07:24;117;0;155.67;-4;20.54;3.15;880.1;10.00;73923;2834.578;-1757.943;1;145;450;451.6;22.2;22.4;28;28.0;25.3;-1.0;
02/03/2025 19:07:44;117;0;155.72;-4;20.57;3.18;876.6;10.00;73918;2834.575;-1757.942;1;145;450;451.6;22.2;22.5;28;28.0;25.3;-1.0;
02/03/2025 19:08:04;117;0;155.50;-4;19.95;2.92;873.1;10.00;73907;2834.573;-1757.940;1;145;450;453.2;22.2;22.5;28;28.0;25.3;-1.0;
02/03/2025 19:08:24;117;0;155.01;-4;20.17;3.27;869.7;10.00;73916;2834.570;-1757.938;1;145;450;451.6;22.2;22.4;28;28.0;25.3;-1.0;
02/03/2025 19:08:44;117;0;154.81;-4;19.85;2.91;866.4;10.00;73916;2834.567;-1757.937;1;145;450;451.6;22.2;22.4;28;28.0;25.3;-1.0;
02/03/2025 19:09:04;117;0;155.78;-4;20.33;3.13;863.1;10.00;73919;2834.564;-1757.935;1;145;450;451.6;22.2;22.7;28;28.0;25.3;-1.0;
02/03/2025 19:09:24;117;0;154.22;-4;20.56;3.23;859.8;10.00;73909;2834.562;-1757.934;1;145;450;451.6;22.2;22.4;28;28.0;25.3;-1.0;
02/03/2025 19:09:44;117;0;154.73;-4;20.42;3.02;856.5;10.00;73909;2834.559;-1757.932;1;145;450;451.6;22.2;22.4;28;28.0;25.3;-1.0;
02/03/2025 19:10:04;117;0;155.63;-4;20.58;3.05;853.3;10.00;73913;2834.557;-1757.931;1;145;450;451.6;22.2;22.4;28;28.0;25.3;-1.0;
02/03/2025 19:10:24;117;0;156.27;-4;20.33;3.01;850.0;10.00;73907;2834.554;-1757.929;1;145;450;450.0;22.2;22.4;28;28.0;25.3;-1.0;
02/03/2025 19:10:44;117;0;156.98;-4;20.26;3.19;846.6;10.00;73903;2834.551;-1757.928;1;145;450;451.6;22.2;22.4;28;28.0;25.3;-1.0;
02/03/2025 19:11:04;117;0;157.25;-4;20.51;3.09;843.5;9.90;73900;2834.549;-1757.926;1;145;450;451.6;22.2;22.4;28;28.0;25.3;-1.0;
02/03/2025 19:11:24;117;0;157.05;-4;20.26;3.06;840.3;9.90;73903;2834.546;-1757.925;1;145;450;451.6;22.2;22.4;28;28.0;25.3;-1.0;
02/03/2025 19:11:44;117;0;155.38;-4;20.23;3.18;837.3;9.90;73912;2834.544;-1757.924;1;145;450;451.6;22.2;22.4;28;28.0;25.3;-1.0;
02/03/2025 19:12:04;117;0;154.48;-4;20.16;3.16;834.2;9.90;73899;2834.541;-1757.922;1;145;450;453.2;22.2;22.4;28;28.4;25.3;-1.0;
02/03/2025 19:12:24;117;0;154.50;-4;20.13;2.97;831.2;9.90;73907;2834.539;-1757.921;1;145;450;453.2;22.2;22.4;28;28.4;25.3;-1.0;
02/03/2025 19:12:44;117;0;154.44;-4;20.08;3.13;828.2;9.90;73900;2834.537;-1757.919;1;145;450;451.6;22.2;22.4;28;28.0;25.3;-1.0;
02/03/2025 19:13:04;117;0;155.01;-4;20.30;3.08;825.3;9.90;73905;2834.535;-1757.918;1;145;450;451.6;22.2;22.4;28;28.0;25.3;-1.0;
02/03/2025 19:13:24;117;0;153.55;-4;20.42;3.12;822.3;9.90;73908;2834.532;-1757.916;1;145;450;451.6;22.2;22.4;28;28.0;25.3;-1.0;
02/03/2025 19:13:44;117;0;153.71;-4;20.31;3.06;819.2;9.90;73901;2834.530;-1757.915;1;145;450;453.2;22.2;22.5;28;28.0;25.3;-1.0;
02/03/2025 19:14:04;117;0;153.62;-4;20.09;3.10;816.2;9.90;73911;2834.528;-1757.913;1;145;450;453.2;22.2;22.4;28;28.0;25.3;-1.0;
02/03/2025 19:14:24;117;0;153.61;-4;20.14;3.17;813.0;9.90;73891;2834.525;-1757.911;1;145;450;451.6;22.2;22.4;28;28.0;25.3;-1.0;
02/03/2025 19:14:44;117;0;154.27;-4;20.28;3.22;810.0;9.90;73901;2834.523;-1757.910;1;145;450;451.6;22.2;22.4;28;28.0;25.3;-1.0;
02/03/2025 19:15:04;117;0;155.14;-4;20.42;3.07;806.9;9.90;73901;2834.520;-1757.909;1;145;450;451.6;22.2;22.4;28;28.0;25.3;-1.0;
02/03/2025 19:15:24;117;0;155.72;-4;20.19;3.09;803.6;9.90;73901;2834.518;-1757.907;1;145;450;451.6;22.2;22.4;28;28.0;25.3;-1.0;
02/03/2025 19:15:44;117;0;158.45;-4;20.55;3.16;800.4;9.90;73896;2834.515;-1757.906;1;145;450;451.6;22.2;22.4;26;25.7;25.3;-1.0;
02/03/2025 19:16:04;117;0;157.85;-4;20.23;1.81;797.0;9.90;73902;2834.512;-1757.904;1;145;450;453.2;22.2;22.5;26;25.7;25.3;-1.0;
02/03/2025 19:16:24;117;0;157.03;-4;19.91;1.95;793.7;9.90;73906;2834.509;-1757.903;1;145;450;450.0;22.2;22.4;26;25.7;25.3;-1.0;
02/03/2025 19:16:44;117;0;156.65;-4;20.11;1.84;790.3;9.90;73900;2834.507;-1757.901;1;145;450;453.2;22.2;22.4;26;25.7;25.3;-1.0;
02/03/2025 19:17:04;117;0;156.64;-4;20.01;1.84;786.9;9.90;73899;2834.504;-1757.900;1;145;450;451.6;22.2;22.4;26;25.7;25.3;-1.0;
02/03/2025 19:17:24;117;0;155.83;-4;19.99;2.07;783.4;9.90;73910;2834.501;-1757.898;1;145;450;453.2;22.2;22.4;26;25.7;25.3;-1.0;
02/03/2025 19:17:44;117;0;154.69;-4;19.94;1.91;780.0;9.90;73903;2834.498;-1757.896;1;145;450;451.6;22.2;22.4;28;28.0;25.3;-1.0;
02/03/2025 19:18:04;117;0;154.25;-4;20.10;3.18;776.6;9.90;73908;2834.495;-1757.895;1;145;450;453.2;22.2;22.4;28;28.4;25.3;-1.0;
02/03/2025 19:18:24;117;0;154.12;-4;19.96;3.35;773.1;9.90;73911;2834.492;-1757.893;1;145;450;451.6;22.2;22.5;28;28.4;25.3;-1.0;
02/03/2025 19:18:44;117;0;154.71;-4;19.71;3.15;769.6;9.90;73899;2834.489;-1757.891;1;145;450;451.6;22.2;22.4;28;28.4;25.2;-1.0;
02/03/2025 19:19:04;117;0;155.09;-4;20.01;3.20;766.2;9.90;73905;2834.487;-1757.889;1;145;450;453.2;22.2;22.4;28;28.4;25.3;-1.0;
02/03/2025 19:19:24;117;0;155.49;-4;19.80;3.23;762.7;9.90;73906;2834.484;-1757.888;1;145;450;451.6;22.2;22.4;28;28.0;25.3;-1.0;
02/03/2025 19:19:44;117;0;155.36;-4;19.91;3.28;759.4;9.90;73916;2834.481;-1757.886;1;145;450;451.6;22.2;22.4;28;28.4;25.3;-1.0;
02/03/2025 19:20:04;117;0;155.79;-4;19.88;3.23;756.0;9.90;73905;2834.478;-1757.885;1;145;450;451.6;22.2;22.4;28;28.4;25.3;-1.0;
02/03/2025 19:20:24;117;0;155.17;-4;19.81;3.19;752.6;9.90;73913;2834.475;-1757.883;1;145;450;453.2;22.2;22.4;28;28.4;25.3;-1.0;
02/03/2025 19:20:44;117;0;155.16;-4;19.80;3.18;749.4;9.90;73908;2834.473;-1757.881;1;145;450;450.0;22.2;22.4;28;28.4;25.3;-1.0;
02/03/2025 19:21:04;117;0;155.02;-4;19.86;3.21;746.2;9.90;73913;2834.470;-1757.880;1;145;450;453.2;22.2;22.5;28;28.4;25.3;-1.0;
02/03/2025 19:21:24;117;0;154.86;-4;19.73;3.37;742.9;9.90;73908;2834.468;-1757.878;1;145;450;451.6;22.2;22.4;28;28.4;25.3;-1.0;
02/03/2025 19:21:44;117;0;155.72;-4;19.80;3.31;739.7;9.90;73914;2834.465;-1757.877;1;145;450;453.2;22.2;22.4;28;28.4;25.3;-1.0;
02/03/2025 19:22:04;117;0;154.33;-4;19.82;3.23;736.4;9.90;73916;2834.462;-1757.875;1;145;450;451.6;22.2;22.4;28;28.0;25.3;-1.0;
02/03/2025 19:22:24;117;0;151.65;-4;19.55;3.12;733.4;9.90;73922;2834.460;-1757.873;1;145;450;453.2;22.2;22.4;28;28.4;25.3;-1.0;
02/03/2025 19:22:44;117;0;150.63;-4;19.68;3.17;730.3;9.90;73930;2834.458;-1757.872;1;145;450;453.2;22.2;22.5;28;28.4;25.3;-1.0;
02/03/2025 19:23:04;117;0;150.54;-4;19.76;3.19;727.3;9.90;73939;2834.456;-1757.870;1;145;450;451.6;22.2;22.4;28;28.4;25.3;-1.0;
02/03/2025 19:23:24;117;0;150.57;-4;19.84;3.23;724.6;9.90;73957;2834.454;-1757.868;1;145;450;453.2;22.2;22.4;28;28.4;25.3;-1.0;
02/03/2025 19:23:44;117;0;149.99;-4;19.87;3.21;721.7;9.90;73960;2834.452;-1757.867;1;145;450;453.2;22.2;22.4;28;28.4;25.3;-1.0;
