Timestamp;NavState;SecurityLevel;Heading;Declination;Pitch;Roll;Depth;Temperature;Pa;Lat;Lon;DeadReckoning;DesiredH;BallastCmd;BallastPos;LinCmd;LinPos;AngCmd;AngPos;Voltage;Altitude;
18/02/2025 02:33:39;119;0;337.78;-4;-43.78;-1.31;-0.2;17.30;75718;2835.345;-1756.987;0;156;500;508.1;100.0;100.6;0;-0.5;28.0;-1.0;
18/02/2025 02:33:49;116;0;322.28;-4;-49.01;-6.80;-0.1;17.40;75730;2835.344;-1756.986;0;156;500;509.7;100.0;100.6;0;-0.5;28.0;-1.0;
18/02/2025 02:34:14;116;0;308.67;-4;-55.54;-13.46;-0.2;17.40;75742;2835.341;-1756.985;0;156;500;508.1;100.0;100.4;0;-0.5;28.0;-1.0;
18/02/2025 02:34:40;116;0;337.36;-4;-50.00;5.33;-0.1;17.50;75746;2835.341;-1756.985;0;-9999;500;509.7;100.0;100.6;0;-0.5;28.1;-1.0;
18/02/2025 02:34:56;116;0;313.78;-4;-49.71;-8.10;-0.2;17.60;75756;2835.339;-1756.984;0;156;500;508.1;100.0;100.6;0;-0.5;28.0;-1.0;
18/02/2025 02:35:16;116;0;322.17;-4;-58.15;-26.01;-0.2;17.60;75754;2835.333;-1756.982;0;156;500;509.7;100.0;100.6;0;-0.5;28.0;-1.0;
18/02/2025 02:36:19;116;0;312.95;-4;-61.78;-34.78;-0.3;17.80;75782;2835.321;-1756.987;0;156;500;508.1;100.0;100.6;0;-0.5;28.0;-1.0;
18/02/2025 02:36:53;116;0;324.46;-4;-55.08;-7.63;-0.2;18.00;75798;2835.317;-1756.987;0;155;500;509.7;100.0;100.7;0;-0.5;28.0;-1.0;
18/02/2025 02:37:56;116;0;331.40;-4;-57.13;-1.42;-0.2;18.20;75819;2835.311;-1756.985;0;155;500;509.7;100.0;100.6;0;-0.5;28.0;-1.0;
18/02/2025 02:40:04;116;0;326.47;-4;-37.46;-6.88;-0.4;18.80;75864;2835.300;-1756.981;0;155;500;509.7;100.0;100.7;0;-0.5;28.0;-1.0;
18/02/2025 02:40:17;116;0;326.66;-4;-59.51;-30.59;-0.3;18.90;75869;2835.299;-1756.981;0;155;500;508.1;100.0;100.6;0;-0.5;28.0;-1.0;
18/02/2025 02:40:37;110;0;336.00;-4;-50.96;-35.18;-0.0;19.00;75873;2835.299;-1756.981;0;155;-50;391.9;100.0;99.9;-9;-9.0;28.0;-1.0;
18/02/2025 02:40:47;110;0;338.87;-4;-55.47;-24.30;0.2;19.00;76225;2835.299;-1756.981;1;155;-50;240.3;100.0;99.7;-9;-9.5;28.0;-1.0;
18/02/2025 02:40:57;110;0;334.89;-4;-61.13;-13.82;0.7;19.10;76469;2835.299;-1756.981;1;155;-50;87.1;100.0;99.7;-9;-9.5;28.0;-1.0;
18/02/2025 02:41:07;110;0;319.21;-4;-69.37;-26.09;0.7;19.10;76790;2835.300;-1756.981;1;155;-50;-50.0;100.0;99.7;-9;-9.5;28.0;-1.0;
18/02/2025 02:41:17;110;0;298.54;-4;-69.85;-43.84;1.3;19.20;77063;2835.300;-1756.982;1;155;-50;-50.0;41.3;41.4;-9;-9.5;28.0;-1.0;
18/02/2025 02:41:37;100;0;310.98;-4;-25.02;-18.31;4.4;19.20;77039;2835.302;-1756.985;1;154;-50;-48.4;41.3;40.9;-9;-9.5;28.0;-1.0;
18/02/2025 02:41:57;100;0;321.77;-4;-16.94;-16.89;6.4;19.30;77055;2835.305;-1756.987;1;154;-50;-46.8;42.2;42.6;70;69.9;28.0;-1.0;
18/02/2025 02:42:17;100;0;319.90;-4;-22.24;24.09;8.5;19.30;77071;2835.308;-1756.989;1;154;-50;-43.5;41.6;41.5;70;70.4;28.0;-1.0;
18/02/2025 02:42:37;100;0;307.69;-4;-20.90;23.73;10.8;19.30;77068;2835.310;-1756.992;1;154;-50;-43.5;41.6;41.2;70;70.4;28.0;-1.0;
18/02/2025 02:42:57;100;0;296.27;-4;-21.00;23.76;13.1;19.30;77076;2835.311;-1756.996;1;154;-50;-43.5;41.6;41.2;70;70.4;28.0;0.0;
18/02/2025 02:43:17;100;0;286.54;-4;-19.17;23.43;15.5;19.40;77087;2835.313;-1756.999;1;154;-50;-43.5;41.6;41.4;70;70.4;28.1;0.0;
18/02/2025 02:43:37;100;0;275.00;-4;-19.68;23.95;17.9;19.40;77092;2835.313;-1757.003;1;154;-50;-43.5;41.6;41.2;70;70.4;28.0;0.0;
18/02/2025 02:43:57;100;0;268.85;-4;-20.64;23.98;20.2;19.40;77100;2835.314;-1757.007;1;153;-50;-43.5;41.6;41.4;70;70.4;28.0;0.0;
18/02/2025 02:44:17;100;0;259.60;-4;-20.13;24.02;22.7;19.40;77096;2835.314;-1757.010;1;153;-50;-46.8;41.6;41.2;70;70.4;28.0;0.0;
18/02/2025 02:44:37;100;0;249.89;-4;-20.89;23.56;25.2;19.40;77102;2835.313;-1757.014;1;153;-50;-41.9;41.6;41.2;70;70.4;28.1;0.0;
18/02/2025 02:44:57;100;0;240.02;-4;-20.52;23.72;27.7;19.40;77092;2835.312;-1757.017;1;152;-50;-43.5;41.6;41.2;70;70.4;28.1;0.0;
18/02/2025 02:45:17;100;0;229.28;-4;-19.92;23.65;30.1;19.40;77092;2835.310;-1757.020;1;152;-50;-43.5;41.6;41.2;70;69.9;28.0;0.0;
18/02/2025 02:45:37;100;0;214.44;-4;-19.89;23.83;32.7;19.40;77099;2835.308;-1757.023;1;152;-50;-45.2;41.6;41.2;70;70.4;28.0;0.0;
18/02/2025 02:45:57;100;0;202.29;-4;-19.39;23.73;35.2;19.40;77101;2835.305;-1757.024;1;151;-50;-43.5;41.6;41.2;70;70.4;28.1;0.0;
18/02/2025 02:46:17;100;0;190.52;-4;-19.94;23.81;37.6;19.40;77101;2835.303;-1757.025;1;151;-50;-43.5;41.6;41.2;60;60.0;28.0;0.0;
18/02/2025 02:46:37;100;0;180.37;-4;-19.00;17.88;40.0;19.40;77095;2835.300;-1757.026;1;151;-50;-43.5;41.6;41.2;46;46.0;28.0;0.0;
18/02/2025 02:46:57;100;0;171.60;-4;-18.45;10.82;42.3;19.40;77095;2835.297;-1757.025;1;151;-50;-43.5;42.0;42.3;31;30.7;28.1;0.0;
18/02/2025 02:47:17;100;0;165.78;-4;-19.04;3.42;44.6;19.40;77103;2835.295;-1757.025;1;151;-50;-43.5;42.0;42.3;22;22.1;28.0;0.0;
18/02/2025 02:47:37;100;0;160.96;-4;-19.01;-1.19;47.0;19.40;77097;2835.292;-1757.024;1;151;-50;-43.5;42.0;42.3;16;15.3;28.1;0.0;
18/02/2025 02:47:57;100;0;158.86;-4;-18.57;-4.26;49.4;19.50;77100;2835.290;-1757.023;1;151;-50;-43.5;42.5;42.4;16;15.3;28.0;0.0;
18/02/2025 02:48:17;100;0;155.40;-4;-19.53;-4.38;51.9;19.50;77113;2835.287;-1757.022;1;151;-50;-43.5;42.5;42.7;13;13.1;28.0;0.0;
18/02/2025 02:48:37;100;0;154.59;-4;-19.55;-5.44;54.4;19.50;77113;2835.285;-1757.020;1;151;-50;-43.5;42.5;42.7;13;12.6;28.0;0.0;
18/02/2025 02:48:57;100;0;153.17;-4;-19.44;-5.49;56.9;19.50;77115;2835.282;-1757.019;1;151;-50;-43.5;42.5;42.7;13;12.6;28.0;0.0;
18/02/2025 02:49:17;100;0;152.51;-4;-19.32;-5.43;59.6;19.50;77113;2835.279;-1757.017;1;151;-50;-43.5;42.5;42.7;13;13.1;28.0;0.0;
18/02/2025 02:49:37;100;0;151.19;-4;-19.34;-5.55;62.1;19.50;77139;2835.277;-1757.016;1;151;-50;-43.5;42.5;42.7;13;13.1;28.0;0.0;
18/02/2025 02:49:57;100;0;151.67;-4;-19.37;-5.48;64.6;19.50;77133;2835.274;-1757.014;1;151;-50;-43.5;42.5;42.7;13;12.6;28.1;0.0;
18/02/2025 02:50:17;100;0;151.17;-4;-19.31;-5.46;67.1;19.50;77130;2835.272;-1757.013;1;151;-50;-43.5;42.5;42.7;13;12.6;28.0;0.0;
18/02/2025 02:50:37;100;0;150.33;-4;-19.15;-5.48;69.6;19.50;77128;2835.269;-1757.011;1;151;-50;-41.9;42.5;42.7;13;13.1;28.0;0.0;
18/02/2025 02:50:57;100;0;149.88;-4;-19.14;-5.50;72.1;19.50;77135;2835.267;-1757.010;1;151;-50;-45.2;42.5;42.7;13;12.6;28.1;0.0;
18/02/2025 02:51:17;100;0;150.09;-4;-19.22;-5.52;74.6;19.50;77132;2835.265;-1757.008;1;151;-50;-43.5;42.5;42.7;13;12.6;28.0;0.0;
18/02/2025 02:51:37;100;0;152.38;-4;-19.35;-5.33;77.1;19.50;77132;2835.262;-1757.006;1;151;-50;-43.5;42.5;42.7;13;12.6;28.0;0.0;
18/02/2025 02:51:57;100;0;156.83;-4;-18.87;-5.60;79.5;19.50;77141;2835.260;-1757.005;1;151;-50;-43.5;42.8;42.9;13;12.6;28.0;0.0;
18/02/2025 02:52:17;100;0;159.78;-4;-19.50;-5.46;81.9;19.50;77132;2835.257;-1757.004;1;151;-50;-43.5;42.8;43.2;15;14.9;28.0;0.0;
18/02/2025 02:52:37;100;0;162.96;-4;-20.53;-4.24;84.3;19.50;77135;2835.255;-1757.004;1;151;-50;-41.9;42.8;43.2;18;18.5;28.0;0.0;
18/02/2025 02:52:57;100;0;160.84;-4;-20.35;-2.36;86.9;19.50;77138;2835.252;-1757.003;1;150;-50;-43.5;42.8;43.2;18;19.0;28.0;0.0;
18/02/2025 02:53:17;100;0;155.57;-4;-20.59;-2.41;89.3;19.50;77133;2835.250;-1757.002;1;150;-50;-45.2;42.8;43.2;14;14.0;28.0;0.0;
18/02/2025 02:53:37;100;0;152.50;-4;-20.41;-5.23;92.0;19.50;77125;2835.247;-1757.000;1;150;-50;-45.2;42.8;43.2;14;13.5;28.0;0.0;
18/02/2025 02:53:57;100;0;148.65;-4;-19.18;-5.13;94.5;19.50;77133;2835.245;-1756.998;1;150;-50;-43.5;42.8;43.2;14;13.5;28.0;0.0;
18/02/2025 02:54:18;100;0;150.63;-4;-19.54;-5.26;96.7;19.50;77115;2835.243;-1756.997;1;150;-50;-43.5;42.8;43.2;14;13.5;28.0;0.0;
18/02/2025 02:54:38;100;0;156.59;-4;-19.77;-5.19;99.0;19.50;77093;2835.240;-1756.996;1;150;-50;-43.5;42.8;43.2;14;13.5;28.0;0.0;
18/02/2025 02:54:58;100;0;158.25;-4;-19.58;-5.11;101.3;19.50;77081;2835.238;-1756.995;1;150;-50;-43.5;42.8;43.2;14;13.5;28.0;0.0;
18/02/2025 02:55:18;100;0;155.05;-4;-18.83;-5.22;103.6;19.40;77051;2835.236;-1756.994;1;150;-50;-41.9;43.2;43.2;14;13.5;28.0;0.0;
18/02/2025 02:55:38;100;0;155.42;-4;-18.88;-5.32;105.6;19.40;77041;2835.234;-1756.993;1;150;-50;-43.5;43.5;43.4;14;13.5;28.0;0.0;
18/02/2025 02:55:58;100;0;156.41;-4;-20.08;-5.23;107.7;19.40;77030;2835.232;-1756.992;1;150;-50;-43.5;43.5;43.7;14;13.5;28.0;0.0;
18/02/2025 02:56:18;100;0;154.83;-4;-21.22;-5.23;109.8;19.40;77014;2835.230;-1756.991;1;150;-50;-43.5;43.5;43.7;14;13.5;28.0;0.0;
18/02/2025 02:56:38;100;0;152.37;-4;-20.77;-5.19;112.2;19.40;77003;2835.228;-1756.990;1;150;-50;-43.5;43.5;43.7;14;13.5;28.1;0.0;
18/02/2025 02:56:58;100;0;157.44;-4;-21.32;-5.11;114.6;19.30;76987;2835.225;-1756.989;1;150;-50;-45.2;43.5;43.7;14;13.5;28.0;0.0;
18/02/2025 02:57:18;100;0;162.24;-4;-21.25;-5.00;117.2;19.30;76981;2835.223;-1756.988;1;150;-50;-43.5;43.5;43.7;19;19.0;28.0;0.0;
18/02/2025 02:57:38;100;0;162.65;-4;-21.65;-1.93;119.9;19.30;76958;2835.220;-1756.987;1;150;-50;-43.5;43.5;43.9;19;19.4;28.1;0.0;
18/02/2025 02:57:58;100;0;163.34;-4;-21.49;-1.90;122.6;19.20;76949;2835.217;-1756.986;1;150;-50;-43.5;43.5;43.7;19;19.4;28.1;0.0;
18/02/2025 02:58:18;100;0;165.57;-4;-21.43;-1.97;125.2;19.20;76952;2835.215;-1756.986;1;150;-50;-45.2;43.5;43.7;23;23.5;28.0;0.0;
18/02/2025 02:58:38;100;0;163.04;-4;-21.61;0.17;127.8;19.20;76940;2835.212;-1756.985;1;150;-50;-41.9;43.5;43.7;20;19.9;28.0;0.0;
18/02/2025 02:58:58;100;0;163.97;-4;-21.23;-2.05;130.6;19.10;76939;2835.209;-1756.984;1;150;-50;-43.5;43.5;43.7;20;19.4;28.0;0.0;
18/02/2025 02:59:18;100;0;157.02;-4;-20.97;-2.23;133.2;19.10;76915;2835.207;-1756.983;1;150;-50;-45.2;43.5;43.7;15;14.9;28.0;0.0;
18/02/2025 02:59:38;100;0;151.38;-4;-21.26;-4.51;135.7;19.10;76910;2835.204;-1756.981;1;150;-50;-45.2;43.5;43.7;15;14.9;28.0;0.0;
18/02/2025 02:59:58;100;0;147.21;-4;-21.14;-4.51;138.3;19.10;76900;2835.202;-1756.980;1;150;-50;-43.5;43.5;43.7;15;14.9;28.0;0.0;
18/02/2025 03:00:18;100;0;145.65;-4;-21.12;-4.44;141.0;19.00;76882;2835.200;-1756.978;1;150;-50;-43.5;43.5;43.7;15;14.9;28.0;0.0;
18/02/2025 03:00:38;100;0;146.46;-4;-21.10;-4.37;143.7;19.00;76864;2835.197;-1756.976;1;150;-50;-43.5;43.5;43.7;15;14.9;28.0;0.0;
18/02/2025 03:00:58;100;0;147.01;-4;-21.33;-4.35;146.5;19.00;76855;2835.195;-1756.974;1;150;-50;-43.5;43.5;43.7;15;14.4;28.0;0.0;
18/02/2025 03:01:18;100;0;146.76;-4;-21.12;-4.40;149.3;18.90;76840;2835.193;-1756.972;1;150;-50;-43.5;43.5;43.7;15;14.9;28.1;0.0;
18/02/2025 03:01:38;100;0;150.36;-4;-21.05;-4.43;152.0;18.90;76844;2835.190;-1756.971;1;150;-50;-43.5;43.5;43.7;15;14.4;28.0;0.0;
18/02/2025 03:01:58;100;0;149.68;-4;-20.75;-4.53;154.7;18.90;76837;2835.188;-1756.969;1;150;-50;-45.2;43.5;43.7;15;14.9;28.0;0.0;
18/02/2025 03:02:18;100;0;147.84;-4;-20.57;-4.48;157.3;18.80;76824;2835.185;-1756.968;1;150;-50;-43.5;43.5;43.7;15;14.9;28.0;0.0;
18/02/2025 03:02:38;100;0;146.49;-4;-20.54;-4.51;159.8;18.80;76817;2835.183;-1756.966;1;150;-50;-43.5;43.5;43.7;15;14.9;28.1;0.0;
18/02/2025 03:02:58;100;0;143.24;-4;-20.36;-4.57;162.3;18.80;76803;2835.181;-1756.964;1;150;-50;-43.5;43.5;43.7;13;13.1;28.0;0.0;
18/02/2025 03:03:18;100;0;141.03;-4;-20.23;-5.64;164.7;18.70;76795;2835.179;-1756.962;1;150;-50;-43.5;43.5;43.7;11;10.8;28.0;0.0;
18/02/2025 03:03:38;100;0;141.02;-4;-19.91;-6.75;167.2;18.70;76794;2835.177;-1756.960;1;150;-50;-43.5;43.5;43.7;11;10.4;28.0;0.0;
18/02/2025 03:03:58;100;0;141.36;-4;-20.44;-6.80;169.6;18.70;76771;2835.175;-1756.958;1;150;-50;-43.5;43.5;43.7;11;10.4;28.0;0.0;
18/02/2025 03:04:18;100;0;144.80;-4;-20.44;-6.74;172.1;18.60;76761;2835.173;-1756.956;1;150;-50;-43.5;43.5;43.7;13;13.1;28.0;0.0;
18/02/2025 03:04:38;100;0;147.87;-4;-20.72;-5.03;174.6;18.60;76756;2835.171;-1756.955;1;150;-50;-43.5;43.5;43.7;13;13.5;28.0;0.0;
18/02/2025 03:04:58;100;0;149.56;-4;-20.91;-5.01;177.3;18.50;76746;2835.168;-1756.953;1;150;-50;-43.5;43.5;43.7;13;13.5;28.0;0.0;
18/02/2025 03:05:18;100;0;150.93;-4;-20.80;-5.10;180.0;18.50;76732;2835.166;-1756.951;1;150;-50;-43.5;43.5;43.7;13;13.5;28.0;0.0;
18/02/2025 03:05:38;100;0;151.56;-4;-20.62;-5.02;182.6;18.50;76728;2835.163;-1756.950;1;150;-50;-43.5;43.5;43.7;13;13.5;28.0;0.0;
18/02/2025 03:05:58;100;0;149.54;-4;-20.55;-5.04;185.3;18.40;76721;2835.161;-1756.948;1;150;-50;-43.5;43.5;43.7;13;13.5;28.1;0.0;
18/02/2025 03:06:18;100;0;146.77;-4;-20.67;-5.00;188.0;18.40;76733;2835.158;-1756.947;1;150;-50;-43.5;43.5;43.7;13;13.5;28.1;0.0;
18/02/2025 03:06:38;100;0;143.52;-4;-20.56;-5.02;190.7;18.40;76715;2835.156;-1756.945;1;150;-50;-41.9;43.5;43.7;13;13.5;28.0;0.0;
18/02/2025 03:06:58;100;0;145.14;-4;-20.56;-5.01;193.3;18.30;76725;2835.154;-1756.943;1;150;-50;-43.5;43.5;43.7;13;13.5;28.0;0.0;
18/02/2025 03:07:18;100;0;147.57;-4;-20.60;-4.98;196.0;18.30;76705;2835.152;-1756.941;1;150;-50;-43.5;43.5;43.7;13;13.5;28.1;0.0;
18/02/2025 03:07:38;100;0;147.99;-4;-20.25;-4.98;198.7;18.30;76700;2835.149;-1756.939;1;150;-50;-41.9;43.5;43.7;13;13.5;28.0;0.0;
18/02/2025 03:07:58;100;0;150.77;-4;-20.27;-4.97;201.4;18.20;76686;2835.147;-1756.938;1;150;-50;-43.5;43.5;43.7;13;13.5;28.0;0.0;
18/02/2025 03:08:18;100;0;154.04;-4;-20.32;-4.93;204.0;18.20;76688;2835.144;-1756.936;1;150;-50;-43.5;43.5;43.9;13;13.5;28.0;0.0;
18/02/2025 03:08:38;100;0;156.75;-4;-20.23;-4.99;206.6;18.10;76662;2835.141;-1756.935;1;150;-50;-41.9;43.5;43.7;15;14.9;28.0;0.0;
18/02/2025 03:08:58;100;0;162.20;-4;-20.05;-4.18;209.0;18.10;76669;2835.139;-1756.934;1;150;-50;-43.5;43.5;43.7;19;19.0;28.0;0.0;
18/02/2025 03:09:18;100;0;162.98;-4;-20.32;-2.07;211.6;18.10;76639;2835.136;-1756.933;1;150;-50;-43.5;43.5;43.7;19;19.4;28.0;0.0;
18/02/2025 03:09:38;100;0;164.16;-4;-20.45;-2.03;214.1;18.00;76644;2835.133;-1756.933;1;150;-50;-41.9;43.5;43.9;21;21.2;28.0;0.0;
18/02/2025 03:09:58;100;0;161.76;-4;-20.93;-0.75;216.7;18.00;76628;2835.131;-1756.932;1;150;-50;-43.5;43.5;43.7;19;19.0;28.0;0.0;
18/02/2025 03:10:18;100;0;164.98;-4;-20.27;-2.13;219.3;17.90;76624;2835.128;-1756.931;1;149;-50;-43.5;43.5;43.7;24;23.9;28.0;0.0;
18/02/2025 03:10:38;100;0;166.14;-4;-21.00;0.37;221.8;17.90;76625;2835.125;-1756.931;1;149;-50;-43.5;43.5;43.7;26;26.2;28.1;0.0;
18/02/2025 03:10:58;100;0;159.51;-4;-21.14;1.44;224.4;17.90;76619;2835.123;-1756.930;1;149;-50;-43.5;43.5;43.7;17;17.1;28.0;0.0;
18/02/2025 03:11:18;100;0;151.62;-4;-20.39;-3.41;227.0;17.80;76609;2835.120;-1756.928;1;149;-50;-43.5;43.5;43.7;14;13.5;28.0;0.0;
18/02/2025 03:11:38;100;0;147.80;-4;-20.00;-5.10;229.4;17.80;76591;2835.118;-1756.926;1;149;-50;-43.5;43.5;43.9;14;13.5;28.0;0.0;
18/02/2025 03:11:58;100;0;141.96;-4;-20.20;-5.09;231.8;17.80;76587;2835.116;-1756.925;1;149;-50;-43.5;43.5;43.7;14;13.5;28.0;0.0;
18/02/2025 03:12:18;100;0;139.29;-4;-20.28;-5.12;234.1;17.70;76573;2835.114;-1756.923;1;149;-50;-43.5;43.5;43.7;11;10.4;28.0;0.0;
18/02/2025 03:12:38;100;0;135.41;-4;-20.14;-6.72;236.3;17.70;76563;2835.113;-1756.921;1;149;-50;-43.5;43.5;43.7;7;6.8;28.0;0.0;
18/02/2025 03:12:58;100;0;135.61;-4;-19.97;-8.66;238.6;17.60;76550;2835.111;-1756.919;1;150;-50;-43.5;43.5;43.7;7;6.3;28.0;0.0;
18/02/2025 03:13:18;100;0;135.39;-4;-20.05;-8.65;240.7;17.60;76549;2835.110;-1756.917;1;150;-50;-43.5;43.5;43.7;5;5.0;28.0;0.0;
18/02/2025 03:13:38;100;0;135.63;-4;-20.10;-9.74;243.0;17.60;76542;2835.108;-1756.915;1;150;-50;-43.5;43.5;43.7;5;4.5;28.0;0.0;
18/02/2025 03:13:58;100;0;133.68;-4;-20.41;-9.67;245.2;17.50;76541;2835.106;-1756.913;1;150;-50;-43.5;43.5;43.7;3;2.7;28.0;0.0;
18/02/2025 03:14:18;100;0;131.87;-4;-20.30;-10.53;247.5;17.50;76529;2835.105;-1756.911;1;150;-50;-43.5;43.5;43.7;0;0.0;28.0;0.0;
18/02/2025 03:14:38;100;0;135.85;-4;-19.68;-12.04;249.7;17.50;76516;2835.103;-1756.909;1;150;-50;-43.5;43.5;43.7;6;5.9;28.0;0.0;
18/02/2025 03:14:58;100;0;140.97;-4;-19.77;-8.62;251.8;17.40;76502;2835.102;-1756.907;1;150;-50;-43.5;43.5;43.7;11;10.8;28.0;0.0;
18/02/2025 03:15:18;100;0;143.31;-4;-20.08;-6.00;253.9;17.40;76491;2835.100;-1756.905;1;150;-50;-43.5;43.5;43.9;11;11.7;28.0;0.0;
18/02/2025 03:15:38;100;0;144.84;-4;-20.15;-6.00;256.0;17.40;76487;2835.098;-1756.904;1;150;-50;-43.5;43.5;43.7;13;13.1;28.0;0.0;
18/02/2025 03:15:58;100;0;145.42;-4;-20.35;-4.94;258.3;17.30;76480;2835.096;-1756.902;1;150;-50;-43.5;43.5;43.7;13;13.5;28.0;0.0;
18/02/2025 03:16:18;100;0;146.45;-4;-20.24;-4.93;260.5;17.30;76469;2835.094;-1756.901;1;150;-50;-43.5;43.5;43.7;13;13.5;28.1;0.0;
18/02/2025 03:16:38;100;0;146.58;-4;-20.26;-4.98;262.7;17.20;76456;2835.092;-1756.899;1;151;-50;-41.9;43.5;43.9;13;13.5;28.1;0.0;
18/02/2025 03:16:58;100;0;143.96;-4;-20.86;-4.95;264.9;17.20;76441;2835.091;-1756.898;1;151;-50;-43.5;43.5;43.9;13;13.5;28.0;0.0;
18/02/2025 03:17:18;100;0;144.93;-4;-20.49;-4.89;267.4;17.10;76432;2835.088;-1756.896;1;151;-50;-41.9;43.5;43.7;13;13.5;28.0;0.0;
18/02/2025 03:17:38;100;0;145.59;-4;-20.42;-4.87;269.9;17.10;76431;2835.086;-1756.894;1;151;-50;-43.5;43.5;43.9;13;13.5;28.0;0.0;
18/02/2025 03:17:58;100;0;144.61;-4;-19.99;-4.92;272.3;17.10;76410;2835.084;-1756.892;1;151;-50;-43.5;43.5;43.7;13;13.5;28.0;0.0;
18/02/2025 03:18:18;100;0;143.74;-4;-20.09;-4.96;274.7;17.00;76404;2835.082;-1756.891;1;151;-50;-41.9;43.5;43.7;13;13.5;28.0;0.0;
18/02/2025 03:18:38;100;0;142.19;-4;-20.07;-4.99;277.1;17.00;76394;2835.080;-1756.889;1;151;-50;-45.2;43.5;43.7;11;10.4;28.0;0.0;
18/02/2025 03:18:58;100;0;143.18;-4;-20.32;-6.44;279.7;16.90;76382;2835.078;-1756.887;1;151;-50;-45.2;43.5;43.7;11;10.8;28.0;0.0;
18/02/2025 03:19:18;100;0;143.39;-4;-20.30;-6.41;282.3;16.90;76374;2835.076;-1756.885;1;151;-50;-43.5;43.5;43.7;11;10.8;28.0;0.0;
18/02/2025 03:19:38;100;0;145.01;-4;-20.22;-6.44;285.1;16.90;76364;2835.073;-1756.883;1;151;-50;-45.2;43.5;43.7;11;10.8;28.0;0.0;
18/02/2025 03:19:58;100;0;146.49;-4;-19.92;-6.37;287.8;16.80;76355;2835.071;-1756.881;1;151;-50;-43.5;43.5;43.7;13;13.1;28.0;0.0;
18/02/2025 03:20:18;100;0;143.71;-4;-20.19;-5.04;290.4;16.80;76346;2835.068;-1756.879;1;151;-50;-43.5;43.5;43.7;13;13.5;28.0;0.0;
18/02/2025 03:20:38;100;0;141.02;-4;-20.27;-5.02;293.1;16.80;76336;2835.066;-1756.877;1;151;-50;-43.5;43.5;43.7;10;9.5;28.0;0.0;
18/02/2025 03:20:58;100;0;139.94;-4;-20.01;-7.06;295.8;16.70;76333;2835.064;-1756.874;1;151;-50;-43.5;43.5;43.7;10;9.5;28.0;0.0;
18/02/2025 03:21:18;100;0;139.27;-4;-20.01;-7.08;298.5;16.70;76323;2835.062;-1756.872;1;152;-50;-43.5;43.5;43.7;7;7.2;28.0;0.0;
18/02/2025 03:21:38;100;0;140.28;-4;-19.85;-8.43;301.1;16.60;76320;2835.060;-1756.870;1;152;-50;-43.5;43.5;43.9;7;6.8;28.0;0.0;
18/02/2025 03:21:58;100;0;142.45;-4;-20.24;-8.37;303.9;16.60;76313;2835.057;-1756.868;1;152;-50;-43.5;43.5;43.7;10;9.9;28.0;0.0;
18/02/2025 03:22:18;100;0;143.55;-4;-20.33;-6.43;306.7;16.50;76301;2835.055;-1756.866;1;152;-50;-43.5;43.5;43.9;10;10.4;28.0;0.0;
18/02/2025 03:22:38;100;0;141.46;-4;-20.39;-6.48;309.3;16.50;76295;2835.052;-1756.863;1;152;-50;-43.5;43.5;43.7;10;10.4;28.0;0.0;
18/02/2025 03:22:58;100;0;143.52;-4;-20.23;-6.45;312.1;16.50;76288;2835.050;-1756.861;1;152;-50;-43.5;43.5;43.7;10;10.4;28.0;0.0;
18/02/2025 03:23:18;100;0;146.45;-4;-19.93;-6.46;314.8;16.40;76275;2835.048;-1756.859;1;152;-50;-43.5;43.5;43.7;12;12.2;28.0;0.0;
18/02/2025 03:23:38;100;0;147.15;-4;-19.73;-5.45;317.3;16.40;76267;2835.045;-1756.858;1;152;-50;-43.5;43.5;43.7;12;12.6;28.0;0.0;
18/02/2025 03:23:58;100;0;150.84;-4;-19.76;-5.49;319.8;16.40;76255;2835.043;-1756.856;1;152;-50;-43.5;43.5;43.7;12;12.6;28.0;0.0;
18/02/2025 03:24:18;100;0;151.54;-4;-19.78;-5.48;322.3;16.30;76238;2835.041;-1756.855;1;152;-50;-43.5;43.5;43.7;12;12.6;28.0;0.0;
18/02/2025 03:24:38;100;0;150.64;-4;-19.96;-5.48;324.9;16.30;76235;2835.038;-1756.853;1;152;-50;-43.5;43.5;43.7;12;12.6;28.0;0.0;
18/02/2025 03:24:58;100;0;150.08;-4;-20.46;-5.45;327.4;16.20;76228;2835.036;-1756.852;1;152;-50;-43.5;43.5;43.7;12;12.6;28.0;0.0;
18/02/2025 03:25:18;100;0;148.06;-4;-19.83;-5.46;330.0;16.20;76221;2835.033;-1756.850;1;152;-50;-43.5;43.5;43.7;12;12.6;28.0;0.0;
18/02/2025 03:25:38;100;0;148.83;-4;-19.69;-5.48;332.6;16.20;76217;2835.031;-1756.848;1;153;-50;-43.5;43.5;43.7;12;12.6;28.0;0.0;
18/02/2025 03:25:58;100;0;148.53;-4;-19.75;-5.60;335.0;16.10;76204;2835.029;-1756.847;1;153;-50;-43.5;43.5;43.7;12;12.6;28.0;0.0;
18/02/2025 03:26:18;100;0;149.31;-4;-19.55;-5.40;337.5;16.10;76199;2835.026;-1756.845;1;153;-50;-43.5;43.5;43.9;12;12.6;28.0;0.0;
18/02/2025 03:26:38;100;0;149.63;-4;-19.37;-5.48;339.9;16.10;76195;2835.024;-1756.844;1;153;-50;-43.5;43.5;43.7;12;12.6;28.0;0.0;
18/02/2025 03:26:58;100;0;150.26;-4;-19.79;-5.52;342.3;16.00;76181;2835.022;-1756.842;1;153;-50;-43.5;43.5;43.7;12;12.6;28.0;0.0;
18/02/2025 03:27:18;100;0;147.87;-4;-19.93;-5.46;344.9;16.00;76176;2835.020;-1756.840;1;153;-50;-45.2;43.5;43.9;12;12.6;28.0;0.0;
18/02/2025 03:27:38;100;0;149.60;-4;-20.19;-5.42;347.4;16.00;76183;2835.017;-1756.839;1;153;-50;-45.2;43.5;43.7;12;12.6;28.0;0.0;
18/02/2025 03:27:58;100;0;152.12;-4;-20.03;-5.42;349.9;15.90;76161;2835.015;-1756.837;1;153;-50;-43.5;43.5;43.7;12;12.6;28.1;0.0;
18/02/2025 03:28:18;100;0;154.97;-4;-19.96;-5.42;352.5;15.90;76154;2835.012;-1756.836;1;153;-50;-43.5;43.5;43.9;12;12.6;28.0;0.0;
18/02/2025 03:28:38;100;0;155.66;-4;-19.87;-5.43;355.0;15.80;76156;2835.010;-1756.835;1;153;-50;-43.5;43.5;43.7;12;12.6;28.0;0.0;
18/02/2025 03:28:58;100;0;155.71;-4;-19.93;-5.49;357.5;15.80;76138;2835.007;-1756.834;1;153;-50;-45.2;43.5;43.7;12;12.6;28.0;0.0;
18/02/2025 03:29:19;100;0;153.05;-4;-20.23;-5.50;360.1;15.70;76143;2835.005;-1756.832;1;153;-50;-43.5;43.5;43.7;12;12.6;28.1;0.0;
18/02/2025 03:29:39;100;0;150.23;-4;-20.35;-5.52;362.8;15.70;76139;2835.002;-1756.831;1;153;-50;-43.5;43.5;43.7;12;12.6;28.0;0.0;
18/02/2025 03:29:59;100;0;148.16;-4;-19.78;-5.34;365.3;15.70;76115;2835.000;-1756.829;1;153;-50;-43.5;43.5;43.9;12;12.6;28.0;0.0;
18/02/2025 03:30:19;100;0;147.77;-4;-19.56;-5.39;367.9;15.70;76123;2834.997;-1756.827;1;153;-50;-43.5;43.5;43.7;12;12.6;28.0;0.0;
18/02/2025 03:30:39;100;0;145.84;-4;-19.29;-5.63;370.4;15.60;76112;2834.995;-1756.825;1;153;-50;-43.5;43.5;43.7;12;12.6;28.0;0.0;
18/02/2025 03:30:59;100;0;145.10;-4;-19.72;-5.56;372.9;15.60;76107;2834.993;-1756.824;1;153;-50;-46.8;43.5;43.7;12;12.6;28.0;0.0;
18/02/2025 03:31:19;100;0;144.24;-4;-19.44;-5.71;375.3;15.60;76106;2834.991;-1756.822;1;153;-50;-43.5;43.5;43.7;10;9.9;28.1;0.0;
18/02/2025 03:31:39;100;0;144.16;-4;-19.49;-7.00;377.8;15.50;76097;2834.988;-1756.820;1;153;-50;-45.2;43.5;43.7;10;9.9;28.0;0.0;
18/02/2025 03:31:59;100;0;146.13;-4;-19.64;-6.96;380.4;15.50;76089;2834.986;-1756.818;1;153;-50;-43.5;43.5;43.7;10;9.9;28.0;0.0;
18/02/2025 03:32:19;100;0;148.76;-4;-19.51;-6.94;383.0;15.40;76083;2834.984;-1756.816;1;153;-50;-45.2;43.5;43.7;12;12.2;28.1;0.0;
18/02/2025 03:32:39;100;0;150.68;-4;-19.62;-5.44;385.7;15.40;76065;2834.981;-1756.815;1;153;-50;-43.5;43.5;43.7;12;12.2;28.0;0.0;
18/02/2025 03:32:59;100;0;152.38;-4;-20.03;-5.37;388.2;15.40;76064;2834.979;-1756.813;1;154;-50;-43.5;43.5;43.7;12;12.6;28.0;0.0;
18/02/2025 03:33:19;100;0;154.77;-4;-20.32;-5.33;390.9;15.30;76065;2834.976;-1756.812;1;153;-50;-43.5;43.5;43.9;12;12.6;28.0;0.0;
18/02/2025 03:33:39;100;0;163.78;-4;-19.75;-5.50;393.5;15.30;76048;2834.973;-1756.811;1;153;-50;-43.5;43.5;43.7;16;15.8;28.0;0.0;
18/02/2025 03:33:59;100;0;164.15;-4;-20.89;-3.83;396.2;15.30;76049;2834.970;-1756.810;1;153;-50;-43.5;43.5;43.7;16;16.2;28.0;0.0;
18/02/2025 03:34:19;100;0;167.08;-4;-19.23;-3.98;398.9;15.20;76037;2834.967;-1756.810;1;153;-50;-43.5;43.5;43.9;20;19.9;28.0;0.0;
18/02/2025 03:34:39;100;0;164.74;-4;-20.10;-1.61;401.4;15.20;76035;2834.965;-1756.809;1;153;-50;-43.5;43.5;43.7;17;17.1;28.0;0.0;
18/02/2025 03:34:59;100;0;167.26;-4;-20.68;-3.56;403.9;15.20;76031;2834.962;-1756.808;1;152;-50;-43.5;43.5;43.7;22;22.1;28.0;0.0;
18/02/2025 03:35:19;100;0;168.30;-4;-20.64;-0.81;406.5;15.20;76030;2834.959;-1756.808;1;152;-50;-43.5;43.5;43.7;22;22.1;28.0;0.0;
18/02/2025 03:35:39;100;0;171.47;-4;-20.54;-0.61;409.1;15.10;76023;2834.957;-1756.808;1;152;-50;-43.5;43.5;43.7;28;28.4;28.0;0.0;
18/02/2025 03:35:59;100;0;166.99;-4;-20.16;2.42;411.6;15.10;76019;2834.954;-1756.807;1;151;-50;-43.5;43.5;43.7;23;23.0;28.0;0.0;
18/02/2025 03:36:19;100;0;161.71;-4;-20.20;-0.35;413.9;15.00;76010;2834.952;-1756.806;1;151;-50;-43.5;43.5;43.7;16;15.8;28.0;0.0;
18/02/2025 03:36:39;100;0;158.19;-4;-19.39;-3.80;416.2;15.00;75993;2834.949;-1756.805;1;151;-50;-43.5;43.5;43.7;14;14.0;28.0;0.0;
18/02/2025 03:36:59;100;0;159.02;-4;-19.88;-5.14;418.4;15.00;75999;2834.947;-1756.805;1;151;-50;-43.5;43.5;43.7;14;13.5;28.0;0.0;
18/02/2025 03:37:19;100;0;156.62;-4;-19.48;-5.13;420.7;15.00;75995;2834.945;-1756.803;1;151;-50;-43.5;43.5;43.7;14;13.5;28.0;0.0;
18/02/2025 03:37:39;100;0;156.15;-4;-19.29;-5.10;422.9;14.90;75981;2834.942;-1756.802;1;151;-50;-43.5;43.5;43.7;14;13.5;28.0;0.0;
18/02/2025 03:37:59;100;0;156.41;-4;-19.51;-5.09;425.0;14.90;75978;2834.940;-1756.801;1;150;-50;-43.5;43.5;43.7;14;13.5;28.0;0.0;
18/02/2025 03:38:19;100;0;157.04;-4;-19.48;-5.08;427.2;14.90;75975;2834.938;-1756.800;1;150;-50;-43.5;43.5;43.7;14;13.5;28.0;0.0;
18/02/2025 03:38:39;100;0;156.76;-4;-19.51;-5.05;429.3;14.80;75968;2834.936;-1756.799;1;150;-50;-43.5;43.5;43.9;14;14.0;28.0;0.0;
18/02/2025 03:38:59;100;0;156.43;-4;-19.48;-5.09;431.4;14.80;75973;2834.934;-1756.799;1;150;-50;-45.2;43.5;43.9;14;13.5;28.0;0.0;
18/02/2025 03:39:19;100;0;156.60;-4;-19.54;-5.03;433.4;14.80;75964;2834.932;-1756.798;1;150;-50;-43.5;43.5;43.7;14;14.0;28.0;0.0;
18/02/2025 03:39:39;100;0;153.21;-4;-19.52;-5.10;435.5;14.80;75967;2834.930;-1756.797;1;150;-50;-41.9;43.5;43.7;14;13.5;28.0;0.0;
18/02/2025 03:39:59;100;0;149.42;-4;-19.58;-5.09;437.5;14.70;75955;2834.928;-1756.795;1;150;-70;-71.0;43.5;43.7;14;13.5;28.1;0.0;
18/02/2025 03:40:19;100;0;146.80;-4;-18.99;-4.97;439.6;14.70;76017;2834.926;-1756.794;1;150;-70;-74.2;43.8;43.7;14;14.0;28.0;0.0;
18/02/2025 03:40:39;100;0;146.24;-4;-18.97;-4.95;441.8;14.70;76024;2834.924;-1756.792;1;150;-70;-72.6;44.1;44.3;14;13.5;28.0;0.0;
18/02/2025 03:40:59;100;0;145.47;-4;-20.33;-4.98;444.0;14.70;76011;2834.922;-1756.791;1;150;-70;-72.6;44.1;44.6;14;13.5;28.1;0.0;
18/02/2025 03:41:19;100;0;147.29;-4;-20.51;-4.87;446.3;14.60;76006;2834.920;-1756.789;1;150;-70;-75.8;44.1;44.5;14;13.5;28.0;0.0;
18/02/2025 03:41:39;100;0;150.70;-4;-20.53;-4.80;448.7;14.60;76007;2834.918;-1756.788;1;150;-70;-74.2;44.1;44.6;14;13.5;28.0;0.0;
18/02/2025 03:41:59;100;0;151.89;-4;-20.70;-4.81;451.0;14.60;75996;2834.916;-1756.787;1;150;-70;-74.2;44.1;44.6;14;13.5;28.0;0.0;
18/02/2025 03:42:19;100;0;154.04;-4;-20.77;-4.85;453.3;14.60;75994;2834.914;-1756.786;1;150;-70;-75.8;44.1;44.6;14;14.0;28.0;0.0;
18/02/2025 03:42:39;100;0;157.22;-4;-20.68;-4.76;455.5;14.50;75988;2834.912;-1756.785;1;150;-70;-74.2;44.1;44.6;14;13.5;28.0;0.0;
18/02/2025 03:42:59;100;0;158.00;-4;-20.63;-4.84;457.8;14.50;75984;2834.910;-1756.784;1;150;-70;-74.2;44.1;44.5;14;14.0;28.0;0.0;
18/02/2025 03:43:19;100;0;159.90;-4;-20.61;-4.81;459.9;14.50;75982;2834.908;-1756.783;1;149;-70;-75.8;44.1;44.6;17;17.1;28.0;0.0;
18/02/2025 03:43:39;100;0;157.07;-4;-20.58;-2.78;461.9;14.40;75978;2834.906;-1756.782;1;149;-90;-90.3;44.1;44.6;15;14.9;28.0;0.0;
18/02/2025 03:43:59;100;0;157.84;-4;-20.38;-4.42;463.8;14.40;75998;2834.904;-1756.781;1;149;-110;-109.7;44.1;44.6;15;14.4;28.0;0.0;
18/02/2025 03:44:19;100;0;158.88;-4;-20.20;-4.46;465.7;14.40;76036;2834.902;-1756.781;1;149;-130;-133.9;44.1;44.6;15;14.4;28.0;0.0;
18/02/2025 03:44:39;100;0;159.06;-4;-20.00;-4.23;467.8;14.40;76077;2834.900;-1756.780;1;149;-130;-133.9;44.1;44.6;15;14.4;28.0;0.0;
18/02/2025 03:44:59;100;0;159.41;-4;-19.93;-4.25;470.0;14.30;76079;2834.898;-1756.779;1;148;-130;-133.9;44.1;44.6;18;18.1;28.0;0.0;
18/02/2025 03:45:19;100;0;157.66;-4;-20.30;-2.16;472.1;14.30;76077;2834.896;-1756.778;1;148;-130;-137.1;44.1;44.6;16;15.8;28.0;0.0;
18/02/2025 03:45:39;100;0;153.77;-4;-20.55;-3.70;474.3;14.30;76070;2834.894;-1756.777;1;148;-130;-135.5;44.1;44.6;14;14.0;28.0;0.0;
18/02/2025 03:45:59;100;0;150.38;-4;-20.31;-4.75;476.6;14.30;76069;2834.892;-1756.776;1;148;-130;-135.5;44.1;44.6;14;13.5;28.0;0.0;
18/02/2025 03:46:19;100;0;147.31;-4;-20.51;-4.62;478.9;14.20;76056;2834.890;-1756.774;1;148;-130;-137.1;44.1;44.6;14;13.5;28.0;0.0;
18/02/2025 03:46:39;100;0;144.60;-4;-20.76;-4.66;481.3;14.20;76057;2834.888;-1756.773;1;148;-130;-138.7;44.1;44.6;14;13.5;28.0;0.0;
18/02/2025 03:46:59;100;0;142.96;-4;-20.40;-4.82;483.8;14.20;76053;2834.886;-1756.771;1;148;-130;-137.1;44.1;44.6;14;13.5;28.0;0.0;
18/02/2025 03:47:19;100;0;142.41;-4;-20.69;-4.62;486.2;14.20;76048;2834.884;-1756.769;1;148;-130;-137.1;44.1;44.6;14;13.5;28.0;0.0;
18/02/2025 03:47:39;100;0;141.25;-4;-20.52;-4.58;488.6;14.10;76049;2834.882;-1756.767;1;149;-130;-137.1;44.1;44.6;12;12.2;28.0;0.0;
18/02/2025 03:47:59;100;0;141.35;-4;-20.49;-5.32;491.2;14.10;76043;2834.880;-1756.765;1;149;-130;-137.1;44.1;44.6;12;12.2;28.0;0.0;
18/02/2025 03:48:19;100;0;139.64;-4;-20.33;-5.34;493.7;14.10;76040;2834.878;-1756.763;1;149;-130;-137.1;44.1;44.6;10;9.9;28.0;0.0;
18/02/2025 03:48:39;100;0;138.68;-4;-20.34;-6.45;496.3;14.00;76030;2834.876;-1756.761;1;150;-130;-137.1;44.1;44.6;10;9.9;28.0;0.0;
18/02/2025 03:48:59;100;0;137.72;-4;-20.05;-6.37;498.8;14.00;76024;2834.874;-1756.758;1;150;-130;-137.1;44.1;44.6;8;8.1;28.0;0.0;
18/02/2025 03:49:19;100;0;136.99;-4;-20.02;-7.36;501.3;14.00;76028;2834.872;-1756.756;1;151;-130;-137.1;44.1;44.6;5;5.0;28.0;0.0;
18/02/2025 03:49:39;100;0;138.02;-4;-19.88;-9.01;503.9;14.00;76024;2834.870;-1756.754;1;152;-130;-137.1;44.1;44.6;5;4.5;28.1;0.0;
18/02/2025 03:49:59;100;0;144.05;-4;-20.63;-9.04;506.6;14.00;76019;2834.868;-1756.752;1;152;-130;-137.1;44.1;44.6;11;10.8;28.0;0.0;
18/02/2025 03:50:19;100;0;147.16;-4;-20.38;-5.75;509.5;13.90;76004;2834.865;-1756.750;1;152;-130;-135.5;44.1;44.6;11;11.3;28.0;0.0;
18/02/2025 03:50:39;100;0;149.09;-4;-20.96;-5.67;512.3;13.90;75994;2834.862;-1756.748;1;153;-130;-137.1;44.1;44.6;13;13.1;28.0;0.0;
18/02/2025 03:50:59;100;0;151.13;-4;-20.08;-4.54;515.3;13.90;75988;2834.859;-1756.746;1;153;-130;-137.1;44.1;44.6;13;13.5;28.0;0.0;
18/02/2025 03:51:19;100;0;150.93;-4;-20.73;-4.41;518.3;13.90;75991;2834.857;-1756.745;1;153;-130;-137.1;44.1;44.6;13;14.0;28.0;0.0;
18/02/2025 03:51:39;100;0;153.22;-4;-20.41;-4.54;521.4;13.80;75992;2834.853;-1756.743;1;153;-130;-137.1;44.1;44.6;13;13.5;28.0;0.0;
18/02/2025 03:51:59;100;0;153.90;-4;-20.44;-4.47;524.6;13.80;75975;2834.850;-1756.741;1;153;-130;-137.1;44.1;44.6;13;13.5;28.0;0.0;
18/02/2025 03:52:19;100;0;154.38;-4;-20.27;-4.54;528.0;13.80;75973;2834.847;-1756.739;1;152;-130;-137.1;44.1;44.6;13;13.5;28.0;0.0;
18/02/2025 03:52:39;100;0;154.74;-4;-20.66;-4.48;531.3;13.80;75967;2834.843;-1756.738;1;152;-130;-138.7;44.1;44.6;13;13.5;28.0;0.0;
18/02/2025 03:52:59;100;0;155.17;-4;-21.05;-4.46;534.9;13.70;75967;2834.840;-1756.736;1;152;-130;-137.1;44.1;44.6;13;14.0;28.0;0.0;
18/02/2025 03:53:19;100;0;153.70;-4;-20.71;-4.43;538.7;13.70;75954;2834.836;-1756.734;1;151;-130;-137.1;44.1;44.6;13;13.5;28.0;0.0;
18/02/2025 03:53:39;100;0;148.88;-4;-20.44;-4.58;542.4;13.70;75948;2834.832;-1756.731;1;152;-130;-137.1;44.1;44.6;13;13.5;28.0;0.0;
18/02/2025 03:53:59;100;0;144.57;-4;-19.96;-4.52;546.1;13.70;75940;2834.829;-1756.728;1;153;-130;-137.1;44.1;44.6;11;10.8;28.0;0.0;
18/02/2025 03:54:19;100;0;145.17;-4;-20.09;-6.06;549.7;13.60;75942;2834.826;-1756.726;1;155;-130;-137.1;44.1;44.6;11;10.8;28.0;0.0;
18/02/2025 03:54:39;100;0;148.46;-4;-19.67;-5.95;553.4;13.60;75937;2834.822;-1756.723;1;158;-130;-137.1;44.1;44.6;11;10.8;28.0;0.0;
18/02/2025 03:54:59;100;0;149.96;-4;-19.51;-6.05;557.1;13.60;75921;2834.818;-1756.721;1;162;-130;-135.5;44.1;44.6;9;9.0;28.0;0.0;
18/02/2025 03:55:19;100;0;147.48;-4;-19.06;-6.69;560.6;13.50;75921;2834.815;-1756.718;1;179;-130;-135.5;44.1;44.6;-19;-19.0;28.0;0.0;
18/02/2025 03:55:39;100;0;152.78;-4;-18.33;-20.65;564.1;13.50;75910;2834.811;-1756.716;1;271;-130;-137.1;44.6;44.5;-70;-69.9;28.0;0.0;
18/02/2025 03:55:59;100;0;163.55;-4;-17.79;-44.27;567.7;13.50;75905;2834.807;-1756.715;1;325;-130;-138.7;45.3;45.2;-70;-69.9;28.0;0.0;
18/02/2025 03:56:19;100;0;176.80;-4;-18.28;-44.93;571.3;13.50;75910;2834.802;-1756.715;1;341;-130;-137.1;45.8;45.8;-70;-70.4;28.0;0.0;
18/02/2025 03:56:39;100;0;189.53;-4;-19.73;-44.61;575.3;13.50;75896;2834.797;-1756.716;1;352;-130;-137.1;45.8;46.1;-70;-69.9;28.0;0.0;
18/02/2025 03:56:59;100;0;205.01;-4;-18.87;-44.39;579.3;13.40;75889;2834.793;-1756.719;1;2;-130;-137.1;46.1;46.1;-70;-69.9;28.0;0.0;
18/02/2025 03:57:19;100;0;220.06;-4;-20.24;-44.67;583.1;13.40;75886;2834.790;-1756.722;1;10;-130;-137.1;46.1;46.2;-70;-69.9;28.0;0.0;
18/02/2025 03:57:39;100;0;236.35;-4;-20.56;-44.14;587.0;13.40;75878;2834.788;-1756.727;1;19;-130;-137.1;46.1;46.2;-70;-69.9;28.0;0.0;
18/02/2025 03:57:59;100;0;250.39;-4;-20.48;-44.58;590.9;13.40;75863;2834.786;-1756.733;1;28;-130;-133.9;46.1;46.2;-70;-69.9;28.0;0.0;
18/02/2025 03:58:19;100;0;265.71;-4;-20.23;-44.52;595.0;13.30;75862;2834.786;-1756.739;1;37;-130;-137.1;46.1;46.2;-70;-69.9;28.0;0.0;
18/02/2025 03:58:39;100;0;279.97;-4;-20.15;-44.63;599.1;13.30;75851;2834.788;-1756.745;1;46;-130;-137.1;46.1;46.2;-70;-69.9;28.0;0.0;
18/02/2025 03:58:59;100;0;293.66;-4;-20.35;-44.58;603.2;13.30;75851;2834.790;-1756.751;1;55;-130;-138.7;46.1;46.2;-70;-69.9;28.0;0.0;
18/02/2025 03:59:19;100;0;307.50;-4;-20.26;-44.59;607.4;13.30;75847;2834.794;-1756.756;1;63;-130;-137.1;46.1;46.2;-70;-69.9;28.0;0.0;
18/02/2025 03:59:39;100;0;321.81;-4;-19.99;-44.69;611.7;13.30;75829;2834.799;-1756.760;1;72;-130;-137.1;46.1;46.2;-70;-69.9;28.0;0.0;
18/02/2025 03:59:59;100;0;335.70;-4;-20.16;-44.81;615.9;13.30;75835;2834.804;-1756.763;1;80;-130;-137.1;46.1;46.2;-70;-69.9;28.0;0.0;
18/02/2025 04:00:19;100;0;349.89;-4;-20.01;-44.78;620.1;13.20;75815;2834.810;-1756.765;1;88;-130;-137.1;46.1;46.2;-70;-69.9;28.0;0.0;
18/02/2025 04:00:39;100;0;3.72;-4;-19.82;-44.71;624.4;13.20;75808;2834.816;-1756.764;1;97;-130;-137.1;46.1;46.2;-70;-69.9;28.0;0.0;
18/02/2025 04:00:59;100;0;17.25;-4;-19.85;-44.62;628.5;13.20;75792;2834.821;-1756.763;1;104;-130;-137.1;46.1;46.2;-70;-69.9;28.0;0.0;
18/02/2025 04:01:19;100;0;31.21;-4;-19.72;-44.80;632.6;13.20;75790;2834.826;-1756.760;1;112;-130;-137.1;46.1;46.2;-70;-70.4;28.0;0.0;
18/02/2025 04:01:39;100;0;44.51;-4;-19.93;-44.78;636.7;13.10;75787;2834.830;-1756.756;1;120;-130;-138.7;46.1;46.2;-70;-69.9;28.0;0.0;
18/02/2025 04:01:59;100;0;58.69;-4;-19.58;-44.62;640.7;13.10;75774;2834.833;-1756.752;1;127;-130;-137.1;46.1;46.2;-70;-69.9;28.0;0.0;
18/02/2025 04:02:19;100;0;72.97;-4;-20.21;-44.86;644.7;13.10;75767;2834.835;-1756.746;1;134;-130;-137.1;46.1;46.2;-63;-63.2;28.0;0.0;
18/02/2025 04:02:39;100;0;89.10;-4;-19.56;-40.92;648.7;13.00;75762;2834.836;-1756.741;1;141;-130;-137.1;46.1;46.2;-51;-51.0;28.0;0.0;
18/02/2025 04:02:59;100;0;98.53;-4;-20.28;-34.65;652.7;13.00;75750;2834.835;-1756.735;1;148;-130;-137.1;46.1;46.2;-47;-46.9;28.0;0.0;
18/02/2025 04:03:19;100;0;111.77;-4;-20.44;-33.29;656.7;13.00;75747;2834.834;-1756.730;1;155;-130;-137.1;46.1;46.4;-39;-38.4;28.0;0.0;
18/02/2025 04:03:39;100;0;124.04;-4;-21.08;-28.99;660.9;12.90;75731;2834.831;-1756.726;1;162;-130;-137.1;46.1;46.2;-31;-31.1;28.0;0.0;
18/02/2025 04:03:59;100;0;137.53;-4;-20.12;-25.48;665.0;12.90;75747;2834.828;-1756.722;1;169;-130;-135.5;46.1;46.4;-20;-19.4;28.0;0.0;
18/02/2025 04:04:19;100;0;148.95;-4;-21.36;-19.54;669.0;12.90;75719;2834.824;-1756.719;1;176;-130;-137.1;46.1;46.4;-11;-10.8;28.0;0.0;
18/02/2025 04:04:39;100;0;156.61;-4;-22.25;-15.79;673.1;12.90;75731;2834.820;-1756.717;1;185;-130;-135.5;45.5;45.5;-13;-13.1;28.0;0.0;
18/02/2025 04:04:59;100;0;164.60;-4;-20.38;-17.60;677.1;12.80;75716;2834.816;-1756.716;1;202;-130;-137.1;45.5;45.2;-26;-26.2;28.0;0.0;
18/02/2025 04:05:20;100;0;175.49;-4;-19.40;-23.94;681.0;12.80;75712;2834.811;-1756.716;1;271;-130;-137.1;45.5;45.1;-70;-69.9;28.0;0.0;
18/02/2025 04:05:40;100;0;189.44;-4;-17.18;-44.91;684.6;12.80;75705;2834.806;-1756.717;1;349;-130;-137.1;46.3;46.2;-70;-70.4;28.0;0.0;
18/02/2025 04:06:00;100;0;204.02;-4;-20.57;-44.49;688.2;12.70;75706;2834.803;-1756.719;1;8;-130;-137.1;46.3;46.7;-70;-70.4;28.0;0.0;
18/02/2025 04:06:20;100;0;216.75;-4;-20.56;-44.71;692.1;12.70;75688;2834.799;-1756.723;1;20;-130;-137.1;46.3;46.5;-70;-70.4;28.0;0.0;
18/02/2025 04:06:40;100;0;230.79;-4;-21.19;-44.83;695.9;12.70;75693;2834.797;-1756.727;1;30;-130;-140.3;46.3;46.7;-70;-70.4;28.0;0.0;
18/02/2025 04:07:00;100;0;244.51;-4;-21.18;-44.64;699.8;12.70;75680;2834.795;-1756.732;1;39;-130;-137.1;46.3;46.7;-70;-70.4;28.0;0.0;
18/02/2025 04:07:20;100;0;257.19;-4;-19.81;-45.01;703.3;12.60;75659;2834.795;-1756.738;1;47;-130;-137.1;46.3;46.7;-70;-70.4;28.0;0.0;
18/02/2025 04:07:40;100;0;272.99;-4;-19.79;-44.75;707.0;12.60;75647;2834.795;-1756.744;1;55;-130;-137.1;46.3;46.5;-70;-70.4;28.0;0.0;
18/02/2025 04:08:00;100;0;283.37;-4;-20.13;-44.84;710.4;12.60;75640;2834.797;-1756.749;1;62;-130;-137.1;46.3;46.5;-70;-70.4;28.0;0.0;
18/02/2025 04:08:20;100;0;298.07;-4;-21.53;-45.19;713.8;12.50;75634;2834.799;-1756.753;1;69;-130;-137.1;46.3;46.5;-70;-70.4;28.0;0.0;
18/02/2025 04:08:40;100;0;309.68;-4;-21.32;-44.64;717.5;12.50;75627;2834.802;-1756.757;1;76;-130;-137.1;46.3;46.5;-70;-70.4;28.0;0.0;
18/02/2025 04:09:00;100;0;322.20;-4;-20.59;-44.58;721.1;12.50;75636;2834.806;-1756.761;1;83;-130;-137.1;46.3;46.5;-70;-70.4;28.0;0.0;
18/02/2025 04:09:20;100;0;337.62;-4;-21.26;-45.09;724.7;12.50;75621;2834.811;-1756.763;1;90;-130;-137.1;46.3;46.5;-70;-70.4;28.1;0.0;
18/02/2025 04:09:40;100;0;349.20;-4;-21.46;-44.66;728.3;12.40;75603;2834.816;-1756.764;1;96;-130;-138.7;46.3;46.7;-70;-70.4;28.0;0.0;
18/02/2025 04:10:00;100;0;3.14;-4;-19.56;-45.20;732.1;12.40;75586;2834.821;-1756.764;1;104;-130;-137.1;46.3;46.5;-70;-70.4;28.0;0.0;
18/02/2025 04:10:20;100;0;17.97;-4;-20.48;-44.70;735.4;12.40;75581;2834.825;-1756.763;1;110;-130;-135.5;46.3;46.5;-70;-70.4;28.0;0.0;
18/02/2025 04:10:40;100;0;31.37;-4;-22.84;-45.06;739.5;12.30;75593;2834.830;-1756.760;1;117;-130;-137.1;45.5;45.4;-70;-70.4;28.0;0.0;
18/02/2025 04:11:00;100;0;41.43;-4;-17.42;-44.59;743.2;12.30;75581;2834.834;-1756.757;1;124;-130;-137.1;46.2;46.2;-70;-70.4;28.0;0.0;
18/02/2025 04:11:20;100;0;55.07;-4;-18.90;-45.50;746.4;12.30;75574;2834.837;-1756.753;1;130;-130;-140.3;46.6;46.5;-70;-70.4;28.0;0.0;
18/02/2025 04:11:40;100;0;72.93;-4;-22.88;-45.95;749.7;12.30;75576;2834.839;-1756.749;1;135;-130;-137.1;45.7;45.5;-64;-64.1;28.0;0.0;
18/02/2025 04:12:00;100;0;85.25;-4;-19.22;-41.79;753.3;12.20;75556;2834.839;-1756.744;1;141;-130;-137.1;45.7;45.5;-55;-55.1;28.0;0.0;
18/02/2025 04:12:20;100;0;101.76;-4;-18.31;-37.02;755.9;12.20;75562;2834.839;-1756.740;1;145;-130;-137.1;46.2;46.5;-40;-40.2;28.0;0.0;
18/02/2025 04:12:40;100;0;116.48;-4;-19.94;-29.86;758.5;12.20;75556;2834.838;-1756.737;1;148;-130;-140.3;46.2;46.5;-23;-23.0;28.0;0.0;
18/02/2025 04:13:00;100;0;126.22;-4;-21.63;-21.25;761.2;12.20;75570;2834.837;-1756.735;1;150;-130;-137.1;46.2;46.5;-11;-10.8;28.0;0.0;
18/02/2025 04:13:20;100;0;133.52;-4;-21.30;-15.67;763.8;12.10;75547;2834.835;-1756.732;1;152;-130;-137.1;46.2;46.7;-2;-1.8;28.0;0.0;
18/02/2025 04:13:40;100;0;138.80;-4;-23.50;-11.13;766.2;12.10;75554;2834.833;-1756.730;1;154;-130;-137.1;45.1;45.1;5;5.0;28.0;0.0;
18/02/2025 04:14:00;100;0;141.18;-4;-20.39;-9.64;768.8;12.00;75547;2834.831;-1756.728;1;156;-130;-137.1;45.1;45.1;5;5.4;28.0;44.2;
18/02/2025 04:14:20;100;0;136.77;-4;-21.84;-8.23;771.2;12.00;75551;2834.829;-1756.726;1;158;-130;-137.1;45.1;45.1;-5;-5.0;28.0;40.9;
18/02/2025 04:14:40;100;0;142.88;-4;-20.66;-13.31;774.9;12.00;75552;2834.826;-1756.723;1;162;-130;-137.1;45.1;45.1;-1;-0.9;28.0;38.3;
18/02/2025 04:15:00;100;0;153.72;-4;-18.33;-11.29;779.0;12.00;75543;2834.821;-1756.721;1;166;-130;-140.3;45.7;45.9;8;8.1;28.0;33.2;
18/02/2025 04:15:15;118;0;156.14;-4;-20.87;-7.10;781.2;12.00;75552;2834.819;-1756.720;1;169;270;-135.5;25.7;25.8;8;8.1;28.0;30.3;
18/02/2025 04:15:25;118;0;121.37;-4;-8.85;-7.99;782.3;11.90;75517;2834.818;-1756.718;1;179;270;-8.1;25.7;25.5;8;8.1;27.0;-1.0;
18/02/2025 04:15:35;118;0;112.81;-4;11.66;-7.93;782.5;11.90;75248;2834.819;-1756.718;1;181;270;117.7;25.7;25.8;8;8.1;27.0;-1.0;
18/02/2025 04:15:45;118;0;109.53;-4;20.18;-8.39;781.9;11.90;74992;2834.819;-1756.717;1;185;270;245.2;25.7;25.9;8;8.1;27.1;-1.0;
18/02/2025 04:15:55;118;0;109.05;-4;20.26;-8.08;781.0;11.90;74735;2834.818;-1756.716;1;193;270;271.0;25.7;25.9;8;8.1;27.1;-1.0;
18/02/2025 04:16:05;118;0;157.81;-4;19.34;-8.13;779.7;11.90;74696;2834.817;-1756.715;1;200;270;271.0;25.7;25.9;8;8.1;28.0;-1.0;
18/02/2025 04:16:25;117;0;152.09;-4;17.88;-7.80;777.4;11.90;74691;2834.815;-1756.714;1;224;270;271.0;25.7;25.9;8;8.1;28.0;-1.0;
18/02/2025 04:16:45;117;0;147.11;-4;17.12;-7.72;774.9;11.90;74691;2834.812;-1756.712;1;258;270;271.0;24.8;24.6;70;69.9;28.0;-1.0;
18/02/2025 04:17:05;117;0;152.76;-4;23.31;24.95;772.5;11.90;74689;2834.810;-1756.711;1;278;270;271.0;25.8;25.8;70;69.9;28.0;-1.0;
18/02/2025 04:17:25;117;0;163.11;-4;22.61;24.73;769.8;11.90;74689;2834.808;-1756.710;1;297;270;272.6;26.6;26.7;70;69.9;28.0;-1.0;
18/02/2025 04:17:45;117;0;171.68;-4;20.44;25.46;767.1;11.80;74691;2834.804;-1756.710;1;313;270;271.0;26.6;26.8;70;69.9;28.0;-1.0;
18/02/2025 04:18:05;117;0;182.59;-4;19.78;25.49;765.0;11.80;74687;2834.802;-1756.710;1;322;270;272.6;26.6;27.0;70;69.9;28.0;-1.0;
18/02/2025 04:18:25;117;0;193.56;-4;20.28;25.67;762.6;11.80;74682;2834.800;-1756.711;1;333;270;271.0;26.6;26.8;70;69.9;28.0;-1.0;
18/02/2025 04:18:45;117;0;202.95;-4;19.69;24.76;760.2;11.80;74678;2834.797;-1756.713;1;343;270;271.0;26.6;26.8;70;69.9;28.0;-1.0;
18/02/2025 04:19:05;117;0;210.98;-4;19.36;24.97;757.9;11.70;74671;2834.795;-1756.715;1;351;270;272.6;26.6;27.0;70;69.9;28.0;-1.0;
18/02/2025 04:19:25;117;0;222.75;-4;19.89;24.75;755.5;11.70;74674;2834.793;-1756.718;1;0;270;269.4;26.6;26.8;70;69.9;28.0;-1.0;
18/02/2025 04:19:45;117;0;226.85;-4;17.47;26.00;752.8;11.70;74668;2834.791;-1756.721;1;8;270;271.0;25.9;25.9;70;69.9;28.0;-1.0;
18/02/2025 04:20:05;117;0;235.64;-4;24.29;25.31;750.1;11.70;74656;2834.790;-1756.724;1;15;270;269.4;27.2;27.2;70;69.9;28.0;-1.0;
18/02/2025 04:20:25;117;0;247.14;-4;20.44;25.31;746.9;11.60;74651;2834.789;-1756.729;1;23;270;271.0;27.2;27.2;70;69.9;28.0;-1.0;
18/02/2025 04:20:45;117;0;254.56;-4;14.30;24.69;744.2;11.60;74648;2834.788;-1756.734;1;31;270;269.4;25.4;25.5;70;69.9;28.0;-1.0;
18/02/2025 04:21:05;117;0;261.90;-4;26.65;25.46;741.9;11.60;74648;2834.788;-1756.737;1;36;270;271.0;27.4;27.4;70;70.4;28.0;-1.0;
18/02/2025 04:21:25;117;0;274.73;-4;18.40;25.45;738.2;11.60;74641;2834.789;-1756.743;1;44;270;271.0;27.0;27.0;70;69.9;28.0;-1.0;
18/02/2025 04:21:45;117;0;289.13;-4;18.48;24.67;735.3;11.50;74642;2834.791;-1756.747;1;52;270;272.6;26.5;26.5;70;69.9;28.0;-1.0;
18/02/2025 04:22:05;117;0;298.50;-4;17.74;24.71;732.3;11.50;74631;2834.793;-1756.752;1;59;270;272.6;25.8;25.8;70;70.4;28.0;-1.0;
18/02/2025 04:22:25;117;0;308.32;-4;24.98;25.49;729.4;11.50;74625;2834.795;-1756.755;1;64;270;272.6;27.3;27.2;70;70.4;28.0;-1.0;
18/02/2025 04:22:45;117;0;319.50;-4;17.82;24.76;726.2;11.50;74617;2834.799;-1756.758;1;71;270;271.0;26.7;26.5;70;69.9;28.0;-1.0;
18/02/2025 04:23:05;117;0;326.38;-4;20.27;24.55;723.6;11.50;74623;2834.802;-1756.761;1;77;270;271.0;26.7;26.1;70;70.4;28.0;-1.0;
18/02/2025 04:23:25;117;0;338.25;-4;19.22;24.74;721.1;11.40;74609;2834.806;-1756.762;1;83;270;272.6;26.7;25.9;70;70.4;28.0;-1.0;
18/02/2025 04:23:45;117;0;348.93;-4;21.32;24.53;718.7;11.40;74612;2834.809;-1756.763;1;87;270;271.0;26.7;26.1;70;70.4;28.0;-1.0;
18/02/2025 04:24:05;117;0;356.17;-4;20.07;25.02;716.1;11.40;74605;2834.813;-1756.764;1;93;270;271.0;26.7;25.9;70;70.4;28.0;-1.0;
18/02/2025 04:24:25;117;0;4.72;-4;21.11;25.22;714.1;11.40;74612;2834.816;-1756.764;1;97;270;272.6;26.7;25.9;70;70.4;28.0;-1.0;
18/02/2025 04:24:45;117;0;13.91;-4;19.55;24.87;712.0;11.40;74612;2834.819;-1756.763;1;101;270;271.0;26.7;25.9;70;70.4;28.0;-1.0;
18/02/2025 04:25:05;117;0;22.48;-4;19.40;24.83;710.2;11.40;74613;2834.822;-1756.763;1;105;290;291.9;26.7;25.9;70;70.4;28.0;-1.0;
18/02/2025 04:25:25;117;0;31.16;-4;19.95;24.94;708.5;11.30;74579;2834.824;-1756.762;1;109;310;312.9;26.7;25.9;70;69.9;28.0;-1.0;
18/02/2025 04:25:45;117;0;41.51;-4;19.35;24.98;706.7;11.30;74541;2834.826;-1756.760;1;112;330;335.5;26.7;25.9;70;69.9;28.0;-1.0;
18/02/2025 04:26:05;117;0;51.41;-4;17.69;24.94;704.7;11.30;74509;2834.828;-1756.758;1;116;350;353.2;26.0;25.9;70;69.9;28.0;-1.0;
18/02/2025 04:26:25;117;0;63.49;-4;16.68;24.82;703.0;11.30;74475;2834.830;-1756.756;1;119;370;371.0;25.0;24.9;70;70.4;28.0;-1.0;
18/02/2025 04:26:45;117;0;77.96;-4;18.82;24.69;701.3;11.30;74437;2834.831;-1756.754;1;122;390;393.5;24.6;24.6;70;69.9;28.0;-1.0;
18/02/2025 04:27:05;117;0;96.57;-4;19.70;24.71;699.3;11.30;74398;2834.831;-1756.751;1;124;390;395.2;24.6;24.0;67;66.3;28.0;-1.0;
18/02/2025 04:27:25;117;0;111.02;-4;20.49;22.71;697.1;11.30;74398;2834.830;-1756.748;1;126;390;391.9;24.6;24.0;45;45.1;28.0;-1.0;
18/02/2025 04:27:45;117;0;117.12;-4;21.28;11.21;694.9;11.30;74406;2834.829;-1756.746;1;127;390;396.8;24.6;24.7;38;37.5;28.0;-1.0;
18/02/2025 04:28:05;117;0;119.66;-4;19.95;7.53;692.6;11.30;74406;2834.828;-1756.743;1;128;390;393.5;24.6;24.9;36;36.1;28.0;-1.0;
18/02/2025 04:28:25;117;0;121.20;-4;19.82;6.53;690.5;11.30;74404;2834.827;-1756.741;1;129;390;391.9;24.6;24.9;36;35.6;28.0;-1.0;
18/02/2025 04:28:45;117;0;123.54;-4;19.63;6.57;688.2;11.30;74406;2834.826;-1756.738;1;131;390;395.2;24.6;24.7;34;33.8;28.0;-1.0;
18/02/2025 04:29:05;117;0;125.05;-4;19.47;5.42;686.0;11.30;74410;2834.825;-1756.736;1;132;390;393.5;24.6;24.7;34;33.8;28.0;-1.0;
18/02/2025 04:29:25;117;0;126.11;-4;18.80;5.53;683.7;11.30;74413;2834.824;-1756.733;1;133;390;393.5;24.3;24.3;34;33.8;28.0;-1.0;
18/02/2025 04:29:45;117;0;128.25;-4;20.10;5.58;681.5;11.30;74415;2834.822;-1756.731;1;135;390;393.5;24.3;23.9;34;33.8;28.0;-1.0;
18/02/2025 04:30:05;117;0;130.18;-4;20.53;5.70;679.2;11.30;74404;2834.821;-1756.729;1;136;390;393.5;24.3;24.3;32;32.0;28.0;-1.0;
18/02/2025 04:30:25;117;0;130.88;-4;20.19;4.61;676.8;11.30;74389;2834.819;-1756.727;1;138;390;395.2;24.3;24.4;32;32.0;28.0;-1.0;
18/02/2025 04:30:45;117;0;130.49;-4;19.74;4.54;674.7;11.30;74407;2834.818;-1756.724;1;141;390;393.5;24.3;24.4;36;36.1;28.0;-1.0;
18/02/2025 04:31:05;117;0;132.62;-4;19.89;7.07;672.5;11.30;74409;2834.817;-1756.722;1;145;390;395.2;24.3;24.6;36;36.6;28.0;-1.0;
18/02/2025 04:31:25;117;0;134.99;-4;20.00;7.11;670.5;11.30;74413;2834.815;-1756.721;1;151;390;393.5;24.3;24.4;41;41.1;28.0;-1.0;
18/02/2025 04:31:45;117;0;138.42;-4;19.89;9.78;668.4;11.30;74408;2834.814;-1756.719;1;163;390;393.5;24.3;24.4;52;51.9;28.0;-1.0;
18/02/2025 04:32:05;117;0;144.68;-4;20.42;15.35;666.3;11.30;74399;2834.812;-1756.717;1;218;390;393.5;24.3;24.4;70;70.4;28.0;-1.0;
18/02/2025 04:32:25;117;0;155.62;-4;19.70;25.46;664.1;11.30;74406;2834.810;-1756.716;1;312;390;395.2;24.3;24.4;70;70.4;28.0;-1.0;
18/02/2025 04:32:45;117;0;169.04;-4;19.78;25.36;662.0;11.30;74411;2834.807;-1756.716;1;334;390;393.5;24.3;24.4;70;70.4;28.0;-1.0;
18/02/2025 04:33:05;117;0;181.73;-4;20.08;25.31;660.0;11.30;74417;2834.805;-1756.716;1;346;390;393.5;24.3;24.6;70;70.4;28.0;-1.0;
18/02/2025 04:33:25;117;0;192.14;-4;20.16;25.31;657.8;11.30;74425;2834.803;-1756.717;1;356;390;393.5;24.3;24.4;70;70.4;28.0;-1.0;
18/02/2025 04:33:45;117;0;204.56;-4;20.20;25.38;655.8;11.30;74434;2834.801;-1756.719;1;4;390;393.5;24.3;24.4;70;70.4;28.0;-1.0;
18/02/2025 04:34:05;117;0;215.26;-4;20.01;25.54;653.5;11.30;74451;2834.799;-1756.721;1;13;390;393.5;24.3;24.4;70;70.4;28.0;-1.0;
18/02/2025 04:34:25;117;0;227.89;-4;19.85;25.54;651.2;11.30;74438;2834.798;-1756.724;1;21;390;393.5;24.3;24.4;70;70.4;28.0;-1.0;
18/02/2025 04:34:45;117;0;239.86;-4;20.09;25.86;648.9;11.30;74445;2834.796;-1756.727;1;29;390;393.5;24.3;24.4;70;70.4;28.0;-1.0;
18/02/2025 04:35:05;117;0;251.41;-4;19.83;25.73;646.1;11.30;74451;2834.796;-1756.731;1;37;390;395.2;24.3;24.4;70;70.4;28.0;-1.0;
18/02/2025 04:35:25;117;0;262.39;-4;19.82;25.00;643.5;11.30;74449;2834.796;-1756.735;1;45;390;393.5;24.3;24.6;70;70.4;28.0;-1.0;
18/02/2025 04:35:45;117;0;276.36;-4;20.49;25.94;640.7;11.30;74451;2834.797;-1756.740;1;53;390;393.5;24.3;24.4;70;70.4;28.0;-1.0;
18/02/2025 04:36:05;117;0;287.33;-4;19.53;25.53;637.7;11.30;74459;2834.798;-1756.744;1;61;390;393.5;24.3;24.4;70;70.4;28.0;-1.0;
18/02/2025 04:36:25;117;0;300.24;-4;19.60;25.60;634.8;11.30;74458;2834.800;-1756.748;1;68;390;393.5;24.3;24.4;70;70.4;28.0;-1.0;
18/02/2025 04:36:45;117;0;312.92;-4;20.08;25.41;631.7;11.30;74447;2834.804;-1756.752;1;76;390;393.5;24.3;24.4;70;70.4;28.0;-1.0;
18/02/2025 04:37:05;117;0;325.40;-4;19.18;25.10;628.8;11.30;74455;2834.807;-1756.754;1;83;390;393.5;24.3;24.4;70;70.4;28.0;-1.0;
18/02/2025 04:37:25;117;0;336.35;-4;19.88;25.47;625.8;11.30;74457;2834.811;-1756.756;1;90;390;393.5;24.3;24.6;70;70.4;28.0;-1.0;
18/02/2025 04:37:45;117;0;348.88;-4;19.63;25.61;623.0;11.30;74452;2834.815;-1756.757;1;97;390;393.5;24.3;24.4;70;70.4;28.0;-1.0;
18/02/2025 04:38:05;117;0;2.19;-4;20.33;25.43;620.5;11.30;74447;2834.819;-1756.758;1;103;390;391.9;24.3;24.6;70;70.4;28.0;-1.0;
18/02/2025 04:38:25;117;0;13.28;-4;20.53;25.50;617.7;11.30;74447;2834.823;-1756.757;1;109;390;393.5;24.3;24.6;70;70.4;28.0;-1.0;
18/02/2025 04:38:46;117;0;25.94;-4;19.71;25.10;614.7;11.30;74438;2834.826;-1756.755;1;115;390;393.5;24.3;24.4;70;70.4;28.0;-1.0;
18/02/2025 04:39:06;117;0;38.85;-4;19.15;25.72;612.0;11.30;74446;2834.830;-1756.753;1;121;390;393.5;24.3;24.4;70;70.4;28.0;-1.0;
18/02/2025 04:39:26;117;0;51.05;-4;20.20;25.41;609.2;11.30;74444;2834.832;-1756.750;1;127;390;393.5;24.3;24.4;70;70.4;28.0;-1.0;
18/02/2025 04:39:46;117;0;64.90;-4;20.37;25.42;606.2;11.30;74440;2834.834;-1756.747;1;133;390;393.5;24.3;24.4;70;70.4;28.0;-1.0;
18/02/2025 04:40:06;117;0;78.41;-4;19.90;25.28;603.1;11.40;74449;2834.836;-1756.742;1;139;390;393.5;24.3;24.4;70;70.4;28.0;-1.0;
18/02/2025 04:40:26;117;0;89.50;-4;19.23;25.10;600.1;11.40;74451;2834.836;-1756.738;1;145;390;393.5;24.3;24.4;70;70.4;28.0;-1.0;
18/02/2025 04:40:46;117;0;102.23;-4;20.17;25.88;597.2;11.40;74445;2834.836;-1756.734;1;150;390;395.2;24.3;24.6;70;70.4;28.0;-1.0;
18/02/2025 04:41:06;117;0;116.85;-4;20.02;25.35;594.2;11.40;74446;2834.834;-1756.731;1;155;390;393.5;24.3;24.4;70;70.4;28.0;-1.0;
18/02/2025 04:41:26;117;0;129.33;-4;19.65;25.32;591.1;11.40;74449;2834.832;-1756.727;1;159;390;393.5;24.3;24.6;62;61.8;28.0;-1.0;
18/02/2025 04:41:46;117;0;139.91;-4;20.51;20.61;588.2;11.40;74456;2834.830;-1756.725;1;162;390;393.5;24.3;24.4;48;47.4;28.0;-1.0;
18/02/2025 04:42:06;117;0;145.69;-4;20.52;12.58;585.1;11.40;74458;2834.827;-1756.723;1;165;390;395.2;24.3;24.4;43;42.4;28.0;-1.0;
18/02/2025 04:42:26;117;0;149.88;-4;20.29;10.18;582.1;11.40;74458;2834.824;-1756.721;1;169;390;393.5;24.3;24.4;43;42.0;28.0;-1.0;
18/02/2025 04:42:46;117;0;156.03;-4;19.94;9.50;579.0;11.40;74460;2834.821;-1756.719;1;173;390;395.2;24.3;24.4;38;37.5;28.0;-1.0;
18/02/2025 04:43:06;117;0;158.99;-4;20.12;7.58;576.0;11.40;74468;2834.818;-1756.718;1;179;390;393.5;24.3;24.4;41;41.1;28.0;-1.0;
18/02/2025 04:43:26;117;0;161.46;-4;20.54;9.60;572.9;11.40;74459;2834.815;-1756.717;1;192;390;395.2;24.3;24.4;57;56.9;28.0;-1.0;
18/02/2025 04:43:46;117;0;172.67;-4;20.19;18.35;569.8;11.40;74456;2834.811;-1756.717;1;254;390;393.5;24.3;24.4;70;69.9;28.0;-1.0;
18/02/2025 04:44:06;117;0;185.10;-4;19.77;25.33;566.6;11.40;74462;2834.808;-1756.717;1;352;390;395.2;24.3;24.6;70;70.4;28.0;-1.0;
18/02/2025 04:44:26;117;0;198.44;-4;19.73;25.90;563.4;11.40;74463;2834.804;-1756.719;1;9;390;393.5;24.3;24.6;70;70.4;28.0;-1.0;
18/02/2025 04:44:46;117;0;211.29;-4;19.37;25.36;560.1;11.40;74463;2834.801;-1756.722;1;20;390;393.5;24.3;24.4;70;70.4;28.0;-1.0;
18/02/2025 04:45:06;117;0;225.67;-4;19.83;25.41;556.9;11.40;74466;2834.798;-1756.726;1;28;390;395.2;24.3;24.6;70;70.4;28.0;-1.0;
18/02/2025 04:45:26;117;0;240.50;-4;19.80;25.54;553.7;11.40;74479;2834.797;-1756.730;1;37;390;395.2;24.3;24.4;70;70.4;28.0;-1.0;
18/02/2025 04:45:46;117;0;255.68;-4;19.89;25.48;550.5;11.40;74469;2834.796;-1756.735;1;45;390;395.2;24.3;24.4;70;70.4;28.0;-1.0;
18/02/2025 04:46:06;117;0;270.16;-4;19.57;25.32;547.3;11.40;74473;2834.797;-1756.740;1;53;390;393.5;24.3;24.4;70;70.4;28.0;-1.0;
18/02/2025 04:46:26;117;0;283.51;-4;19.60;25.30;544.2;11.50;74489;2834.798;-1756.744;1;61;390;395.2;24.3;24.4;70;70.4;28.0;-1.0;
18/02/2025 04:46:46;117;0;296.15;-4;19.65;25.43;540.8;11.50;74489;2834.800;-1756.749;1;69;390;393.5;24.3;24.6;70;70.4;28.0;-1.0;
18/02/2025 04:47:06;117;0;308.42;-4;19.61;25.53;537.5;11.50;74486;2834.804;-1756.753;1;76;390;391.9;24.3;24.6;70;70.4;28.0;-1.0;
18/02/2025 04:47:26;117;0;322.27;-4;19.45;25.37;534.1;11.50;74486;2834.808;-1756.757;1;84;390;393.5;24.3;24.6;70;70.4;28.0;-1.0;
18/02/2025 04:47:46;117;0;336.40;-4;19.57;25.51;530.8;11.50;74488;2834.812;-1756.759;1;91;390;393.5;24.3;24.4;70;70.4;28.0;-1.0;
18/02/2025 04:48:06;117;0;351.39;-4;19.89;25.67;527.3;11.50;74488;2834.817;-1756.760;1;99;390;393.5;24.3;24.4;70;70.4;28.0;-1.0;
18/02/2025 04:48:26;117;0;5.95;-4;19.25;25.63;524.0;11.50;74482;2834.822;-1756.760;1;106;390;395.2;24.3;24.4;70;70.4;28.0;-1.0;
18/02/2025 04:48:46;117;0;19.75;-4;19.75;25.28;520.5;11.50;74492;2834.826;-1756.758;1;113;390;393.5;24.3;24.4;70;70.4;28.0;-1.0;
18/02/2025 04:49:06;117;0;33.19;-4;19.37;25.32;517.2;11.50;74492;2834.830;-1756.756;1;120;390;393.5;24.3;24.4;70;70.4;28.0;-1.0;
18/02/2025 04:49:26;117;0;46.28;-4;19.17;25.31;513.9;11.60;74499;2834.834;-1756.753;1;127;390;395.2;24.3;24.4;70;70.4;28.0;-1.0;
18/02/2025 04:49:46;117;0;60.48;-4;19.33;25.34;510.7;11.50;74494;2834.836;-1756.749;1;133;390;393.5;24.3;24.4;70;70.4;28.0;-1.0;
18/02/2025 04:50:06;117;0;76.15;-4;18.55;25.01;507.5;11.50;74499;2834.838;-1756.744;1;139;390;391.9;23.8;23.9;70;70.4;28.0;-1.0;
18/02/2025 04:50:26;117;0;90.18;-4;22.27;25.44;504.3;11.60;74501;2834.838;-1756.740;1;144;390;395.2;24.5;24.4;70;70.4;28.0;-1.0;
18/02/2025 04:50:46;117;0;104.15;-4;19.91;25.69;500.8;11.60;74518;2834.837;-1756.735;1;150;390;393.5;24.5;24.6;70;70.4;28.0;-1.0;
18/02/2025 04:51:06;117;0;117.98;-4;19.13;25.79;497.5;11.60;74497;2834.836;-1756.731;1;155;390;395.2;24.5;24.6;70;70.4;28.0;-1.0;
18/02/2025 04:51:26;117;0;131.15;-4;18.98;25.53;494.3;11.60;74516;2834.833;-1756.728;1;159;390;393.5;24.2;24.3;59;59.1;28.0;-1.0;
18/02/2025 04:51:46;117;0;140.30;-4;19.89;18.68;490.9;11.60;74516;2834.831;-1756.725;1;162;390;393.5;24.2;23.9;49;48.7;28.0;-1.0;
18/02/2025 04:52:06;117;0;147.12;-4;20.46;13.11;487.7;11.60;74510;2834.827;-1756.723;1;166;390;395.2;24.2;23.9;43;42.9;28.0;-1.0;
18/02/2025 04:52:26;117;0;151.98;-4;20.88;10.28;484.4;11.60;74517;2834.824;-1756.721;1;169;390;395.2;24.2;23.9;40;40.2;28.0;-1.0;
18/02/2025 04:52:46;117;0;156.29;-4;20.47;8.84;481.1;11.60;74519;2834.821;-1756.719;1;173;390;395.2;24.2;23.9;38;37.9;28.0;-1.0;
18/02/2025 04:53:06;117;0;158.82;-4;20.01;7.46;477.8;11.70;74530;2834.817;-1756.718;1;181;390;395.2;24.2;23.9;46;46.0;28.0;-1.0;
18/02/2025 04:53:26;117;0;165.26;-4;20.54;11.98;474.6;11.60;74508;2834.814;-1756.717;1;196;390;395.2;24.2;24.0;58;58.2;28.0;-1.0;
18/02/2025 04:53:46;117;0;173.21;-4;20.25;18.70;471.3;11.70;74524;2834.810;-1756.717;1;305;390;395.2;24.2;23.9;70;69.9;28.0;-1.0;
18/02/2025 04:54:06;117;0;184.73;-4;19.80;25.52;468.0;11.70;74526;2834.806;-1756.717;1;353;390;396.8;24.2;23.9;70;70.4;28.0;-1.0;
18/02/2025 04:54:26;117;0;196.88;-4;19.99;25.38;464.7;11.70;74537;2834.803;-1756.719;1;7;390;395.2;24.2;24.0;70;70.4;28.0;-1.0;
18/02/2025 04:54:46;117;0;208.68;-4;20.19;25.27;461.4;11.70;74548;2834.799;-1756.722;1;16;390;395.2;24.2;24.0;70;70.4;28.0;-1.0;
18/02/2025 04:55:06;117;0;221.62;-4;19.74;25.15;458.0;11.70;74549;2834.797;-1756.725;1;24;390;395.2;24.2;23.9;70;70.4;28.0;-1.0;
18/02/2025 04:55:26;117;0;234.11;-4;20.02;25.13;454.9;11.70;74547;2834.795;-1756.729;1;31;390;395.2;24.2;23.9;70;70.4;28.0;-1.0;
18/02/2025 04:55:46;117;0;247.08;-4;19.95;25.38;451.6;11.70;74546;2834.794;-1756.734;1;39;390;395.2;24.2;23.9;70;70.4;28.0;-1.0;
18/02/2025 04:56:06;117;0;259.17;-4;19.58;25.36;448.5;11.80;74548;2834.793;-1756.739;1;46;390;395.2;24.2;23.9;70;70.4;28.0;-1.0;
18/02/2025 04:56:26;117;0;271.83;-4;19.65;25.33;445.3;11.80;74559;2834.794;-1756.744;1;53;390;395.2;24.2;23.9;70;70.4;28.0;-1.0;
18/02/2025 04:56:46;117;0;284.68;-4;19.77;25.25;442.1;11.80;74553;2834.795;-1756.748;1;59;390;395.2;24.2;23.9;70;70.4;28.0;-1.0;
18/02/2025 04:57:06;117;0;298.20;-4;19.86;25.33;439.1;11.80;74561;2834.798;-1756.753;1;66;390;393.5;24.2;23.9;70;70.4;28.0;-1.0;
18/02/2025 04:57:26;117;0;312.46;-4;19.70;25.36;435.9;11.80;74565;2834.801;-1756.756;1;73;390;395.2;24.2;23.9;70;70.4;28.0;-1.0;
18/02/2025 04:57:46;117;0;326.13;-4;19.87;25.35;432.9;11.80;74554;2834.804;-1756.759;1;80;390;395.2;24.2;23.9;70;70.4;28.0;-1.0;
18/02/2025 04:58:06;117;0;339.11;-4;20.00;25.25;429.8;11.80;74573;2834.808;-1756.761;1;86;390;395.2;24.2;23.9;70;70.4;28.0;-1.0;
18/02/2025 04:58:26;117;0;351.80;-4;20.05;25.33;426.8;11.80;74566;2834.813;-1756.762;1;93;390;393.5;24.2;23.9;70;70.4;28.0;-1.0;
18/02/2025 04:58:46;117;0;2.74;-4;20.03;25.40;423.8;11.90;74579;2834.817;-1756.762;1;99;390;395.2;24.2;23.9;70;70.4;28.0;-1.0;
18/02/2025 04:59:06;117;0;14.54;-4;19.92;25.28;420.8;11.90;74568;2834.821;-1756.761;1;105;390;395.2;24.2;23.9;70;70.4;28.0;-1.0;
18/02/2025 04:59:26;117;0;26.49;-4;19.75;25.23;417.8;11.90;74580;2834.825;-1756.759;1;111;390;395.2;24.2;23.9;70;70.4;28.0;-1.0;
18/02/2025 04:59:46;117;0;39.86;-4;19.82;25.24;414.8;11.90;74583;2834.828;-1756.757;1;117;390;395.2;24.2;23.9;70;70.4;28.0;-1.0;
18/02/2025 05:00:06;117;0;51.85;-4;19.94;25.27;412.0;11.90;74575;2834.831;-1756.754;1;122;390;395.2;24.2;23.9;70;70.4;28.0;-1.0;
18/02/2025 05:00:26;117;0;64.05;-4;19.88;25.37;409.2;11.90;74585;2834.833;-1756.750;1;128;390;395.2;24.2;23.9;70;70.4;28.0;-1.0;
18/02/2025 05:00:46;117;0;75.52;-4;20.12;25.34;406.2;11.90;74581;2834.834;-1756.747;1;133;390;395.2;24.2;23.9;70;70.4;28.0;-1.0;
18/02/2025 05:01:06;117;0;88.06;-4;20.07;25.39;403.2;11.90;74584;2834.835;-1756.743;1;138;390;395.2;24.2;23.9;70;70.4;28.0;-1.0;
18/02/2025 05:01:26;117;0;99.09;-4;19.99;25.33;400.2;12.00;74593;2834.835;-1756.738;1;143;390;395.2;24.2;23.9;70;70.4;28.0;-1.0;
18/02/2025 05:01:46;117;0;113.18;-4;19.67;25.27;397.1;12.00;74606;2834.834;-1756.735;1;147;390;395.2;24.2;23.9;70;70.4;28.0;-1.0;
18/02/2025 05:02:06;117;0;128.25;-4;20.29;25.13;394.2;12.00;74598;2834.832;-1756.732;1;150;390;395.2;24.2;23.9;51;51.0;28.0;-1.0;
18/02/2025 05:02:26;117;0;135.05;-4;21.60;14.52;391.1;12.00;74601;2834.830;-1756.729;1;153;390;395.2;24.2;23.9;44;43.8;28.0;-1.0;
18/02/2025 05:02:46;117;0;136.17;-4;20.40;11.01;388.1;12.00;74598;2834.827;-1756.726;1;156;390;395.2;24.2;24.0;46;46.0;28.0;-1.0;
18/02/2025 05:03:06;117;0;141.22;-4;20.09;12.27;385.2;12.00;74612;2834.825;-1756.724;1;160;390;395.2;24.2;23.9;44;43.8;28.0;-1.0;
18/02/2025 05:03:26;117;0;145.92;-4;20.75;10.67;382.1;12.00;74611;2834.822;-1756.722;1;164;390;395.2;24.2;23.9;42;41.5;28.0;-1.0;
18/02/2025 05:03:46;117;0;149.68;-4;19.79;9.48;379.0;12.10;74605;2834.819;-1756.720;1;170;390;393.5;24.2;23.9;45;45.1;28.0;-1.0;
18/02/2025 05:04:06;117;0;154.44;-4;20.27;11.79;376.2;12.10;74605;2834.816;-1756.718;1;179;390;396.8;24.2;23.9;49;49.6;28.0;-1.0;
18/02/2025 05:04:26;117;0;160.79;-4;20.43;13.95;373.3;12.10;74618;2834.813;-1756.717;1;204;390;396.8;24.2;23.9;70;69.9;28.0;-1.0;
18/02/2025 05:04:46;117;0;170.51;-4;20.05;25.04;370.2;12.10;74622;2834.810;-1756.717;1;314;390;395.2;24.2;23.9;70;69.9;28.0;-1.0;
18/02/2025 05:05:06;117;0;180.72;-4;20.00;25.10;367.2;12.10;74625;2834.806;-1756.717;1;348;390;395.2;24.2;23.9;70;69.9;28.0;-1.0;
18/02/2025 05:05:26;117;0;196.26;-4;19.91;25.00;364.2;12.10;74627;2834.803;-1756.718;1;2;390;395.2;24.2;23.9;70;69.9;28.0;-1.0;
18/02/2025 05:05:46;117;0;210.28;-4;19.78;25.13;361.1;12.10;74634;2834.800;-1756.721;1;13;390;395.2;24.2;23.9;70;69.9;28.0;-1.0;
18/02/2025 05:06:06;117;0;223.90;-4;19.92;25.41;358.2;12.20;74644;2834.798;-1756.724;1;22;390;395.2;24.2;23.9;70;69.9;28.0;-1.0;
18/02/2025 05:06:26;117;0;237.19;-4;19.65;24.93;355.1;12.20;74646;2834.796;-1756.728;1;31;390;395.2;24.2;23.9;70;69.9;28.0;-1.0;
18/02/2025 05:06:46;117;0;251.64;-4;19.78;25.12;352.1;12.20;74642;2834.795;-1756.733;1;39;390;395.2;24.2;23.9;70;69.9;28.0;-1.0;
18/02/2025 05:07:06;117;0;265.69;-4;20.10;25.06;349.1;12.20;74639;2834.795;-1756.737;1;47;390;395.2;24.2;23.9;70;69.9;28.0;-1.0;
18/02/2025 05:07:26;117;0;280.84;-4;19.77;25.16;346.1;12.20;74653;2834.797;-1756.742;1;55;390;396.8;24.2;23.9;70;69.9;28.0;-1.0;
18/02/2025 05:07:46;117;0;295.42;-4;19.78;25.06;343.3;12.20;74662;2834.798;-1756.746;1;63;390;395.2;24.2;24.0;70;69.9;28.0;-1.0;
18/02/2025 05:08:06;117;0;307.35;-4;19.86;25.18;340.3;12.30;74661;2834.801;-1756.750;1;71;390;396.8;24.2;23.9;70;69.5;28.0;-1.0;
