Timestamp;NavState;SecurityLevel;Heading;Declination;Pitch;Roll;Depth;Temperature;Pa;Lat;Lon;DeadReckoning;DesiredH;BallastCmd;BallastPos;LinCmd;LinPos;AngCmd;AngPos;Voltage;Altitude;
18/02/2025 10:48:54;119;0;321.16;-4;-53.18;-7.40;0.3;17.20;75702;2834.669;-1758.316;0;322;500;504.8;100.0;100.6;0;0.9;28.0;-1.0;
18/02/2025 10:49:04;116;0;323.76;-4;-46.20;-13.02;-0.0;17.20;75706;2834.649;-1758.312;0;323;500;504.8;100.0;100.6;0;0.9;28.0;-1.0;
18/02/2025 10:49:29;116;0;315.06;-4;-41.61;-6.58;-0.0;17.30;75716;2834.654;-1758.322;0;324;500;506.5;100.0;100.6;0;0.5;27.9;-1.0;
18/02/2025 10:49:48;116;0;306.92;-4;-35.92;-24.93;-0.1;17.40;75716;2834.655;-1758.323;0;324;500;504.8;100.0;100.6;0;0.9;28.0;-1.0;
18/02/2025 10:50:06;116;0;305.98;-4;-51.32;-2.28;0.1;17.40;75743;2834.648;-1758.320;0;324;500;506.5;100.0;100.6;0;0.5;28.0;-1.0;
18/02/2025 10:50:59;116;0;313.66;-4;-51.02;0.63;0.0;17.50;75750;2834.649;-1758.335;0;324;500;506.5;100.0;100.6;0;0.5;28.0;-1.0;
18/02/2025 10:52:01;116;0;317.67;-4;-53.86;-5.27;0.1;17.80;75783;2834.649;-1758.334;0;325;500;506.5;100.0;100.6;0;0.5;28.0;-1.0;
18/02/2025 10:53:30;116;0;317.71;-4;-39.61;-0.79;-0.0;18.20;75812;2834.650;-1758.332;0;325;500;506.5;100.0;100.6;0;0.5;28.0;-1.0;
18/02/2025 10:54:43;116;0;333.87;-4;-58.17;-6.52;0.3;18.50;75837;2834.651;-1758.334;0;325;500;506.5;100.0;100.6;0;0.9;28.0;-1.0;
18/02/2025 10:55:37;116;0;341.01;-4;-47.15;-14.72;0.1;18.70;75848;2834.652;-1758.333;0;325;500;506.5;100.0;100.6;0;0.5;27.9;-1.0;
18/02/2025 10:55:47;116;0;322.84;-4;-50.28;-16.66;0.0;18.80;75866;2834.654;-1758.334;0;325;500;508.1;100.0;100.6;0;0.9;28.0;-1.0;
18/02/2025 10:56:08;110;0;342.16;-4;-53.22;-9.56;-0.1;18.90;75866;2834.654;-1758.334;0;325;-50;430.6;100.0;100.6;-8;-8.1;28.0;-1.0;
18/02/2025 10:56:18;110;0;331.10;-4;-44.20;-13.73;0.0;18.90;76129;2834.653;-1758.334;1;325;-50;283.9;100.0;100.6;-8;-8.6;27.9;-1.0;
18/02/2025 10:56:28;110;0;343.46;-4;-58.19;-22.44;0.2;19.00;76369;2834.653;-1758.334;1;325;-50;127.4;100.0;100.6;-8;-8.6;27.9;-1.0;
18/02/2025 10:56:38;110;0;349.31;-4;-65.35;6.73;0.8;19.00;76697;2834.653;-1758.334;1;325;-50;-33.9;100.0;100.6;-8;-8.6;27.9;-1.0;
18/02/2025 10:56:48;110;0;27.52;-4;-70.51;-34.20;1.2;19.00;77043;2834.653;-1758.333;1;325;-50;-50.0;42.1;47.6;-8;-8.6;27.9;-1.0;
18/02/2025 10:56:58;110;0;29.75;-4;-51.82;-22.22;2.5;19.10;77029;2834.653;-1758.333;1;325;-50;-51.6;42.1;42.1;-8;-8.6;27.9;-1.0;
18/02/2025 10:57:18;100;0;38.04;-4;-18.50;-17.53;5.5;19.10;77040;2834.656;-1758.329;1;325;-50;-45.2;42.1;41.7;-8;-8.6;27.9;-1.0;
18/02/2025 10:57:38;100;0;47.09;-4;-14.77;-16.19;8.2;19.20;77041;2834.657;-1758.325;1;324;-50;-43.5;43.7;44.2;70;69.9;28.0;-1.0;
18/02/2025 10:57:58;100;0;40.55;-4;-23.73;22.93;10.4;19.20;77060;2834.659;-1758.323;1;324;-50;-43.5;42.6;42.6;70;70.4;28.0;-1.0;
18/02/2025 10:58:18;100;0;28.12;-4;-24.79;23.23;13.4;19.20;77065;2834.661;-1758.321;1;324;-50;-43.5;41.1;41.1;70;70.4;28.0;0.0;
18/02/2025 10:58:38;100;0;18.93;-4;-18.41;23.53;16.3;19.20;77062;2834.664;-1758.319;1;323;-50;-43.5;41.6;41.8;70;69.9;27.9;0.0;
18/02/2025 10:58:58;100;0;4.77;-4;-17.35;23.29;18.8;19.20;77073;2834.666;-1758.318;1;323;-50;-43.5;42.4;42.6;61;60.9;27.9;0.0;
18/02/2025 10:59:18;100;0;356.12;-4;-22.11;18.21;21.5;19.30;77081;2834.669;-1758.317;1;323;-50;-43.5;41.8;41.7;49;49.2;28.0;0.0;
18/02/2025 10:59:38;100;0;346.75;-4;-18.16;12.29;24.2;19.30;77086;2834.672;-1758.318;1;323;-50;-43.5;42.3;42.1;34;33.8;27.9;0.0;
18/02/2025 10:59:58;100;0;340.42;-4;-17.43;4.93;26.4;19.30;77089;2834.674;-1758.318;1;323;-50;-43.5;43.1;43.4;24;23.9;28.0;0.0;
18/02/2025 11:00:18;100;0;337.40;-4;-21.71;-0.10;28.5;19.30;77090;2834.675;-1758.319;1;323;-50;-43.5;43.1;43.4;19;19.0;28.0;0.0;
18/02/2025 11:00:38;100;0;338.83;-4;-19.40;-2.58;30.9;19.30;77088;2834.678;-1758.320;1;323;-50;-43.5;43.1;43.4;21;21.2;28.0;0.0;
18/02/2025 11:00:58;100;0;339.50;-4;-20.65;-1.24;33.7;19.30;77094;2834.680;-1758.320;1;323;-50;-43.5;43.1;43.4;21;21.2;28.0;0.0;
18/02/2025 11:01:18;100;0;341.86;-4;-21.91;-0.87;36.4;19.40;77093;2834.682;-1758.321;1;322;-50;-43.5;43.1;43.4;28;28.0;28.0;0.0;
18/02/2025 11:01:38;100;0;338.72;-4;-21.23;2.58;39.1;19.40;77084;2834.685;-1758.322;1;322;-50;-45.2;43.1;43.4;23;22.6;28.0;0.0;
18/02/2025 11:01:58;100;0;335.24;-4;-20.83;-0.44;41.9;19.40;77097;2834.687;-1758.323;1;322;-50;-43.5;43.1;43.6;18;18.1;28.0;0.0;
18/02/2025 11:02:18;100;0;332.35;-4;-21.36;-2.88;44.5;19.40;77095;2834.689;-1758.324;1;322;-50;-43.5;43.1;43.4;15;14.9;28.0;0.0;
18/02/2025 11:02:38;100;0;332.07;-4;-20.56;-4.68;47.2;19.40;77089;2834.691;-1758.325;1;322;-50;-43.5;43.1;43.4;15;14.4;28.0;0.0;
18/02/2025 11:02:58;100;0;333.96;-4;-21.02;-4.53;49.9;19.40;77094;2834.694;-1758.326;1;322;-50;-43.5;43.1;43.4;17;17.1;28.0;0.0;
18/02/2025 11:03:18;100;0;333.44;-4;-21.12;-2.84;52.7;19.40;77110;2834.696;-1758.328;1;322;-50;-43.5;43.1;43.4;17;17.6;28.0;0.0;
18/02/2025 11:03:38;100;0;332.02;-4;-20.27;-2.86;55.4;19.40;77107;2834.698;-1758.329;1;322;-50;-43.5;43.1;43.4;15;14.9;28.0;0.0;
18/02/2025 11:03:58;100;0;332.99;-4;-20.68;-4.39;58.1;19.40;77110;2834.701;-1758.330;1;322;-50;-43.5;43.1;43.4;15;14.4;28.0;0.0;
18/02/2025 11:04:18;100;0;332.11;-4;-20.28;-4.46;60.8;19.40;77118;2834.703;-1758.331;1;322;-50;-43.5;43.1;43.4;15;14.4;28.0;0.0;
18/02/2025 11:04:38;100;0;330.82;-4;-20.35;-4.47;63.4;19.40;77113;2834.705;-1758.333;1;322;-50;-43.5;43.1;43.4;15;14.4;28.0;0.0;
18/02/2025 11:04:58;100;0;330.08;-4;-20.43;-4.43;66.1;19.40;77118;2834.707;-1758.334;1;322;-50;-43.5;43.1;43.4;15;14.4;28.0;0.0;
18/02/2025 11:05:18;100;0;327.89;-4;-20.31;-4.41;68.9;19.40;77118;2834.709;-1758.336;1;322;-50;-43.5;43.1;43.6;15;14.9;28.0;0.0;
18/02/2025 11:05:38;100;0;325.72;-4;-20.88;-4.49;71.4;19.40;77115;2834.711;-1758.337;1;322;-50;-43.5;43.1;43.4;13;12.6;27.9;0.0;
18/02/2025 11:05:58;100;0;325.24;-4;-20.91;-5.58;74.1;19.40;77118;2834.713;-1758.339;1;322;-50;-45.2;43.1;43.4;13;12.6;28.0;0.0;
18/02/2025 11:06:18;100;0;326.03;-4;-21.21;-5.45;76.9;19.40;77113;2834.715;-1758.340;1;322;-50;-43.5;43.1;43.4;13;12.2;28.0;0.0;
18/02/2025 11:06:38;100;0;324.77;-4;-20.68;-5.58;79.6;19.40;77115;2834.717;-1758.342;1;322;-50;-43.5;43.1;43.4;13;12.6;28.0;0.0;
18/02/2025 11:06:58;100;0;323.03;-4;-20.58;-5.66;82.4;19.40;77115;2834.719;-1758.344;1;322;-50;-43.5;43.1;43.4;13;12.6;28.0;0.0;
18/02/2025 11:07:18;100;0;319.89;-4;-20.07;-5.56;85.1;19.40;77123;2834.721;-1758.346;1;322;-50;-43.5;43.1;43.4;13;12.2;27.9;0.0;
18/02/2025 11:07:38;100;0;321.86;-4;-19.98;-5.54;87.8;19.40;77125;2834.723;-1758.348;1;322;-50;-41.9;43.1;43.4;13;12.2;27.9;0.0;
18/02/2025 11:07:58;100;0;320.47;-4;-20.16;-5.60;90.6;19.40;77126;2834.725;-1758.350;1;322;-50;-43.5;43.1;43.4;13;12.2;28.0;0.0;
18/02/2025 11:08:18;100;0;319.43;-4;-19.77;-5.66;93.3;19.40;77132;2834.727;-1758.352;1;322;-50;-43.5;43.1;43.4;13;12.2;28.0;0.0;
18/02/2025 11:08:38;100;0;319.81;-4;-20.10;-5.65;96.0;19.40;77126;2834.729;-1758.354;1;322;-50;-43.5;43.1;43.4;13;12.2;28.0;0.0;
18/02/2025 11:08:58;100;0;319.67;-4;-20.38;-5.62;98.7;19.40;77132;2834.731;-1758.356;1;322;-50;-43.5;43.1;43.4;13;12.2;27.9;0.0;
18/02/2025 11:09:18;100;0;319.43;-4;-19.84;-5.54;101.3;19.40;77132;2834.733;-1758.358;1;322;-50;-43.5;43.1;43.4;13;12.2;28.0;0.0;
18/02/2025 11:09:38;100;0;317.46;-4;-19.66;-5.58;103.9;19.40;77135;2834.734;-1758.360;1;322;-50;-43.5;43.1;43.6;13;12.2;28.0;0.0;
18/02/2025 11:09:58;100;0;313.12;-4;-19.55;-5.61;106.3;19.40;77129;2834.736;-1758.362;1;322;-50;-43.5;43.1;43.4;10;9.9;27.9;0.0;
18/02/2025 11:10:18;100;0;309.24;-4;-19.35;-7.06;108.8;19.40;77116;2834.737;-1758.364;1;322;-50;-45.2;43.1;43.4;6;5.4;28.0;0.0;
18/02/2025 11:10:38;100;0;314.76;-4;-19.23;-9.31;111.1;19.40;77097;2834.738;-1758.366;1;322;-50;-43.5;43.1;43.4;11;10.8;28.0;0.0;
18/02/2025 11:10:58;100;0;318.73;-4;-19.50;-6.18;113.5;19.40;77080;2834.740;-1758.368;1;322;-50;-43.5;43.1;43.4;11;11.3;28.0;0.0;
18/02/2025 11:11:18;100;0;320.01;-4;-19.27;-6.26;115.7;19.40;77051;2834.741;-1758.369;1;322;-50;-43.5;43.1;43.4;13;13.5;27.9;0.0;
18/02/2025 11:11:38;100;0;319.53;-4;-20.15;-4.89;118.0;19.40;77038;2834.743;-1758.371;1;322;-50;-43.5;43.1;43.4;13;13.5;28.0;0.0;
18/02/2025 11:11:58;100;0;314.67;-4;-20.22;-4.86;120.6;19.30;77027;2834.745;-1758.373;1;322;-50;-43.5;43.1;43.4;11;10.8;27.9;0.0;
18/02/2025 11:12:18;100;0;311.90;-4;-19.95;-6.47;123.1;19.30;76998;2834.746;-1758.375;1;322;-50;-41.9;43.1;43.6;9;8.6;28.0;0.0;
18/02/2025 11:12:38;100;0;311.02;-4;-19.32;-7.47;125.6;19.30;76993;2834.747;-1758.377;1;322;-50;-45.2;43.1;43.4;9;8.6;28.0;0.0;
18/02/2025 11:12:58;100;0;311.56;-4;-19.66;-7.46;128.2;19.30;76988;2834.749;-1758.380;1;323;-50;-43.5;43.1;43.4;7;7.2;28.0;0.0;
18/02/2025 11:13:18;100;0;314.18;-4;-19.67;-8.30;130.9;19.20;76967;2834.750;-1758.382;1;323;-50;-43.5;43.1;43.4;10;9.9;28.0;0.0;
18/02/2025 11:13:38;100;0;316.67;-4;-20.14;-6.68;133.6;19.20;76966;2834.752;-1758.384;1;323;-50;-43.5;43.1;43.4;10;10.4;28.0;0.0;
18/02/2025 11:13:58;100;0;319.21;-4;-19.74;-6.55;136.2;19.20;76950;2834.754;-1758.386;1;323;-50;-46.8;43.1;43.4;12;12.6;28.0;0.0;
18/02/2025 11:14:18;100;0;321.70;-4;-19.62;-5.27;138.9;19.10;76929;2834.756;-1758.388;1;323;-50;-43.5;43.1;43.4;12;13.1;28.0;0.0;
18/02/2025 11:14:38;100;0;324.61;-4;-19.71;-5.30;141.5;19.10;76932;2834.758;-1758.390;1;323;-50;-43.5;43.1;43.4;12;12.6;28.0;0.0;
18/02/2025 11:14:58;100;0;325.64;-4;-19.82;-5.24;144.1;19.10;76919;2834.760;-1758.391;1;323;-50;-43.5;43.1;43.4;12;13.1;28.0;0.0;
18/02/2025 11:15:18;100;0;325.21;-4;-19.65;-5.26;146.9;19.00;76905;2834.762;-1758.393;1;323;-50;-43.5;43.1;43.4;12;13.1;28.0;0.0;
18/02/2025 11:15:38;100;0;324.42;-4;-19.39;-5.39;149.5;19.00;76901;2834.764;-1758.395;1;323;-50;-43.5;43.1;43.4;12;13.1;27.9;0.0;
18/02/2025 11:15:58;100;0;318.48;-4;-19.48;-5.37;152.1;19.00;76884;2834.766;-1758.397;1;323;-50;-43.5;43.1;43.4;12;13.1;28.0;0.0;
18/02/2025 11:16:18;100;0;315.57;-4;-19.60;-5.33;154.7;18.90;76876;2834.768;-1758.399;1;323;-50;-46.8;43.1;43.4;12;13.1;28.0;0.0;
18/02/2025 11:16:38;100;0;316.37;-4;-19.65;-5.29;157.4;18.90;76855;2834.769;-1758.401;1;323;-50;-43.5;43.1;43.4;12;13.1;27.9;0.0;
18/02/2025 11:16:58;100;0;318.22;-4;-19.71;-5.27;160.0;18.90;76859;2834.771;-1758.403;1;323;-50;-41.9;43.1;43.4;12;12.6;28.0;0.0;
18/02/2025 11:17:18;100;0;315.85;-4;-19.73;-5.28;162.7;18.80;76856;2834.773;-1758.405;1;323;-50;-43.5;43.1;43.4;12;13.1;28.0;0.0;
18/02/2025 11:17:38;100;0;312.87;-4;-19.48;-5.26;165.3;18.80;76840;2834.774;-1758.407;1;323;-50;-45.2;43.1;43.4;8;7.7;28.0;0.0;
18/02/2025 11:17:58;100;0;308.69;-4;-19.23;-7.94;167.9;18.80;76830;2834.776;-1758.410;1;323;-50;-43.5;43.1;43.4;3;3.2;27.9;0.0;
18/02/2025 11:18:18;100;0;311.64;-4;-19.01;-10.45;170.5;18.80;76832;2834.777;-1758.412;1;323;-50;-43.5;43.1;43.4;7;7.2;28.0;0.0;
18/02/2025 11:18:38;100;0;316.65;-4;-19.03;-7.93;173.0;18.70;76814;2834.779;-1758.414;1;323;-50;-45.2;43.1;43.4;11;10.8;27.9;0.0;
18/02/2025 11:18:58;100;0;318.26;-4;-18.81;-6.07;175.6;18.70;76806;2834.781;-1758.416;1;323;-50;-43.5;43.5;43.4;11;11.3;28.0;0.0;
18/02/2025 11:19:18;100;0;320.70;-4;-19.03;-6.22;178.1;18.70;76807;2834.783;-1758.418;1;323;-50;-43.5;43.5;43.4;11;11.3;27.9;0.0;
18/02/2025 11:19:38;100;0;324.23;-4;-19.14;-6.15;180.6;18.60;76787;2834.785;-1758.420;1;323;-50;-45.2;43.5;43.4;11;11.3;28.0;0.0;
18/02/2025 11:19:58;100;0;326.66;-4;-19.18;-6.04;183.3;18.60;76777;2834.787;-1758.422;1;323;-50;-43.5;43.5;43.6;11;11.3;27.9;0.0;
18/02/2025 11:20:18;100;0;328.31;-4;-19.16;-6.12;185.9;18.50;76776;2834.789;-1758.423;1;323;-50;-43.5;43.5;43.4;13;13.1;27.9;0.0;
18/02/2025 11:20:38;100;0;329.90;-4;-19.17;-5.03;188.6;18.50;76759;2834.791;-1758.425;1;323;-50;-43.5;43.5;43.4;13;13.5;28.0;0.0;
18/02/2025 11:20:58;100;0;331.92;-4;-19.04;-5.03;191.1;18.50;76747;2834.794;-1758.426;1;323;-50;-43.5;43.5;43.4;13;13.5;28.0;0.0;
18/02/2025 11:21:18;100;0;333.57;-4;-18.37;-5.01;193.7;18.40;76735;2834.796;-1758.427;1;323;-50;-43.5;44.0;43.9;15;14.9;28.0;0.0;
18/02/2025 11:21:38;100;0;332.77;-4;-20.48;-4.24;196.2;18.40;76728;2834.798;-1758.428;1;323;-50;-43.5;44.0;44.2;15;15.3;27.9;0.0;
18/02/2025 11:21:58;100;0;329.99;-4;-20.80;-4.16;198.9;18.30;76702;2834.800;-1758.430;1;323;-50;-43.5;44.0;44.2;13;13.1;27.9;0.0;
18/02/2025 11:22:18;100;0;326.03;-4;-20.89;-5.23;201.7;18.30;76710;2834.802;-1758.431;1;323;-50;-43.5;44.0;44.2;13;13.1;28.0;0.0;
18/02/2025 11:22:38;100;0;324.43;-4;-20.43;-5.13;204.4;18.30;76705;2834.804;-1758.433;1;323;-50;-43.5;44.0;44.2;13;13.1;28.0;0.0;
18/02/2025 11:22:58;100;0;326.46;-4;-20.21;-5.23;207.0;18.20;76685;2834.806;-1758.434;1;323;-50;-41.9;44.0;44.2;13;13.1;28.0;0.0;
18/02/2025 11:23:18;100;0;329.13;-4;-20.27;-5.31;209.8;18.20;76676;2834.809;-1758.436;1;323;-50;-43.5;44.0;44.2;13;13.1;28.0;0.0;
18/02/2025 11:23:38;100;0;330.92;-4;-20.29;-5.27;212.5;18.10;76664;2834.811;-1758.437;1;323;-50;-41.9;44.0;44.2;13;13.1;28.0;0.0;
18/02/2025 11:23:58;100;0;331.45;-4;-20.01;-5.31;215.2;18.10;76657;2834.813;-1758.439;1;323;-50;-43.5;44.0;44.2;13;13.1;28.0;0.0;
18/02/2025 11:24:18;100;0;333.22;-4;-20.36;-5.25;217.7;18.10;76650;2834.815;-1758.440;1;323;-50;-43.5;44.0;44.2;15;14.9;28.0;0.0;
18/02/2025 11:24:38;100;0;333.75;-4;-20.52;-4.08;220.4;18.00;76634;2834.818;-1758.441;1;323;-50;-43.5;44.0;44.2;15;15.3;27.9;0.0;
18/02/2025 11:24:58;100;0;334.28;-4;-20.54;-4.18;223.3;18.00;76637;2834.820;-1758.442;1;323;-50;-41.9;44.0;44.2;15;15.3;28.0;0.0;
18/02/2025 11:25:18;100;0;334.81;-4;-20.39;-3.93;226.0;18.00;76617;2834.822;-1758.443;1;322;-50;-43.5;44.0;44.2;18;18.1;28.0;0.0;
18/02/2025 11:25:38;100;0;328.73;-4;-20.35;-2.58;228.7;17.90;76617;2834.825;-1758.445;1;322;-50;-41.9;44.0;44.2;13;12.2;28.0;0.0;
18/02/2025 11:25:58;100;0;326.96;-4;-20.42;-5.52;231.3;17.90;76604;2834.827;-1758.446;1;322;-50;-43.5;44.0;44.2;13;12.6;27.9;0.0;
18/02/2025 11:26:18;100;0;326.64;-4;-20.71;-5.49;234.2;17.80;76606;2834.829;-1758.448;1;322;-50;-43.5;44.0;44.2;13;12.6;27.9;0.0;
18/02/2025 11:26:38;100;0;326.53;-4;-20.57;-5.43;237.1;17.80;76599;2834.831;-1758.450;1;322;-50;-43.5;44.0;44.2;13;12.2;28.0;0.0;
18/02/2025 11:26:58;100;0;324.91;-4;-20.75;-5.47;239.9;17.80;76590;2834.833;-1758.451;1;322;-50;-43.5;44.0;44.2;13;12.6;28.0;0.0;
18/02/2025 11:27:18;100;0;322.79;-4;-20.84;-5.38;242.8;17.70;76578;2834.835;-1758.453;1;322;-50;-41.9;44.0;44.2;13;12.6;28.0;0.0;
18/02/2025 11:27:38;100;0;318.46;-4;-20.85;-5.43;245.8;17.70;76575;2834.837;-1758.455;1;322;-50;-43.5;44.0;44.2;13;12.6;28.0;0.0;
18/02/2025 11:27:58;100;0;313.54;-4;-20.67;-5.40;248.6;17.60;76560;2834.839;-1758.458;1;322;-50;-43.5;44.0;44.2;10;9.9;27.9;0.0;
18/02/2025 11:28:18;100;0;310.14;-4;-21.11;-6.80;251.6;17.60;76547;2834.841;-1758.460;1;323;-50;-43.5;44.0;44.2;6;5.9;28.0;0.0;
18/02/2025 11:28:38;100;0;308.17;-4;-20.35;-8.89;254.3;17.60;76532;2834.842;-1758.463;1;323;-50;-43.5;44.0;44.2;3;3.2;28.0;0.0;
18/02/2025 11:28:58;100;0;307.97;-4;-20.20;-10.43;257.0;17.50;76536;2834.843;-1758.466;1;323;-50;-43.5;44.0;44.2;3;2.7;27.9;0.0;
18/02/2025 11:29:19;100;0;308.85;-4;-20.60;-10.52;259.8;17.50;76524;2834.845;-1758.468;1;323;-50;-43.5;44.0;44.3;3;2.7;28.0;0.0;
18/02/2025 11:29:39;100;0;309.20;-4;-19.89;-10.42;262.6;17.40;76515;2834.846;-1758.471;1;323;-50;-45.2;44.0;44.2;3;2.7;28.0;0.0;
18/02/2025 11:29:59;100;0;310.37;-4;-20.02;-10.43;265.4;17.40;76511;2834.848;-1758.473;1;323;-50;-43.5;44.0;44.2;6;6.3;27.9;0.0;
18/02/2025 11:30:19;100;0;312.98;-4;-19.86;-8.43;268.0;17.40;76495;2834.849;-1758.475;1;323;-50;-43.5;44.0;44.3;9;9.0;28.0;0.0;
18/02/2025 11:30:39;100;0;317.74;-4;-20.10;-6.93;270.6;17.30;76494;2834.851;-1758.477;1;323;-50;-43.5;44.0;44.2;12;12.2;28.0;0.0;
18/02/2025 11:30:59;100;0;320.65;-4;-19.93;-5.33;273.2;17.30;76478;2834.853;-1758.479;1;324;-50;-43.5;44.0;44.2;12;12.6;27.9;0.0;
18/02/2025 11:31:19;100;0;323.86;-4;-20.29;-5.44;275.8;17.20;76464;2834.855;-1758.481;1;324;-50;-41.9;44.0;44.2;12;12.6;28.0;0.0;
18/02/2025 11:31:39;100;0;329.08;-4;-19.94;-5.38;278.4;17.20;76459;2834.857;-1758.482;1;323;-50;-43.5;44.0;44.2;12;12.6;27.9;0.0;
18/02/2025 11:31:59;100;0;331.58;-4;-20.23;-5.39;281.0;17.20;76453;2834.859;-1758.483;1;323;-50;-43.5;44.0;44.2;14;14.4;28.0;0.0;
18/02/2025 11:32:19;100;0;331.55;-4;-20.16;-4.24;283.6;17.10;76445;2834.861;-1758.485;1;323;-50;-41.9;44.0;44.2;14;14.9;28.0;0.0;
18/02/2025 11:32:39;100;0;329.60;-4;-20.32;-4.35;286.2;17.10;76435;2834.863;-1758.486;1;323;-50;-43.5;44.0;44.2;14;14.9;28.0;0.0;
18/02/2025 11:32:59;100;0;328.57;-4;-20.24;-4.43;288.9;17.10;76422;2834.866;-1758.488;1;323;-50;-43.5;44.0;44.3;14;14.9;27.9;0.0;
18/02/2025 11:33:19;100;0;328.97;-4;-20.37;-4.27;291.5;17.00;76419;2834.868;-1758.489;1;323;-50;-41.9;44.0;44.2;14;14.9;28.0;0.0;
18/02/2025 11:33:39;100;0;329.97;-4;-20.28;-4.31;294.3;17.00;76415;2834.870;-1758.491;1;323;-50;-43.5;44.0;44.2;14;14.9;28.0;0.0;
18/02/2025 11:33:59;100;0;332.15;-4;-20.07;-4.44;297.0;16.90;76401;2834.872;-1758.492;1;323;-50;-43.5;44.0;44.2;14;14.9;28.0;0.0;
18/02/2025 11:34:19;100;0;334.43;-4;-20.25;-4.32;299.8;16.90;76408;2834.875;-1758.493;1;323;-50;-43.5;44.0;44.2;16;15.8;28.0;0.0;
18/02/2025 11:34:39;100;0;336.18;-4;-20.04;-3.70;302.6;16.80;76393;2834.877;-1758.494;1;323;-50;-43.5;44.0;44.2;18;18.1;27.9;0.0;
18/02/2025 11:34:59;100;0;334.04;-4;-20.50;-2.52;305.5;16.80;76379;2834.880;-1758.495;1;323;-50;-43.5;44.0;44.2;16;15.8;27.9;0.0;
18/02/2025 11:35:19;100;0;330.81;-4;-20.51;-3.89;308.4;16.80;76375;2834.882;-1758.497;1;323;-50;-43.5;44.0;44.2;14;13.5;28.0;0.0;
18/02/2025 11:35:39;100;0;329.62;-4;-20.46;-5.00;311.3;16.70;76363;2834.885;-1758.498;1;322;-50;-43.5;44.0;44.2;14;13.5;27.9;0.0;
18/02/2025 11:35:59;100;0;327.89;-4;-20.33;-5.01;314.3;16.70;76362;2834.887;-1758.500;1;322;-50;-43.5;44.0;44.2;14;13.5;27.9;0.0;
18/02/2025 11:36:19;100;0;326.83;-4;-20.09;-4.95;317.2;16.70;76360;2834.890;-1758.502;1;322;-50;-43.5;44.0;44.2;14;13.5;27.9;0.0;
18/02/2025 11:36:39;100;0;325.54;-4;-20.00;-4.95;320.0;16.60;76344;2834.892;-1758.504;1;322;-50;-43.5;44.0;44.2;14;13.5;28.0;0.0;
18/02/2025 11:36:59;100;0;325.49;-4;-20.11;-5.07;322.8;16.60;76356;2834.894;-1758.505;1;322;-50;-43.5;44.0;44.2;14;13.5;28.0;0.0;
18/02/2025 11:37:19;100;0;323.02;-4;-20.44;-4.97;325.7;16.60;76340;2834.896;-1758.507;1;322;-50;-43.5;44.0;44.2;14;13.5;28.0;0.0;
18/02/2025 11:37:39;100;0;321.21;-4;-20.20;-5.00;328.6;16.50;76337;2834.898;-1758.509;1;322;-50;-43.5;44.0;44.2;14;13.5;28.0;0.0;
18/02/2025 11:37:59;100;0;321.52;-4;-20.35;-5.03;331.4;16.50;76330;2834.900;-1758.511;1;322;-50;-43.5;44.0;44.2;14;13.5;28.0;0.0;
18/02/2025 11:38:19;100;0;323.44;-4;-20.45;-4.94;334.3;16.50;76318;2834.903;-1758.513;1;322;-50;-43.5;44.0;44.2;14;13.5;27.9;0.0;
18/02/2025 11:38:39;100;0;327.25;-4;-20.64;-5.07;337.1;16.40;76314;2834.905;-1758.515;1;322;-50;-45.2;44.0;44.2;14;13.5;27.9;0.0;
18/02/2025 11:38:59;100;0;331.24;-4;-20.45;-4.96;340.1;16.40;76302;2834.907;-1758.516;1;322;-50;-43.5;44.0;44.2;14;13.5;28.0;0.0;
18/02/2025 11:39:19;100;0;333.33;-4;-20.46;-4.93;342.9;16.40;76303;2834.910;-1758.518;1;322;-50;-43.5;44.0;44.2;16;15.8;27.9;0.0;
18/02/2025 11:39:39;100;0;336.70;-4;-20.59;-3.58;345.8;16.30;76291;2834.912;-1758.519;1;322;-50;-43.5;44.0;44.2;20;19.9;28.0;0.0;
18/02/2025 11:39:59;100;0;336.87;-4;-20.65;-1.61;348.6;16.30;76281;2834.915;-1758.520;1;322;-50;-43.5;44.0;44.2;20;20.3;28.0;0.0;
18/02/2025 11:40:19;100;0;334.42;-4;-20.48;-1.59;351.4;16.20;76278;2834.917;-1758.521;1;322;-50;-43.5;44.0;44.2;18;17.6;27.9;0.0;
18/02/2025 11:40:39;100;0;332.64;-4;-20.31;-3.06;354.3;16.20;76271;2834.920;-1758.522;1;321;-50;-43.5;44.0;44.2;18;17.6;28.0;0.0;
18/02/2025 11:40:59;100;0;328.54;-4;-20.37;-3.15;357.1;16.20;76266;2834.922;-1758.524;1;321;-50;-43.5;44.0;44.2;14;14.0;27.9;0.0;
18/02/2025 11:41:19;100;0;326.54;-4;-20.19;-4.77;359.7;16.10;76257;2834.924;-1758.526;1;321;-50;-43.5;44.0;44.2;14;14.0;28.0;0.0;
18/02/2025 11:41:39;100;0;328.47;-4;-19.88;-4.76;362.4;16.10;76248;2834.926;-1758.527;1;321;-50;-41.9;44.0;44.2;14;14.0;28.0;0.0;
18/02/2025 11:41:59;100;0;329.51;-4;-20.01;-4.79;365.0;16.10;76249;2834.928;-1758.528;1;321;-50;-43.5;44.0;44.2;14;14.0;28.0;0.0;
18/02/2025 11:42:19;100;0;328.66;-4;-20.15;-4.79;367.6;16.00;76242;2834.930;-1758.530;1;321;-50;-43.5;44.0;44.2;14;14.0;28.0;0.0;
18/02/2025 11:42:39;100;0;327.03;-4;-20.25;-4.77;370.2;16.00;76229;2834.933;-1758.531;1;321;-50;-43.5;44.0;44.2;14;14.0;27.9;0.0;
18/02/2025 11:42:59;100;0;326.42;-4;-20.00;-4.77;372.9;16.00;76225;2834.935;-1758.533;1;321;-50;-43.5;44.0;44.2;14;14.0;28.0;0.0;
18/02/2025 11:43:19;100;0;326.02;-4;-19.94;-4.81;375.5;15.90;76226;2834.937;-1758.534;1;321;-50;-43.5;44.0;44.3;14;14.0;28.0;0.0;
18/02/2025 11:43:39;100;0;328.67;-4;-19.35;-4.76;378.0;15.90;76203;2834.939;-1758.536;1;321;-50;-43.5;44.0;44.3;14;14.0;28.0;0.0;
18/02/2025 11:43:59;100;0;328.74;-4;-20.15;-4.81;380.3;15.90;76211;2834.941;-1758.537;1;321;-50;-43.5;44.0;44.2;14;14.0;28.0;0.0;
18/02/2025 11:44:19;100;0;329.41;-4;-19.88;-4.95;382.7;15.80;76207;2834.942;-1758.538;1;321;-50;-43.5;44.0;44.2;14;14.0;28.0;0.0;
18/02/2025 11:44:39;100;0;327.96;-4;-19.96;-4.83;385.0;15.80;76195;2834.944;-1758.540;1;321;-50;-41.9;44.0;44.2;14;14.0;28.0;0.0;
18/02/2025 11:44:59;100;0;326.28;-4;-19.80;-4.81;387.4;15.80;76198;2834.946;-1758.541;1;321;-50;-43.5;44.0;44.2;14;14.0;28.0;0.0;
18/02/2025 11:45:19;100;0;324.63;-4;-19.84;-4.80;389.6;15.70;76183;2834.948;-1758.542;1;321;-50;-43.5;44.0;44.2;14;14.0;28.0;0.0;
18/02/2025 11:45:39;100;0;321.34;-4;-19.74;-4.80;391.9;15.70;76184;2834.949;-1758.544;1;321;-50;-43.5;44.0;44.2;14;14.0;27.9;0.0;
18/02/2025 11:45:59;100;0;319.61;-4;-19.79;-4.79;394.2;15.70;76177;2834.951;-1758.545;1;321;-50;-43.5;44.0;44.2;14;14.0;27.9;0.0;
18/02/2025 11:46:19;100;0;319.44;-4;-19.82;-4.80;396.3;15.70;76181;2834.952;-1758.547;1;321;-50;-41.9;44.0;44.2;14;14.0;27.9;0.0;
18/02/2025 11:46:39;100;0;316.34;-4;-19.94;-4.76;398.5;15.60;76158;2834.953;-1758.548;1;321;-50;-43.5;44.0;44.2;12;12.2;27.9;0.0;
18/02/2025 11:46:59;100;0;314.00;-4;-19.98;-5.81;400.6;15.60;76158;2834.954;-1758.550;1;321;-50;-43.5;44.0;44.3;12;12.2;27.9;0.0;
18/02/2025 11:47:19;100;0;313.33;-4;-20.13;-5.80;402.9;15.60;76150;2834.955;-1758.552;1;321;-50;-43.5;44.0;44.2;12;12.2;27.9;0.0;
18/02/2025 11:47:39;100;0;314.32;-4;-20.39;-5.90;405.1;15.50;76151;2834.957;-1758.554;1;321;-50;-41.9;44.0;44.2;12;11.7;28.0;0.0;
18/02/2025 11:47:59;100;0;317.63;-4;-20.21;-5.67;407.4;15.50;76145;2834.958;-1758.555;1;321;-50;-43.5;44.0;44.2;12;11.7;27.9;0.0;
18/02/2025 11:48:19;100;0;320.74;-4;-19.91;-5.77;409.6;15.50;76138;2834.960;-1758.557;1;321;-50;-41.9;44.0;44.2;12;11.7;28.0;0.0;
18/02/2025 11:48:39;100;0;322.18;-4;-20.07;-5.87;411.8;15.40;76131;2834.961;-1758.558;1;321;-50;-43.5;44.0;44.2;12;11.7;28.0;0.0;
18/02/2025 11:48:59;100;0;324.24;-4;-20.10;-5.86;413.9;15.40;76125;2834.963;-1758.560;1;321;-50;-43.5;44.0;44.2;12;11.7;28.0;0.0;
18/02/2025 11:49:19;100;0;326.42;-4;-19.82;-5.87;416.1;15.40;76120;2834.964;-1758.561;1;321;-50;-43.5;44.0;44.2;12;12.2;27.9;0.0;
18/02/2025 11:49:39;100;0;326.84;-4;-19.81;-5.85;418.2;15.30;76119;2834.966;-1758.562;1;321;-50;-46.8;44.0;44.2;14;14.0;27.9;0.0;
18/02/2025 11:49:59;100;0;325.28;-4;-20.07;-4.54;420.3;15.30;76110;2834.967;-1758.563;1;321;-50;-43.5;44.0;44.2;14;14.4;28.0;0.0;
18/02/2025 11:50:19;100;0;323.45;-4;-20.03;-4.51;422.4;15.30;76108;2834.968;-1758.564;1;321;-50;-43.5;44.0;44.2;14;14.4;27.9;0.0;
18/02/2025 11:50:39;100;0;319.50;-4;-20.18;-4.55;424.6;15.30;76109;2834.970;-1758.566;1;321;-50;-43.5;44.0;44.2;14;14.4;28.0;0.0;
18/02/2025 11:50:59;100;0;315.77;-4;-20.35;-4.44;426.8;15.20;76102;2834.971;-1758.568;1;321;-50;-43.5;44.0;44.2;12;11.7;27.9;0.0;
18/02/2025 11:51:19;100;0;311.18;-4;-20.34;-6.03;429.1;15.20;76092;2834.972;-1758.570;1;321;-50;-41.9;44.0;44.2;8;8.1;28.0;0.0;
18/02/2025 11:51:39;100;0;307.64;-4;-20.03;-7.75;431.5;15.20;76090;2834.973;-1758.572;1;322;-50;-43.5;44.0;44.2;2;1.8;27.9;0.0;
18/02/2025 11:51:59;100;0;307.40;-4;-19.60;-11.01;433.8;15.20;76075;2834.974;-1758.574;1;322;-50;-43.5;44.0;44.2;2;1.4;28.0;0.0;
18/02/2025 11:52:19;100;0;309.63;-4;-19.49;-11.08;436.1;15.10;76063;2834.976;-1758.576;1;322;-50;-43.5;44.0;44.2;6;6.3;28.0;0.0;
18/02/2025 11:52:39;100;0;312.94;-4;-19.08;-8.33;438.4;15.10;76064;2834.977;-1758.578;1;322;-50;-43.5;44.0;44.2;10;9.9;27.9;0.0;
18/02/2025 11:52:59;100;0;316.27;-4;-19.57;-6.66;440.6;15.10;76068;2834.978;-1758.580;1;322;-50;-43.5;44.0;44.2;12;12.2;27.9;0.0;
18/02/2025 11:53:19;100;0;317.26;-4;-19.71;-5.44;443.0;15.00;76056;2834.980;-1758.581;1;322;-50;-43.5;44.0;44.2;12;12.6;27.9;0.0;
18/02/2025 11:53:39;100;0;316.71;-4;-19.78;-5.38;445.2;15.00;76051;2834.981;-1758.583;1;323;-50;-43.5;44.0;44.2;12;12.6;28.0;0.0;
18/02/2025 11:53:59;100;0;316.94;-4;-19.96;-5.39;447.5;15.00;76038;2834.982;-1758.585;1;323;-50;-41.9;44.0;44.2;12;12.6;28.0;0.0;
18/02/2025 11:54:19;100;0;317.23;-4;-19.77;-5.45;449.8;15.00;76045;2834.984;-1758.586;1;323;-50;-43.5;44.0;44.2;12;12.6;27.9;0.0;
18/02/2025 11:54:39;100;0;318.26;-4;-19.75;-5.43;452.1;14.90;76046;2834.985;-1758.588;1;323;-50;-43.5;44.0;44.2;12;12.6;28.0;0.0;
18/02/2025 11:54:59;100;0;317.35;-4;-19.93;-5.42;454.5;14.90;76026;2834.987;-1758.590;1;323;-50;-43.5;44.0;44.2;12;12.6;27.9;0.0;
18/02/2025 11:55:19;100;0;317.26;-4;-19.93;-5.45;456.9;14.90;76018;2834.988;-1758.592;1;323;-50;-43.5;44.0;44.2;12;12.6;28.0;0.0;
18/02/2025 11:55:39;100;0;315.39;-4;-19.95;-5.41;459.5;14.90;76020;2834.990;-1758.594;1;323;-50;-45.2;44.0;44.2;12;12.6;27.9;0.0;
18/02/2025 11:55:59;100;0;313.47;-4;-19.85;-5.39;462.0;14.80;76018;2834.991;-1758.596;1;324;-50;-41.9;44.0;44.2;8;8.1;27.9;0.0;
18/02/2025 11:56:19;100;0;315.02;-4;-19.42;-7.95;464.4;14.80;76006;2834.993;-1758.598;1;324;-50;-43.5;44.0;44.2;10;9.9;28.0;0.0;
18/02/2025 11:56:39;100;0;317.04;-4;-19.56;-6.59;466.8;14.80;76007;2834.994;-1758.600;1;324;-50;-46.8;44.0;44.2;10;10.4;27.9;0.0;
18/02/2025 11:56:59;100;0;318.43;-4;-19.60;-6.60;469.2;14.80;76005;2834.996;-1758.602;1;324;-50;-45.2;44.0;44.2;12;12.2;28.0;0.0;
18/02/2025 11:57:19;100;0;320.09;-4;-19.84;-5.29;471.6;14.70;76001;2834.997;-1758.603;1;324;-50;-43.5;44.0;44.2;12;12.6;28.0;0.0;
18/02/2025 11:57:39;100;0;320.88;-4;-19.70;-5.31;473.9;14.70;75995;2834.999;-1758.605;1;324;-50;-43.5;44.0;44.2;12;12.6;28.0;0.0;
18/02/2025 11:57:59;100;0;322.55;-4;-19.74;-5.29;476.4;14.70;75993;2835.001;-1758.606;1;324;-50;-43.5;44.0;44.2;12;12.6;28.0;0.0;
18/02/2025 11:58:19;100;0;324.03;-4;-19.87;-5.31;478.8;14.70;75984;2835.003;-1758.608;1;324;-50;-43.5;44.0;44.2;12;12.6;28.0;0.0;
18/02/2025 11:58:39;100;0;325.80;-4;-19.80;-5.30;481.3;14.60;75979;2835.004;-1758.609;1;324;-50;-41.9;44.0;44.2;12;12.6;27.9;0.0;
18/02/2025 11:58:59;100;0;325.63;-4;-19.49;-5.33;483.8;14.60;75978;2835.006;-1758.611;1;324;-50;-43.5;44.0;44.2;12;12.6;27.9;0.0;
18/02/2025 11:59:19;100;0;325.70;-4;-19.70;-5.32;486.1;14.60;75968;2835.008;-1758.612;1;324;-50;-43.5;44.0;44.2;12;12.6;28.0;0.0;
18/02/2025 11:59:39;100;0;324.80;-4;-19.87;-5.33;488.6;14.60;75980;2835.010;-1758.614;1;324;-50;-43.5;44.0;44.2;12;12.6;28.0;0.0;
18/02/2025 11:59:59;100;0;326.42;-4;-19.69;-5.30;491.1;14.50;75973;2835.012;-1758.615;1;324;-50;-41.9;44.0;44.2;12;12.6;27.9;0.0;
18/02/2025 12:00:19;100;0;327.31;-4;-19.52;-5.31;493.6;14.50;75969;2835.014;-1758.617;1;324;-50;-41.9;44.0;44.2;12;12.6;28.0;0.0;
18/02/2025 12:00:39;100;0;327.43;-4;-19.53;-5.33;496.1;14.50;75965;2835.016;-1758.618;1;324;-50;-43.5;44.0;44.0;12;12.6;27.9;0.0;
18/02/2025 12:00:59;100;0;329.29;-4;-19.48;-5.32;498.5;14.50;75960;2835.018;-1758.620;1;324;-50;-43.5;44.0;44.2;12;12.6;28.0;0.0;
18/02/2025 12:01:19;100;0;329.26;-4;-19.44;-5.33;501.0;14.50;75955;2835.020;-1758.621;1;324;-50;-43.5;44.0;44.2;12;12.6;27.9;0.0;
18/02/2025 12:01:39;100;0;328.24;-4;-19.76;-5.36;503.4;14.40;75945;2835.022;-1758.622;1;324;-50;-45.2;44.0;44.2;12;13.1;28.0;0.0;
18/02/2025 12:01:59;100;0;327.65;-4;-19.80;-5.31;506.0;14.40;75949;2835.024;-1758.624;1;324;-50;-43.5;44.0;44.2;12;12.6;27.9;0.0;
18/02/2025 12:02:19;100;0;326.89;-4;-19.88;-5.24;508.5;14.40;75947;2835.026;-1758.625;1;324;-50;-45.2;44.0;44.2;12;12.6;28.0;0.0;
18/02/2025 12:02:39;100;0;323.57;-4;-19.76;-5.36;511.0;14.40;75926;2835.028;-1758.627;1;324;-50;-41.9;44.0;44.3;12;12.6;28.0;0.0;
18/02/2025 12:02:59;100;0;325.41;-4;-19.40;-5.28;513.5;14.30;75922;2835.029;-1758.628;1;324;-50;-43.5;44.0;44.3;12;12.6;28.0;0.0;
18/02/2025 12:03:19;100;0;327.29;-4;-19.33;-5.25;515.9;14.30;75920;2835.031;-1758.630;1;324;-50;-43.5;44.0;44.3;12;12.6;28.0;0.0;
18/02/2025 12:03:39;100;0;328.04;-4;-19.34;-5.31;518.2;14.30;75916;2835.033;-1758.631;1;324;-50;-45.2;44.0;44.2;12;12.6;27.9;0.0;
18/02/2025 12:03:59;100;0;329.34;-4;-19.34;-5.40;520.5;14.30;75909;2835.035;-1758.632;1;323;-50;-43.5;44.0;44.2;12;12.6;27.9;0.0;
18/02/2025 12:04:19;100;0;330.71;-4;-19.35;-5.37;522.8;14.20;75907;2835.037;-1758.633;1;323;-50;-43.5;44.0;44.2;14;14.0;27.9;0.0;
18/02/2025 12:04:39;100;0;330.15;-4;-19.31;-4.43;525.0;14.20;75897;2835.039;-1758.634;1;323;-50;-43.5;44.0;44.2;14;14.9;28.0;0.0;
18/02/2025 12:04:59;100;0;329.51;-4;-19.34;-4.38;527.2;14.20;75898;2835.041;-1758.636;1;323;-50;-43.5;44.0;44.2;14;14.9;28.0;0.0;
18/02/2025 12:05:20;100;0;326.84;-4;-19.44;-4.39;529.4;14.20;75889;2835.042;-1758.637;1;323;-50;-43.5;44.0;44.2;14;14.9;27.9;0.0;
18/02/2025 12:05:40;100;0;324.24;-4;-19.50;-4.43;531.6;14.10;75879;2835.044;-1758.638;1;323;-50;-43.5;44.0;44.2;14;14.9;28.0;0.0;
18/02/2025 12:06:00;100;0;322.61;-4;-19.68;-4.37;533.9;14.10;75880;2835.045;-1758.640;1;323;-50;-43.5;44.0;44.2;14;14.9;27.9;0.0;
18/02/2025 12:06:20;100;0;321.62;-4;-19.80;-4.30;536.1;14.10;75884;2835.047;-1758.641;1;323;-50;-45.2;44.0;44.2;14;14.9;27.9;0.0;
18/02/2025 12:06:40;100;0;320.28;-4;-20.08;-4.27;538.4;14.10;75881;2835.048;-1758.643;1;323;-50;-43.5;44.0;44.2;14;14.9;27.9;0.0;
18/02/2025 12:07:00;100;0;317.20;-4;-19.56;-4.30;540.6;14.10;75877;2835.050;-1758.644;1;323;-50;-41.9;44.0;44.2;12;11.7;27.9;0.0;
18/02/2025 12:07:20;100;0;316.15;-4;-19.48;-5.33;542.9;14.00;75868;2835.051;-1758.646;1;324;-50;-46.8;44.0;44.2;12;13.1;27.9;0.0;
18/02/2025 12:07:40;100;0;314.42;-4;-19.43;-5.27;545.1;14.00;75871;2835.052;-1758.648;1;324;-50;-43.5;44.0;44.2;9;9.0;28.0;0.0;
18/02/2025 12:08:00;100;0;313.39;-4;-19.29;-7.38;547.2;14.00;75860;2835.054;-1758.650;1;324;-50;-43.5;44.0;44.2;9;9.0;28.0;0.0;
18/02/2025 12:08:20;100;0;316.51;-4;-19.22;-7.40;549.4;14.00;75857;2835.055;-1758.651;1;325;-50;-43.5;44.0;44.2;9;9.0;27.9;0.0;
18/02/2025 12:08:40;100;0;319.28;-4;-19.35;-7.37;551.6;13.90;75850;2835.056;-1758.653;1;325;-50;-43.5;44.0;44.3;12;12.2;27.9;0.0;
18/02/2025 12:09:00;100;0;321.38;-4;-19.59;-5.53;553.8;13.90;75848;2835.058;-1758.654;1;325;-50;-43.5;44.0;44.2;12;12.6;28.0;0.0;
18/02/2025 12:09:20;100;0;321.09;-4;-19.37;-5.59;556.0;13.90;75843;2835.059;-1758.656;1;325;-50;-43.5;44.0;44.2;12;12.6;27.9;0.0;
18/02/2025 12:09:40;100;0;319.96;-4;-19.12;-5.66;558.3;13.90;75833;2835.061;-1758.658;1;325;-50;-41.9;44.0;44.2;12;12.6;28.0;0.0;
18/02/2025 12:10:00;100;0;320.36;-4;-19.09;-5.56;560.5;13.90;75840;2835.062;-1758.659;1;326;-50;-43.5;44.0;44.2;12;12.6;28.0;0.0;
18/02/2025 12:10:20;100;0;320.83;-4;-19.18;-5.61;562.7;13.90;75832;2835.064;-1758.661;1;326;-50;-43.5;44.0;44.2;12;12.2;28.0;0.0;
18/02/2025 12:10:40;100;0;320.90;-4;-19.38;-5.61;564.9;13.80;75828;2835.065;-1758.662;1;326;-50;-43.5;44.0;44.2;12;12.6;28.0;0.0;
18/02/2025 12:11:00;100;0;322.42;-4;-19.41;-5.58;567.1;13.80;75834;2835.067;-1758.664;1;326;-50;-43.5;44.0;44.2;12;12.6;28.0;0.0;
18/02/2025 12:11:20;100;0;326.66;-4;-19.36;-5.53;569.4;13.80;75829;2835.069;-1758.665;1;326;-50;-43.5;44.0;44.2;12;12.2;27.9;0.0;
18/02/2025 12:11:40;100;0;328.41;-4;-19.38;-5.60;571.8;13.80;75808;2835.071;-1758.667;1;326;-50;-43.5;44.0;44.2;12;12.6;27.9;0.0;
18/02/2025 12:12:00;100;0;331.73;-4;-19.24;-5.57;574.1;13.70;75813;2835.073;-1758.668;1;326;-50;-43.5;44.0;44.2;12;12.6;27.9;0.0;
18/02/2025 12:12:20;100;0;335.51;-4;-19.21;-5.56;576.5;13.70;75803;2835.075;-1758.669;1;325;-50;-43.5;44.0;44.2;15;14.9;28.0;0.0;
18/02/2025 12:12:40;100;0;336.36;-4;-19.21;-4.07;578.8;13.70;75795;2835.077;-1758.669;1;325;-50;-43.5;44.0;44.2;15;15.3;27.9;0.0;
18/02/2025 12:13:00;100;0;334.93;-4;-19.37;-4.14;581.1;13.70;75793;2835.079;-1758.670;1;324;-50;-43.5;44.0;44.2;15;15.3;27.9;0.0;
18/02/2025 12:13:20;100;0;333.31;-4;-19.37;-4.11;583.5;13.70;75783;2835.081;-1758.671;1;324;-50;-43.5;44.0;44.2;15;15.3;27.9;0.0;
18/02/2025 12:13:40;100;0;331.93;-4;-19.38;-4.09;585.8;13.60;75787;2835.083;-1758.672;1;323;-50;-41.9;44.0;44.2;15;15.3;28.0;0.0;
18/02/2025 12:14:00;100;0;330.09;-4;-19.30;-4.08;588.2;13.60;75771;2835.085;-1758.674;1;323;-50;-43.5;44.0;44.2;15;15.3;27.9;0.0;
18/02/2025 12:14:20;100;0;327.82;-4;-19.29;-4.05;590.7;13.60;75780;2835.087;-1758.675;1;322;-50;-43.5;44.0;44.2;13;12.2;27.9;0.0;
18/02/2025 12:14:40;100;0;327.54;-4;-19.19;-5.25;593.1;13.60;75773;2835.089;-1758.677;1;322;-50;-43.5;44.0;44.2;13;13.1;27.9;0.0;
18/02/2025 12:15:00;100;0;327.52;-4;-19.21;-5.25;595.6;13.60;75773;2835.091;-1758.678;1;322;-50;-41.9;44.0;44.0;13;13.1;28.0;0.0;
18/02/2025 12:15:20;100;0;327.67;-4;-19.10;-5.28;598.0;13.50;75780;2835.093;-1758.679;1;321;-50;-43.5;44.0;44.2;13;13.1;28.0;0.0;
18/02/2025 12:15:40;100;0;327.37;-4;-19.06;-5.25;600.4;13.50;75778;2835.095;-1758.681;1;321;-50;-43.5;44.0;44.2;13;13.1;27.9;0.0;
18/02/2025 12:16:00;100;0;326.89;-4;-19.10;-5.23;602.9;13.50;75769;2835.097;-1758.682;1;320;-50;-43.5;44.0;44.2;13;13.1;27.9;0.0;
18/02/2025 12:16:20;100;0;326.22;-4;-19.06;-5.24;605.3;13.50;75770;2835.099;-1758.684;1;320;-50;-43.5;44.0;44.2;13;13.1;27.9;0.0;
18/02/2025 12:16:40;100;0;327.01;-4;-19.10;-5.24;607.7;13.50;75772;2835.101;-1758.685;1;319;-50;-43.5;44.0;44.2;13;13.1;28.0;0.0;
18/02/2025 12:17:00;100;0;328.76;-4;-19.14;-5.24;610.1;13.50;75765;2835.103;-1758.686;1;318;-50;-45.2;44.0;44.2;13;13.1;28.0;0.0;
18/02/2025 12:17:20;100;0;331.58;-4;-18.96;-5.20;612.4;13.40;75761;2835.105;-1758.688;1;317;-50;-43.5;44.3;44.5;18;18.1;28.0;0.0;
18/02/2025 12:17:40;100;0;334.35;-4;-20.36;-2.64;614.9;13.40;75759;2835.107;-1758.689;1;315;-50;-43.5;44.3;44.6;24;23.9;28.0;0.0;
18/02/2025 12:18:00;100;0;333.10;-4;-20.93;0.27;617.5;13.40;75756;2835.109;-1758.690;1;312;-50;-43.5;44.3;44.6;24;23.9;27.9;0.0;
18/02/2025 12:18:20;100;0;326.14;-4;-20.00;0.24;620.1;13.40;75750;2835.111;-1758.691;1;309;-50;-41.9;44.3;44.6;18;18.1;27.9;0.0;
18/02/2025 12:18:40;100;0;322.43;-4;-20.46;-2.90;622.5;13.30;75725;2835.113;-1758.693;1;307;-50;-43.5;44.3;44.6;16;15.8;27.9;0.0;
18/02/2025 12:19:00;100;0;320.80;-4;-19.62;-3.94;624.9;13.30;75731;2835.114;-1758.694;1;305;-50;-41.9;44.3;44.6;16;15.8;27.9;0.0;
18/02/2025 12:19:20;100;0;318.11;-4;-19.90;-4.00;627.1;13.30;75720;2835.116;-1758.696;1;303;-50;-43.5;44.3;44.5;16;15.8;27.9;0.0;
18/02/2025 12:19:40;100;0;316.74;-4;-19.85;-4.02;629.4;13.30;75708;2835.117;-1758.698;1;300;-50;-45.2;44.3;44.6;16;15.8;28.0;0.0;
18/02/2025 12:20:00;100;0;314.77;-4;-19.87;-4.03;631.7;13.30;75700;2835.118;-1758.700;1;295;-50;-43.5;44.3;44.6;16;15.8;28.0;0.0;
18/02/2025 12:20:20;100;0;311.87;-4;-19.95;-4.01;634.0;13.30;75707;2835.119;-1758.702;1;286;-50;-43.5;44.3;44.5;21;21.7;27.9;0.0;
18/02/2025 12:20:40;100;0;306.82;-4;-20.35;-0.70;636.3;13.20;75705;2835.120;-1758.704;1;211;-50;-43.5;44.3;44.6;70;69.9;27.9;0.0;
18/02/2025 12:21:00;100;0;297.18;-4;-22.39;23.50;638.7;13.20;75706;2835.121;-1758.706;1;118;-50;-43.5;43.5;43.2;-70;-69.9;27.9;0.0;
18/02/2025 12:21:20;100;0;297.04;-4;-16.89;-45.41;641.1;13.20;75694;2835.122;-1758.709;1;112;-50;-43.5;44.5;44.5;-70;-70.4;27.9;0.0;
18/02/2025 12:21:40;100;0;307.45;-4;-18.87;-45.44;643.4;13.20;75695;2835.123;-1758.711;1;114;-50;-43.5;44.8;44.8;-70;-70.4;27.9;0.0;
18/02/2025 12:22:00;100;0;319.74;-4;-19.46;-45.42;645.6;13.20;75695;2835.124;-1758.713;1;120;-50;-43.5;44.8;44.8;-70;-70.4;27.9;0.0;
18/02/2025 12:22:20;100;0;330.69;-4;-19.02;-45.33;647.9;13.20;75687;2835.126;-1758.714;1;126;-50;-43.5;44.8;44.8;-70;-70.4;27.9;0.0;
18/02/2025 12:22:40;100;0;343.32;-4;-19.00;-45.34;650.2;13.10;75675;2835.128;-1758.714;1;133;-50;-43.5;45.1;45.1;-70;-69.9;27.9;0.0;
18/02/2025 12:23:00;100;0;356.28;-4;-20.21;-45.46;652.5;13.10;75673;2835.131;-1758.714;1;140;-50;-43.5;45.1;45.2;-70;-69.9;28.0;0.0;
18/02/2025 12:23:20;100;0;7.57;-4;-20.72;-45.41;654.8;13.10;75684;2835.133;-1758.713;1;148;-50;-43.5;45.1;45.2;-70;-69.9;27.9;0.0;
18/02/2025 12:23:40;100;0;20.48;-4;-20.05;-45.25;657.1;13.10;75680;2835.135;-1758.711;1;156;-50;-43.5;45.1;45.2;-70;-70.4;27.9;0.0;
18/02/2025 12:24:00;100;0;33.30;-4;-19.68;-45.47;659.3;13.10;75677;2835.136;-1758.709;1;165;-50;-43.5;45.1;45.2;-70;-70.4;27.9;0.0;
18/02/2025 12:24:20;100;0;46.98;-4;-20.00;-45.29;661.6;13.10;75670;2835.138;-1758.706;1;175;-50;-43.5;45.1;45.2;-70;-70.4;28.0;0.0;
18/02/2025 12:24:40;100;0;58.66;-4;-20.23;-45.39;663.8;13.00;75667;2835.138;-1758.703;1;184;-50;-43.5;45.1;45.2;-70;-69.9;27.9;0.0;
18/02/2025 12:25:00;100;0;71.59;-4;-19.31;-45.31;666.1;13.00;75674;2835.138;-1758.699;1;194;-50;-43.5;45.1;45.4;-70;-70.4;27.9;0.0;
18/02/2025 12:25:20;100;0;84.93;-4;-20.16;-45.32;668.3;13.00;75666;2835.138;-1758.695;1;204;-50;-43.5;45.1;45.2;-70;-69.9;27.9;0.0;
18/02/2025 12:25:40;100;0;98.01;-4;-19.92;-45.39;670.6;13.00;75666;2835.137;-1758.691;1;214;-50;-43.5;45.1;45.2;-70;-69.9;27.9;0.0;
18/02/2025 12:26:00;100;0;110.75;-4;-19.93;-45.43;672.9;13.00;75657;2835.135;-1758.687;1;224;-50;-43.5;45.1;45.2;-70;-70.4;27.9;0.0;
18/02/2025 12:26:20;100;0;123.78;-4;-19.74;-45.42;675.2;13.00;75655;2835.133;-1758.684;1;234;-50;-43.5;45.1;45.2;-70;-70.4;27.9;0.0;
18/02/2025 12:26:40;100;0;137.11;-4;-19.64;-45.49;677.5;13.00;75656;2835.130;-1758.681;1;244;-50;-43.5;45.1;45.2;-70;-70.4;28.0;0.0;
18/02/2025 12:27:00;100;0;149.62;-4;-19.82;-45.36;679.7;12.90;75651;2835.126;-1758.679;1;254;-50;-43.5;45.1;45.2;-70;-69.9;27.9;0.0;
18/02/2025 12:27:20;100;0;161.52;-4;-20.04;-45.46;682.0;12.90;75639;2835.123;-1758.677;1;263;-50;-43.5;45.1;45.2;-70;-69.9;28.0;0.0;
18/02/2025 12:27:40;100;0;173.44;-4;-19.81;-45.43;684.3;12.90;75637;2835.119;-1758.676;1;272;-50;-43.5;45.1;45.4;-70;-69.9;28.0;0.0;
18/02/2025 12:28:00;100;0;185.58;-4;-19.97;-45.41;686.6;12.90;75639;2835.116;-1758.676;1;280;-50;-43.5;45.1;45.2;-70;-69.9;27.9;0.0;
18/02/2025 12:28:20;100;0;197.45;-4;-19.81;-45.47;688.9;12.90;75633;2835.112;-1758.677;1;288;-50;-43.5;45.1;45.2;-70;-69.9;27.9;0.0;
18/02/2025 12:28:40;100;0;209.54;-4;-19.91;-45.44;691.1;12.80;75632;2835.109;-1758.678;1;296;-50;-43.5;45.1;45.2;-70;-69.9;27.9;0.0;
18/02/2025 12:29:00;100;0;221.32;-4;-19.74;-45.33;693.4;12.80;75638;2835.106;-1758.679;1;303;-50;-41.9;45.1;45.2;-70;-69.9;28.0;0.0;
18/02/2025 12:29:20;100;0;232.71;-4;-19.80;-45.42;695.6;12.80;75633;2835.103;-1758.681;1;310;-50;-41.9;45.1;45.1;-70;-69.9;27.9;0.0;
18/02/2025 12:29:40;100;0;247.65;-4;-19.72;-45.60;697.8;12.80;75619;2835.102;-1758.684;1;316;-50;-43.5;45.1;45.2;-70;-69.9;27.9;0.0;
18/02/2025 12:30:00;100;0;260.56;-4;-19.74;-45.48;700.1;12.80;75622;2835.100;-1758.686;1;322;-50;-43.5;45.1;45.2;-63;-63.2;27.9;0.0;
18/02/2025 12:30:20;100;0;276.00;-4;-19.67;-41.94;702.3;12.80;75613;2835.100;-1758.689;1;327;-50;-43.5;45.1;45.2;-48;-47.8;27.9;0.0;
18/02/2025 12:30:40;100;0;289.07;-4;-19.21;-34.22;704.5;12.70;75603;2835.100;-1758.692;1;332;-50;-43.5;45.1;45.2;-35;-35.2;28.0;0.0;
18/02/2025 12:31:00;100;0;302.32;-4;-19.62;-27.87;706.7;12.70;75600;2835.101;-1758.694;1;335;-50;-45.2;45.1;45.2;-20;-19.9;27.9;0.0;
18/02/2025 12:31:20;100;0;309.72;-4;-19.69;-20.32;708.7;12.70;75587;2835.102;-1758.696;1;338;-50;-43.5;45.1;45.4;-11;-10.8;28.0;0.0;
18/02/2025 12:31:40;100;0;316.65;-4;-20.30;-16.09;710.9;12.70;75592;2835.103;-1758.697;1;341;-50;-43.5;45.1;45.4;-4;-4.1;27.9;0.0;
18/02/2025 12:32:00;100;0;322.99;-4;-20.64;-13.22;713.1;12.70;75601;2835.104;-1758.699;1;343;-50;-41.9;45.1;45.5;4;4.1;28.0;0.0;
18/02/2025 12:32:20;100;0;326.76;-4;-21.05;-9.46;715.3;12.60;75577;2835.106;-1758.700;1;345;-50;-41.9;45.1;45.5;8;8.1;28.0;0.0;
18/02/2025 12:32:40;100;0;332.70;-4;-21.25;-7.49;717.7;12.60;75583;2835.108;-1758.701;1;346;-50;-43.5;45.1;45.4;12;12.6;28.0;0.0;
18/02/2025 12:33:00;100;0;336.90;-4;-21.39;-5.26;720.0;12.60;75579;2835.110;-1758.701;1;347;-50;-41.9;45.1;45.4;12;12.6;27.9;0.0;
18/02/2025 12:33:20;100;0;338.84;-4;-22.51;-5.37;722.6;12.60;75563;2835.112;-1758.702;1;348;-50;-43.5;44.4;44.3;12;12.6;27.9;0.0;
18/02/2025 12:33:40;100;0;340.96;-4;-19.64;-5.18;725.3;12.60;75551;2835.114;-1758.703;1;349;-50;-43.5;44.4;44.2;12;12.6;27.9;0.0;
18/02/2025 12:34:00;100;0;338.94;-4;-19.38;-5.31;727.6;12.50;75546;2835.116;-1758.703;1;353;-50;-43.5;44.4;44.2;12;12.6;28.0;0.0;
18/02/2025 12:34:20;100;0;337.14;-4;-19.42;-5.32;729.9;12.50;75533;2835.118;-1758.704;1;8;-50;-43.5;44.4;44.2;-3;-3.2;28.0;0.0;
18/02/2025 12:34:40;100;0;339.00;-4;-18.48;-13.46;732.2;12.50;75539;2835.121;-1758.705;1;123;-50;-43.5;44.8;45.1;-70;-69.9;27.9;0.0;
18/02/2025 12:35:00;100;0;345.44;-4;-19.67;-45.27;734.6;12.50;75534;2835.123;-1758.705;1;157;-50;-40.3;44.8;45.1;-70;-69.9;27.9;0.0;
18/02/2025 12:35:20;100;0;356.17;-4;-19.44;-45.07;736.9;12.50;75514;2835.125;-1758.705;1;170;-50;-43.5;44.8;44.9;-70;-69.9;28.0;0.0;
18/02/2025 12:35:40;100;0;7.08;-4;-19.37;-45.35;739.3;12.40;75517;2835.127;-1758.704;1;180;-50;-41.9;44.8;45.1;70;69.9;27.9;0.0;
18/02/2025 12:36:00;100;0;12.23;-4;-23.93;23.36;741.8;12.40;75510;2835.129;-1758.703;1;187;-50;-41.9;43.6;43.6;70;69.9;28.0;0.0;
18/02/2025 12:36:20;100;0;2.41;-4;-20.70;23.10;744.3;12.40;75501;2835.132;-1758.702;1;188;-50;-41.9;43.6;43.3;70;69.9;27.9;0.0;
18/02/2025 12:36:40;100;0;352.39;-4;-20.32;23.23;746.7;12.40;75492;2835.134;-1758.702;1;187;-50;-43.5;43.6;43.4;70;69.9;28.0;0.0;
18/02/2025 12:37:00;100;0;342.26;-4;-20.73;23.20;749.0;12.30;75484;2835.136;-1758.702;1;185;-50;-41.9;43.6;43.4;70;69.9;27.9;0.0;
18/02/2025 12:37:20;100;0;333.21;-4;-20.84;23.34;751.4;12.30;75467;2835.138;-1758.703;1;182;-50;-41.9;43.6;43.3;70;69.9;28.0;0.0;
18/02/2025 12:37:40;100;0;321.28;-4;-20.25;23.20;753.8;12.30;75479;2835.140;-1758.705;1;178;-50;-41.9;43.6;43.4;70;69.9;27.9;0.0;
18/02/2025 12:38:00;100;0;309.80;-4;-20.28;23.15;756.1;12.30;75458;2835.141;-1758.707;1;173;-50;-41.9;43.6;43.4;70;69.9;27.9;0.0;
18/02/2025 12:38:20;100;0;300.54;-4;-20.41;23.09;758.5;12.20;75465;2835.141;-1758.709;1;167;-50;-43.5;43.6;43.4;70;69.9;27.9;0.0;
18/02/2025 12:38:40;100;0;290.71;-4;-20.51;23.23;760.9;12.20;75453;2835.142;-1758.712;1;162;-50;-40.3;43.6;43.4;70;69.9;27.9;0.0;
18/02/2025 12:39:00;100;0;280.76;-4;-20.94;23.18;763.4;12.20;75450;2835.142;-1758.715;1;156;-50;-41.9;43.6;43.4;70;69.9;27.9;0.0;
18/02/2025 12:39:20;100;0;269.99;-4;-20.52;23.20;766.0;12.20;75447;2835.141;-1758.718;1;149;-50;-41.9;43.6;43.4;70;69.9;28.0;0.0;
18/02/2025 12:39:40;100;0;258.75;-4;-20.27;23.30;768.6;12.10;75440;2835.139;-1758.721;1;142;-50;-43.5;43.6;43.4;70;69.9;27.9;0.0;
18/02/2025 12:40:01;100;0;247.53;-4;-20.55;23.21;771.2;12.10;75433;2835.137;-1758.724;1;135;-50;-41.9;43.6;43.4;70;69.9;27.9;0.0;
18/02/2025 12:40:21;100;0;237.20;-4;-20.50;23.17;773.8;12.10;75435;2835.135;-1758.727;1;127;-50;-40.3;43.6;43.4;70;69.9;27.9;0.0;
18/02/2025 12:40:41;100;0;224.41;-4;-19.65;23.00;776.4;12.10;75424;2835.132;-1758.729;1;119;-50;-41.9;43.6;43.4;70;69.9;28.0;0.0;
18/02/2025 12:41:01;100;0;213.38;-4;-20.40;23.22;779.0;12.00;75428;2835.128;-1758.730;1;110;-50;-41.9;43.6;43.4;70;69.9;28.0;0.0;
18/02/2025 12:41:21;100;0;203.68;-4;-20.14;23.19;781.7;12.00;75426;2835.124;-1758.731;1;100;-50;-41.9;43.6;43.4;70;69.9;27.9;0.0;
18/02/2025 12:41:41;100;0;192.27;-4;-20.25;23.25;784.3;12.00;75425;2835.120;-1758.731;1;91;-50;-41.9;43.6;43.4;70;69.9;27.9;0.0;
18/02/2025 12:42:01;100;0;181.58;-4;-20.16;23.21;787.0;12.00;75420;2835.116;-1758.731;1;81;-50;-41.9;43.6;43.4;70;69.9;28.0;0.0;
18/02/2025 12:42:21;100;0;170.10;-4;-20.20;23.29;789.7;11.90;75414;2835.112;-1758.730;1;70;-50;-41.9;43.6;43.4;70;69.9;27.9;0.0;
18/02/2025 12:42:41;100;0;157.57;-4;-19.76;23.15;792.4;11.90;75431;2835.108;-1758.728;1;60;-50;-41.9;43.6;43.4;70;69.9;28.0;0.0;
18/02/2025 12:43:01;100;0;146.35;-4;-20.08;23.19;795.0;11.90;75410;2835.104;-1758.725;1;50;-50;-41.9;43.6;43.4;70;69.9;27.9;0.0;
18/02/2025 12:43:21;100;0;134.22;-4;-19.87;23.15;797.7;11.90;75399;2835.101;-1758.722;1;40;-50;-41.9;43.6;43.4;70;69.9;27.9;0.0;
18/02/2025 12:43:41;100;0;121.47;-4;-19.67;23.17;800.3;11.90;75399;2835.099;-1758.718;1;30;-50;-41.9;43.6;43.4;70;69.9;28.0;0.0;
18/02/2025 12:44:01;100;0;109.65;-4;-19.89;23.19;802.8;11.90;75404;2835.097;-1758.714;1;21;-50;-41.9;43.6;43.4;70;69.9;27.9;0.0;
18/02/2025 12:44:21;100;0;97.48;-4;-20.01;23.28;805.4;11.80;75395;2835.096;-1758.710;1;11;-50;-41.9;43.6;43.4;70;69.9;28.0;0.0;
18/02/2025 12:44:41;100;0;85.54;-4;-19.75;23.07;808.0;11.80;75391;2835.095;-1758.705;1;2;-50;-43.5;43.6;43.4;70;69.9;27.9;0.0;
18/02/2025 12:45:01;100;0;74.49;-4;-19.98;23.23;810.6;11.80;75387;2835.095;-1758.701;1;354;-50;-41.9;43.6;43.4;70;69.9;27.9;0.0;
18/02/2025 12:45:21;100;0;61.59;-4;-19.85;23.18;813.2;11.80;75382;2835.096;-1758.697;1;346;-50;-41.9;43.6;43.4;70;69.9;27.9;0.0;
18/02/2025 12:45:41;100;0;50.31;-4;-19.77;23.14;815.7;11.80;75385;2835.098;-1758.694;1;338;-50;-41.9;43.6;43.4;70;69.9;27.9;0.0;
18/02/2025 12:46:01;100;0;43.52;-4;-20.46;23.26;818.2;11.70;75378;2835.099;-1758.691;1;331;-50;-40.3;43.6;43.4;70;69.9;27.9;0.0;
18/02/2025 12:46:21;100;0;35.22;-4;-20.50;23.34;820.9;11.70;75371;2835.101;-1758.688;1;323;-50;-43.5;43.6;43.4;70;69.9;27.9;0.0;
18/02/2025 12:46:41;100;0;25.99;-4;-20.60;23.43;823.5;11.70;75350;2835.103;-1758.686;1;316;-50;-41.9;43.6;43.4;70;70.4;27.9;0.0;
18/02/2025 12:47:01;100;0;15.05;-4;-20.11;23.35;826.1;11.70;75346;2835.106;-1758.684;1;309;-50;-41.9;43.6;43.4;70;69.9;27.9;0.0;
18/02/2025 12:47:21;100;0;3.04;-4;-19.96;23.30;828.7;11.60;75347;2835.108;-1758.683;1;303;-50;-41.9;43.6;43.4;70;69.9;28.0;0.0;
18/02/2025 12:47:41;100;0;350.14;-4;-19.94;23.33;831.3;11.60;75343;2835.111;-1758.683;1;297;-50;-41.9;43.6;43.3;67;66.8;27.9;0.0;
18/02/2025 12:48:01;100;0;338.43;-4;-19.57;21.38;833.9;11.60;75332;2835.113;-1758.684;1;291;-50;-41.9;43.6;43.3;59;59.1;27.9;0.0;
18/02/2025 12:48:21;100;0;327.92;-4;-19.03;17.38;836.3;11.60;75339;2835.115;-1758.686;1;287;-50;-41.9;43.6;43.3;48;47.8;28.0;0.0;
18/02/2025 12:48:41;100;0;317.14;-4;-18.13;11.46;838.7;11.60;75323;2835.117;-1758.688;1;282;-50;-41.9;44.2;44.3;37;37.0;27.9;0.0;
18/02/2025 12:49:01;100;0;309.80;-4;-19.21;6.37;841.0;11.50;75321;2835.118;-1758.690;1;279;-50;-41.9;44.2;44.5;26;26.2;27.9;0.0;
18/02/2025 12:49:21;100;0;305.23;-4;-19.24;0.93;843.3;11.50;75311;2835.119;-1758.692;1;275;-50;-41.9;44.2;44.5;26;25.7;27.9;0.0;
18/02/2025 12:49:41;100;0;301.56;-4;-19.20;0.96;845.7;11.50;75301;2835.120;-1758.695;1;270;-50;-41.9;44.2;44.5;26;25.7;27.9;0.0;
18/02/2025 12:50:01;100;0;297.14;-4;-19.41;1.02;848.0;11.50;75310;2835.121;-1758.697;1;264;-50;-41.9;44.2;44.5;26;25.7;28.0;0.0;
18/02/2025 12:50:21;100;0;293.02;-4;-18.97;0.93;850.4;11.50;75293;2835.121;-1758.700;1;252;-50;-41.9;44.5;44.5;39;38.8;27.9;0.0;
18/02/2025 12:50:41;100;0;287.23;-4;-19.75;7.57;852.9;11.40;75293;2835.121;-1758.703;1;218;-50;-41.9;44.5;44.5;70;69.9;27.9;0.0;
18/02/2025 12:51:01;100;0;277.87;-4;-21.17;23.35;855.5;11.40;75283;2835.121;-1758.706;1;120;-50;-40.3;44.5;44.5;70;70.4;27.9;0.0;
18/02/2025 12:51:21;100;0;266.89;-4;-21.29;23.36;858.1;11.40;75281;2835.120;-1758.709;1;90;-50;-41.9;44.5;44.5;-70;-69.9;27.9;0.0;
18/02/2025 12:51:41;100;0;267.15;-4;-18.00;-45.30;860.5;11.40;75269;2835.119;-1758.712;1;83;-50;-41.9;45.1;45.1;-70;-69.9;27.9;0.0;
18/02/2025 12:52:01;100;0;278.65;-4;-19.56;-45.31;863.1;11.40;75272;2835.119;-1758.715;1;83;-50;-41.9;45.1;45.4;-70;-69.9;27.9;0.0;
18/02/2025 12:52:21;100;0;291.76;-4;-19.68;-45.55;865.6;11.40;75261;2835.119;-1758.718;1;87;-50;-41.9;45.1;45.4;-70;-69.9;27.9;0.0;
18/02/2025 12:52:41;100;0;304.49;-4;-19.49;-45.47;868.2;11.30;75270;2835.120;-1758.721;1;92;-50;-41.9;45.1;45.4;-70;-70.4;27.9;0.0;
18/02/2025 12:53:01;100;0;316.34;-4;-19.59;-45.36;870.7;11.30;75253;2835.122;-1758.723;1;97;-50;-41.9;45.1;45.4;-70;-69.9;27.9;0.0;
18/02/2025 12:53:21;100;0;329.10;-4;-19.46;-45.35;873.1;11.30;75254;2835.124;-1758.724;1;103;-50;-41.9;45.1;45.4;-70;-70.4;27.9;0.0;
18/02/2025 12:53:41;100;0;341.34;-4;-19.49;-45.44;875.5;11.30;75259;2835.126;-1758.725;1;109;-50;-41.9;45.1;45.4;-70;-69.9;28.0;0.0;
18/02/2025 12:54:01;100;0;354.01;-4;-19.44;-45.35;877.8;11.30;75243;2835.129;-1758.725;1;115;-50;-41.9;45.1;45.4;-70;-70.4;27.9;0.0;
18/02/2025 12:54:21;100;0;6.48;-4;-19.40;-45.40;880.2;11.30;75253;2835.131;-1758.724;1;123;-50;-41.9;45.1;45.2;-70;-69.9;27.9;0.0;
18/02/2025 12:54:41;100;0;19.19;-4;-19.20;-45.41;882.4;11.30;75239;2835.133;-1758.722;1;130;-50;-41.9;45.1;45.4;-70;-69.9;27.9;0.0;
18/02/2025 12:55:01;100;0;31.54;-4;-19.45;-45.39;884.7;11.20;75229;2835.135;-1758.720;1;137;-50;-40.3;45.1;45.4;-70;-69.9;27.9;0.0;
18/02/2025 12:55:21;100;0;42.49;-4;-19.49;-45.20;886.8;11.20;75233;2835.136;-1758.717;1;145;-50;-40.3;45.1;45.4;-70;-69.9;27.9;0.0;
18/02/2025 12:55:41;100;0;53.90;-4;-19.55;-45.38;889.0;11.20;75229;2835.137;-1758.714;1;154;-50;-41.9;45.1;45.4;-70;-69.9;27.9;0.0;
18/02/2025 12:56:01;100;0;64.39;-4;-19.39;-45.37;891.4;11.20;75218;2835.138;-1758.710;1;164;-50;-41.9;45.1;45.4;-70;-69.9;27.9;0.0;
18/02/2025 12:56:21;100;0;76.57;-4;-20.12;-45.44;893.7;11.20;75217;2835.138;-1758.706;1;174;-50;-41.9;45.1;45.4;-70;-69.9;28.0;0.0;
18/02/2025 12:56:41;100;0;87.72;-4;-19.44;-45.38;896.1;11.10;75207;2835.137;-1758.702;1;186;-50;-41.9;45.1;45.4;-70;-69.9;27.9;0.0;
18/02/2025 12:57:01;100;0;99.06;-4;-19.48;-45.38;898.5;11.10;75205;2835.136;-1758.698;1;199;-50;-41.9;45.1;45.4;-70;-69.9;27.9;0.0;
18/02/2025 12:57:21;100;0;110.69;-4;-19.61;-45.37;900.9;11.10;75189;2835.134;-1758.694;1;212;-50;-41.9;45.1;45.4;-70;-69.9;27.9;0.0;
18/02/2025 12:57:41;100;0;122.55;-4;-19.44;-45.38;903.2;11.10;75188;2835.132;-1758.690;1;226;-50;-41.9;45.1;45.4;-70;-69.9;27.9;0.0;
18/02/2025 12:58:01;100;0;132.03;-4;-19.23;-45.14;905.6;11.10;75196;2835.129;-1758.687;1;240;-50;-40.3;45.1;45.4;-70;-69.9;27.9;0.0;
18/02/2025 12:58:21;100;0;142.75;-4;-19.42;-45.32;908.0;11.10;75189;2835.125;-1758.684;1;253;-50;-40.3;45.1;45.4;-70;-69.9;27.9;0.0;
18/02/2025 12:58:41;100;0;153.62;-4;-19.42;-45.28;910.2;11.00;75190;2835.122;-1758.682;1;264;-50;-43.5;45.1;45.4;-70;-69.9;28.0;0.0;
18/02/2025 12:59:01;100;0;163.72;-4;-19.69;-45.26;912.4;11.00;75182;2835.118;-1758.681;1;274;-50;-41.9;45.1;45.4;-70;-69.9;27.9;0.0;
18/02/2025 12:59:21;100;0;175.32;-4;-19.53;-45.48;914.7;11.00;75170;2835.115;-1758.680;1;284;-50;-41.9;45.1;45.4;-70;-70.4;27.9;0.0;
18/02/2025 12:59:41;100;0;186.55;-4;-19.43;-45.35;916.9;11.00;75163;2835.111;-1758.680;1;293;-50;-41.9;45.1;45.4;-70;-69.9;27.9;0.0;
18/02/2025 13:00:01;100;0;198.01;-4;-19.54;-45.45;919.3;11.00;75168;2835.107;-1758.680;1;301;-50;-41.9;45.1;45.4;-70;-70.4;27.9;0.0;
18/02/2025 13:00:21;100;0;209.06;-4;-19.65;-45.31;921.6;10.90;75164;2835.104;-1758.681;1;309;-50;-41.9;45.1;45.4;-70;-69.9;28.0;0.0;
18/02/2025 13:00:41;100;0;219.57;-4;-18.68;-45.36;923.8;10.90;75154;2835.101;-1758.683;1;316;-50;-41.9;45.5;45.5;-70;-69.9;27.9;0.0;
18/02/2025 13:01:01;100;0;231.06;-4;-20.98;-45.33;925.9;10.90;75142;2835.099;-1758.685;1;322;-50;-43.5;45.5;45.8;-70;-69.9;27.9;0.0;
18/02/2025 13:01:21;100;0;241.59;-4;-20.70;-45.13;928.3;10.90;75146;2835.097;-1758.687;1;328;-50;-41.9;45.5;45.8;-70;-70.4;27.9;0.0;
18/02/2025 13:01:41;100;0;254.61;-4;-19.62;-45.60;930.5;10.80;75140;2835.095;-1758.690;1;333;-50;-41.9;45.5;45.8;-70;-70.4;27.9;0.0;
18/02/2025 13:02:01;100;0;267.48;-4;-20.24;-45.53;932.6;10.80;75134;2835.094;-1758.692;1;338;-50;-41.9;45.5;45.8;-67;-66.8;27.9;0.0;
18/02/2025 13:02:21;100;0;279.58;-4;-20.32;-43.47;934.7;10.80;75135;2835.094;-1758.695;1;343;-50;-41.9;45.5;45.8;-57;-56.9;27.9;0.0;
18/02/2025 13:02:41;100;0;290.83;-4;-19.66;-38.62;936.7;10.80;75123;2835.094;-1758.697;1;347;-50;-41.9;45.5;45.8;-46;-45.6;27.9;0.0;
18/02/2025 13:03:01;100;0;302.32;-4;-19.79;-33.16;938.6;10.80;75128;2835.095;-1758.699;1;350;-70;-71.0;45.5;45.8;-34;-33.4;27.9;0.0;
18/02/2025 13:03:21;100;0;315.03;-4;-19.23;-26.95;940.6;10.80;75201;2835.096;-1758.700;1;352;-90;-91.9;45.5;45.8;-19;-19.0;27.9;0.0;
18/02/2025 13:03:41;100;0;325.77;-4;-19.72;-19.62;942.9;10.70;75247;2835.097;-1758.702;1;355;-90;-96.8;45.5;45.9;-6;-5.9;27.9;0.0;
18/02/2025 13:04:01;100;0;333.01;-4;-19.57;-13.93;945.4;10.70;75257;2835.099;-1758.703;1;357;-90;-100.0;45.5;45.9;3;3.2;27.9;0.0;
18/02/2025 13:04:21;100;0;338.23;-4;-20.73;-9.67;947.8;10.70;75255;2835.101;-1758.703;1;358;-90;-101.6;45.5;45.9;9;9.0;27.9;0.0;
18/02/2025 13:04:41;100;0;338.14;-4;-21.31;-6.84;950.3;10.70;75248;2835.104;-1758.704;1;0;-90;-101.6;45.5;45.9;7;7.2;27.9;0.0;
18/02/2025 13:05:01;100;0;339.29;-4;-21.30;-8.09;953.1;10.70;75257;2835.106;-1758.705;1;3;-90;-101.6;45.5;45.9;5;5.0;27.9;0.0;
18/02/2025 13:05:21;100;0;341.51;-4;-20.92;-9.13;956.0;10.60;75250;2835.109;-1758.706;1;7;-90;-101.6;45.5;45.9;2;1.8;28.0;0.0;
18/02/2025 13:05:41;100;0;344.49;-4;-20.67;-10.78;958.7;10.60;75245;2835.111;-1758.706;1;12;-90;-101.6;45.5;45.9;2;1.4;27.9;0.0;
18/02/2025 13:06:01;100;0;347.62;-4;-20.71;-10.69;961.5;10.60;75231;2835.114;-1758.706;1;19;-90;-101.6;45.5;45.9;-3;-3.6;27.9;0.0;
18/02/2025 13:06:21;100;0;352.21;-4;-20.60;-13.26;964.2;10.60;75231;2835.116;-1758.706;1;30;-90;-101.6;45.5;45.9;-10;-9.9;27.9;0.0;
18/02/2025 13:06:41;100;0;359.75;-4;-20.35;-16.48;966.9;10.60;75231;2835.119;-1758.706;1;60;-90;-101.6;45.5;45.8;-41;-41.1;27.9;0.0;
18/02/2025 13:07:01;100;0;9.95;-4;-19.19;-31.38;969.7;10.50;75224;2835.122;-1758.705;1;167;-90;-101.6;45.5;45.8;-70;-69.9;27.9;0.0;
18/02/2025 13:07:21;100;0;21.69;-4;-19.08;-44.72;972.5;10.50;75217;2835.125;-1758.702;1;196;-90;-101.6;45.5;45.9;70;69.9;27.9;0.0;
18/02/2025 13:07:41;100;0;21.92;-4;-23.03;23.33;975.3;10.50;75226;2835.127;-1758.700;1;204;-90;-104.8;44.6;44.6;70;70.4;27.9;0.0;
18/02/2025 13:08:01;100;0;8.59;-4;-20.86;23.12;978.1;10.50;75211;2835.130;-1758.699;1;203;-90;-104.8;44.6;44.5;70;70.4;27.9;0.0;
18/02/2025 13:08:21;100;0;355.40;-4;-20.17;23.14;981.0;10.50;75204;2835.132;-1758.699;1;199;-90;-104.8;44.6;44.5;70;70.4;27.9;0.0;
18/02/2025 13:08:41;100;0;342.30;-4;-20.16;23.16;983.7;10.40;75203;2835.135;-1758.700;1;194;-90;-104.8;44.6;44.5;70;70.4;27.9;0.0;
18/02/2025 13:09:01;100;0;329.79;-4;-20.08;23.12;986.4;10.40;75203;2835.137;-1758.701;1;188;-90;-103.2;44.6;44.5;70;70.4;27.9;0.0;
18/02/2025 13:09:21;100;0;317.27;-4;-20.46;23.16;989.1;10.40;75192;2835.139;-1758.703;1;182;-90;-104.8;44.6;44.3;70;70.4;27.9;0.0;
18/02/2025 13:09:41;100;0;304.05;-4;-20.49;23.10;992.0;10.40;75193;2835.140;-1758.706;1;174;-90;-104.8;44.6;44.5;70;69.9;28.0;0.0;
18/02/2025 13:10:01;100;0;290.95;-4;-20.30;23.07;994.8;10.40;75188;2835.141;-1758.709;1;167;-90;-104.8;44.6;44.5;70;70.4;27.9;0.0;
18/02/2025 13:10:21;100;0;276.98;-4;-20.17;23.18;997.8;10.30;75183;2835.141;-1758.713;1;159;-90;-104.8;44.6;44.5;70;69.9;27.9;0.0;
18/02/2025 13:10:29;118;0;271.55;-4;-19.68;23.07;998.8;10.30;75183;2835.140;-1758.715;1;156;270;-100.0;28.4;28.1;8;8.1;27.9;0.0;
18/02/2025 13:10:39;118;0;114.76;-4;-7.02;-8.94;999.9;10.30;75163;2835.139;-1758.712;1;159;270;27.4;28.4;28.3;8;7.7;26.7;-1.0;
18/02/2025 13:10:49;118;0;68.93;-4;11.16;-8.37;1000.2;10.30;74886;2835.139;-1758.712;1;160;270;151.6;28.4;27.8;8;7.7;26.7;-1.0;
18/02/2025 13:10:59;118;0;57.69;-4;17.12;-8.87;999.7;10.30;74639;2835.139;-1758.711;1;163;270;272.6;28.4;28.6;8;7.7;26.6;-1.0;
18/02/2025 13:11:09;118;0;270.93;-4;15.24;-7.88;998.9;10.30;74408;2835.139;-1758.712;1;160;270;272.6;28.4;28.7;8;7.7;27.9;-1.0;
18/02/2025 13:11:19;118;0;263.63;-4;13.73;-8.27;998.2;10.30;74422;2835.138;-1758.713;1;157;270;272.6;28.4;28.7;8;7.7;27.9;-1.0;
18/02/2025 13:11:39;117;0;257.23;-4;12.79;-8.53;996.7;10.30;74425;2835.137;-1758.715;1;151;270;269.4;28.4;28.7;8;8.1;27.9;-1.0;
18/02/2025 13:11:59;117;0;250.31;-4;12.98;-8.32;995.1;10.40;74418;2835.135;-1758.717;1;144;270;271.0;26.3;26.5;-70;-70.4;27.9;-1.0;
18/02/2025 13:12:19;117;0;237.59;-4;11.07;-47.44;993.2;10.40;74420;2835.133;-1758.719;1;135;270;272.6;23.6;23.4;-70;-70.4;27.9;-1.0;
18/02/2025 13:12:39;117;0;230.60;-4;18.14;-47.74;991.0;10.40;74421;2835.130;-1758.721;1;125;270;272.6;23.0;23.0;-70;-70.4;27.9;-1.0;
18/02/2025 13:12:59;117;0;221.86;-4;19.45;-47.68;988.5;10.40;74412;2835.127;-1758.723;1;113;270;272.6;23.0;23.0;-70;-70.4;27.9;-1.0;
18/02/2025 13:13:20;117;0;213.12;-4;19.36;-47.54;985.8;10.40;74409;2835.123;-1758.725;1;101;270;272.6;23.0;23.1;-70;-70.4;27.9;-1.0;
18/02/2025 13:13:40;117;0;204.01;-4;19.09;-47.56;983.1;10.40;74400;2835.119;-1758.726;1;88;270;272.6;23.0;23.0;-70;-70.4;27.9;-1.0;
18/02/2025 13:14:00;117;0;195.25;-4;19.24;-47.54;980.3;10.40;74395;2835.115;-1758.726;1;76;270;272.6;23.0;23.0;-70;-70.4;27.9;-1.0;
18/02/2025 13:14:20;117;0;187.19;-4;19.22;-47.73;977.5;10.40;74393;2835.111;-1758.726;1;64;270;271.0;23.0;23.1;-70;-70.4;27.9;-1.0;
18/02/2025 13:14:40;117;0;179.15;-4;19.22;-47.60;974.7;10.40;74394;2835.106;-1758.726;1;54;270;271.0;23.0;23.0;-70;-70.4;27.9;-1.0;
18/02/2025 13:15:00;117;0;169.32;-4;19.06;-47.78;971.9;10.30;74403;2835.102;-1758.724;1;44;270;272.6;23.0;23.0;-70;-70.4;27.9;-1.0;
18/02/2025 13:15:20;117;0;160.84;-4;19.02;-47.84;969.0;10.30;74391;2835.097;-1758.722;1;35;270;272.6;23.0;23.1;-70;-70.4;27.9;-1.0;
18/02/2025 13:15:40;117;0;151.99;-4;18.98;-47.72;966.2;10.30;74393;2835.093;-1758.720;1;27;270;272.6;22.7;22.5;-70;-70.4;27.9;-1.0;
18/02/2025 13:16:00;117;0;143.93;-4;19.83;-47.49;963.1;10.30;74391;2835.089;-1758.717;1;20;270;272.6;22.7;22.4;-70;-70.4;27.9;-1.0;
18/02/2025 13:16:20;117;0;135.71;-4;19.94;-47.47;960.1;10.30;74386;2835.086;-1758.713;1;13;270;272.6;22.7;22.4;-70;-70.4;27.9;-1.0;
18/02/2025 13:16:40;117;0;127.21;-4;19.54;-47.75;957.3;10.30;74375;2835.083;-1758.709;1;7;270;271.0;22.7;22.4;-70;-70.4;27.9;-1.0;
18/02/2025 13:17:00;117;0;118.16;-4;19.70;-47.58;954.3;10.30;74389;2835.080;-1758.705;1;1;270;272.6;22.7;22.4;-70;-70.4;27.9;-1.0;
18/02/2025 13:17:20;117;0;108.55;-4;20.05;-47.70;951.4;10.30;74382;2835.078;-1758.700;1;355;270;272.6;22.7;22.4;-70;-70.4;27.9;-1.0;
18/02/2025 13:17:40;117;0;99.08;-4;19.78;-47.68;948.5;10.30;74387;2835.077;-1758.695;1;350;270;272.6;22.7;22.4;-70;-70.4;27.9;-1.0;
18/02/2025 13:18:00;117;0;89.01;-4;19.85;-47.45;945.8;10.20;74372;2835.076;-1758.691;1;345;270;272.6;22.7;22.4;-70;-70.4;27.9;-1.0;
18/02/2025 13:18:20;117;0;80.15;-4;20.29;-47.75;943.0;10.20;74381;2835.076;-1758.686;1;340;270;272.6;22.7;22.4;-70;-70.4;27.9;-1.0;
18/02/2025 13:18:40;117;0;68.51;-4;18.95;-47.22;940.1;10.20;74381;2835.077;-1758.682;1;336;270;272.6;22.4;22.4;-70;-70.4;27.9;-1.0;
18/02/2025 13:19:00;117;0;60.98;-4;20.37;-47.40;937.3;10.20;74368;2835.078;-1758.678;1;331;270;272.6;22.4;22.4;-70;-70.4;27.9;-1.0;
18/02/2025 13:19:20;117;0;50.22;-4;19.37;-47.92;934.6;10.20;74366;2835.079;-1758.674;1;327;270;272.6;22.4;22.4;-70;-70.4;27.9;-1.0;
18/02/2025 13:19:40;117;0;40.99;-4;20.09;-47.35;931.9;10.20;74366;2835.081;-1758.671;1;323;270;272.6;22.4;22.4;-63;-63.2;27.9;-1.0;
18/02/2025 13:20:00;117;0;31.71;-4;21.08;-43.73;929.1;10.20;74370;2835.083;-1758.668;1;319;270;274.2;22.4;22.4;-56;-56.0;27.9;-1.0;
18/02/2025 13:20:20;117;0;21.43;-4;21.51;-39.95;926.1;10.20;74359;2835.086;-1758.666;1;316;270;272.6;22.4;22.4;-46;-46.0;27.9;-1.0;
18/02/2025 13:20:40;117;0;11.42;-4;22.79;-34.91;923.0;10.10;74360;2835.089;-1758.665;1;312;270;272.6;23.3;23.4;-38;-37.5;27.9;-1.0;
18/02/2025 13:21:00;117;0;1.34;-4;20.86;-30.44;919.9;10.10;74361;2835.092;-1758.664;1;309;270;274.2;23.3;23.4;-29;-28.9;27.9;-1.0;
18/02/2025 13:21:20;117;0;350.05;-4;21.57;-25.99;917.0;10.10;74363;2835.094;-1758.664;1;306;270;272.6;23.3;23.4;-17;-17.1;27.9;-1.0;
18/02/2025 13:21:40;117;0;341.53;-4;21.85;-19.61;914.1;10.10;74361;2835.097;-1758.665;1;304;270;272.6;23.3;23.6;-7;-7.2;27.9;-1.0;
18/02/2025 13:22:00;117;0;332.58;-4;22.95;-14.97;911.3;10.10;74360;2835.099;-1758.666;1;302;270;272.6;24.1;24.4;6;5.9;27.9;-1.0;
18/02/2025 13:22:20;117;0;325.39;-4;22.90;-9.04;908.4;10.10;74363;2835.101;-1758.667;1;301;270;272.6;25.0;25.3;16;15.8;27.9;-1.0;
18/02/2025 13:22:40;117;0;321.99;-4;21.39;-3.71;905.5;10.10;74359;2835.103;-1758.669;1;299;270;274.2;25.0;25.3;19;19.0;27.9;-1.0;
18/02/2025 13:23:00;117;0;317.06;-4;21.66;-1.88;902.8;10.10;74357;2835.105;-1758.671;1;298;270;274.2;25.0;25.3;25;24.8;27.9;-1.0;
18/02/2025 13:23:20;117;0;313.79;-4;22.00;0.95;900.0;10.10;74362;2835.106;-1758.674;1;297;270;272.6;25.6;25.8;27;27.1;27.9;-1.0;
