Timestamp;NavState;SecurityLevel;Heading;Declination;Pitch;Roll;Depth;Temperature;Pa;Lat;Lon;DeadReckoning;DesiredH;BallastCmd;BallastPos;LinCmd;LinPos;AngCmd;AngPos;Voltage;Altitude;
16/02/2025 05:11:24;119;0;238.77;-4;-45.46;2.86;0.0;17.10;75709;2837.277;-1800.671;0;295;500;504.8;100.0;100.7;0;-0.5;28.5;-1.0;
16/02/2025 05:11:34;116;0;227.83;-4;-52.39;-15.17;0.2;17.10;75707;2837.277;-1800.671;0;295;500;504.8;100.0;100.7;0;-0.5;28.5;-1.0;
16/02/2025 05:11:59;116;0;211.12;-4;-58.48;0.32;0.1;17.20;75720;2837.276;-1800.669;0;295;500;506.5;100.0;100.7;0;-0.5;28.5;-1.0;
16/02/2025 05:12:18;116;0;197.53;-4;-49.94;-6.44;0.2;17.20;75728;2837.277;-1800.671;0;-9999;500;504.8;100.0;100.7;0;-0.5;28.4;-1.0;
16/02/2025 05:12:40;116;0;269.56;-4;-61.46;-17.07;0.1;17.30;75738;2837.276;-1800.669;0;294;500;506.5;100.0;100.7;0;0.0;28.4;-1.0;
16/02/2025 05:13:00;116;0;240.62;-4;-55.87;-17.90;0.2;17.40;75750;2837.278;-1800.671;0;295;500;504.8;100.0;100.7;0;-0.5;28.4;-1.0;
16/02/2025 05:14:02;116;0;205.80;-4;-54.13;-8.21;0.2;17.60;75773;2837.278;-1800.670;0;294;500;504.8;100.0;100.7;0;-0.5;28.4;-1.0;
16/02/2025 05:14:23;116;0;217.33;-4;-57.42;-13.79;0.2;17.70;75775;2837.278;-1800.671;0;294;500;504.8;100.0;100.7;0;-0.5;28.5;-1.0;
16/02/2025 05:15:25;116;0;214.80;-4;-54.39;-3.62;0.1;18.00;75805;2837.278;-1800.670;0;294;500;504.8;100.0;100.7;0;-0.5;28.5;-1.0;
16/02/2025 05:16:25;116;0;233.06;-4;-58.45;-26.48;0.2;18.20;75811;2837.278;-1800.671;0;294;500;506.5;100.0;100.7;0;-0.5;28.4;-1.0;
16/02/2025 05:16:45;116;0;234.18;-4;-43.65;-8.81;0.1;18.30;75831;2837.278;-1800.671;0;294;500;504.8;100.0;100.7;0;-0.5;28.4;-1.0;
16/02/2025 05:17:03;116;0;206.47;-4;-51.18;-7.65;0.1;18.40;75835;2837.279;-1800.671;0;294;500;504.8;100.0;100.7;0;-0.5;28.5;-1.0;
16/02/2025 05:17:23;110;0;224.71;-4;-55.87;-21.15;0.0;18.50;75842;2837.279;-1800.671;0;294;-50;391.9;100.0;99.7;-9;-9.0;28.5;-1.0;
16/02/2025 05:17:33;110;0;230.95;-4;-54.60;-35.63;-0.1;18.60;76190;2837.279;-1800.671;1;294;-50;248.4;100.0;99.7;-9;-9.5;28.4;-1.0;
16/02/2025 05:17:43;110;0;235.23;-4;-55.57;-14.77;0.4;18.60;76421;2837.279;-1800.671;1;294;-50;90.3;100.0;99.7;-9;-9.5;28.4;-1.0;
16/02/2025 05:17:53;110;0;233.64;-4;-67.34;-24.97;0.9;18.60;76751;2837.278;-1800.671;1;294;-50;-48.4;100.0;99.7;-9;-9.5;28.4;-1.0;
16/02/2025 05:18:03;110;0;235.51;-4;-60.82;-12.18;1.0;18.70;77022;2837.278;-1800.671;1;294;-50;-48.4;43.1;43.0;-9;-9.5;28.4;-1.0;
16/02/2025 05:18:23;100;0;263.37;-4;-29.09;-18.08;3.8;18.70;76994;2837.278;-1800.674;1;295;-50;-45.2;43.1;42.7;-9;-9.0;28.5;-1.0;
16/02/2025 05:18:43;100;0;271.20;-4;-20.28;-16.24;6.4;18.80;77009;2837.278;-1800.678;1;295;-50;-43.5;43.1;42.6;-11;-11.3;28.5;-1.0;
16/02/2025 05:19:03;100;0;276.30;-4;-20.29;-17.55;9.0;18.90;77017;2837.279;-1800.682;1;295;-50;-41.9;43.1;42.6;-2;-1.8;28.4;-1.0;
16/02/2025 05:19:23;100;0;283.69;-4;-17.85;-11.94;11.7;18.90;77033;2837.279;-1800.686;1;295;-50;-41.9;43.7;44.0;8;8.6;28.5;-1.0;
16/02/2025 05:19:43;100;0;283.11;-4;-21.76;-7.49;14.2;18.90;77034;2837.280;-1800.689;1;295;-50;-41.9;43.7;44.0;8;8.6;28.5;0.0;
16/02/2025 05:20:03;100;0;282.87;-4;-21.93;-7.36;16.8;19.00;77039;2837.281;-1800.692;1;295;-50;-41.9;43.7;44.0;8;8.6;28.4;0.0;
16/02/2025 05:20:23;100;0;282.54;-4;-22.85;-7.72;19.4;19.00;77038;2837.281;-1800.696;1;295;-50;-41.9;42.8;42.7;8;8.6;28.4;0.0;
16/02/2025 05:20:43;100;0;281.87;-4;-21.09;-7.75;22.1;19.00;77051;2837.282;-1800.699;1;295;-50;-41.9;42.8;42.6;6;5.4;28.5;0.0;
16/02/2025 05:21:03;100;0;284.64;-4;-19.85;-9.53;24.5;19.00;77053;2837.283;-1800.703;1;295;-50;-41.9;42.8;42.6;9;9.0;28.5;0.0;
16/02/2025 05:21:23;100;0;286.18;-4;-18.52;-7.07;26.8;19.00;77058;2837.284;-1800.706;1;295;-50;-41.9;43.3;43.3;9;9.5;28.4;0.0;
16/02/2025 05:21:43;100;0;286.03;-4;-20.81;-6.97;29.1;19.00;77063;2837.285;-1800.709;1;295;-50;-45.2;43.3;43.6;9;9.9;28.4;0.0;
16/02/2025 05:22:03;100;0;285.24;-4;-21.21;-7.11;31.5;19.10;77069;2837.285;-1800.712;1;295;-50;-41.9;43.3;43.4;9;9.5;28.5;0.0;
16/02/2025 05:22:23;100;0;287.75;-4;-20.51;-7.08;34.0;19.10;77080;2837.286;-1800.716;1;295;-50;-41.9;43.3;43.6;11;10.8;28.4;0.0;
16/02/2025 05:22:43;100;0;289.59;-4;-21.30;-6.34;36.5;19.10;77088;2837.287;-1800.719;1;295;-50;-41.9;43.3;43.6;11;11.3;28.5;0.0;
16/02/2025 05:23:03;100;0;291.66;-4;-20.57;-6.24;39.2;19.10;77094;2837.289;-1800.723;1;295;-50;-41.9;43.3;43.4;11;11.3;28.5;0.0;
16/02/2025 05:23:23;100;0;290.06;-4;-22.02;-6.38;41.7;19.10;77106;2837.290;-1800.726;1;295;-50;-43.5;42.7;42.7;11;11.3;28.4;0.0;
16/02/2025 05:23:43;100;0;289.50;-4;-19.54;-6.29;44.2;19.10;77101;2837.291;-1800.729;1;295;-50;-41.9;42.7;42.6;11;11.3;28.5;0.0;
16/02/2025 05:24:03;100;0;288.88;-4;-19.17;-6.34;46.5;19.20;77111;2837.292;-1800.733;1;295;-50;-41.9;42.7;42.4;11;11.3;28.5;0.0;
16/02/2025 05:24:23;100;0;287.64;-4;-19.81;-6.38;48.8;19.20;77096;2837.293;-1800.736;1;295;-50;-41.9;42.7;42.6;11;11.3;28.4;0.0;
16/02/2025 05:24:43;100;0;291.01;-4;-18.78;-6.23;51.1;19.20;77096;2837.294;-1800.739;1;295;-50;-41.9;43.1;43.0;11;11.3;28.4;0.0;
16/02/2025 05:25:03;100;0;290.59;-4;-20.04;-6.21;53.4;19.20;77101;2837.295;-1800.742;1;295;-50;-40.3;43.1;43.3;11;11.3;28.5;0.0;
16/02/2025 05:25:23;100;0;289.94;-4;-20.27;-6.31;55.8;19.20;77112;2837.296;-1800.745;1;295;-50;-45.2;43.1;43.3;11;11.3;28.5;0.0;
16/02/2025 05:25:43;100;0;291.05;-4;-19.98;-6.28;58.2;19.20;77105;2837.297;-1800.749;1;296;-50;-41.9;43.1;43.2;11;11.3;28.4;0.0;
16/02/2025 05:26:03;100;0;291.22;-4;-20.62;-6.38;60.6;19.20;77102;2837.298;-1800.752;1;296;-50;-41.9;43.1;43.2;11;11.3;28.4;0.0;
16/02/2025 05:26:23;100;0;292.56;-4;-20.18;-6.21;63.1;19.20;77105;2837.299;-1800.755;1;296;-50;-41.9;43.1;43.3;11;11.3;28.5;0.0;
16/02/2025 05:26:43;100;0;292.73;-4;-20.21;-6.28;65.6;19.20;77102;2837.301;-1800.758;1;296;-50;-41.9;43.1;43.3;11;11.3;28.4;0.0;
16/02/2025 05:27:03;100;0;292.68;-4;-20.20;-6.29;68.2;19.20;77105;2837.302;-1800.762;1;296;-50;-43.5;43.1;43.3;11;11.3;28.5;0.0;
16/02/2025 05:27:23;100;0;293.18;-4;-20.24;-6.22;70.8;19.30;77118;2837.303;-1800.765;1;296;-50;-43.5;43.1;43.3;11;11.3;28.4;0.0;
16/02/2025 05:27:43;100;0;293.90;-4;-20.16;-6.25;73.4;19.20;77105;2837.305;-1800.769;1;296;-50;-40.3;43.1;43.2;11;11.3;28.5;0.0;
16/02/2025 05:28:03;100;0;294.19;-4;-20.49;-6.33;76.0;19.30;77118;2837.306;-1800.772;1;296;-50;-41.9;43.1;43.2;11;11.3;28.5;0.0;
16/02/2025 05:28:23;100;0;295.07;-4;-20.42;-6.32;78.5;19.30;77120;2837.307;-1800.776;1;296;-50;-41.9;43.1;43.3;11;11.3;28.5;0.0;
16/02/2025 05:28:43;100;0;296.66;-4;-19.94;-6.24;81.0;19.30;77118;2837.309;-1800.779;1;296;-50;-41.9;43.1;43.3;11;11.3;28.5;0.0;
16/02/2025 05:29:03;100;0;295.75;-4;-20.59;-6.31;83.6;19.20;77113;2837.310;-1800.782;1;296;-50;-41.9;43.1;43.3;11;11.3;28.4;0.0;
16/02/2025 05:29:24;100;0;297.74;-4;-20.04;-6.20;86.2;19.30;77123;2837.312;-1800.785;1;296;-50;-41.9;43.1;43.3;11;11.3;28.5;0.0;
16/02/2025 05:29:44;100;0;301.80;-4;-19.93;-6.25;88.7;19.30;77129;2837.314;-1800.789;1;296;-50;-41.9;43.1;43.3;13;13.1;28.5;0.0;
16/02/2025 05:30:04;100;0;303.11;-4;-20.28;-5.20;91.3;19.30;77119;2837.315;-1800.792;1;295;-50;-41.9;43.1;43.2;13;13.5;28.4;0.0;
16/02/2025 05:30:24;100;0;302.62;-4;-20.49;-5.20;93.9;19.30;77115;2837.317;-1800.795;1;295;-50;-41.9;43.1;43.3;13;13.5;28.5;0.0;
16/02/2025 05:30:44;100;0;302.26;-4;-20.44;-5.17;96.6;19.30;77097;2837.319;-1800.798;1;295;-50;-43.5;43.1;43.2;13;13.5;28.4;0.0;
16/02/2025 05:31:04;100;0;298.31;-4;-19.79;-5.19;99.1;19.20;77073;2837.321;-1800.801;1;295;-50;-41.9;43.1;43.3;13;13.5;28.5;0.0;
16/02/2025 05:31:24;100;0;289.78;-4;-20.45;-5.28;101.6;19.20;77054;2837.322;-1800.805;1;295;-50;-41.9;43.1;43.3;11;10.8;28.4;0.0;
16/02/2025 05:31:44;100;0;286.85;-4;-19.91;-6.77;104.0;19.20;77034;2837.323;-1800.808;1;295;-50;-41.9;43.1;43.2;11;10.4;28.5;0.0;
16/02/2025 05:32:04;100;0;288.23;-4;-19.72;-6.84;106.4;19.20;77028;2837.324;-1800.811;1;296;-50;-41.9;43.1;43.2;11;10.4;28.5;0.0;
16/02/2025 05:32:24;100;0;290.66;-4;-19.83;-6.80;108.6;19.20;77009;2837.325;-1800.814;1;296;-50;-41.9;43.1;43.3;11;10.4;28.5;0.0;
16/02/2025 05:32:44;100;0;292.98;-4;-19.96;-6.82;110.9;19.10;76994;2837.326;-1800.818;1;296;-50;-41.9;43.1;43.3;11;9.9;28.5;0.0;
16/02/2025 05:33:04;100;0;299.23;-4;-20.18;-6.80;113.3;19.10;76988;2837.327;-1800.821;1;296;-50;-41.9;43.1;43.3;11;10.4;28.5;0.0;
16/02/2025 05:33:24;100;0;301.07;-4;-20.02;-6.82;115.6;19.10;76969;2837.329;-1800.823;1;295;-50;-45.2;43.1;43.3;13;13.1;28.5;0.0;
16/02/2025 05:33:44;100;0;307.10;-4;-20.47;-5.30;118.0;19.10;76968;2837.331;-1800.826;1;295;-50;-41.9;43.1;43.3;17;17.1;28.4;0.0;
16/02/2025 05:34:04;100;0;304.60;-4;-19.70;-3.10;120.3;19.10;76957;2837.332;-1800.829;1;295;-50;-41.9;43.1;43.3;15;14.9;28.4;0.0;
16/02/2025 05:34:24;100;0;302.03;-4;-19.80;-4.84;122.5;19.00;76941;2837.334;-1800.832;1;295;-50;-41.9;43.1;43.3;13;12.6;28.4;0.0;
16/02/2025 05:34:44;100;0;302.32;-4;-19.69;-5.43;124.5;19.00;76932;2837.335;-1800.834;1;295;-50;-41.9;43.1;43.3;13;13.1;28.4;0.0;
16/02/2025 05:35:04;100;0;302.20;-4;-19.54;-5.44;126.6;19.00;76927;2837.337;-1800.837;1;295;-50;-41.9;43.1;43.2;13;13.1;28.4;0.0;
16/02/2025 05:35:24;100;0;301.22;-4;-19.51;-5.42;128.7;19.00;76925;2837.338;-1800.839;1;295;-50;-41.9;43.1;43.3;13;13.5;28.5;0.0;
16/02/2025 05:35:44;100;0;302.90;-4;-19.32;-5.45;130.8;19.00;76909;2837.340;-1800.842;1;295;-50;-41.9;43.1;43.3;13;13.1;28.5;0.0;
16/02/2025 05:36:04;100;0;304.57;-4;-19.34;-5.50;132.8;18.90;76902;2837.341;-1800.844;1;295;-70;-71.0;43.1;43.3;15;15.3;28.4;0.0;
16/02/2025 05:36:24;100;0;303.92;-4;-18.72;-4.08;134.9;18.90;76952;2837.343;-1800.847;1;295;-70;-72.6;43.4;43.4;15;15.8;28.5;0.0;
16/02/2025 05:36:44;100;0;302.38;-4;-19.96;-4.10;137.3;18.90;76939;2837.344;-1800.850;1;295;-70;-72.6;43.4;43.6;15;15.8;28.4;0.0;
16/02/2025 05:37:04;100;0;301.37;-4;-20.47;-3.93;139.8;18.80;76938;2837.346;-1800.853;1;295;-70;-72.6;43.4;43.6;13;12.2;28.4;0.0;
16/02/2025 05:37:24;100;0;298.74;-4;-20.45;-5.68;142.6;18.80;76922;2837.348;-1800.857;1;295;-70;-72.6;43.4;43.6;13;12.6;28.5;0.0;
16/02/2025 05:37:44;100;0;297.42;-4;-20.32;-5.55;145.5;18.80;76901;2837.349;-1800.860;1;295;-70;-72.6;43.4;43.6;13;12.6;28.5;0.0;
16/02/2025 05:38:04;100;0;299.43;-4;-20.29;-5.56;148.4;18.70;76889;2837.351;-1800.864;1;295;-70;-72.6;43.4;43.6;13;12.6;28.5;0.0;
16/02/2025 05:38:24;100;0;299.57;-4;-19.63;-5.81;151.2;18.70;76901;2837.353;-1800.868;1;295;-70;-72.6;43.4;43.6;13;12.6;28.4;0.0;
16/02/2025 05:38:44;100;0;301.47;-4;-19.17;-5.66;154.0;18.70;76888;2837.355;-1800.871;1;295;-70;-75.8;43.4;43.6;13;12.6;28.5;0.0;
16/02/2025 05:39:04;100;0;300.21;-4;-19.74;-5.64;156.5;18.60;76868;2837.357;-1800.874;1;295;-70;-72.6;43.4;43.7;13;12.6;28.5;0.0;
16/02/2025 05:39:24;100;0;299.83;-4;-19.04;-5.54;159.2;18.60;76864;2837.358;-1800.878;1;295;-70;-72.6;43.4;43.6;13;12.6;28.4;0.0;
16/02/2025 05:39:44;100;0;301.64;-4;-19.51;-5.67;161.9;18.60;76865;2837.360;-1800.881;1;295;-70;-72.6;43.4;43.6;13;12.6;28.5;0.0;
16/02/2025 05:40:04;100;0;303.37;-4;-19.64;-5.61;164.7;18.50;76850;2837.362;-1800.885;1;295;-70;-75.8;43.4;43.7;13;12.6;28.4;0.0;
16/02/2025 05:40:24;100;0;304.93;-4;-19.59;-5.68;167.5;18.50;76841;2837.364;-1800.888;1;294;-70;-72.6;43.4;43.6;16;16.2;28.5;0.0;
16/02/2025 05:40:44;100;0;304.72;-4;-19.61;-3.62;170.4;18.50;76839;2837.366;-1800.891;1;294;-70;-71.0;43.4;43.7;16;16.7;28.5;0.0;
16/02/2025 05:41:04;100;0;304.86;-4;-20.00;-3.56;173.4;18.40;76824;2837.369;-1800.895;1;294;-70;-72.6;43.4;43.6;16;16.7;28.4;0.0;
16/02/2025 05:41:24;100;0;303.17;-4;-20.06;-3.52;176.5;18.40;76815;2837.371;-1800.899;1;294;-70;-71.0;43.4;43.7;16;16.7;28.5;0.0;
16/02/2025 05:41:44;100;0;305.18;-4;-20.16;-3.49;179.5;18.40;76811;2837.373;-1800.902;1;294;-70;-72.6;43.4;43.7;16;16.7;28.5;0.0;
16/02/2025 05:42:04;100;0;304.13;-4;-20.10;-3.56;182.4;18.30;76798;2837.375;-1800.906;1;294;-70;-72.6;43.4;43.6;16;16.7;28.5;0.0;
16/02/2025 05:42:24;100;0;301.09;-4;-19.75;-3.59;185.4;18.30;76779;2837.377;-1800.910;1;294;-70;-72.6;43.4;43.6;14;13.5;28.4;0.0;
16/02/2025 05:42:44;100;0;298.95;-4;-19.63;-5.18;188.2;18.30;76758;2837.379;-1800.913;1;294;-70;-72.6;43.4;43.6;14;13.5;28.4;0.0;
16/02/2025 05:43:04;100;0;297.60;-4;-19.65;-5.21;191.1;18.20;76743;2837.381;-1800.917;1;294;-70;-72.6;43.4;43.6;14;13.5;28.4;0.0;
16/02/2025 05:43:24;100;0;295.50;-4;-19.62;-5.20;193.9;18.20;76748;2837.382;-1800.921;1;294;-70;-72.6;43.4;43.7;14;13.5;28.4;0.0;
16/02/2025 05:43:44;100;0;295.04;-4;-19.60;-5.18;196.8;18.10;76735;2837.384;-1800.924;1;294;-70;-72.6;43.4;43.7;14;13.5;28.5;0.0;
16/02/2025 05:44:04;100;0;296.96;-4;-19.53;-5.19;199.7;18.10;76724;2837.386;-1800.928;1;294;-70;-72.6;43.4;43.7;14;13.5;28.4;0.0;
16/02/2025 05:44:24;100;0;297.80;-4;-19.61;-5.16;202.5;18.10;76719;2837.387;-1800.932;1;294;-70;-72.6;43.4;43.7;14;13.5;28.4;0.0;
16/02/2025 05:44:44;100;0;300.74;-4;-19.45;-5.23;205.3;18.00;76709;2837.389;-1800.935;1;294;-70;-72.6;43.4;43.7;14;13.5;28.4;0.0;
16/02/2025 05:45:04;100;0;299.70;-4;-19.51;-5.17;208.0;18.00;76694;2837.391;-1800.939;1;294;-70;-72.6;43.4;43.7;14;13.5;28.4;0.0;
16/02/2025 05:45:24;100;0;298.22;-4;-19.70;-5.12;210.9;17.90;76700;2837.393;-1800.943;1;294;-70;-72.6;43.4;43.6;14;13.5;28.5;0.0;
16/02/2025 05:45:44;100;0;297.55;-4;-19.61;-5.16;213.6;17.90;76684;2837.394;-1800.946;1;294;-70;-72.6;43.4;43.6;14;13.5;28.4;0.0;
16/02/2025 05:46:04;100;0;296.25;-4;-19.87;-5.29;216.5;17.90;76675;2837.396;-1800.950;1;293;-70;-72.6;43.4;43.6;14;13.5;28.4;0.0;
16/02/2025 05:46:24;100;0;294.98;-4;-19.62;-5.06;219.2;17.80;76671;2837.397;-1800.953;1;293;-70;-74.2;43.4;43.6;14;13.5;28.4;0.0;
16/02/2025 05:46:44;100;0;292.35;-4;-19.80;-5.21;221.9;17.80;76659;2837.399;-1800.957;1;293;-70;-72.6;43.4;43.6;14;13.5;28.5;0.0;
16/02/2025 05:47:04;100;0;291.04;-4;-19.75;-5.19;224.7;17.80;76668;2837.400;-1800.961;1;294;-70;-72.6;43.4;43.7;14;13.5;28.5;0.0;
16/02/2025 05:47:24;100;0;290.44;-4;-19.62;-5.22;227.4;17.70;76653;2837.401;-1800.965;1;294;-70;-72.6;43.4;43.7;14;13.5;28.4;0.0;
16/02/2025 05:47:44;100;0;289.78;-4;-19.62;-5.18;230.2;17.70;76647;2837.402;-1800.968;1;294;-70;-72.6;43.4;43.6;14;13.5;28.4;0.0;
16/02/2025 05:48:04;100;0;289.86;-4;-19.61;-5.22;232.9;17.60;76643;2837.404;-1800.972;1;294;-70;-74.2;43.4;43.7;14;13.5;28.4;0.0;
16/02/2025 05:48:24;100;0;294.78;-4;-19.88;-5.08;235.7;17.60;76626;2837.405;-1800.976;1;294;-70;-72.6;43.4;43.7;14;13.5;28.4;0.0;
16/02/2025 05:48:44;100;0;294.39;-4;-19.68;-5.21;238.6;17.60;76614;2837.407;-1800.979;1;294;-70;-72.6;43.4;43.7;14;13.5;28.4;0.0;
16/02/2025 05:49:04;100;0;294.86;-4;-19.42;-5.24;241.5;17.50;76608;2837.408;-1800.983;1;294;-70;-75.8;43.4;43.7;14;13.5;28.4;0.0;
16/02/2025 05:49:24;100;0;294.93;-4;-19.81;-5.21;244.2;17.50;76609;2837.410;-1800.987;1;294;-70;-72.6;43.4;43.6;14;13.5;28.5;0.0;
16/02/2025 05:49:44;100;0;295.09;-4;-20.03;-5.08;247.1;17.50;76605;2837.411;-1800.991;1;294;-70;-72.6;43.4;43.6;14;13.5;28.5;0.0;
16/02/2025 05:50:04;100;0;294.37;-4;-19.99;-5.11;249.9;17.40;76579;2837.413;-1800.995;1;294;-70;-72.6;43.4;43.6;14;13.5;28.5;0.0;
16/02/2025 05:50:24;100;0;294.99;-4;-19.74;-5.08;252.8;17.40;76575;2837.414;-1800.998;1;293;-70;-72.6;43.4;43.6;14;13.5;28.4;0.0;
16/02/2025 05:50:44;100;0;295.65;-4;-19.77;-5.17;255.6;17.40;76568;2837.416;-1801.002;1;293;-70;-72.6;43.4;43.6;14;13.5;28.4;0.0;
16/02/2025 05:51:04;100;0;293.44;-4;-19.72;-5.23;258.5;17.30;76564;2837.418;-1801.006;1;293;-70;-72.6;43.4;43.7;14;13.5;28.4;0.0;
16/02/2025 05:51:24;100;0;294.37;-4;-19.58;-5.17;261.3;17.30;76549;2837.419;-1801.010;1;293;-70;-72.6;43.4;43.7;14;13.5;28.4;0.0;
16/02/2025 05:51:44;100;0;294.59;-4;-19.57;-5.19;264.1;17.20;76546;2837.421;-1801.013;1;293;-70;-72.6;43.4;43.7;14;13.5;28.5;0.0;
16/02/2025 05:52:04;100;0;293.91;-4;-19.44;-5.23;266.8;17.20;76531;2837.422;-1801.017;1;293;-70;-72.6;43.4;43.6;14;13.5;28.5;0.0;
16/02/2025 05:52:24;100;0;294.19;-4;-19.38;-5.10;269.5;17.10;76521;2837.424;-1801.021;1;293;-70;-72.6;43.4;43.7;14;13.5;28.5;0.0;
16/02/2025 05:52:44;100;0;295.60;-4;-19.50;-5.22;272.2;17.10;76523;2837.425;-1801.025;1;293;-70;-72.6;43.4;43.6;14;13.5;28.5;0.0;
16/02/2025 05:53:04;100;0;296.12;-4;-19.32;-5.26;275.0;17.10;76522;2837.427;-1801.028;1;293;-70;-74.2;43.4;43.7;14;13.5;28.5;0.0;
16/02/2025 05:53:24;100;0;296.66;-4;-19.28;-5.23;277.7;17.10;76499;2837.428;-1801.032;1;293;-70;-72.6;43.4;43.6;14;13.1;28.5;0.0;
16/02/2025 05:53:44;100;0;295.84;-4;-19.33;-5.24;280.4;17.00;76499;2837.430;-1801.036;1;293;-70;-74.2;43.4;43.6;14;13.5;28.5;0.0;
16/02/2025 05:54:04;100;0;294.32;-4;-19.26;-5.21;283.0;17.00;76495;2837.431;-1801.039;1;293;-70;-72.6;43.4;43.7;14;13.5;28.5;0.0;
16/02/2025 05:54:24;100;0;292.77;-4;-19.28;-5.24;285.7;16.90;76490;2837.433;-1801.043;1;293;-70;-72.6;43.4;43.6;14;13.5;28.4;0.0;
16/02/2025 05:54:44;100;0;293.16;-4;-19.32;-5.20;288.5;16.90;76485;2837.434;-1801.047;1;293;-70;-74.2;43.4;43.7;14;13.5;28.5;0.0;
16/02/2025 05:55:04;100;0;293.10;-4;-19.17;-5.33;291.3;16.90;76472;2837.436;-1801.051;1;293;-70;-74.2;43.4;43.6;14;13.5;28.5;0.0;
16/02/2025 05:55:24;100;0;293.74;-4;-19.12;-5.20;294.0;16.80;76464;2837.437;-1801.054;1;293;-70;-72.6;43.4;43.6;14;13.5;28.5;0.0;
16/02/2025 05:55:44;100;0;294.20;-4;-19.37;-5.22;296.7;16.80;76454;2837.439;-1801.058;1;293;-70;-72.6;43.4;43.7;14;13.5;28.4;0.0;
16/02/2025 05:56:04;100;0;294.58;-4;-19.65;-5.12;299.3;16.80;76458;2837.440;-1801.062;1;293;-70;-72.6;43.4;43.7;14;13.5;28.5;0.0;
16/02/2025 05:56:24;100;0;293.76;-4;-19.51;-5.19;302.1;16.70;76454;2837.441;-1801.065;1;293;-70;-71.0;43.4;43.6;14;13.5;28.5;0.0;
16/02/2025 05:56:44;100;0;293.72;-4;-19.45;-5.18;304.7;16.70;76446;2837.443;-1801.069;1;293;-70;-74.2;43.4;43.7;14;13.5;28.5;0.0;
16/02/2025 05:57:04;100;0;292.80;-4;-19.49;-5.13;307.3;16.60;76444;2837.444;-1801.073;1;293;-70;-72.6;43.4;43.6;14;13.5;28.4;0.0;
16/02/2025 05:57:24;100;0;290.39;-4;-19.38;-5.24;309.9;16.60;76428;2837.445;-1801.076;1;293;-70;-72.6;43.4;43.6;14;13.5;28.4;0.0;
16/02/2025 05:57:44;100;0;289.25;-4;-19.33;-5.23;312.5;16.60;76424;2837.447;-1801.080;1;293;-70;-72.6;43.4;43.6;14;13.5;28.4;0.0;
16/02/2025 05:58:04;100;0;291.71;-4;-19.31;-5.23;315.0;16.50;76414;2837.448;-1801.083;1;293;-70;-71.0;43.4;43.7;14;13.5;28.5;0.0;
16/02/2025 05:58:24;100;0;292.28;-4;-19.58;-5.14;317.4;16.50;76413;2837.449;-1801.087;1;293;-70;-72.6;43.4;43.6;14;13.5;28.5;0.0;
16/02/2025 05:58:44;100;0;294.42;-4;-19.34;-5.13;320.0;16.50;76409;2837.450;-1801.090;1;293;-70;-72.6;43.4;43.6;14;13.5;28.4;0.0;
16/02/2025 05:59:04;100;0;296.22;-4;-19.29;-5.14;322.5;16.40;76403;2837.452;-1801.093;1;293;-70;-72.6;43.4;43.7;14;13.5;28.4;0.0;
16/02/2025 05:59:24;100;0;297.99;-4;-19.36;-5.16;324.9;16.40;76393;2837.453;-1801.097;1;293;-70;-72.6;43.4;43.6;14;13.5;28.4;0.0;
16/02/2025 05:59:44;100;0;301.24;-4;-19.56;-5.14;327.4;16.40;76383;2837.455;-1801.100;1;293;-70;-72.6;43.4;43.7;14;13.5;28.5;0.0;
16/02/2025 06:00:04;100;0;302.92;-4;-19.09;-5.19;329.8;16.40;76385;2837.457;-1801.103;1;293;-70;-72.6;43.4;43.6;16;15.8;28.4;0.0;
16/02/2025 06:00:24;100;0;304.15;-4;-19.40;-3.72;332.1;16.30;76368;2837.459;-1801.106;1;293;-70;-72.6;43.4;43.6;16;16.2;28.4;0.0;
16/02/2025 06:00:44;100;0;299.03;-4;-19.38;-3.75;334.5;16.30;76358;2837.460;-1801.109;1;293;-70;-74.2;43.4;43.6;14;13.5;28.5;0.0;
16/02/2025 06:01:04;100;0;296.56;-4;-19.17;-4.94;336.7;16.20;76343;2837.462;-1801.112;1;293;-70;-72.6;43.4;43.6;14;14.0;28.5;0.0;
16/02/2025 06:01:24;100;0;295.29;-4;-19.22;-5.05;339.0;16.20;76344;2837.463;-1801.115;1;293;-70;-74.2;43.4;43.6;14;14.0;28.5;0.0;
16/02/2025 06:01:44;100;0;295.18;-4;-19.15;-4.90;341.3;16.20;76329;2837.464;-1801.118;1;292;-70;-71.0;43.4;43.6;14;14.0;28.5;0.0;
16/02/2025 06:02:04;100;0;292.72;-4;-18.89;-5.11;343.5;16.10;76322;2837.465;-1801.121;1;292;-70;-72.6;43.8;43.7;14;14.0;28.4;0.0;
16/02/2025 06:02:24;100;0;290.42;-4;-19.05;-5.01;345.7;16.10;76316;2837.466;-1801.124;1;292;-70;-74.2;43.8;43.7;14;14.0;28.5;0.0;
16/02/2025 06:02:44;100;0;289.10;-4;-19.01;-5.00;348.0;16.10;76307;2837.467;-1801.128;1;293;-70;-74.2;43.8;43.6;14;14.0;28.4;0.0;
16/02/2025 06:03:04;100;0;288.29;-4;-19.05;-4.98;350.3;16.00;76298;2837.468;-1801.131;1;293;-70;-72.6;43.8;43.6;14;14.0;28.5;0.0;
16/02/2025 06:03:24;100;0;288.27;-4;-19.22;-4.92;352.5;16.00;76298;2837.469;-1801.134;1;293;-70;-74.2;43.8;43.7;14;13.5;28.4;0.0;
16/02/2025 06:03:45;100;0;288.46;-4;-19.27;-4.91;354.9;16.00;76285;2837.470;-1801.137;1;293;-70;-72.6;43.8;43.7;14;14.0;28.4;0.0;
16/02/2025 06:04:05;100;0;286.26;-4;-19.16;-4.94;357.2;15.90;76280;2837.471;-1801.141;1;293;-70;-72.6;43.8;43.7;12;11.3;28.5;0.0;
16/02/2025 06:04:25;100;0;284.43;-4;-19.08;-5.55;359.5;15.90;76272;2837.472;-1801.144;1;293;-70;-72.6;43.8;43.6;12;12.6;28.5;0.0;
16/02/2025 06:04:45;100;0;282.73;-4;-19.34;-5.57;361.7;15.90;76273;2837.473;-1801.147;1;293;-70;-74.2;43.8;43.6;10;9.5;28.5;0.0;
16/02/2025 06:05:05;100;0;283.58;-4;-18.80;-7.20;364.1;15.80;76265;2837.473;-1801.151;1;293;-70;-72.6;44.1;44.2;10;9.5;28.4;0.0;
16/02/2025 06:05:25;100;0;286.80;-4;-20.31;-7.24;366.4;15.80;76252;2837.474;-1801.154;1;293;-70;-72.6;44.1;44.5;12;12.2;28.4;0.0;
16/02/2025 06:05:45;100;0;289.42;-4;-20.60;-5.45;368.8;15.80;76251;2837.475;-1801.157;1;293;-70;-72.6;44.1;44.5;12;12.6;28.5;0.0;
16/02/2025 06:06:05;100;0;291.37;-4;-20.83;-5.43;371.2;15.70;76232;2837.476;-1801.160;1;293;-70;-72.6;44.1;44.5;12;12.6;28.5;0.0;
16/02/2025 06:06:25;100;0;290.89;-4;-20.86;-5.55;373.7;15.70;76235;2837.477;-1801.164;1;294;-70;-72.6;44.1;44.5;12;12.6;28.4;0.0;
16/02/2025 06:06:45;100;0;294.38;-4;-21.02;-5.40;376.3;15.70;76221;2837.479;-1801.167;1;294;-70;-74.2;44.1;44.5;12;12.6;28.4;0.0;
16/02/2025 06:07:05;100;0;295.65;-4;-20.85;-5.43;379.0;15.60;76220;2837.480;-1801.170;1;293;-70;-72.6;44.1;44.5;12;12.6;28.4;0.0;
16/02/2025 06:07:25;100;0;297.09;-4;-20.93;-5.42;381.6;15.60;76199;2837.482;-1801.174;1;293;-70;-72.6;44.1;44.5;12;12.6;28.4;0.0;
16/02/2025 06:07:45;100;0;300.36;-4;-21.14;-5.40;384.4;15.60;76187;2837.483;-1801.177;1;293;-70;-72.6;44.1;44.5;14;14.0;28.4;0.0;
16/02/2025 06:08:05;100;0;301.67;-4;-21.30;-4.33;387.2;15.50;76194;2837.485;-1801.180;1;293;-70;-72.6;44.1;44.5;14;14.4;28.5;0.0;
16/02/2025 06:08:25;100;0;299.96;-4;-21.23;-4.39;390.0;15.50;76184;2837.487;-1801.184;1;293;-70;-72.6;44.1;44.6;14;14.4;28.5;0.0;
16/02/2025 06:08:45;100;0;297.99;-4;-21.29;-4.38;392.9;15.50;76176;2837.489;-1801.187;1;293;-70;-74.2;44.1;44.6;14;14.4;28.5;0.0;
16/02/2025 06:09:05;100;0;296.16;-4;-21.12;-4.41;395.7;15.40;76170;2837.490;-1801.191;1;293;-70;-74.2;44.1;44.5;14;14.4;28.4;0.0;
16/02/2025 06:09:25;100;0;296.68;-4;-20.89;-4.38;398.6;15.40;76166;2837.492;-1801.194;1;292;-70;-71.0;44.1;44.5;14;14.4;28.4;0.0;
16/02/2025 06:09:45;100;0;298.04;-4;-20.81;-4.38;401.3;15.40;76153;2837.493;-1801.198;1;292;-70;-72.6;44.1;44.5;14;14.4;28.4;0.0;
16/02/2025 06:10:05;100;0;299.46;-4;-20.78;-4.40;404.2;15.30;76150;2837.495;-1801.201;1;292;-70;-74.2;44.1;44.5;14;14.4;28.5;0.0;
16/02/2025 06:10:25;100;0;300.86;-4;-20.87;-4.41;406.9;15.30;76160;2837.497;-1801.205;1;292;-70;-72.6;44.1;44.5;14;14.4;28.4;0.0;
16/02/2025 06:10:45;100;0;301.53;-4;-20.92;-4.34;409.7;15.30;76142;2837.499;-1801.208;1;292;-70;-74.2;44.1;44.5;16;16.2;28.5;0.0;
16/02/2025 06:11:05;100;0;301.77;-4;-21.08;-3.49;412.6;15.30;76145;2837.501;-1801.211;1;291;-70;-72.6;44.1;44.5;16;16.7;28.4;0.0;
16/02/2025 06:11:25;100;0;300.89;-4;-21.18;-3.52;415.5;15.20;76126;2837.502;-1801.215;1;291;-70;-72.6;44.1;44.5;16;16.7;28.4;0.0;
16/02/2025 06:11:45;100;0;301.11;-4;-20.75;-3.41;418.5;15.20;76138;2837.504;-1801.218;1;291;-70;-74.2;44.1;44.5;16;16.7;28.5;0.0;
16/02/2025 06:12:05;100;0;300.34;-4;-21.00;-3.43;421.4;15.10;76127;2837.506;-1801.222;1;290;-70;-72.6;44.1;44.5;16;16.7;28.4;0.0;
16/02/2025 06:12:25;100;0;299.49;-4;-20.97;-3.44;424.3;15.10;76123;2837.508;-1801.226;1;290;-70;-72.6;44.1;44.5;16;16.7;28.5;0.0;
16/02/2025 06:12:45;100;0;296.96;-4;-21.02;-3.35;427.2;15.10;76123;2837.510;-1801.229;1;290;-70;-72.6;44.1;44.6;16;16.7;28.5;0.0;
16/02/2025 06:13:05;100;0;291.89;-4;-20.55;-3.62;430.1;15.10;76108;2837.511;-1801.233;1;290;-70;-74.2;44.1;44.5;13;12.6;28.5;0.0;
16/02/2025 06:13:25;100;0;293.11;-4;-20.02;-5.70;432.9;15.00;76098;2837.512;-1801.237;1;290;-70;-72.6;44.1;44.5;13;12.6;28.5;0.0;
16/02/2025 06:13:45;100;0;295.84;-4;-19.80;-5.45;435.6;15.00;76081;2837.514;-1801.240;1;289;-70;-72.6;44.1;44.5;15;14.9;28.4;0.0;
16/02/2025 06:14:05;100;0;296.00;-4;-20.15;-4.13;438.3;15.00;76082;2837.515;-1801.244;1;289;-70;-72.6;44.1;44.6;15;15.3;28.4;0.0;
16/02/2025 06:14:25;100;0;294.00;-4;-20.50;-4.17;441.0;15.00;76080;2837.517;-1801.247;1;289;-70;-72.6;44.1;44.5;15;15.3;28.5;0.0;
16/02/2025 06:14:45;100;0;291.88;-4;-20.61;-4.14;443.7;14.90;76073;2837.518;-1801.251;1;289;-70;-72.6;44.1;44.6;15;15.3;28.4;0.0;
16/02/2025 06:15:05;100;0;291.40;-4;-20.72;-4.16;446.5;14.90;76064;2837.519;-1801.255;1;289;-70;-72.6;44.1;44.5;15;15.3;28.5;0.0;
16/02/2025 06:15:25;100;0;290.87;-4;-20.40;-4.20;449.2;14.90;76062;2837.521;-1801.258;1;288;-70;-74.2;44.1;44.5;15;15.3;28.4;0.0;
16/02/2025 06:15:45;100;0;291.60;-4;-20.55;-4.17;452.0;14.80;76049;2837.522;-1801.262;1;288;-70;-74.2;44.1;44.6;15;15.3;28.5;0.0;
16/02/2025 06:16:05;100;0;290.54;-4;-20.52;-4.23;454.6;14.80;76049;2837.523;-1801.265;1;288;-70;-74.2;44.1;44.5;15;15.3;28.4;0.0;
16/02/2025 06:16:25;100;0;289.21;-4;-20.32;-4.20;457.3;14.80;76044;2837.524;-1801.269;1;288;-70;-72.6;44.1;44.5;15;15.3;28.4;0.0;
16/02/2025 06:16:45;100;0;287.72;-4;-20.66;-4.19;460.0;14.80;76043;2837.525;-1801.273;1;288;-70;-72.6;44.1;44.5;15;15.3;28.4;0.0;
16/02/2025 06:17:05;100;0;289.29;-4;-20.31;-4.07;462.7;14.70;76033;2837.526;-1801.276;1;288;-70;-72.6;44.1;44.5;15;15.3;28.5;0.0;
16/02/2025 06:17:25;100;0;289.89;-4;-20.48;-4.13;465.3;14.70;76043;2837.528;-1801.280;1;288;-70;-72.6;44.1;44.5;15;15.3;28.4;0.0;
16/02/2025 06:17:45;100;0;290.92;-4;-20.72;-4.11;468.0;14.70;76030;2837.529;-1801.283;1;288;-70;-74.2;44.1;44.5;15;15.3;28.5;0.0;
16/02/2025 06:18:05;100;0;286.30;-4;-20.14;-4.21;470.7;14.60;76009;2837.530;-1801.287;1;288;-70;-72.6;44.1;44.5;15;15.3;28.5;0.0;
16/02/2025 06:18:25;100;0;284.85;-4;-20.37;-4.19;473.3;14.60;76002;2837.531;-1801.291;1;288;-70;-74.2;44.1;44.5;13;13.1;28.5;0.0;
16/02/2025 06:18:45;100;0;283.41;-4;-20.23;-5.43;475.9;14.60;76009;2837.531;-1801.294;1;288;-70;-72.6;44.1;44.5;13;13.1;28.5;0.0;
16/02/2025 06:19:05;100;0;280.32;-4;-20.25;-5.40;478.5;14.50;75998;2837.532;-1801.298;1;289;-70;-75.8;44.1;44.5;11;10.8;28.4;0.0;
16/02/2025 06:19:25;100;0;276.60;-4;-20.04;-6.46;481.0;14.50;75980;2837.532;-1801.302;1;290;-70;-74.2;44.1;44.5;7;7.2;28.5;0.0;
16/02/2025 06:19:45;100;0;277.22;-4;-19.26;-8.41;483.5;14.50;75985;2837.533;-1801.305;1;291;-70;-74.2;44.1;44.5;7;6.8;28.5;0.0;
16/02/2025 06:20:05;100;0;278.01;-4;-20.09;-8.41;485.9;14.40;75981;2837.533;-1801.309;1;293;-70;-72.6;44.1;44.5;5;5.0;28.4;0.0;
16/02/2025 06:20:25;100;0;279.52;-4;-19.97;-9.42;488.3;14.40;75974;2837.534;-1801.312;1;294;-70;-72.6;44.1;44.6;5;5.0;28.4;0.0;
16/02/2025 06:20:45;100;0;281.59;-4;-20.06;-9.46;490.8;14.40;75964;2837.534;-1801.316;1;296;-70;-72.6;44.1;44.6;5;5.0;28.5;0.0;
16/02/2025 06:21:05;100;0;280.47;-4;-19.81;-9.44;493.3;14.40;75976;2837.535;-1801.320;1;299;-70;-72.6;44.1;44.5;-1;-0.9;28.4;0.0;
16/02/2025 06:21:25;100;0;281.04;-4;-19.54;-12.41;495.8;14.40;75969;2837.536;-1801.323;1;302;-70;-72.6;44.1;44.5;-5;-5.0;28.4;0.0;
16/02/2025 06:21:45;100;0;283.80;-4;-19.67;-14.29;498.2;14.30;75964;2837.536;-1801.326;1;307;-70;-72.6;44.1;44.5;-9;-9.0;28.4;0.0;
16/02/2025 06:22:05;100;0;288.32;-4;-19.28;-16.36;500.5;14.30;75962;2837.537;-1801.330;1;313;-70;-72.6;44.1;44.5;-12;-12.2;28.4;0.0;
16/02/2025 06:22:25;100;0;294.58;-4;-19.15;-18.06;503.0;14.30;75948;2837.539;-1801.333;1;321;-70;-72.6;44.1;44.5;-15;-15.3;28.4;0.0;
16/02/2025 06:22:45;100;0;299.54;-4;-19.10;-19.38;505.2;14.30;75946;2837.540;-1801.336;1;336;-70;-72.6;44.1;44.5;-30;-29.8;28.5;0.0;
16/02/2025 06:23:05;100;0;309.61;-4;-18.70;-26.68;507.6;14.20;75935;2837.542;-1801.339;1;23;-70;-72.6;44.5;44.5;-70;-69.9;28.4;0.0;
16/02/2025 06:23:25;100;0;321.51;-4;-18.61;-45.43;510.0;14.20;75936;2837.545;-1801.341;1;107;-70;-72.6;44.9;44.9;-70;-69.9;28.4;0.0;
16/02/2025 06:23:45;100;0;335.34;-4;-20.02;-45.43;512.4;14.20;75929;2837.548;-1801.343;1;132;-70;-72.6;44.9;45.2;-70;-69.9;28.4;0.0;
16/02/2025 06:24:05;100;0;348.65;-4;-20.07;-45.42;515.0;14.20;75928;2837.551;-1801.343;1;146;-70;-72.6;44.9;45.2;-70;-69.9;28.4;0.0;
16/02/2025 06:24:25;100;0;1.03;-4;-20.23;-45.30;517.6;14.20;75922;2837.554;-1801.343;1;156;-70;-72.6;44.9;45.2;-70;-69.9;28.4;0.0;
16/02/2025 06:24:45;100;0;13.28;-4;-20.21;-45.28;520.2;14.10;75919;2837.557;-1801.342;1;164;-70;-72.6;44.9;45.2;-70;-69.9;28.5;0.0;
16/02/2025 06:25:05;100;0;25.27;-4;-20.10;-45.12;522.6;14.10;75909;2837.560;-1801.341;1;171;-70;-72.6;44.9;45.2;-70;-69.9;28.5;0.0;
16/02/2025 06:25:25;100;0;36.22;-4;-20.34;-45.31;525.1;14.10;75901;2837.563;-1801.339;1;178;-70;-72.6;44.9;45.2;-70;-69.9;28.4;0.0;
16/02/2025 06:25:45;100;0;46.80;-4;-20.62;-45.13;527.6;14.10;75899;2837.565;-1801.336;1;185;-70;-72.6;44.9;45.2;-70;-69.9;28.4;0.0;
16/02/2025 06:26:05;100;0;58.36;-4;-20.40;-45.24;530.2;14.00;75885;2837.567;-1801.333;1;191;-70;-74.2;44.9;45.2;-70;-69.9;28.5;0.0;
16/02/2025 06:26:25;100;0;70.73;-4;-20.14;-45.27;532.8;14.00;75889;2837.568;-1801.329;1;198;-70;-74.2;44.9;45.2;-70;-69.9;28.5;0.0;
16/02/2025 06:26:45;100;0;82.67;-4;-20.21;-45.24;535.4;14.00;75880;2837.568;-1801.326;1;204;-70;-74.2;44.9;45.2;-70;-69.9;28.4;0.0;
16/02/2025 06:27:05;100;0;94.09;-4;-20.44;-45.37;538.0;13.90;75864;2837.568;-1801.322;1;211;-70;-74.2;44.9;45.2;-70;-69.9;28.4;0.0;
16/02/2025 06:27:25;100;0;104.79;-4;-20.27;-45.26;540.5;13.90;75871;2837.567;-1801.318;1;217;-70;-74.2;44.9;45.2;-70;-69.9;28.4;0.0;
16/02/2025 06:27:45;100;0;116.15;-4;-20.58;-45.34;543.0;13.90;75868;2837.566;-1801.315;1;223;-70;-72.6;44.9;45.2;-70;-69.9;28.4;0.0;
16/02/2025 06:28:05;100;0;127.12;-4;-20.13;-45.17;545.6;13.90;75854;2837.564;-1801.312;1;229;-70;-74.2;44.9;45.2;-70;-69.9;28.4;0.0;
16/02/2025 06:28:25;100;0;137.71;-4;-21.23;-45.30;548.1;13.90;75862;2837.562;-1801.310;1;235;-70;-72.6;44.9;45.2;-70;-69.9;28.4;0.0;
16/02/2025 06:28:45;100;0;150.47;-4;-20.24;-45.49;550.7;13.80;75850;2837.559;-1801.308;1;241;-70;-74.2;44.9;45.2;-70;-69.9;28.4;0.0;
16/02/2025 06:29:05;100;0;162.05;-4;-20.41;-45.27;553.4;13.80;75842;2837.556;-1801.306;1;247;-70;-74.2;44.9;45.1;-70;-69.9;28.4;0.0;
16/02/2025 06:29:25;100;0;173.73;-4;-19.91;-45.23;555.9;13.80;75830;2837.552;-1801.306;1;253;-70;-74.2;44.9;45.1;-70;-69.9;28.4;0.0;
16/02/2025 06:29:45;100;0;185.48;-4;-20.04;-45.12;558.3;13.80;75829;2837.549;-1801.306;1;259;-70;-72.6;44.9;45.2;-70;-69.9;28.5;0.0;
16/02/2025 06:30:05;100;0;197.76;-4;-20.08;-45.32;560.7;13.70;75810;2837.546;-1801.307;1;265;-70;-74.2;44.9;45.2;-67;-66.8;28.4;0.0;
16/02/2025 06:30:25;100;0;209.84;-4;-20.01;-43.54;563.2;13.70;75812;2837.544;-1801.309;1;271;-70;-74.2;44.9;45.2;-60;-60.0;28.4;0.0;
16/02/2025 06:30:45;100;0;220.98;-4;-19.93;-40.04;565.6;13.70;75812;2837.541;-1801.312;1;277;-70;-72.6;44.9;45.2;-54;-54.2;28.4;0.0;
16/02/2025 06:31:05;100;0;231.71;-4;-19.83;-37.16;568.0;13.70;75800;2837.539;-1801.314;1;282;-70;-72.6;44.9;45.2;-47;-46.9;28.4;0.0;
16/02/2025 06:31:25;100;0;243.65;-4;-19.89;-33.75;570.4;13.60;75795;2837.538;-1801.317;1;288;-70;-72.6;44.9;45.4;-40;-40.2;28.4;0.0;
16/02/2025 06:31:45;100;0;255.37;-4;-19.91;-30.43;572.7;13.60;75780;2837.537;-1801.321;1;294;-70;-72.6;44.9;45.4;-33;-32.9;28.4;0.0;
16/02/2025 06:32:05;100;0;266.28;-4;-20.08;-26.93;575.1;13.60;75786;2837.537;-1801.324;1;299;-70;-74.2;44.9;45.2;-24;-23.9;28.4;0.0;
16/02/2025 06:32:25;100;0;276.39;-4;-20.39;-22.36;577.5;13.60;75780;2837.537;-1801.328;1;305;-70;-72.6;44.9;45.4;-18;-18.1;28.4;0.0;
16/02/2025 06:32:45;100;0;285.00;-4;-20.77;-19.46;580.0;13.50;75778;2837.538;-1801.331;1;313;-70;-72.6;44.9;45.2;-18;-17.6;28.4;0.0;
16/02/2025 06:33:05;100;0;293.80;-4;-20.70;-19.38;582.5;13.50;75770;2837.540;-1801.334;1;323;-70;-72.6;44.9;45.4;-18;-17.6;28.5;0.0;
16/02/2025 06:33:25;100;0;300.91;-4;-20.67;-19.38;585.2;13.50;75767;2837.541;-1801.337;1;349;-70;-72.6;44.9;45.4;-44;-44.2;28.4;0.0;
16/02/2025 06:33:45;100;0;309.91;-4;-20.42;-32.89;587.9;13.50;75760;2837.544;-1801.340;1;77;-70;-74.2;44.9;45.2;-70;-69.9;28.4;0.0;
16/02/2025 06:34:05;100;0;316.61;-4;-20.85;-45.16;590.6;13.40;75753;2837.546;-1801.343;1;114;-70;-72.6;44.9;45.4;-70;-70.4;28.5;0.0;
16/02/2025 06:34:25;100;0;324.86;-4;-21.11;-45.17;593.4;13.40;75747;2837.549;-1801.345;1;127;-70;-72.6;44.9;45.2;-70;-70.4;28.5;0.0;
16/02/2025 06:34:45;100;0;336.09;-4;-20.77;-45.37;596.1;13.40;75745;2837.552;-1801.347;1;136;-70;-72.6;44.9;45.4;-70;-70.4;28.5;0.0;
16/02/2025 06:35:05;100;0;348.61;-4;-20.05;-45.61;598.9;13.30;75739;2837.555;-1801.348;1;143;-70;-74.2;44.9;45.4;-70;-70.4;28.4;0.0;
16/02/2025 06:35:25;100;0;2.95;-4;-19.87;-45.56;601.5;13.30;75720;2837.559;-1801.347;1;151;-70;-72.6;44.9;45.2;-70;-70.4;28.4;0.0;
16/02/2025 06:35:45;100;0;15.54;-4;-19.86;-45.38;603.9;13.30;75724;2837.562;-1801.346;1;157;-70;-72.6;44.9;45.4;-70;-70.4;28.5;0.0;
16/02/2025 06:36:05;100;0;29.60;-4;-20.13;-45.59;606.4;13.30;75703;2837.565;-1801.345;1;164;-70;-74.2;44.9;45.2;-70;-70.4;28.4;0.0;
16/02/2025 06:36:25;100;0;41.79;-4;-20.64;-45.51;608.9;13.30;75698;2837.567;-1801.342;1;171;-70;-72.6;44.9;45.4;-70;-70.4;28.4;0.0;
16/02/2025 06:36:45;100;0;54.43;-4;-20.59;-45.57;611.6;13.20;75683;2837.569;-1801.339;1;178;-70;-74.2;44.9;45.2;-70;-70.4;28.4;0.0;
16/02/2025 06:37:05;100;0;67.03;-4;-20.40;-45.55;614.3;13.20;75674;2837.570;-1801.335;1;185;-70;-74.2;44.9;45.4;-70;-70.4;28.4;0.0;
16/02/2025 06:37:25;100;0;79.90;-4;-20.22;-45.49;617.1;13.20;75666;2837.571;-1801.331;1;192;-70;-72.6;44.9;45.2;-70;-70.4;28.4;0.0;
16/02/2025 06:37:45;100;0;92.72;-4;-20.23;-45.56;619.7;13.20;75668;2837.571;-1801.328;1;199;-70;-74.2;44.9;45.4;-70;-70.4;28.4;0.0;
16/02/2025 06:38:05;100;0;102.57;-4;-20.19;-45.40;622.5;13.10;75660;2837.570;-1801.324;1;206;-70;-74.2;44.9;45.2;-70;-70.4;28.4;0.0;
16/02/2025 06:38:26;100;0;111.73;-4;-20.39;-45.33;625.2;13.10;75651;2837.569;-1801.320;1;213;-70;-72.6;44.9;45.2;-70;-70.4;28.5;0.0;
16/02/2025 06:38:46;100;0;122.66;-4;-20.29;-45.37;627.9;13.10;75649;2837.567;-1801.317;1;219;-70;-72.6;44.9;45.2;-70;-70.4;28.5;0.0;
16/02/2025 06:39:06;100;0;133.47;-4;-20.38;-45.45;630.6;13.10;75642;2837.564;-1801.314;1;226;-70;-72.6;44.9;45.2;-70;-70.4;28.5;0.0;
16/02/2025 06:39:26;100;0;145.29;-4;-20.09;-45.50;633.3;13.00;75635;2837.562;-1801.311;1;233;-70;-74.2;44.9;45.2;-70;-70.4;28.5;0.0;
16/02/2025 06:39:46;100;0;155.64;-4;-20.31;-45.42;636.0;13.00;75627;2837.558;-1801.310;1;240;-70;-74.2;44.9;45.4;-70;-70.4;28.4;0.0;
16/02/2025 06:40:06;100;0;166.22;-4;-20.33;-45.50;638.7;13.00;75622;2837.555;-1801.309;1;247;-70;-72.6;44.9;45.2;-70;-70.4;28.5;0.0;
16/02/2025 06:40:26;100;0;177.21;-4;-20.14;-45.54;641.4;12.90;75615;2837.552;-1801.309;1;253;-70;-72.6;44.9;45.2;-70;-70.4;28.4;0.0;
16/02/2025 06:40:46;100;0;188.42;-4;-20.47;-45.34;644.1;12.90;75616;2837.548;-1801.309;1;261;-70;-74.2;44.9;45.2;-70;-70.4;28.5;0.0;
16/02/2025 06:41:06;100;0;200.73;-4;-20.15;-45.54;646.8;12.90;75612;2837.545;-1801.311;1;268;-70;-72.6;44.9;45.2;-68;-67.7;28.4;0.0;
16/02/2025 06:41:26;100;0;211.89;-4;-20.49;-43.83;649.5;12.90;75610;2837.542;-1801.313;1;275;-70;-72.6;44.9;45.2;-63;-63.2;28.4;0.0;
16/02/2025 06:41:46;100;0;225.78;-4;-19.90;-41.73;652.2;12.80;75607;2837.540;-1801.316;1;282;-70;-74.2;44.9;45.2;-54;-53.7;28.4;0.0;
16/02/2025 06:42:06;100;0;237.42;-4;-19.62;-36.99;654.8;12.80;75585;2837.538;-1801.319;1;290;-70;-74.2;44.9;45.4;-50;-50.1;28.4;0.0;
16/02/2025 06:42:26;100;0;248.31;-4;-19.73;-35.37;657.3;12.80;75592;2837.537;-1801.322;1;298;-70;-72.6;44.9;45.4;-46;-46.0;28.4;0.0;
16/02/2025 06:42:46;100;0;260.28;-4;-19.59;-33.23;659.8;12.80;75585;2837.536;-1801.326;1;306;-70;-72.6;44.9;45.2;-42;-42.0;28.4;0.0;
16/02/2025 06:43:06;100;0;271.92;-4;-19.82;-31.36;662.3;12.70;75580;2837.536;-1801.329;1;315;-70;-74.2;44.9;45.4;-38;-37.9;28.5;0.0;
16/02/2025 06:43:26;100;0;283.10;-4;-19.62;-29.51;664.7;12.70;75563;2837.537;-1801.333;1;326;-70;-72.6;44.9;45.2;-38;-37.9;28.5;0.0;
16/02/2025 06:43:46;100;0;294.69;-4;-19.59;-29.45;667.0;12.70;75564;2837.538;-1801.336;1;341;-70;-75.8;44.9;45.2;-42;-42.0;28.4;0.0;
16/02/2025 06:44:06;100;0;306.43;-4;-19.66;-31.86;669.4;12.70;75568;2837.540;-1801.339;1;7;-70;-72.6;44.9;45.2;-60;-60.5;28.4;0.0;
16/02/2025 06:44:26;100;0;318.96;-4;-19.59;-40.75;672.0;12.60;75561;2837.543;-1801.341;1;63;-70;-74.2;44.9;45.2;-70;-69.9;28.4;0.0;
16/02/2025 06:44:46;100;0;331.14;-4;-20.39;-45.44;674.5;12.60;75564;2837.545;-1801.343;1;109;-70;-72.6;44.9;45.2;-70;-70.4;28.4;0.0;
16/02/2025 06:45:06;100;0;342.72;-4;-19.89;-45.52;677.1;12.60;75558;2837.549;-1801.344;1;132;-70;-74.2;44.9;45.2;-70;-70.4;28.4;0.0;
16/02/2025 06:45:26;100;0;354.75;-4;-20.15;-45.51;679.8;12.60;75547;2837.552;-1801.344;1;146;-70;-72.6;44.9;45.2;-70;-70.4;28.4;0.0;
16/02/2025 06:45:46;100;0;6.32;-4;-20.33;-45.73;682.5;12.50;75554;2837.556;-1801.344;1;156;-70;-71.0;44.9;45.2;-70;-70.4;28.4;0.0;
16/02/2025 06:46:06;100;0;19.39;-4;-19.85;-45.46;685.2;12.50;75538;2837.559;-1801.342;1;165;-70;-74.2;44.9;45.4;-70;-70.4;28.4;0.0;
16/02/2025 06:46:26;100;0;34.15;-4;-20.14;-45.92;688.0;12.50;75534;2837.562;-1801.340;1;174;-70;-74.2;44.9;45.2;-70;-70.4;28.4;0.0;
16/02/2025 06:46:46;100;0;47.46;-4;-19.67;-45.69;690.8;12.50;75528;2837.564;-1801.337;1;182;-70;-72.6;44.9;45.2;-70;-70.4;28.4;0.0;
16/02/2025 06:47:06;100;0;60.38;-4;-19.83;-45.64;693.5;12.40;75526;2837.566;-1801.334;1;190;-70;-72.6;44.9;45.2;-70;-70.4;28.5;0.0;
16/02/2025 06:47:26;100;0;74.46;-4;-19.96;-45.80;696.2;12.40;75516;2837.567;-1801.330;1;197;-70;-72.6;44.9;45.4;-70;-70.4;28.4;0.0;
16/02/2025 06:47:46;100;0;87.55;-4;-20.00;-45.66;699.0;12.40;75515;2837.567;-1801.326;1;205;-70;-74.2;44.9;45.2;-70;-70.4;28.5;0.0;
16/02/2025 06:48:06;100;0;100.44;-4;-19.81;-45.76;701.9;12.40;75502;2837.566;-1801.322;1;213;-70;-72.6;44.9;45.2;-70;-70.4;28.4;0.0;
16/02/2025 06:48:26;100;0;113.23;-4;-19.73;-45.74;704.6;12.40;75511;2837.565;-1801.318;1;220;-70;-74.2;44.9;45.4;-70;-70.4;28.4;0.0;
16/02/2025 06:48:46;100;0;124.82;-4;-20.08;-45.60;707.3;12.30;75494;2837.563;-1801.315;1;227;-70;-74.2;44.9;45.2;-70;-70.4;28.4;0.0;
16/02/2025 06:49:06;100;0;135.47;-4;-20.10;-45.62;710.0;12.30;75492;2837.561;-1801.312;1;234;-70;-74.2;44.9;45.4;-70;-70.4;28.4;0.0;
16/02/2025 06:49:26;100;0;146.68;-4;-20.03;-45.47;712.8;12.30;75490;2837.558;-1801.310;1;241;-70;-75.8;44.9;45.2;-70;-70.4;28.4;0.0;
16/02/2025 06:49:46;100;0;156.10;-4;-20.20;-45.50;715.5;12.30;75472;2837.554;-1801.308;1;248;-70;-74.2;44.9;45.2;-70;-70.4;28.4;0.0;
16/02/2025 06:50:06;100;0;168.65;-4;-19.64;-45.65;718.2;12.20;75474;2837.551;-1801.307;1;255;-70;-74.2;44.9;45.2;-70;-70.4;28.4;0.0;
16/02/2025 06:50:26;100;0;180.45;-4;-19.76;-45.71;720.9;12.20;75464;2837.548;-1801.307;1;262;-70;-74.2;44.9;45.4;-70;-70.4;28.4;0.0;
16/02/2025 06:50:46;100;0;191.29;-4;-19.73;-45.75;723.5;12.20;75448;2837.545;-1801.308;1;269;-70;-72.6;44.9;45.2;-70;-70.4;28.5;0.0;
16/02/2025 06:51:06;100;0;203.40;-4;-19.72;-45.53;726.1;12.10;75442;2837.541;-1801.310;1;276;-70;-72.6;44.9;45.2;-70;-70.4;28.4;0.0;
16/02/2025 06:51:26;100;0;212.61;-4;-20.72;-45.42;728.7;12.10;75438;2837.539;-1801.311;1;283;-70;-72.6;44.9;45.4;-70;-70.4;28.4;0.0;
16/02/2025 06:51:46;100;0;223.59;-4;-20.19;-45.22;731.4;12.10;75416;2837.536;-1801.314;1;290;-70;-72.6;44.9;45.2;-67;-66.8;28.4;0.0;
16/02/2025 06:52:06;100;0;234.02;-4;-19.82;-43.50;734.1;12.10;75406;2837.534;-1801.317;1;298;-70;-74.2;44.9;45.4;-64;-64.1;28.5;0.0;
16/02/2025 06:52:26;100;0;245.87;-4;-19.86;-41.96;736.7;12.10;75410;2837.533;-1801.321;1;306;-70;-72.6;44.9;45.4;-59;-59.1;28.4;0.0;
16/02/2025 06:52:46;100;0;256.35;-4;-19.68;-39.58;739.4;12.00;75404;2837.532;-1801.325;1;315;-70;-72.6;44.9;45.2;-57;-56.9;28.4;0.0;
16/02/2025 06:53:06;100;0;268.66;-4;-19.60;-38.77;741.9;12.00;75399;2837.532;-1801.328;1;325;-70;-75.8;44.9;45.2;-54;-53.7;28.4;0.0;
16/02/2025 06:53:26;100;0;279.75;-4;-19.30;-37.12;744.5;12.00;75393;2837.533;-1801.332;1;336;-70;-75.8;44.9;45.2;-54;-53.7;28.4;0.0;
16/02/2025 06:53:46;100;0;292.00;-4;-19.38;-37.36;747.1;11.90;75384;2837.534;-1801.336;1;349;-70;-75.8;44.9;45.2;-54;-53.7;28.4;0.0;
16/02/2025 06:54:06;100;0;304.98;-4;-19.45;-37.34;749.5;11.90;75374;2837.536;-1801.339;1;5;-70;-72.6;44.9;45.2;-59;-59.1;28.4;0.0;
16/02/2025 06:54:26;100;0;317.61;-4;-19.75;-40.29;752.0;11.90;75378;2837.538;-1801.341;1;25;-70;-74.2;44.9;45.2;-68;-68.1;28.4;0.0;
16/02/2025 06:54:46;100;0;330.01;-4;-19.97;-44.67;754.6;11.90;75366;2837.541;-1801.343;1;55;-70;-74.2;44.9;45.4;-70;-69.9;28.4;0.0;
16/02/2025 06:55:06;100;0;342.36;-4;-19.91;-45.66;757.2;11.80;75363;2837.544;-1801.344;1;92;-70;-74.2;44.9;45.4;-70;-69.9;28.4;0.0;
16/02/2025 06:55:26;100;0;355.67;-4;-19.64;-45.66;759.8;11.80;75356;2837.548;-1801.344;1;122;-70;-75.8;44.9;45.4;-70;-69.9;28.5;0.0;
16/02/2025 06:55:46;100;0;7.91;-4;-19.83;-45.51;762.4;11.80;75355;2837.551;-1801.344;1;143;-70;-74.2;44.9;45.4;-70;-69.9;28.5;0.0;
16/02/2025 06:56:06;100;0;20.02;-4;-20.04;-45.47;765.0;11.80;75356;2837.554;-1801.343;1;158;-70;-72.6;44.9;45.4;-70;-70.4;28.4;0.0;
16/02/2025 06:56:26;100;0;32.37;-4;-19.87;-45.35;767.6;11.80;75337;2837.557;-1801.341;1;170;-70;-74.2;44.9;45.4;-70;-69.9;28.4;0.0;
16/02/2025 06:56:46;100;0;43.31;-4;-20.07;-45.62;770.2;11.70;75344;2837.559;-1801.338;1;180;-70;-72.6;44.9;45.2;-70;-69.9;28.4;0.0;
16/02/2025 06:57:06;100;0;55.31;-4;-19.83;-45.54;772.8;11.70;75337;2837.561;-1801.335;1;189;-70;-74.2;44.9;45.2;-70;-69.9;28.4;0.0;
16/02/2025 06:57:26;100;0;63.62;-4;-20.28;-45.36;775.5;11.70;75325;2837.563;-1801.331;1;198;-70;-74.2;44.9;45.2;-70;-69.9;28.4;0.0;
16/02/2025 06:57:46;100;0;73.81;-4;-20.22;-45.48;778.2;11.60;75319;2837.564;-1801.327;1;205;-70;-74.2;44.9;45.2;-70;-70.4;28.4;0.0;
16/02/2025 06:58:06;100;0;84.91;-4;-19.82;-45.53;780.9;11.60;75319;2837.564;-1801.324;1;212;-70;-72.6;44.9;45.2;-70;-70.4;28.4;0.0;
16/02/2025 06:58:26;100;0;95.94;-4;-19.90;-45.45;783.5;11.60;75326;2837.564;-1801.320;1;219;-70;-74.2;44.9;45.4;-70;-69.9;28.4;0.0;
16/02/2025 06:58:46;100;0;107.06;-4;-19.93;-45.42;786.2;11.60;75315;2837.563;-1801.316;1;226;-70;-74.2;44.9;45.2;-70;-69.9;28.4;0.0;
16/02/2025 06:59:06;100;0;118.52;-4;-19.79;-45.49;788.9;11.60;75315;2837.561;-1801.312;1;233;-70;-72.6;44.9;45.2;-70;-70.4;28.4;0.0;
16/02/2025 06:59:26;100;0;128.80;-4;-19.88;-45.49;791.7;11.50;75321;2837.559;-1801.309;1;239;-70;-72.6;44.9;45.2;-70;-70.4;28.4;0.0;
16/02/2025 06:59:46;100;0;140.03;-4;-19.81;-45.45;794.4;11.50;75314;2837.556;-1801.307;1;246;-70;-72.6;44.9;45.4;-70;-69.9;28.4;0.0;
16/02/2025 07:00:06;100;0;151.24;-4;-19.69;-45.54;797.2;11.50;75307;2837.553;-1801.305;1;253;-70;-74.2;44.9;45.4;-70;-70.4;28.5;0.0;
16/02/2025 07:00:26;100;0;163.34;-4;-19.30;-45.57;799.9;11.50;75302;2837.550;-1801.304;1;259;-70;-75.8;44.9;45.4;-70;-70.4;28.5;0.0;
16/02/2025 07:00:46;100;0;175.60;-4;-19.71;-45.50;802.7;11.50;75303;2837.546;-1801.303;1;266;-70;-72.6;44.9;45.2;-70;-69.9;28.5;0.0;
16/02/2025 07:01:06;100;0;187.49;-4;-19.76;-45.52;805.4;11.50;75306;2837.543;-1801.304;1;273;-70;-72.6;44.9;45.4;-70;-69.9;28.4;0.0;
16/02/2025 07:01:26;100;0;200.01;-4;-19.79;-45.67;808.2;11.40;75295;2837.539;-1801.305;1;279;-70;-74.2;44.9;45.2;-70;-70.4;28.4;0.0;
16/02/2025 07:01:46;100;0;211.66;-4;-19.71;-45.51;811.1;11.40;75288;2837.536;-1801.307;1;286;-70;-72.6;44.9;45.2;-70;-70.4;28.4;0.0;
16/02/2025 07:02:06;100;0;222.99;-4;-19.91;-45.38;814.0;11.40;75291;2837.533;-1801.310;1;293;-70;-72.6;44.9;45.4;-70;-70.4;28.4;0.0;
16/02/2025 07:02:26;100;0;234.72;-4;-19.96;-45.64;816.9;11.30;75286;2837.531;-1801.314;1;301;-70;-74.2;44.9;45.2;-66;-65.4;28.4;0.0;
16/02/2025 07:02:46;100;0;246.49;-4;-20.06;-42.94;819.7;11.30;75288;2837.530;-1801.317;1;308;-70;-72.6;44.9;45.2;-61;-60.9;28.4;0.0;
16/02/2025 07:03:06;100;0;258.23;-4;-18.94;-40.68;822.7;11.30;75286;2837.529;-1801.322;1;317;-70;-74.2;45.3;45.2;-57;-56.9;28.4;0.0;
16/02/2025 07:03:26;100;0;272.65;-4;-18.65;-38.38;825.5;11.30;75284;2837.529;-1801.326;1;325;-70;-72.6;45.7;45.8;-50;-50.1;28.4;0.0;
16/02/2025 07:03:46;100;0;284.40;-4;-20.14;-35.21;828.3;11.30;75284;2837.530;-1801.330;1;333;-70;-72.6;45.7;45.8;-45;-45.1;28.4;0.0;
16/02/2025 07:04:06;100;0;295.91;-4;-20.94;-32.81;831.2;11.20;75275;2837.532;-1801.334;1;343;-70;-74.2;45.7;45.8;-43;-42.9;28.4;0.0;
16/02/2025 07:04:26;100;0;308.16;-4;-20.61;-31.72;834.2;11.20;75273;2837.534;-1801.337;1;355;-70;-74.2;45.7;45.8;-43;-42.4;28.4;0.0;
16/02/2025 07:04:46;100;0;321.66;-4;-19.74;-31.56;837.2;11.20;75284;2837.537;-1801.340;1;12;-70;-72.6;45.7;45.9;-47;-46.9;28.4;0.0;
16/02/2025 07:05:06;100;0;333.30;-4;-20.70;-34.30;840.1;11.20;75272;2837.540;-1801.342;1;40;-70;-74.2;45.7;45.8;-67;-66.8;28.4;0.0;
16/02/2025 07:05:26;100;0;345.38;-4;-20.83;-44.05;843.1;11.20;75273;2837.544;-1801.343;1;88;-70;-72.6;45.7;45.8;-70;-69.9;28.4;0.0;
16/02/2025 07:05:46;100;0;357.83;-4;-20.70;-45.48;846.1;11.20;75269;2837.548;-1801.343;1;131;-70;-72.6;45.7;45.8;-70;-69.9;28.4;0.0;
16/02/2025 07:06:06;100;0;10.47;-4;-21.29;-45.39;849.1;11.10;75258;2837.551;-1801.342;1;155;-70;-72.6;45.7;45.8;-70;-69.9;28.4;0.0;
16/02/2025 07:06:26;100;0;22.96;-4;-21.34;-45.49;852.1;11.10;75262;2837.555;-1801.340;1;170;-70;-74.2;45.7;45.9;-70;-69.9;28.4;0.0;
16/02/2025 07:06:46;100;0;34.98;-4;-20.74;-45.57;855.4;11.10;75266;2837.558;-1801.338;1;181;-70;-74.2;45.7;45.9;-70;-69.9;28.5;0.0;
16/02/2025 07:07:06;100;0;47.03;-4;-21.11;-45.27;858.5;11.10;75258;2837.561;-1801.334;1;191;-70;-72.6;45.7;45.9;-70;-69.9;28.5;0.0;
16/02/2025 07:07:26;100;0;59.21;-4;-20.92;-45.37;861.8;11.10;75258;2837.563;-1801.330;1;200;-70;-74.2;45.7;45.8;-70;-69.9;28.4;0.0;
16/02/2025 07:07:46;100;0;71.80;-4;-20.85;-45.36;864.9;11.10;75268;2837.564;-1801.326;1;207;-70;-72.6;45.7;45.9;-70;-69.9;28.4;0.0;
16/02/2025 07:08:06;100;0;80.74;-4;-21.26;-45.22;868.3;11.00;75250;2837.565;-1801.322;1;215;-70;-74.2;45.7;45.9;-70;-69.9;28.4;0.0;
16/02/2025 07:08:26;100;0;92.11;-4;-21.53;-45.50;871.4;11.00;75246;2837.565;-1801.317;1;222;-70;-74.2;45.7;45.8;-70;-69.9;28.4;0.0;
16/02/2025 07:08:46;100;0;103.57;-4;-21.34;-45.55;874.8;11.00;75241;2837.564;-1801.313;1;229;-70;-72.6;45.7;45.8;-70;-69.9;28.4;0.0;
16/02/2025 07:09:06;100;0;113.11;-4;-20.71;-45.42;878.1;11.00;75240;2837.562;-1801.308;1;235;-70;-74.2;45.7;45.9;-70;-69.9;28.4;0.0;
16/02/2025 07:09:26;100;0;124.74;-4;-21.22;-45.39;881.2;11.00;75246;2837.560;-1801.305;1;242;-70;-74.2;45.7;45.8;-70;-69.9;28.4;0.0;
16/02/2025 07:09:46;100;0;133.55;-4;-20.71;-45.46;884.5;11.00;75241;2837.557;-1801.301;1;248;-70;-72.6;45.7;45.8;-70;-69.9;28.5;0.0;
16/02/2025 07:10:06;100;0;146.88;-4;-22.07;-45.38;887.5;10.90;75228;2837.554;-1801.299;1;254;-70;-74.2;45.0;45.1;-70;-69.9;28.4;0.0;
16/02/2025 07:10:26;100;0;156.03;-4;-19.64;-45.47;890.7;10.90;75230;2837.550;-1801.297;1;260;-70;-74.2;45.0;44.9;-70;-69.9;28.4;0.0;
16/02/2025 07:10:46;100;0;163.98;-4;-19.85;-45.46;893.6;10.90;75209;2837.547;-1801.296;1;266;-70;-72.6;45.0;44.9;-70;-69.9;28.4;0.0;
16/02/2025 07:11:06;100;0;176.28;-4;-19.12;-45.34;896.6;10.90;75207;2837.543;-1801.296;1;272;-70;-74.2;45.0;44.9;-70;-69.9;28.4;0.0;
16/02/2025 07:11:26;100;0;185.38;-4;-19.51;-45.40;899.4;10.90;75210;2837.539;-1801.296;1;277;-70;-72.6;45.0;44.9;-70;-69.9;28.4;0.0;
16/02/2025 07:11:46;100;0;196.68;-4;-19.02;-45.50;902.3;10.80;75198;2837.536;-1801.297;1;283;-70;-74.2;45.0;44.9;-70;-69.9;28.4;0.0;
16/02/2025 07:12:06;100;0;209.00;-4;-19.33;-45.57;905.2;10.80;75185;2837.532;-1801.299;1;289;-70;-74.2;45.0;44.9;-70;-69.9;28.4;0.0;
16/02/2025 07:12:26;100;0;221.45;-4;-19.30;-45.55;908.0;10.80;75191;2837.529;-1801.302;1;295;-70;-72.6;45.0;44.9;-70;-69.9;28.5;0.0;
16/02/2025 07:12:46;100;0;231.98;-4;-18.57;-45.50;910.9;10.80;75186;2837.527;-1801.306;1;301;-70;-72.6;45.5;45.5;-70;-69.9;28.5;0.0;
16/02/2025 07:13:07;100;0;242.61;-4;-21.09;-45.13;913.6;10.80;75187;2837.526;-1801.309;1;306;-70;-74.2;45.5;45.8;-63;-63.2;28.4;0.0;
16/02/2025 07:13:27;100;0;255.66;-4;-20.22;-41.64;916.4;10.80;75183;2837.525;-1801.313;1;311;-70;-75.8;45.5;45.8;-53;-52.8;28.4;0.0;
16/02/2025 07:13:47;100;0;268.77;-4;-19.90;-36.49;919.2;10.70;75175;2837.525;-1801.317;1;317;-70;-74.2;45.5;45.8;-45;-45.1;28.5;0.0;
16/02/2025 07:14:07;100;0;279.81;-4;-19.43;-32.79;922.2;10.70;75174;2837.525;-1801.321;1;322;-70;-72.6;45.5;45.8;-37;-37.0;28.5;0.0;
16/02/2025 07:14:27;100;0;291.01;-4;-20.18;-28.98;924.9;10.70;75169;2837.527;-1801.325;1;327;-70;-72.6;45.5;45.8;-29;-28.4;28.4;0.0;
16/02/2025 07:14:47;100;0;301.11;-4;-20.20;-24.75;927.9;10.70;75159;2837.529;-1801.329;1;333;-70;-75.8;45.5;45.8;-23;-23.0;28.4;0.0;
16/02/2025 07:15:07;100;0;309.41;-4;-20.73;-21.99;930.8;10.70;75159;2837.531;-1801.332;1;338;-70;-74.2;45.5;45.8;-18;-17.6;28.4;0.0;
16/02/2025 07:15:27;100;0;318.57;-4;-20.12;-19.43;933.8;10.60;75162;2837.534;-1801.335;1;345;-70;-72.6;45.5;45.8;-15;-14.4;28.4;0.0;
16/02/2025 07:15:47;100;0;327.40;-4;-20.84;-18.14;936.6;10.60;75149;2837.537;-1801.337;1;353;-70;-72.6;45.5;45.8;-13;-12.6;28.4;0.0;
16/02/2025 07:16:07;100;0;336.95;-4;-20.05;-17.28;939.5;10.60;75159;2837.540;-1801.339;1;8;-70;-72.6;45.5;45.8;-22;-22.1;28.4;0.0;
16/02/2025 07:16:27;100;0;345.51;-4;-20.20;-22.46;942.4;10.60;75142;2837.544;-1801.340;1;79;-70;-74.2;45.5;45.8;-70;-69.9;28.4;0.0;
16/02/2025 07:16:47;100;0;354.37;-4;-20.59;-45.55;945.3;10.60;75149;2837.547;-1801.340;1;151;-70;-72.6;45.5;45.8;-70;-69.9;28.5;0.0;
16/02/2025 07:17:07;100;0;6.57;-4;-20.65;-45.67;948.2;10.50;75144;2837.551;-1801.340;1;168;-70;-72.6;45.5;45.8;-70;-69.9;28.4;0.0;
16/02/2025 07:17:27;100;0;16.04;-4;-21.09;-45.31;951.1;10.50;75136;2837.554;-1801.338;1;178;-70;-74.2;45.5;45.9;-70;-69.9;28.4;0.0;
16/02/2025 07:17:47;100;0;28.91;-4;-20.60;-45.32;953.9;10.50;75143;2837.557;-1801.337;1;186;-70;-72.6;45.5;45.8;-70;-69.9;28.4;0.0;
16/02/2025 07:18:07;100;0;40.47;-4;-20.57;-45.23;956.8;10.50;75136;2837.560;-1801.334;1;193;-70;-72.6;45.5;45.8;-70;-69.9;28.5;0.0;
16/02/2025 07:18:27;100;0;52.58;-4;-20.04;-45.43;959.7;10.50;75126;2837.562;-1801.331;1;200;-70;-72.6;45.5;45.8;-70;-69.9;28.4;0.0;
16/02/2025 07:18:47;100;0;64.69;-4;-20.71;-45.60;962.5;10.50;75132;2837.564;-1801.327;1;206;-70;-72.6;45.5;45.8;-70;-69.9;28.4;0.0;
16/02/2025 07:19:07;100;0;76.96;-4;-19.80;-45.37;965.4;10.50;75127;2837.565;-1801.323;1;213;-70;-72.6;45.5;45.8;-70;-69.9;28.4;0.0;
16/02/2025 07:19:27;100;0;88.85;-4;-21.03;-45.47;968.1;10.50;75144;2837.565;-1801.319;1;219;-70;-72.6;45.5;45.8;-70;-69.9;28.4;0.0;
16/02/2025 07:19:47;100;0;99.10;-4;-20.77;-45.40;970.9;10.40;75137;2837.564;-1801.315;1;225;-70;-72.6;45.5;45.9;-70;-69.9;28.4;0.0;
16/02/2025 07:20:07;100;0;109.47;-4;-20.60;-45.28;973.5;10.40;75118;2837.563;-1801.312;1;230;-70;-72.6;45.5;45.8;-70;-69.9;28.4;0.0;
16/02/2025 07:20:27;100;0;120.22;-4;-21.13;-45.49;976.2;10.40;75120;2837.562;-1801.308;1;236;-70;-72.6;45.5;45.8;-70;-69.9;28.4;0.0;
16/02/2025 07:20:47;100;0;132.22;-4;-20.61;-45.50;978.7;10.40;75117;2837.559;-1801.306;1;241;-70;-74.2;45.5;45.8;-70;-70.4;28.5;0.0;
16/02/2025 07:21:07;100;0;142.61;-4;-20.26;-45.21;981.2;10.40;75106;2837.557;-1801.303;1;247;-70;-72.6;45.5;45.8;-70;-69.9;28.4;0.0;
16/02/2025 07:21:27;100;0;153.87;-4;-21.11;-45.56;983.8;10.30;75105;2837.554;-1801.302;1;252;-70;-72.6;45.5;45.8;-70;-69.9;28.4;0.0;
16/02/2025 07:21:47;100;0;163.71;-4;-20.64;-45.45;986.3;10.30;75095;2837.551;-1801.301;1;258;-70;-72.6;45.5;45.8;-70;-69.9;28.4;0.0;
16/02/2025 07:22:07;100;0;176.00;-4;-20.64;-45.07;988.8;10.30;75099;2837.548;-1801.301;1;263;-70;-72.6;45.5;45.8;-70;-69.9;28.4;0.0;
16/02/2025 07:22:27;100;0;185.44;-4;-20.66;-45.55;991.4;10.30;75097;2837.545;-1801.301;1;268;-70;-75.8;45.5;45.8;-70;-69.9;28.4;0.0;
16/02/2025 07:22:47;100;0;196.60;-4;-20.96;-45.53;994.0;10.30;75097;2837.542;-1801.302;1;274;-70;-74.2;45.5;45.8;-70;-69.9;28.5;0.0;
16/02/2025 07:23:07;100;0;207.73;-4;-20.86;-45.65;996.7;10.30;75092;2837.539;-1801.304;1;280;-70;-72.6;45.5;45.8;-70;-69.9;28.4;0.0;
16/02/2025 07:23:24;118;0;218.86;-4;-20.60;-45.58;999.1;10.30;75096;2837.537;-1801.306;1;285;230;-69.4;28.5;28.4;9;9.0;28.4;0.0;
16/02/2025 07:23:34;118;0;138.80;-4;-7.03;-8.10;1000.1;10.20;75066;2837.535;-1801.304;1;287;230;58.1;28.5;28.4;9;9.0;27.0;-1.0;
16/02/2025 07:23:44;118;0;111.68;-4;12.19;-7.80;1000.4;10.20;74804;2837.535;-1801.304;1;287;230;182.3;28.5;28.1;9;9.0;27.3;-1.0;
16/02/2025 07:23:54;118;0;109.21;-4;15.72;-8.06;1000.1;10.20;74544;2837.535;-1801.304;1;287;230;232.3;28.5;28.1;9;9.0;27.2;-1.0;
16/02/2025 07:24:04;118;0;228.76;-4;14.52;-7.87;999.4;10.20;74471;2837.534;-1801.304;1;288;230;232.3;28.5;28.1;9;9.0;28.4;-1.0;
16/02/2025 07:24:24;117;0;221.00;-4;13.39;-7.91;998.2;10.30;74473;2837.533;-1801.306;1;292;230;232.3;28.5;28.1;9;9.0;28.4;-1.0;
16/02/2025 07:24:44;117;0;215.70;-4;13.01;-7.88;996.9;10.30;74475;2837.531;-1801.307;1;295;230;232.3;26.4;26.2;70;69.9;28.4;-1.0;
16/02/2025 07:25:04;117;0;219.47;-4;21.75;24.52;995.2;10.30;74470;2837.530;-1801.309;1;299;230;232.3;26.4;25.8;70;70.4;28.4;-1.0;
16/02/2025 07:25:24;117;0;229.23;-4;24.24;24.93;992.9;10.30;74475;2837.528;-1801.311;1;304;230;233.9;27.7;27.7;70;70.4;28.4;-1.0;
16/02/2025 07:25:44;117;0;241.31;-4;19.97;24.97;990.3;10.20;74468;2837.527;-1801.314;1;310;230;233.9;27.7;28.0;70;70.4;28.4;-1.0;
16/02/2025 07:26:04;117;0;253.66;-4;19.03;24.94;987.9;10.20;74469;2837.526;-1801.318;1;316;230;232.3;27.7;27.8;70;70.4;28.4;-1.0;
16/02/2025 07:26:24;117;0;263.22;-4;18.82;24.88;985.5;10.20;74457;2837.525;-1801.321;1;322;230;230.6;27.4;27.4;70;70.4;28.4;-1.0;
16/02/2025 07:26:44;117;0;273.10;-4;20.13;24.61;983.1;10.20;74452;2837.525;-1801.325;1;328;230;232.3;27.4;26.8;70;70.4;28.4;-1.0;
16/02/2025 07:27:04;117;0;282.84;-4;20.64;24.79;980.5;10.20;74445;2837.526;-1801.328;1;334;230;230.6;27.4;27.0;70;70.4;28.5;-1.0;
16/02/2025 07:27:24;117;0;292.01;-4;20.43;24.73;977.8;10.10;74446;2837.528;-1801.332;1;342;230;232.3;27.4;26.8;70;70.4;28.4;-1.0;
16/02/2025 07:27:44;117;0;302.47;-4;20.06;24.59;975.1;10.10;74456;2837.529;-1801.335;1;350;230;232.3;27.4;27.0;70;69.9;28.4;-1.0;
16/02/2025 07:28:04;117;0;311.74;-4;20.06;24.69;972.7;10.10;74437;2837.531;-1801.338;1;359;230;232.3;27.4;26.8;70;69.9;28.4;-1.0;
16/02/2025 07:28:24;117;0;321.01;-4;20.33;24.46;970.3;10.10;74441;2837.534;-1801.340;1;9;230;232.3;27.4;26.8;70;70.4;28.4;-1.0;
16/02/2025 07:28:44;117;0;329.53;-4;20.55;24.76;967.8;10.10;74437;2837.537;-1801.342;1;24;230;232.3;27.4;26.8;70;70.4;28.4;-1.0;
16/02/2025 07:29:04;117;0;339.37;-4;20.27;24.71;965.4;10.10;74435;2837.539;-1801.343;1;44;230;232.3;27.4;27.0;70;69.9;28.4;-1.0;
16/02/2025 07:29:24;117;0;348.96;-4;20.27;24.73;963.0;10.00;74431;2837.542;-1801.344;1;73;230;232.3;27.4;27.0;70;70.4;28.4;-1.0;
16/02/2025 07:29:44;117;0;355.03;-4;20.67;24.83;960.7;10.00;74427;2837.545;-1801.344;1;105;230;232.3;27.4;26.8;70;70.4;28.4;-1.0;
16/02/2025 07:30:04;117;0;2.58;-4;20.50;24.67;958.2;10.00;74430;2837.548;-1801.344;1;132;230;233.9;27.4;26.8;70;70.4;28.4;-1.0;
16/02/2025 07:30:24;117;0;10.70;-4;20.41;24.88;955.7;10.00;74437;2837.552;-1801.343;1;150;230;232.3;27.4;27.0;70;70.4;28.4;-1.0;
16/02/2025 07:30:44;117;0;19.52;-4;20.44;24.65;953.3;10.00;74437;2837.555;-1801.342;1;163;230;232.3;27.4;26.8;70;70.4;28.4;-1.0;
16/02/2025 07:31:04;117;0;29.91;-4;20.85;24.88;950.8;10.00;74431;2837.557;-1801.340;1;172;230;233.9;27.4;26.8;70;70.4;28.4;-1.0;
16/02/2025 07:31:24;117;0;39.91;-4;20.07;24.81;948.5;10.00;74429;2837.560;-1801.338;1;180;230;232.3;27.4;26.8;70;69.9;28.4;-1.0;
16/02/2025 07:31:44;117;0;48.53;-4;20.36;24.67;946.1;10.00;74427;2837.562;-1801.335;1;188;230;232.3;27.4;26.8;70;70.4;28.4;-1.0;
16/02/2025 07:32:04;117;0;56.90;-4;20.36;24.77;943.9;9.90;74422;2837.563;-1801.332;1;194;230;232.3;27.4;26.8;70;70.4;28.4;-1.0;
16/02/2025 07:32:24;117;0;66.04;-4;20.06;24.48;941.6;9.90;74428;2837.564;-1801.329;1;200;230;232.3;27.4;27.0;70;70.4;28.4;-1.0;
16/02/2025 07:32:44;117;0;75.71;-4;20.65;24.81;939.5;9.90;74412;2837.565;-1801.327;1;205;230;233.9;27.4;26.8;70;70.4;28.4;-1.0;
16/02/2025 07:33:04;117;0;85.70;-4;21.12;24.98;937.2;9.90;74426;2837.565;-1801.323;1;211;230;232.3;27.4;26.8;70;70.4;28.5;-1.0;
16/02/2025 07:33:24;117;0;94.84;-4;20.90;24.84;934.7;9.90;74419;2837.565;-1801.320;1;217;230;232.3;27.4;26.8;70;70.4;28.4;-1.0;
16/02/2025 07:33:44;117;0;105.01;-4;20.60;24.90;932.2;9.90;74411;2837.564;-1801.316;1;223;230;232.3;27.4;26.8;70;70.4;28.5;-1.0;
16/02/2025 07:34:04;117;0;114.96;-4;21.17;24.67;929.7;9.90;74405;2837.563;-1801.313;1;229;230;233.9;27.4;27.0;70;70.4;28.4;-1.0;
16/02/2025 07:34:24;117;0;124.40;-4;20.81;24.80;927.1;9.90;74399;2837.561;-1801.310;1;235;230;232.3;27.4;26.8;70;70.4;28.4;-1.0;
16/02/2025 07:34:44;117;0;134.06;-4;20.47;25.03;924.5;9.90;74402;2837.559;-1801.307;1;241;230;232.3;27.4;26.8;70;70.4;28.4;-1.0;
16/02/2025 07:35:04;117;0;143.78;-4;20.31;24.78;921.9;9.90;74400;2837.556;-1801.305;1;247;230;232.3;27.4;27.0;70;70.4;28.5;-1.0;
16/02/2025 07:35:24;117;0;156.46;-4;20.04;25.23;919.1;9.80;74392;2837.553;-1801.304;1;254;230;232.3;27.4;26.8;70;69.9;28.4;-1.0;
16/02/2025 07:35:44;117;0;162.72;-4;19.96;24.66;916.3;9.90;74402;2837.549;-1801.302;1;260;230;232.3;27.4;26.8;70;70.4;28.4;-1.0;
16/02/2025 07:36:04;117;0;170.80;-4;20.19;24.49;913.6;9.80;74393;2837.546;-1801.302;1;266;230;233.9;27.4;26.8;70;69.9;28.4;-1.0;
16/02/2025 07:36:24;117;0;177.49;-4;20.40;24.43;910.9;9.80;74385;2837.543;-1801.301;1;273;230;232.3;27.4;26.8;70;70.4;28.4;-1.0;
16/02/2025 07:36:44;117;0;184.92;-4;19.78;24.66;908.3;9.80;74391;2837.539;-1801.302;1;278;230;232.3;27.4;27.0;70;70.4;28.4;-1.0;
16/02/2025 07:37:04;117;0;194.52;-4;20.06;24.77;905.9;9.80;74383;2837.536;-1801.303;1;284;230;230.6;27.4;26.8;70;69.9;28.4;-1.0;
16/02/2025 07:37:24;117;0;205.82;-4;20.27;25.24;903.4;9.80;74384;2837.533;-1801.304;1;290;230;233.9;27.4;26.8;70;70.4;28.4;-1.0;
16/02/2025 07:37:44;117;0;216.18;-4;20.01;24.74;900.9;9.80;74395;2837.531;-1801.306;1;295;230;232.3;27.4;26.8;70;70.4;28.4;-1.0;
16/02/2025 07:38:04;117;0;227.56;-4;20.87;25.45;898.4;9.80;74386;2837.529;-1801.309;1;301;230;233.9;27.4;26.8;70;70.4;28.4;-1.0;
16/02/2025 07:38:24;117;0;238.16;-4;20.37;24.95;895.7;9.80;74395;2837.527;-1801.312;1;307;230;232.3;27.4;26.8;70;70.4;28.4;-1.0;
16/02/2025 07:38:44;117;0;247.77;-4;20.66;24.85;893.0;9.80;74391;2837.526;-1801.316;1;313;230;230.6;27.4;27.0;70;70.4;28.4;-1.0;
16/02/2025 07:39:04;117;0;257.86;-4;20.52;24.81;890.3;9.80;74395;2837.525;-1801.319;1;319;230;232.3;27.4;26.8;70;70.4;28.4;-1.0;
16/02/2025 07:39:24;117;0;266.78;-4;21.65;24.80;887.6;9.80;74391;2837.525;-1801.323;1;326;230;232.3;27.4;27.1;70;69.9;28.4;-1.0;
16/02/2025 07:39:44;117;0;274.35;-4;20.36;24.87;884.8;9.80;74391;2837.525;-1801.327;1;333;230;233.9;27.4;27.0;70;70.4;28.4;-1.0;
16/02/2025 07:40:04;117;0;284.93;-4;19.50;24.86;882.0;9.80;74389;2837.526;-1801.331;1;341;230;232.3;27.4;26.8;70;70.4;28.4;-1.0;
16/02/2025 07:40:24;117;0;294.69;-4;20.75;24.39;879.5;9.80;74399;2837.527;-1801.334;1;349;230;233.9;27.4;26.8;70;70.4;28.4;-1.0;
16/02/2025 07:40:44;117;0;303.30;-4;20.09;24.83;876.9;9.70;74383;2837.529;-1801.337;1;358;230;232.3;27.4;27.0;70;70.4;28.4;-1.0;
16/02/2025 07:41:04;117;0;311.65;-4;20.08;24.69;874.3;9.80;74386;2837.531;-1801.340;1;9;230;232.3;27.4;26.8;70;69.9;28.4;-1.0;
16/02/2025 07:41:24;117;0;320.95;-4;20.33;24.89;871.8;9.70;74378;2837.534;-1801.342;1;21;230;232.3;27.4;26.8;70;70.4;28.5;-1.0;
16/02/2025 07:41:44;117;0;329.15;-4;19.73;24.95;869.3;9.70;74400;2837.537;-1801.344;1;38;230;232.3;27.4;26.8;70;69.9;28.4;-1.0;
16/02/2025 07:42:04;117;0;337.96;-4;19.80;24.79;866.8;9.80;74403;2837.540;-1801.346;1;58;230;233.9;27.4;26.8;70;70.4;28.4;-1.0;
16/02/2025 07:42:24;117;0;345.87;-4;19.86;24.80;864.3;9.70;74395;2837.543;-1801.347;1;82;230;232.3;27.4;26.8;70;70.4;28.4;-1.0;
16/02/2025 07:42:44;117;0;355.12;-4;19.68;24.75;861.8;9.70;74405;2837.546;-1801.347;1;105;230;233.9;27.4;26.8;70;70.4;28.4;-1.0;
16/02/2025 07:43:04;117;0;3.82;-4;19.92;24.78;859.5;9.70;74400;2837.549;-1801.347;1;124;230;233.9;27.4;26.8;70;70.4;28.4;-1.0;
16/02/2025 07:43:24;117;0;11.13;-4;19.85;24.74;857.1;9.70;74398;2837.552;-1801.346;1;139;230;232.3;27.4;26.8;70;70.4;28.4;-1.0;
16/02/2025 07:43:44;117;0;19.61;-4;20.12;24.90;854.8;9.70;74395;2837.555;-1801.345;1;151;230;233.9;27.4;26.8;70;70.4;28.4;-1.0;
16/02/2025 07:44:04;117;0;28.42;-4;19.97;24.87;852.4;9.70;74398;2837.558;-1801.343;1;162;230;232.3;27.4;26.8;70;70.4;28.4;-1.0;
