Timestamp;NavState;SecurityLevel;Heading;Declination;Pitch;Roll;Depth;Temperature;Pa;Lat;Lon;DeadReckoning;DesiredH;BallastCmd;BallastPos;LinCmd;LinPos;AngCmd;AngPos;Voltage;Altitude;
14/02/2025 04:41:36;119;0;89.71;-4;-52.71;-4.45;0.2;17.40;75769;2837.561;-1800.742;0;268;500;509.7;100.0;100.6;0;-0.5;28.6;-1.0;
14/02/2025 04:41:46;116;0;81.14;-4;-56.43;-13.53;0.0;17.40;75762;2837.565;-1800.742;0;268;500;509.7;100.0;100.6;0;-0.5;28.6;-1.0;
14/02/2025 04:42:11;116;0;55.41;-4;-53.01;1.63;0.1;17.50;75783;2837.568;-1800.742;0;268;500;509.7;100.0;100.6;0;0.0;28.6;-1.0;
14/02/2025 04:42:34;116;0;86.55;-4;-52.44;-11.66;-0.0;17.60;75793;2837.568;-1800.742;0;267;500;509.7;100.0;100.6;0;0.0;28.6;-1.0;
14/02/2025 04:42:54;116;0;79.25;-4;-47.21;-14.38;-0.1;17.60;75802;2837.569;-1800.744;0;267;500;509.7;100.0;100.6;0;-0.5;28.6;-1.0;
14/02/2025 04:43:14;116;0;78.16;-4;-53.81;-13.44;0.1;17.70;75797;2837.571;-1800.744;0;267;500;509.7;100.0;100.6;0;-0.5;28.6;-1.0;
14/02/2025 04:43:22;116;0;83.36;-4;-54.49;-21.27;-0.1;17.70;75801;2837.571;-1800.744;0;267;500;509.7;100.0;100.6;0;-0.5;28.6;-1.0;
14/02/2025 04:43:42;116;0;72.70;-4;-52.89;-18.99;0.1;17.80;75809;2837.573;-1800.745;0;267;500;508.1;100.0;100.6;0;-0.5;28.6;-1.0;
14/02/2025 04:44:02;116;0;89.72;-4;-58.66;-4.20;0.1;17.80;75817;2837.574;-1800.746;0;267;500;509.7;100.0;100.6;0;-0.5;28.6;-1.0;
14/02/2025 04:44:22;116;0;80.29;-4;-55.13;-14.71;0.1;17.90;75829;2837.575;-1800.747;0;267;500;509.7;100.0;100.6;0;-0.5;28.6;-1.0;
14/02/2025 04:44:42;116;0;82.86;-4;-54.93;-16.26;-0.1;18.00;75834;2837.578;-1800.747;0;267;500;508.1;100.0;100.6;0;-0.5;28.6;-1.0;
14/02/2025 04:44:58;116;0;70.00;-4;-50.36;-5.69;0.1;18.00;75831;2837.578;-1800.747;0;-9999;500;508.1;100.0;100.6;0;-0.5;28.6;-1.0;
14/02/2025 04:45:22;116;0;82.14;-4;-54.52;-11.57;-0.1;18.10;75841;2837.580;-1800.747;0;266;500;509.7;100.0;100.6;0;-0.5;28.6;-1.0;
14/02/2025 04:45:42;116;0;83.38;-4;-52.41;-13.31;0.1;18.10;75844;2837.582;-1800.748;0;266;500;509.7;100.0;100.6;0;-0.5;28.6;-1.0;
14/02/2025 04:46:45;116;0;94.77;-4;-54.49;-14.24;0.1;18.30;75860;2837.587;-1800.749;0;266;500;508.1;100.0;100.6;0;-0.5;28.6;-1.0;
14/02/2025 04:47:02;116;0;79.40;-4;-53.33;-8.47;0.1;18.40;75876;2837.588;-1800.750;0;265;500;508.1;100.0;100.6;0;-0.5;28.6;-1.0;
14/02/2025 04:48:05;116;0;78.83;-4;-54.77;-7.17;0.1;18.60;75888;2837.591;-1800.750;0;265;500;509.7;100.0;100.6;0;-0.5;28.6;-1.0;
14/02/2025 04:48:57;116;0;92.86;-4;-49.36;-14.01;-0.0;18.80;75909;2837.595;-1800.753;0;265;500;509.7;100.0;100.6;0;0.0;28.6;-1.0;
14/02/2025 04:49:08;116;0;91.73;-4;-52.50;-13.17;0.0;18.90;75901;2837.595;-1800.753;0;264;500;509.7;100.0;100.6;0;-0.5;28.6;-1.0;
14/02/2025 04:49:29;110;0;80.99;-4;-53.35;-14.67;0.2;19.00;75917;2837.595;-1800.753;0;264;-100;395.2;100.0;99.9;-8;-8.1;28.6;-1.0;
14/02/2025 04:49:39;110;0;92.64;-4;-52.30;-17.72;0.1;19.00;76269;2837.595;-1800.753;1;264;-100;248.4;100.0;99.9;-8;-8.6;28.6;-1.0;
14/02/2025 04:49:49;110;0;98.38;-4;-60.23;-24.07;0.4;19.00;76498;2837.595;-1800.753;1;264;-100;91.9;100.0;99.9;-8;-8.6;28.6;-1.0;
14/02/2025 04:49:59;110;0;99.13;-4;-68.20;-8.98;1.1;19.10;76823;2837.595;-1800.753;1;264;-100;-69.4;100.0;99.7;-8;-8.6;28.6;-1.0;
14/02/2025 04:50:09;110;0;83.80;-4;-66.75;-13.75;1.4;19.10;77162;2837.595;-1800.752;1;264;-100;-100.0;50.0;49.9;-8;-8.6;28.6;-1.0;
14/02/2025 04:50:19;110;0;80.73;-4;-54.40;-17.56;2.8;19.10;77197;2837.595;-1800.752;1;264;-100;-100.0;50.0;49.8;-8;-8.6;28.6;-1.0;
14/02/2025 04:50:39;100;0;93.59;-4;-32.10;-16.26;6.7;19.20;77197;2837.595;-1800.748;1;264;-100;-96.8;50.0;49.6;-8;-8.6;28.6;-1.0;
14/02/2025 04:50:59;100;0;104.78;-4;-31.99;-15.55;11.4;19.30;77209;2837.594;-1800.744;1;265;-100;-96.8;50.0;49.5;-70;-69.9;28.6;-1.0;
14/02/2025 04:51:19;100;0;114.88;-4;-32.20;-45.05;15.9;19.30;77201;2837.593;-1800.740;1;265;-100;-96.8;49.3;49.3;-70;-69.9;28.6;0.0;
14/02/2025 04:51:39;100;0;126.05;-4;-32.39;-44.67;20.7;19.40;77218;2837.591;-1800.736;1;265;-100;-95.2;48.6;48.5;-70;-69.9;28.6;0.0;
14/02/2025 04:51:59;100;0;136.36;-4;-30.94;-45.03;25.4;19.40;77220;2837.588;-1800.733;1;265;-100;-96.8;48.6;48.3;-70;-69.9;28.6;0.0;
14/02/2025 04:52:19;100;0;147.42;-4;-29.41;-44.59;29.9;19.40;77235;2837.584;-1800.730;1;266;-100;-95.2;48.6;48.3;-70;-69.9;28.6;0.0;
14/02/2025 04:52:39;100;0;157.41;-4;-30.61;-44.86;34.4;19.40;77231;2837.581;-1800.729;1;266;-100;-95.2;48.6;48.3;-70;-69.9;28.6;0.0;
14/02/2025 04:52:59;100;0;165.78;-4;-30.13;-44.66;38.9;19.50;77234;2837.577;-1800.727;1;266;-100;-95.2;48.6;48.3;-70;-69.9;28.6;0.0;
14/02/2025 04:53:19;100;0;175.95;-4;-30.30;-44.79;43.5;19.50;77238;2837.573;-1800.727;1;267;-100;-93.5;48.6;48.3;-70;-69.9;28.6;0.0;
14/02/2025 04:53:39;100;0;186.95;-4;-29.89;-44.91;48.0;19.50;77242;2837.569;-1800.728;1;267;-100;-95.2;48.6;48.3;-70;-69.9;28.6;0.0;
14/02/2025 04:53:59;100;0;197.57;-4;-30.06;-44.86;52.4;19.50;77248;2837.566;-1800.729;1;268;-100;-95.2;48.6;48.3;-70;-69.9;28.6;0.0;
14/02/2025 04:54:19;100;0;208.01;-4;-29.91;-44.74;56.9;19.50;77256;2837.562;-1800.731;1;268;-100;-95.2;48.6;48.3;-58;-58.2;28.6;0.0;
14/02/2025 04:54:39;100;0;219.14;-4;-29.28;-38.88;61.3;19.50;77259;2837.559;-1800.734;1;268;-100;-93.5;48.6;48.3;-45;-45.1;28.6;0.0;
14/02/2025 04:54:59;100;0;230.43;-4;-29.06;-32.43;65.7;19.50;77258;2837.557;-1800.737;1;269;-100;-95.2;48.6;48.3;-32;-32.0;28.6;0.0;
14/02/2025 04:55:19;100;0;240.83;-4;-29.00;-26.03;69.9;19.50;77254;2837.555;-1800.741;1;269;-100;-93.5;48.9;49.0;-16;-15.3;28.6;0.0;
14/02/2025 04:55:39;100;0;248.92;-4;-30.25;-18.22;74.2;19.50;77276;2837.554;-1800.745;1;269;-100;-95.2;48.9;49.2;-2;-1.8;28.6;0.0;
14/02/2025 04:55:59;100;0;253.39;-4;-31.01;-12.11;78.7;19.50;77272;2837.553;-1800.749;1;269;-100;-95.2;48.9;49.2;4;4.1;28.6;0.0;
14/02/2025 04:56:19;100;0;257.24;-4;-31.73;-9.28;83.2;19.50;77278;2837.552;-1800.753;1;269;-100;-95.2;48.9;49.2;9;9.0;28.6;0.0;
14/02/2025 04:56:39;100;0;259.93;-4;-32.10;-6.80;87.7;19.50;77281;2837.551;-1800.758;1;269;-100;-95.2;48.3;48.3;11;11.3;28.6;0.0;
14/02/2025 04:56:59;100;0;261.22;-4;-31.46;-6.10;92.2;19.50;77286;2837.551;-1800.762;1;269;-100;-95.2;48.3;48.0;11;11.3;28.6;0.0;
14/02/2025 04:57:19;100;0;260.65;-4;-31.59;-5.88;96.7;19.50;77287;2837.550;-1800.766;1;269;-100;-95.2;48.3;48.0;11;11.3;28.6;0.0;
14/02/2025 04:57:39;100;0;256.92;-4;-30.95;-6.02;101.1;19.50;77272;2837.550;-1800.770;1;269;-100;-95.2;48.3;48.2;8;8.1;28.6;0.0;
14/02/2025 04:57:59;100;0;249.38;-4;-31.26;-7.63;105.7;19.50;77251;2837.548;-1800.774;1;270;-100;-95.2;48.3;48.0;-4;-4.1;28.6;0.0;
14/02/2025 04:58:19;100;0;256.32;-4;-28.84;-13.78;109.8;19.50;77209;2837.547;-1800.778;1;270;-100;-95.2;48.6;48.9;7;7.2;28.6;0.0;
14/02/2025 04:58:39;100;0;253.35;-4;-30.37;-7.98;113.8;19.40;77168;2837.547;-1800.782;1;270;-100;-95.2;48.6;48.9;3;3.2;28.6;0.0;
14/02/2025 04:58:59;100;0;252.69;-4;-30.67;-10.38;117.8;19.40;77140;2837.546;-1800.786;1;270;-100;-95.2;48.6;48.9;3;2.7;28.6;0.0;
14/02/2025 04:59:19;100;0;253.35;-4;-31.07;-10.25;121.9;19.40;77118;2837.545;-1800.790;1;270;-100;-95.2;48.6;48.9;3;2.7;28.6;0.0;
14/02/2025 04:59:39;100;0;254.04;-4;-30.88;-10.30;126.1;19.40;77107;2837.544;-1800.794;1;270;-100;-95.2;48.6;48.7;3;2.7;28.6;0.0;
14/02/2025 04:59:59;100;0;251.03;-4;-30.52;-10.29;130.3;19.30;77096;2837.543;-1800.797;1;270;-100;-95.2;48.6;48.9;-1;-0.9;28.6;0.0;
14/02/2025 05:00:19;100;0;249.79;-4;-29.35;-12.31;134.2;19.30;77074;2837.542;-1800.801;1;270;-100;-93.5;48.6;48.9;-3;-3.2;28.6;0.0;
14/02/2025 05:00:39;100;0;252.45;-4;-29.49;-13.52;137.9;19.30;77067;2837.541;-1800.805;1;270;-100;-95.2;48.6;48.9;1;0.9;28.6;0.0;
14/02/2025 05:00:59;100;0;253.17;-4;-29.46;-11.03;141.8;19.20;77048;2837.540;-1800.809;1;271;-100;-95.2;48.6;48.9;1;1.4;28.6;0.0;
14/02/2025 05:01:19;100;0;258.67;-4;-29.48;-11.22;145.5;19.20;77024;2837.539;-1800.813;1;271;-100;-95.2;48.6;48.9;9;9.0;28.6;0.0;
14/02/2025 05:01:39;100;0;262.81;-4;-29.62;-6.94;149.3;19.20;77014;2837.539;-1800.816;1;271;-100;-95.2;48.6;48.9;11;10.8;28.6;0.0;
14/02/2025 05:01:59;100;0;263.98;-4;-30.32;-6.04;153.1;19.10;76995;2837.539;-1800.820;1;271;-100;-95.2;48.6;48.9;11;11.3;28.6;0.0;
14/02/2025 05:02:19;100;0;264.98;-4;-30.15;-6.20;157.0;19.10;77005;2837.538;-1800.824;1;271;-100;-95.2;48.6;48.9;11;11.3;28.6;0.0;
14/02/2025 05:02:39;100;0;268.13;-4;-30.70;-6.12;161.0;19.00;76985;2837.538;-1800.828;1;271;-100;-98.4;48.6;48.9;11;11.3;28.6;0.0;
14/02/2025 05:02:59;100;0;270.59;-4;-30.40;-6.19;165.1;19.00;76964;2837.538;-1800.832;1;271;-100;-95.2;48.6;48.9;11;11.3;28.6;0.0;
14/02/2025 05:03:19;100;0;273.84;-4;-30.90;-5.98;169.2;19.00;76956;2837.539;-1800.836;1;271;-100;-95.2;48.6;48.9;11;11.3;28.6;0.0;
14/02/2025 05:03:39;100;0;260.63;-4;-35.26;-5.49;173.4;18.90;76936;2837.538;-1800.839;1;271;-100;-95.2;47.1;47.1;11;11.3;28.6;0.0;
14/02/2025 05:03:59;100;0;267.34;-4;-30.42;-5.98;178.8;18.90;76934;2837.538;-1800.845;1;271;-100;-93.5;47.1;46.8;11;11.3;28.6;0.0;
14/02/2025 05:04:19;100;0;254.93;-4;-25.22;-5.89;182.8;18.80;76915;2837.537;-1800.849;1;271;-100;-95.2;48.5;48.9;3;3.2;28.6;0.0;
14/02/2025 05:04:39;100;0;235.95;-4;-16.42;-10.20;185.7;18.80;76908;2837.535;-1800.853;1;271;-100;-93.5;52.6;52.7;-28;-28.0;28.6;0.0;
14/02/2025 05:04:59;100;0;222.59;-4;-36.24;-8.56;189.5;18.80;76904;2837.533;-1800.856;1;271;-100;-91.9;50.7;50.4;-44;-44.2;28.6;0.0;
14/02/2025 05:05:19;100;0;227.50;-4;-33.78;-32.04;195.0;18.70;76880;2837.530;-1800.859;1;272;-100;-93.5;49.6;49.5;-40;-40.2;28.6;0.0;
14/02/2025 05:05:38;118;0;243.34;-4;-31.55;-29.44;200.1;18.70;76874;2837.528;-1800.863;1;272;100;-93.5;34.0;33.9;9;9.0;28.6;0.0;
14/02/2025 05:05:48;118;0;231.55;-4;-23.62;-6.83;201.8;18.70;76855;2837.527;-1800.865;1;272;100;32.3;34.0;33.7;9;9.5;28.2;-1.0;
14/02/2025 05:05:58;118;0;218.00;-4;-11.04;-7.19;203.2;18.70;76576;2837.526;-1800.866;1;273;100;104.8;34.0;33.6;9;9.9;28.2;-1.0;
14/02/2025 05:06:08;118;0;251.33;-4;-4.71;-7.61;203.7;18.70;76443;2837.526;-1800.867;1;273;100;104.8;34.0;33.6;9;9.5;28.6;-1.0;
14/02/2025 05:06:28;117;0;249.04;-4;-0.12;-7.66;204.0;18.60;76428;2837.526;-1800.867;1;273;100;104.8;34.0;33.4;9;9.5;28.6;-1.0;
14/02/2025 05:06:48;117;0;246.98;-4;0.28;-7.73;204.0;18.50;76422;2837.526;-1800.867;1;273;100;104.8;25.1;25.0;14;14.4;28.6;-1.0;
14/02/2025 05:07:08;117;0;247.51;-4;25.30;-5.29;203.5;18.50;76416;2837.526;-1800.868;1;273;100;108.1;23.7;23.6;39;38.8;28.6;-1.0;
14/02/2025 05:07:28;117;0;249.80;-4;28.49;7.85;202.3;18.50;76410;2837.525;-1800.869;1;273;100;108.1;23.2;23.1;43;42.9;28.6;-1.0;
14/02/2025 05:07:48;117;0;250.67;-4;29.75;10.13;200.9;18.40;76413;2837.525;-1800.870;1;273;100;108.1;23.2;23.1;43;43.3;28.6;-1.0;
14/02/2025 05:08:08;117;0;251.34;-4;29.33;10.12;199.5;18.40;76395;2837.525;-1800.872;1;273;100;108.1;23.2;23.1;43;43.3;28.6;-1.0;
14/02/2025 05:08:28;117;0;249.83;-4;29.47;10.16;198.2;18.30;76398;2837.524;-1800.873;1;273;100;109.7;23.2;23.1;45;45.1;28.6;-1.0;
14/02/2025 05:08:48;117;0;252.23;-4;29.46;11.24;196.8;18.30;76400;2837.524;-1800.874;1;273;100;108.1;23.2;23.1;41;40.6;28.6;-1.0;
14/02/2025 05:09:08;117;0;252.42;-4;28.84;8.31;195.4;18.20;76395;2837.524;-1800.876;1;273;100;108.1;22.9;22.8;41;40.2;28.6;-1.0;
14/02/2025 05:09:28;117;0;254.87;-4;29.94;8.27;194.1;18.20;76399;2837.524;-1800.877;1;273;100;108.1;22.9;22.7;37;36.6;28.6;-1.0;
14/02/2025 05:09:48;117;0;257.14;-4;29.74;6.31;192.8;18.20;76394;2837.523;-1800.878;1;273;100;108.1;22.9;22.7;34;32.9;28.6;-1.0;
14/02/2025 05:10:08;117;0;257.04;-4;29.91;4.92;191.4;18.10;76394;2837.523;-1800.879;1;273;100;108.1;22.9;22.5;34;33.8;28.6;-1.0;
14/02/2025 05:10:28;117;0;257.15;-4;29.82;4.95;190.0;18.10;76401;2837.523;-1800.881;1;273;100;108.1;22.9;22.7;34;33.8;28.6;-1.0;
14/02/2025 05:10:48;117;0;260.81;-4;29.70;4.91;188.6;18.00;76389;2837.523;-1800.882;1;273;100;109.7;22.9;22.7;32;31.6;28.6;-1.0;
14/02/2025 05:11:08;117;0;261.42;-4;29.89;4.30;187.1;18.00;76398;2837.523;-1800.883;1;273;100;109.7;22.9;22.5;32;32.5;28.6;-1.0;
14/02/2025 05:11:28;117;0;262.30;-4;29.61;4.20;185.6;18.00;76397;2837.523;-1800.885;1;273;100;109.7;22.9;22.7;32;32.9;28.6;-1.0;
14/02/2025 05:11:48;117;0;261.41;-4;29.35;4.23;184.2;17.90;76385;2837.523;-1800.886;1;273;100;108.1;22.9;22.7;32;32.9;28.6;-1.0;
14/02/2025 05:12:08;117;0;260.38;-4;30.63;4.29;182.7;17.90;76379;2837.522;-1800.888;1;273;120;124.2;22.9;22.7;32;32.5;28.6;-1.0;
14/02/2025 05:12:28;117;0;258.64;-4;28.85;4.28;181.1;17.90;76369;2837.522;-1800.889;1;273;140;143.5;22.5;22.5;32;32.5;28.6;-1.0;
14/02/2025 05:12:48;117;0;256.87;-4;28.80;4.37;179.4;17.90;76316;2837.522;-1800.891;1;273;160;164.5;22.2;21.9;36;36.1;28.6;-1.0;
14/02/2025 05:13:08;117;0;252.23;-4;29.84;6.56;177.5;17.80;76282;2837.522;-1800.893;1;273;180;183.9;22.2;21.9;43;43.3;28.6;-1.0;
14/02/2025 05:13:28;117;0;253.45;-4;30.00;10.38;175.3;17.80;76231;2837.521;-1800.895;1;273;180;183.9;22.2;21.9;41;40.6;28.6;-1.0;
14/02/2025 05:13:48;117;0;253.69;-4;29.71;8.47;172.9;17.80;76233;2837.521;-1800.897;1;273;180;183.9;22.2;21.9;43;43.3;28.6;-1.0;
14/02/2025 05:14:08;117;0;250.96;-4;29.90;10.42;170.4;17.80;76230;2837.520;-1800.900;1;274;180;183.9;22.2;21.9;49;49.2;28.6;-1.0;
14/02/2025 05:14:28;117;0;252.06;-4;30.31;13.84;167.9;17.80;76231;2837.519;-1800.902;1;274;180;183.9;22.2;21.9;47;46.9;28.6;-1.0;
14/02/2025 05:14:48;117;0;259.34;-4;29.77;11.80;165.5;17.70;76230;2837.519;-1800.904;1;274;180;182.3;22.2;21.9;36;36.1;28.6;-1.0;
14/02/2025 05:15:08;117;0;259.37;-4;29.72;6.13;163.0;17.70;76246;2837.519;-1800.907;1;274;180;183.9;22.2;21.9;36;36.1;28.6;-1.0;
14/02/2025 05:15:28;117;0;255.24;-4;29.35;6.28;160.6;17.70;76260;2837.518;-1800.909;1;274;180;183.9;22.2;21.9;42;42.0;28.6;-1.0;
14/02/2025 05:15:48;117;0;254.88;-4;29.75;9.59;158.1;17.70;76254;2837.518;-1800.912;1;274;180;185.5;22.2;22.1;42;42.4;28.6;-1.0;
14/02/2025 05:16:08;117;0;254.34;-4;29.86;9.72;155.7;17.70;76254;2837.517;-1800.914;1;274;180;183.9;22.2;21.9;42;42.4;28.7;-1.0;
14/02/2025 05:16:28;117;0;254.74;-4;29.96;9.87;153.1;17.70;76260;2837.517;-1800.916;1;274;180;183.9;22.2;21.9;42;42.4;28.6;-1.0;
14/02/2025 05:16:48;117;0;254.51;-4;29.84;9.72;150.4;17.60;76259;2837.516;-1800.919;1;274;180;187.1;22.2;21.9;42;42.4;28.6;-1.0;
14/02/2025 05:17:08;117;0;250.15;-4;30.23;9.70;147.8;17.60;76270;2837.516;-1800.921;1;274;180;183.9;22.2;22.1;51;51.0;28.6;-1.0;
14/02/2025 05:17:28;117;0;252.88;-4;30.73;14.75;145.0;17.60;76279;2837.515;-1800.924;1;275;180;183.9;22.2;21.9;48;47.8;28.6;-1.0;
14/02/2025 05:17:48;117;0;256.90;-4;30.08;12.30;142.4;17.60;76283;2837.514;-1800.927;1;275;180;182.3;22.2;22.1;41;41.1;28.6;-1.0;
14/02/2025 05:18:08;117;0;260.88;-4;29.80;8.58;139.7;17.60;76303;2837.514;-1800.929;1;275;180;183.9;22.2;21.9;36;36.1;28.6;-1.0;
14/02/2025 05:18:28;117;0;261.82;-4;28.75;5.86;137.2;17.60;76309;2837.514;-1800.932;1;275;180;182.3;21.8;21.8;36;35.6;28.6;-1.0;
14/02/2025 05:18:48;117;0;264.61;-4;29.61;5.87;134.8;17.60;76317;2837.514;-1800.934;1;275;180;183.9;21.8;21.5;32;32.0;28.6;-1.0;
14/02/2025 05:19:08;117;0;264.35;-4;29.41;3.55;132.5;17.60;76331;2837.514;-1800.936;1;275;180;183.9;21.8;21.5;32;31.1;28.6;-1.0;
14/02/2025 05:19:28;117;0;263.83;-4;29.27;3.62;130.2;17.60;76342;2837.514;-1800.939;1;275;180;183.9;21.8;21.5;32;31.1;28.6;-1.0;
14/02/2025 05:19:48;117;0;262.47;-4;29.49;3.60;128.1;17.60;76346;2837.513;-1800.941;1;275;180;185.5;21.8;21.5;34;34.3;28.6;-1.0;
14/02/2025 05:20:08;117;0;263.96;-4;29.63;5.38;125.8;17.60;76348;2837.513;-1800.943;1;275;180;185.5;21.8;21.6;34;34.7;28.6;-1.0;
14/02/2025 05:20:28;117;0;265.79;-4;29.53;5.41;123.6;17.60;76362;2837.513;-1800.945;1;275;180;183.9;21.8;21.5;32;31.6;28.6;-1.0;
14/02/2025 05:20:48;117;0;267.69;-4;29.41;3.49;121.4;17.70;76375;2837.513;-1800.948;1;275;180;183.9;21.8;21.5;32;30.7;28.6;-1.0;
14/02/2025 05:21:08;117;0;270.93;-4;29.38;3.48;119.2;17.60;76371;2837.513;-1800.950;1;275;180;183.9;21.8;21.5;32;31.1;28.6;-1.0;
14/02/2025 05:21:28;117;0;274.69;-4;29.91;3.40;116.8;17.60;76389;2837.514;-1800.952;1;275;180;183.9;21.8;21.6;32;31.1;28.6;-1.0;
14/02/2025 05:21:49;117;0;268.91;-4;29.62;3.53;114.4;17.70;76402;2837.514;-1800.955;1;275;180;185.5;21.8;21.5;32;31.1;28.6;-1.0;
14/02/2025 05:22:09;117;0;269.39;-4;29.20;3.44;112.0;17.70;76436;2837.514;-1800.957;1;275;180;183.9;21.8;21.5;32;31.1;28.6;-1.0;
14/02/2025 05:22:29;117;0;269.17;-4;28.85;3.54;109.7;17.70;76458;2837.514;-1800.960;1;275;180;180.6;21.4;21.5;32;31.1;28.6;-1.0;
14/02/2025 05:22:49;117;0;274.12;-4;29.79;3.48;107.4;17.70;76489;2837.514;-1800.962;1;275;180;185.5;21.4;21.4;32;31.1;28.6;-1.0;
14/02/2025 05:23:09;117;0;271.63;-4;29.29;3.53;105.2;17.70;76508;2837.514;-1800.964;1;275;180;185.5;21.4;21.4;32;31.1;28.6;-1.0;
14/02/2025 05:23:29;117;0;275.93;-4;29.66;3.49;102.9;17.80;76543;2837.514;-1800.966;1;275;180;185.5;21.4;21.4;32;31.1;28.6;-1.0;
14/02/2025 05:23:49;117;0;279.46;-4;29.55;3.42;100.7;17.80;76565;2837.515;-1800.969;1;275;180;183.9;21.4;21.4;30;29.8;28.6;-1.0;
14/02/2025 05:24:09;117;0;277.78;-4;29.42;2.69;98.4;17.80;76580;2837.515;-1800.971;1;275;180;183.9;21.4;21.4;30;29.8;28.6;-1.0;
14/02/2025 05:24:29;117;0;276.47;-4;29.33;2.64;96.1;17.90;76610;2837.516;-1800.973;1;275;180;185.5;21.4;21.4;30;29.8;28.6;-1.0;
14/02/2025 05:24:49;117;0;275.21;-4;29.61;2.68;93.7;17.90;76603;2837.516;-1800.976;1;275;180;185.5;21.4;21.4;30;29.8;28.6;-1.0;
14/02/2025 05:25:09;117;0;274.23;-4;29.56;2.67;91.5;17.90;76623;2837.516;-1800.978;1;275;180;185.5;21.4;21.4;30;29.8;28.6;-1.0;
14/02/2025 05:25:29;117;0;272.94;-4;29.52;2.70;88.9;18.00;76628;2837.516;-1800.980;1;275;180;183.9;21.4;21.4;30;29.8;28.6;-1.0;
14/02/2025 05:25:49;117;0;270.89;-4;29.54;2.69;86.5;18.00;76650;2837.516;-1800.983;1;275;180;183.9;21.4;21.4;30;29.8;28.7;-1.0;
14/02/2025 05:26:09;117;0;269.43;-4;29.54;2.70;84.0;18.00;76644;2837.517;-1800.985;1;275;180;185.5;21.4;21.4;30;29.8;28.6;-1.0;
14/02/2025 05:26:29;117;0;268.20;-4;29.67;2.64;81.6;18.10;76648;2837.517;-1800.988;1;275;180;185.5;21.4;21.4;30;29.8;28.6;-1.0;
14/02/2025 05:26:49;117;0;266.33;-4;29.60;2.70;79.1;18.10;76661;2837.516;-1800.990;1;275;180;183.9;21.4;21.4;32;32.0;28.6;-1.0;
14/02/2025 05:27:09;117;0;265.47;-4;29.62;4.29;76.6;18.10;76665;2837.516;-1800.993;1;275;180;185.5;21.4;21.4;32;32.5;28.6;-1.0;
14/02/2025 05:27:29;117;0;264.18;-4;29.96;4.23;74.2;18.20;76677;2837.516;-1800.995;1;275;180;185.5;21.4;21.4;32;32.5;28.6;-1.0;
14/02/2025 05:27:49;117;0;263.58;-4;29.81;4.34;71.7;18.20;76670;2837.516;-1800.998;1;275;180;183.9;21.4;21.4;34;34.3;28.6;-1.0;
14/02/2025 05:28:09;117;0;263.52;-4;30.07;5.44;69.0;18.20;76673;2837.516;-1801.000;1;275;180;185.5;21.4;21.4;34;34.3;28.6;-1.0;
14/02/2025 05:28:29;117;0;263.13;-4;30.02;5.40;66.4;18.20;76682;2837.516;-1801.003;1;275;180;185.5;21.4;21.4;34;34.3;28.6;-1.0;
14/02/2025 05:28:49;117;0;262.83;-4;30.02;5.48;63.8;18.30;76694;2837.516;-1801.005;1;276;180;185.5;21.4;21.4;34;34.3;28.6;-1.0;
14/02/2025 05:29:09;117;0;262.30;-4;30.05;5.44;61.2;18.30;76694;2837.515;-1801.008;1;276;180;183.9;21.4;21.4;36;36.1;28.6;-1.0;
14/02/2025 05:29:29;117;0;262.32;-4;30.09;6.57;58.4;18.30;76700;2837.515;-1801.011;1;276;180;185.5;21.4;21.4;36;36.6;28.6;-1.0;
14/02/2025 05:29:49;117;0;262.96;-4;30.22;6.63;55.7;18.30;76702;2837.515;-1801.013;1;276;180;185.5;21.4;21.4;36;36.6;28.6;-1.0;
14/02/2025 05:30:09;117;0;263.63;-4;30.22;6.57;53.0;18.40;76715;2837.515;-1801.016;1;276;180;183.9;21.4;21.4;36;36.6;28.6;-1.0;
14/02/2025 05:30:29;117;0;263.66;-4;30.25;6.63;50.3;18.40;76721;2837.515;-1801.019;1;276;180;185.5;21.4;21.4;36;36.6;28.6;-1.0;
14/02/2025 05:30:49;117;0;264.85;-4;29.97;6.66;47.6;18.40;76715;2837.514;-1801.021;1;276;180;185.5;21.4;21.5;34;32.9;28.6;-1.0;
14/02/2025 05:31:09;117;0;264.67;-4;29.69;4.91;44.8;18.40;76714;2837.514;-1801.024;1;276;180;185.5;21.4;21.4;34;33.4;28.6;-1.0;
14/02/2025 05:31:29;117;0;263.47;-4;30.01;5.08;42.2;18.50;76735;2837.514;-1801.027;1;276;180;183.9;21.4;21.5;34;33.4;28.6;-1.0;
14/02/2025 05:31:49;117;0;261.98;-4;29.62;4.89;39.6;18.50;76735;2837.514;-1801.029;1;276;180;183.9;21.4;21.4;37;37.5;28.6;-1.0;
14/02/2025 05:32:09;117;0;261.76;-4;30.07;7.19;37.0;18.50;76735;2837.514;-1801.032;1;276;180;185.5;21.4;21.4;37;37.5;28.6;-1.0;
14/02/2025 05:32:29;117;0;261.83;-4;30.08;7.18;34.4;18.50;76746;2837.513;-1801.034;1;277;180;185.5;21.4;21.4;37;37.9;28.6;-1.0;
14/02/2025 05:32:49;117;0;262.11;-4;30.21;7.14;31.8;18.60;76744;2837.513;-1801.037;1;277;180;185.5;21.4;21.4;37;37.9;28.6;-1.0;
14/02/2025 05:33:09;117;0;261.99;-4;30.09;7.24;29.2;18.60;76746;2837.513;-1801.040;1;277;180;185.5;21.4;21.4;37;37.9;28.6;-1.0;
14/02/2025 05:33:29;117;0;262.11;-4;29.57;7.28;26.5;18.60;76751;2837.513;-1801.042;1;277;180;183.9;21.4;21.4;37;37.9;28.6;-1.0;
14/02/2025 05:33:49;117;0;260.95;-4;30.89;7.31;24.0;18.60;76756;2837.512;-1801.045;1;277;180;183.9;21.4;21.4;39;38.8;28.6;-1.0;
14/02/2025 05:34:09;117;0;263.91;-4;28.98;8.06;21.3;18.70;76758;2837.512;-1801.047;1;277;180;185.5;21.1;20.9;36;35.6;28.6;-1.0;
14/02/2025 05:34:29;117;0;263.48;-4;30.11;6.74;18.9;18.70;76755;2837.512;-1801.050;1;277;180;182.3;21.1;21.1;36;36.6;28.6;-1.0;
14/02/2025 05:34:49;117;0;267.34;-4;32.18;6.54;16.5;18.70;76768;2837.512;-1801.052;1;277;180;183.9;21.8;21.8;33;32.0;28.6;-1.0;
14/02/2025 05:35:09;117;0;264.14;-4;31.67;4.72;13.8;18.80;76772;2837.512;-1801.054;1;277;180;185.5;21.8;21.9;36;36.1;28.6;-1.0;
14/02/2025 05:35:29;117;0;266.63;-4;27.66;6.56;11.1;18.80;76770;2837.512;-1801.057;1;277;180;185.5;21.1;21.1;34;34.3;28.6;-1.0;
14/02/2025 05:35:49;117;0;265.11;-4;30.69;5.31;8.9;18.80;76767;2837.512;-1801.059;1;277;180;183.9;21.1;20.8;34;34.7;28.6;-1.0;
14/02/2025 05:36:09;117;0;258.96;-4;33.08;5.08;6.6;18.80;76771;2837.512;-1801.061;1;278;180;185.5;22.0;22.1;42;42.0;28.6;-1.0;
14/02/2025 05:36:29;117;0;262.18;-4;30.34;9.64;4.0;18.80;76787;2837.511;-1801.064;1;278;180;185.5;22.0;22.1;39;38.8;28.6;-1.0;
14/02/2025 05:36:36;115;0;261.22;-4;31.64;8.04;3.0;18.80;76784;2837.511;-1801.065;1;278;500;191.9;100.0;66.0;0;-0.5;28.6;-1.0;
14/02/2025 05:36:46;115;0;257.53;-4;11.97;-13.08;1.9;18.80;76742;2837.511;-1801.067;1;278;500;311.3;100.0;100.0;0;-0.5;28.4;-1.0;
14/02/2025 05:36:56;115;0;229.71;-4;-60.70;-13.05;2.4;18.90;76495;2837.511;-1801.067;1;278;500;432.3;100.0;100.7;0;-0.5;28.4;-1.0;
14/02/2025 05:37:06;115;0;202.76;-4;-67.15;-14.20;2.2;18.90;76231;2837.511;-1801.067;1;278;500;506.5;100.0;100.7;0;-0.9;28.4;-1.0;
14/02/2025 05:37:16;115;0;199.36;-4;-38.28;-9.84;0.2;18.90;76079;2837.510;-1801.067;1;278;500;506.5;100.0;100.7;0;-0.5;28.6;-1.0;
14/02/2025 05:37:36;119;0;168.62;-4;-51.83;-9.94;0.1;18.90;76099;2837.510;-1801.067;1;278;500;509.7;100.0;100.7;0;-0.5;28.6;-1.0;
14/02/2025 05:37:46;119;0;140.25;-4;-54.87;-3.16;0.2;19.00;76096;2837.596;-1801.031;0;278;500;509.7;100.0;100.7;0;-0.5;28.6;-1.0;
