Timestamp;NavState;SecurityLevel;Heading;Declination;Pitch;Roll;Depth;Temperature;Pa;Lat;Lon;DeadReckoning;DesiredH;BallastCmd;BallastPos;LinCmd;LinPos;AngCmd;AngPos;Voltage;Altitude;
13/02/2025 10:37:58;119;0;342.07;-4;-55.14;-12.64;0.2;18.30;76187;2837.166;-1758.575;0;116;500;509.7;100.0;100.7;0;0.9;28.7;-1.0;
13/02/2025 10:38:08;116;0;344.27;-4;-55.73;-13.82;0.2;18.40;76195;2837.172;-1758.578;0;117;500;508.1;100.0;100.6;0;0.9;28.7;-1.0;
13/02/2025 10:38:34;116;0;340.10;-4;-56.49;-8.89;0.1;18.40;76205;2837.174;-1758.579;0;118;500;509.7;100.0;100.6;0;0.9;28.7;-1.0;
13/02/2025 10:38:45;116;0;335.00;-4;-51.84;-8.39;0.2;18.50;76195;2837.172;-1758.580;0;118;500;509.7;100.0;100.6;0;0.9;28.7;-1.0;
13/02/2025 10:38:59;116;0;339.38;-4;-57.99;-12.14;0.1;18.50;76211;2837.173;-1758.580;0;-9999;500;508.1;100.0;100.6;0;0.9;28.7;-1.0;
13/02/2025 10:39:20;116;0;347.95;-4;-56.57;-9.62;0.1;18.50;76219;2837.172;-1758.580;0;279;500;509.7;100.0;100.6;0;0.9;28.7;-1.0;
13/02/2025 10:39:40;116;0;1.59;-4;-55.00;-13.11;0.1;18.60;76222;2837.171;-1758.582;0;279;500;509.7;100.0;100.6;0;0.9;28.7;-1.0;
13/02/2025 10:40:42;116;0;14.16;-4;-55.12;-9.99;0.2;18.80;76243;2837.176;-1758.582;0;279;500;509.7;100.0;100.6;0;0.9;28.7;-1.0;
13/02/2025 10:41:42;116;0;20.50;-4;-54.50;-15.42;0.2;19.00;76261;2837.180;-1758.581;0;279;500;509.7;100.0;100.7;0;0.9;28.7;-1.0;
13/02/2025 10:42:45;116;0;52.19;-4;-57.16;-18.23;0.2;19.20;76278;2837.186;-1758.583;0;279;500;509.7;100.0;100.7;0;0.9;28.7;-1.0;
13/02/2025 10:42:49;116;0;38.75;-4;-53.77;-19.28;0.1;19.20;76283;2837.186;-1758.583;0;278;500;509.7;100.0;100.6;0;0.9;28.8;-1.0;
13/02/2025 10:43:03;116;0;39.11;-4;-53.79;-18.73;0.2;19.30;76280;2837.187;-1758.584;0;278;500;509.7;100.0;100.6;0;0.9;28.7;-1.0;
13/02/2025 10:43:23;110;0;36.35;-4;-54.27;-12.69;-0.0;19.40;76295;2837.187;-1758.584;0;278;-100;400.0;100.0;99.7;-13;-13.1;28.7;-1.0;
13/02/2025 10:43:33;110;0;40.28;-4;-52.34;-15.18;0.2;19.40;76630;2837.187;-1758.584;1;278;-100;246.8;100.0;99.9;-13;-13.1;28.7;-1.0;
13/02/2025 10:43:43;110;0;43.74;-4;-62.04;-19.18;0.7;19.40;76884;2837.188;-1758.585;1;278;-100;87.1;100.0;99.9;-13;-13.5;28.7;-1.0;
13/02/2025 10:43:53;110;0;33.38;-4;-69.12;-19.87;0.9;19.50;77215;2837.188;-1758.585;1;278;-100;-69.4;100.0;99.9;-13;-13.1;28.7;-1.0;
13/02/2025 10:44:03;110;0;28.17;-4;-65.08;-16.93;1.1;19.50;77558;2837.189;-1758.585;1;278;-100;-101.6;49.2;49.2;-13;-13.1;28.7;-1.0;
13/02/2025 10:44:13;110;0;34.79;-4;-54.08;-17.96;2.6;19.60;77581;2837.190;-1758.585;1;278;-100;-98.4;49.2;48.9;-13;-13.1;28.7;-1.0;
13/02/2025 10:44:33;100;0;49.40;-4;-31.86;-17.54;6.9;19.60;77572;2837.193;-1758.583;1;278;-100;-96.8;49.2;48.9;-13;-13.1;28.7;-1.0;
13/02/2025 10:44:53;100;0;59.49;-4;-30.01;-18.05;11.7;19.70;77585;2837.197;-1758.580;1;278;-100;-96.8;49.2;48.7;70;69.9;28.7;-1.0;
13/02/2025 10:45:13;100;0;56.31;-4;-34.26;23.32;16.3;19.70;77578;2837.200;-1758.578;1;278;-100;-95.2;47.9;48.0;70;69.9;28.7;0.0;
13/02/2025 10:45:33;100;0;50.06;-4;-33.99;23.37;21.1;19.70;77586;2837.203;-1758.576;1;278;-100;-95.2;46.7;46.7;70;70.4;28.7;0.0;
13/02/2025 10:45:53;100;0;38.98;-4;-31.24;23.56;26.0;19.70;77586;2837.207;-1758.574;1;278;-100;-95.2;46.7;46.4;70;69.9;28.7;0.0;
13/02/2025 10:46:13;100;0;27.81;-4;-30.31;23.44;30.4;19.70;77605;2837.212;-1758.573;1;278;-100;-95.2;46.7;46.5;70;70.4;28.7;0.0;
13/02/2025 10:46:33;100;0;16.71;-4;-29.68;23.50;34.9;19.70;77610;2837.216;-1758.572;1;278;-100;-95.2;46.7;46.7;70;70.4;28.7;0.0;
13/02/2025 10:46:53;100;0;6.62;-4;-30.29;23.47;39.3;19.80;77598;2837.221;-1758.573;1;278;-100;-95.2;46.7;46.5;70;70.4;28.7;0.0;
13/02/2025 10:47:13;100;0;353.57;-4;-29.64;23.48;43.7;19.80;77603;2837.226;-1758.574;1;277;-100;-95.2;46.7;46.4;70;69.9;28.7;0.0;
13/02/2025 10:47:33;100;0;342.19;-4;-29.61;23.45;48.1;19.80;77603;2837.231;-1758.577;1;277;-100;-95.2;46.7;46.4;70;70.4;28.7;0.0;
13/02/2025 10:47:53;100;0;331.49;-4;-29.85;23.58;52.6;19.80;77605;2837.235;-1758.580;1;277;-100;-98.4;46.7;46.5;70;70.4;28.7;0.0;
13/02/2025 10:48:13;100;0;318.40;-4;-29.44;23.53;57.0;19.80;77608;2837.239;-1758.584;1;277;-100;-95.2;46.7;46.5;70;70.4;28.7;0.0;
13/02/2025 10:48:33;100;0;305.13;-4;-29.42;23.43;61.4;19.80;77611;2837.242;-1758.588;1;277;-100;-96.8;46.7;46.4;57;56.9;28.7;0.0;
13/02/2025 10:48:53;100;0;292.14;-4;-28.65;16.32;65.6;19.80;77599;2837.245;-1758.593;1;277;-100;-95.2;47.2;47.4;40;40.2;28.7;0.0;
13/02/2025 10:49:13;100;0;282.08;-4;-28.96;7.98;70.0;19.80;77607;2837.247;-1758.599;1;277;-100;-95.2;47.5;47.4;21;21.2;28.7;0.0;
13/02/2025 10:49:33;100;0;278.49;-4;-28.16;-1.19;74.2;19.80;77596;2837.248;-1758.605;1;277;-100;-95.2;48.0;48.3;16;15.3;28.7;0.0;
13/02/2025 10:49:53;100;0;277.01;-4;-29.47;-4.23;78.7;19.80;77617;2837.250;-1758.610;1;277;-100;-95.2;48.0;48.3;16;14.9;28.7;0.0;
13/02/2025 10:50:13;100;0;278.49;-4;-29.29;-4.23;83.2;19.80;77621;2837.251;-1758.616;1;277;-100;-95.2;48.0;48.3;16;14.9;28.7;0.0;
13/02/2025 10:50:33;100;0;278.70;-4;-28.88;-4.32;87.7;19.80;77617;2837.253;-1758.621;1;277;-100;-95.2;48.4;48.3;16;14.9;28.7;0.0;
13/02/2025 10:50:53;100;0;279.00;-4;-29.26;-4.28;92.0;19.80;77614;2837.254;-1758.627;1;277;-100;-98.4;48.4;48.3;16;14.9;28.7;0.0;
13/02/2025 10:51:13;100;0;277.73;-4;-29.84;-4.32;96.3;19.80;77611;2837.256;-1758.632;1;277;-100;-95.2;48.4;48.3;16;14.9;28.7;0.0;
13/02/2025 10:51:33;100;0;277.22;-4;-30.27;-4.32;100.9;19.80;77619;2837.257;-1758.638;1;277;-100;-95.2;48.4;48.3;16;14.9;28.7;0.0;
13/02/2025 10:51:53;100;0;275.82;-4;-30.25;-4.25;105.5;19.90;77611;2837.259;-1758.643;1;277;-100;-95.2;48.4;48.3;14;14.0;28.7;0.0;
13/02/2025 10:52:13;100;0;274.06;-4;-29.62;-4.73;110.3;19.90;77611;2837.260;-1758.649;1;277;-100;-95.2;48.4;48.3;12;12.2;28.7;0.0;
13/02/2025 10:52:33;100;0;271.92;-4;-28.96;-5.60;114.6;19.80;77611;2837.261;-1758.655;1;277;-100;-95.2;48.7;48.7;12;12.2;28.7;0.0;
13/02/2025 10:52:53;100;0;268.56;-4;-29.29;-5.88;119.0;19.90;77611;2837.262;-1758.660;1;277;-100;-95.2;48.7;48.9;10;9.5;28.7;0.0;
13/02/2025 10:53:13;100;0;269.88;-4;-28.32;-7.09;123.0;19.80;77594;2837.263;-1758.665;1;277;-100;-95.2;49.2;49.3;10;9.0;28.7;0.0;
13/02/2025 10:53:33;100;0;268.74;-4;-30.78;-7.12;127.0;19.80;77574;2837.264;-1758.670;1;277;-100;-95.2;49.2;49.5;10;9.5;28.7;0.0;
13/02/2025 10:53:53;100;0;269.17;-4;-31.03;-7.01;131.4;19.80;77543;2837.265;-1758.676;1;277;-100;-95.2;49.2;49.5;10;9.0;28.7;0.0;
13/02/2025 10:54:13;100;0;267.09;-4;-30.62;-7.00;135.6;19.80;77513;2837.265;-1758.681;1;277;-100;-95.2;49.2;49.5;10;9.0;28.7;0.0;
13/02/2025 10:54:33;100;0;264.26;-4;-31.80;-7.24;139.8;19.80;77492;2837.266;-1758.686;1;277;-100;-95.2;49.2;49.5;10;9.5;28.7;0.0;
13/02/2025 10:54:53;100;0;264.52;-4;-32.47;-7.01;144.5;19.70;77472;2837.266;-1758.691;1;277;-100;-95.2;48.4;48.5;10;9.5;28.7;0.0;
13/02/2025 10:55:13;100;0;265.09;-4;-29.94;-6.83;149.1;19.70;77446;2837.267;-1758.696;1;277;-100;-95.2;48.4;48.2;10;9.0;28.7;0.0;
13/02/2025 10:55:33;100;0;261.62;-4;-28.45;-7.20;153.1;19.70;77428;2837.268;-1758.702;1;277;-100;-95.2;48.9;48.9;10;9.0;28.7;0.0;
13/02/2025 10:55:53;100;0;262.79;-4;-30.24;-7.08;156.9;19.70;77409;2837.268;-1758.706;1;277;-100;-93.5;48.9;49.0;10;9.0;28.7;0.0;
13/02/2025 10:56:13;100;0;259.66;-4;-31.64;-7.12;161.0;19.60;77391;2837.268;-1758.711;1;277;-100;-95.2;48.9;49.0;10;9.0;28.7;0.0;
13/02/2025 10:56:33;100;0;259.85;-4;-31.40;-6.97;165.7;19.60;77375;2837.269;-1758.717;1;277;-100;-95.2;48.9;49.0;10;9.0;28.7;0.0;
13/02/2025 10:56:53;100;0;262.31;-4;-31.65;-6.90;170.5;19.60;77358;2837.269;-1758.722;1;277;-100;-95.2;48.9;49.0;10;9.0;28.7;0.0;
13/02/2025 10:57:13;100;0;266.05;-4;-31.60;-6.84;175.2;19.50;77351;2837.270;-1758.728;1;277;-100;-95.2;48.9;49.2;10;9.0;28.7;0.0;
13/02/2025 10:57:33;100;0;264.24;-4;-29.64;-7.04;179.8;19.50;77327;2837.270;-1758.733;1;277;-100;-95.2;48.9;49.0;10;9.0;28.7;0.0;
13/02/2025 10:57:53;100;0;265.40;-4;-29.74;-7.25;184.0;19.50;77325;2837.271;-1758.738;1;277;-100;-95.2;48.9;49.0;10;9.0;28.7;0.0;
13/02/2025 10:58:13;100;0;267.39;-4;-29.39;-7.21;188.1;19.40;77316;2837.272;-1758.744;1;277;-100;-95.2;48.9;49.0;10;9.0;28.7;0.0;
13/02/2025 10:58:33;100;0;269.87;-4;-29.51;-7.17;192.2;19.40;77292;2837.273;-1758.749;1;277;-100;-95.2;48.9;49.0;10;9.0;28.7;0.0;
13/02/2025 10:58:53;100;0;272.49;-4;-29.91;-7.20;196.3;19.40;77285;2837.274;-1758.754;1;277;-100;-95.2;48.9;49.0;12;12.2;28.7;0.0;
13/02/2025 10:59:13;100;0;275.42;-4;-30.94;-5.34;200.7;19.30;77260;2837.275;-1758.759;1;277;-100;-95.2;48.9;49.0;14;14.4;28.7;0.0;
13/02/2025 10:59:33;100;0;270.92;-4;-31.68;-4.33;205.3;19.20;77232;2837.276;-1758.764;1;277;-100;-95.2;48.9;49.2;11;10.8;28.7;0.0;
13/02/2025 10:59:53;100;0;271.07;-4;-30.54;-6.34;210.1;19.20;77217;2837.277;-1758.770;1;277;-100;-95.2;48.9;49.0;11;10.4;28.7;0.0;
13/02/2025 11:00:13;100;0;270.51;-4;-30.22;-6.40;214.5;19.20;77188;2837.278;-1758.775;1;277;-100;-95.2;48.9;49.0;11;10.4;28.7;0.0;
13/02/2025 11:00:33;100;0;269.09;-4;-30.25;-6.45;218.8;19.10;77167;2837.279;-1758.781;1;277;-100;-95.2;48.9;49.0;11;10.4;28.7;0.0;
13/02/2025 11:00:53;100;0;271.69;-4;-30.11;-6.36;223.1;19.10;77155;2837.280;-1758.786;1;277;-100;-95.2;48.9;49.0;11;10.4;28.7;0.0;
13/02/2025 11:01:13;100;0;272.26;-4;-29.50;-6.48;227.3;19.00;77138;2837.281;-1758.791;1;277;-100;-95.2;48.9;49.0;11;10.4;28.7;0.0;
13/02/2025 11:01:33;100;0;268.48;-4;-30.14;-6.54;231.5;19.00;77124;2837.282;-1758.797;1;277;-100;-96.8;48.9;49.0;11;10.4;28.7;0.0;
13/02/2025 11:01:53;100;0;270.28;-4;-30.79;-6.39;235.8;18.90;77115;2837.283;-1758.802;1;277;-100;-95.2;48.9;49.0;11;10.8;28.7;0.0;
13/02/2025 11:02:13;100;0;270.40;-4;-30.68;-6.41;240.3;18.90;77098;2837.284;-1758.807;1;277;-100;-95.2;48.9;49.0;11;10.4;28.7;0.0;
13/02/2025 11:02:33;100;0;268.58;-4;-29.91;-6.46;244.8;18.80;77083;2837.285;-1758.813;1;277;-100;-95.2;48.9;49.2;11;10.4;28.7;0.0;
13/02/2025 11:02:53;100;0;268.28;-4;-30.02;-6.49;248.9;18.80;77071;2837.286;-1758.818;1;277;-100;-95.2;48.9;49.2;11;10.4;28.8;0.0;
13/02/2025 11:03:13;100;0;269.02;-4;-29.76;-6.48;253.1;18.70;77048;2837.287;-1758.823;1;277;-100;-95.2;48.9;49.0;11;10.4;28.7;0.0;
13/02/2025 11:03:33;100;0;266.85;-4;-29.51;-6.52;257.3;18.70;77036;2837.287;-1758.828;1;277;-100;-98.4;48.9;49.2;11;10.4;28.7;0.0;
13/02/2025 11:03:54;100;0;265.41;-4;-29.78;-6.55;261.3;18.60;77020;2837.288;-1758.833;1;277;-100;-96.8;48.9;49.2;11;10.4;28.7;0.0;
13/02/2025 11:04:14;100;0;265.46;-4;-29.32;-6.37;265.5;18.50;76994;2837.289;-1758.838;1;277;-100;-95.2;48.9;49.0;11;10.4;28.7;0.0;
13/02/2025 11:04:34;100;0;263.97;-4;-28.17;-6.67;269.5;18.50;76988;2837.289;-1758.844;1;277;-100;-95.2;49.4;49.6;11;10.4;28.7;0.0;
13/02/2025 11:04:54;100;0;266.40;-4;-30.08;-6.30;273.3;18.40;76971;2837.290;-1758.849;1;277;-100;-93.5;49.4;49.9;11;10.4;28.7;0.0;
13/02/2025 11:05:14;100;0;265.63;-4;-31.17;-6.45;277.3;18.40;76959;2837.291;-1758.853;1;277;-100;-93.5;49.4;49.9;11;10.4;28.7;0.0;
13/02/2025 11:05:34;100;0;262.50;-4;-32.43;-6.47;281.6;18.30;76933;2837.291;-1758.858;1;277;-100;-96.8;48.7;48.7;11;10.4;28.7;0.0;
13/02/2025 11:05:54;100;0;262.37;-4;-30.95;-6.38;286.2;18.30;76933;2837.292;-1758.864;1;277;-100;-95.2;48.7;48.6;11;10.4;28.7;0.0;
13/02/2025 11:06:14;100;0;260.33;-4;-30.02;-6.54;290.5;18.20;76909;2837.292;-1758.869;1;277;-100;-95.2;48.7;48.6;11;10.4;28.7;0.0;
13/02/2025 11:06:34;100;0;261.07;-4;-30.06;-6.50;294.8;18.10;76910;2837.292;-1758.874;1;277;-100;-96.8;48.7;48.6;11;10.4;28.7;0.0;
13/02/2025 11:06:54;100;0;262.92;-4;-30.45;-6.56;299.1;18.10;76898;2837.293;-1758.880;1;277;-100;-95.2;48.7;48.6;11;10.4;28.7;0.0;
13/02/2025 11:07:14;100;0;265.04;-4;-29.92;-6.34;303.5;18.00;76887;2837.294;-1758.885;1;277;-100;-95.2;48.7;48.6;11;10.4;28.7;0.0;
13/02/2025 11:07:34;100;0;267.76;-4;-30.11;-6.40;307.8;18.00;76877;2837.294;-1758.890;1;277;-100;-95.2;48.7;48.6;11;10.4;28.7;0.0;
13/02/2025 11:07:54;100;0;274.69;-4;-29.79;-6.26;312.2;17.90;76865;2837.296;-1758.896;1;277;-100;-96.8;48.7;48.6;13;13.1;28.7;0.0;
13/02/2025 11:08:14;100;0;271.84;-4;-29.53;-5.04;316.5;17.90;76850;2837.297;-1758.901;1;277;-100;-95.2;48.7;48.5;13;13.1;28.7;0.0;
13/02/2025 11:08:34;100;0;267.47;-4;-29.13;-5.10;320.6;17.80;76831;2837.297;-1758.906;1;277;-100;-95.2;48.7;48.6;11;10.4;28.7;0.0;
13/02/2025 11:08:54;100;0;267.72;-4;-29.11;-6.21;324.7;17.80;76824;2837.298;-1758.912;1;277;-100;-96.8;48.7;48.6;11;10.8;28.7;0.0;
13/02/2025 11:09:14;100;0;267.60;-4;-29.16;-6.25;328.8;17.70;76818;2837.299;-1758.917;1;277;-100;-95.2;48.7;48.6;11;10.8;28.8;0.0;
13/02/2025 11:09:34;100;0;269.93;-4;-29.33;-6.20;333.0;17.60;76807;2837.300;-1758.922;1;277;-100;-95.2;48.7;48.6;11;10.8;28.7;0.0;
13/02/2025 11:09:54;100;0;270.25;-4;-29.58;-6.26;337.2;17.60;76796;2837.301;-1758.927;1;277;-100;-95.2;48.7;48.6;11;10.8;28.7;0.0;
13/02/2025 11:10:14;100;0;267.92;-4;-29.15;-6.34;341.6;17.50;76767;2837.302;-1758.933;1;277;-100;-95.2;48.7;48.6;11;10.8;28.7;0.0;
13/02/2025 11:10:34;100;0;270.04;-4;-29.47;-6.29;345.9;17.50;76770;2837.303;-1758.938;1;277;-100;-95.2;48.7;48.6;11;10.8;28.7;0.0;
13/02/2025 11:10:54;100;0;273.02;-4;-29.78;-6.26;350.2;17.40;76755;2837.304;-1758.944;1;277;-100;-95.2;48.7;48.6;13;13.1;28.7;0.0;
13/02/2025 11:11:14;100;0;274.62;-4;-29.73;-4.92;354.8;17.40;76737;2837.305;-1758.949;1;277;-100;-95.2;48.7;48.6;13;14.0;28.7;0.0;
13/02/2025 11:11:34;100;0;275.64;-4;-29.88;-4.81;359.3;17.30;76729;2837.307;-1758.955;1;276;-100;-96.8;48.7;48.6;16;16.2;28.7;0.0;
13/02/2025 11:11:54;100;0;278.69;-4;-30.08;-3.57;363.8;17.30;76725;2837.308;-1758.960;1;276;-100;-95.2;48.7;48.5;19;19.0;28.7;0.0;
13/02/2025 11:12:14;100;0;278.73;-4;-30.21;-2.02;368.3;17.20;76711;2837.310;-1758.966;1;276;-100;-95.2;48.7;48.6;21;21.2;28.7;0.0;
13/02/2025 11:12:34;100;0;281.70;-4;-30.31;-1.03;372.9;17.20;76711;2837.311;-1758.971;1;276;-100;-96.8;48.7;48.5;24;23.9;28.7;0.0;
13/02/2025 11:12:54;100;0;277.49;-4;-30.29;0.52;377.5;17.10;76691;2837.313;-1758.977;1;276;-100;-95.2;48.7;48.6;18;18.1;28.7;0.0;
13/02/2025 11:13:14;100;0;269.47;-4;-29.29;-3.06;381.9;17.10;76676;2837.314;-1758.983;1;276;-100;-95.2;48.7;48.6;11;10.8;28.7;0.0;
13/02/2025 11:13:34;100;0;264.89;-4;-28.87;-6.34;386.1;17.00;76671;2837.315;-1758.988;1;276;-100;-95.2;49.0;49.3;11;10.8;28.7;0.0;
13/02/2025 11:13:54;100;0;261.89;-4;-29.80;-6.37;390.3;16.90;76670;2837.315;-1758.993;1;276;-100;-95.2;49.0;49.3;11;10.8;28.7;0.0;
13/02/2025 11:14:14;100;0;259.31;-4;-29.42;-6.53;394.5;16.90;76634;2837.315;-1758.998;1;276;-100;-98.4;49.0;49.5;11;10.8;28.7;0.0;
13/02/2025 11:14:34;100;0;257.76;-4;-29.63;-6.30;398.6;16.80;76636;2837.315;-1759.003;1;276;-100;-95.2;49.0;49.3;11;10.8;28.7;0.0;
13/02/2025 11:14:54;100;0;257.48;-4;-29.31;-6.35;402.8;16.80;76628;2837.316;-1759.009;1;276;-100;-95.2;49.0;49.5;11;10.8;28.7;0.0;
13/02/2025 11:15:14;100;0;258.85;-4;-29.70;-6.48;407.0;16.70;76628;2837.316;-1759.014;1;276;-100;-95.2;49.0;49.5;11;10.8;28.7;0.0;
13/02/2025 11:15:34;100;0;259.96;-4;-30.18;-6.44;411.3;16.70;76621;2837.316;-1759.019;1;276;-100;-95.2;49.0;49.5;11;10.8;28.7;0.0;
13/02/2025 11:15:54;100;0;260.50;-4;-29.71;-6.42;415.7;16.60;76596;2837.316;-1759.024;1;276;-100;-95.2;49.0;49.5;11;10.8;28.7;0.0;
13/02/2025 11:16:14;100;0;262.76;-4;-29.91;-6.36;420.0;16.60;76592;2837.317;-1759.030;1;276;-100;-96.8;49.0;49.3;11;10.8;28.7;0.0;
13/02/2025 11:16:34;100;0;258.98;-4;-30.42;-6.33;424.5;16.50;76578;2837.317;-1759.035;1;276;-100;-96.8;49.0;49.3;11;10.8;28.7;0.0;
13/02/2025 11:16:54;100;0;258.11;-4;-31.00;-6.33;429.0;16.50;76567;2837.317;-1759.040;1;276;-100;-95.2;49.0;49.5;11;10.8;28.7;0.0;
13/02/2025 11:17:14;100;0;257.85;-4;-30.63;-6.30;433.6;16.50;76562;2837.317;-1759.046;1;276;-100;-95.2;49.0;49.3;11;10.8;28.7;0.0;
13/02/2025 11:17:34;100;0;258.79;-4;-30.44;-6.28;438.1;16.40;76547;2837.318;-1759.051;1;276;-100;-95.2;49.0;49.5;11;10.8;28.7;0.0;
13/02/2025 11:17:54;100;0;261.67;-4;-30.08;-6.29;442.5;16.30;76549;2837.318;-1759.057;1;276;-100;-95.2;49.0;49.3;11;10.8;28.7;0.0;
13/02/2025 11:18:14;100;0;265.34;-4;-29.99;-6.52;446.7;16.30;76528;2837.319;-1759.062;1;276;-100;-95.2;49.0;49.5;11;10.8;28.7;0.0;
13/02/2025 11:18:34;100;0;266.88;-4;-30.06;-6.39;450.8;16.30;76530;2837.319;-1759.067;1;276;-100;-95.2;49.0;49.3;11;10.8;28.7;0.0;
13/02/2025 11:18:54;100;0;269.06;-4;-30.18;-6.32;455.1;16.20;76512;2837.320;-1759.072;1;276;-100;-95.2;49.0;49.5;11;10.8;28.7;0.0;
13/02/2025 11:19:14;100;0;269.19;-4;-30.39;-6.20;459.4;16.10;76509;2837.321;-1759.077;1;276;-100;-95.2;49.0;49.5;11;10.8;28.7;0.0;
13/02/2025 11:19:34;100;0;271.31;-4;-30.64;-5.80;463.7;16.10;76504;2837.322;-1759.083;1;276;-100;-95.2;49.0;49.5;13;13.1;28.7;0.0;
13/02/2025 11:19:54;100;0;271.36;-4;-30.96;-5.64;468.1;16.10;76503;2837.323;-1759.088;1;276;-100;-95.2;49.0;49.5;13;13.5;28.7;0.0;
13/02/2025 11:20:14;100;0;270.99;-4;-30.60;-5.16;472.4;16.00;76482;2837.324;-1759.093;1;276;-100;-95.2;49.0;49.5;13;13.5;28.7;0.0;
13/02/2025 11:20:34;100;0;274.29;-4;-30.86;-4.75;476.8;16.00;76486;2837.326;-1759.098;1;276;-100;-95.2;49.0;49.3;15;15.3;28.7;0.0;
13/02/2025 11:20:54;100;0;278.62;-4;-31.49;-3.90;481.1;16.00;76487;2837.327;-1759.103;1;276;-100;-95.2;49.0;49.5;21;21.2;28.7;0.0;
13/02/2025 11:21:14;100;0;275.80;-4;-30.59;-0.90;485.5;15.90;76462;2837.328;-1759.109;1;276;-100;-95.2;49.0;49.5;17;17.1;28.7;0.0;
13/02/2025 11:21:34;100;0;268.99;-4;-30.24;-3.51;489.7;15.80;76445;2837.329;-1759.114;1;276;-100;-95.2;49.0;49.3;12;12.2;28.7;0.0;
13/02/2025 11:21:54;100;0;264.24;-4;-30.08;-5.75;493.8;15.80;76447;2837.330;-1759.119;1;276;-100;-93.5;49.0;49.5;12;12.2;28.7;0.0;
13/02/2025 11:22:14;100;0;266.93;-4;-30.04;-5.89;497.9;15.80;76440;2837.331;-1759.124;1;276;-100;-95.2;49.0;49.5;12;12.2;28.7;0.0;
13/02/2025 11:22:19;118;0;267.38;-4;-30.06;-5.79;499.0;15.80;76432;2837.331;-1759.125;1;276;220;-90.3;20.4;20.5;12;12.2;28.7;0.0;
13/02/2025 11:22:29;118;0;216.49;-4;-16.84;-6.51;500.5;15.70;76414;2837.329;-1759.127;1;276;220;38.7;20.4;20.2;12;12.2;28.0;-1.0;
13/02/2025 11:22:39;118;0;341.88;-4;12.61;-6.26;501.2;15.70;76132;2837.331;-1759.128;1;276;220;164.5;20.4;20.5;12;12.2;28.0;-1.0;
13/02/2025 11:22:49;118;0;351.75;-4;27.21;-7.00;500.5;15.70;75866;2837.332;-1759.129;1;276;220;221.0;20.4;20.6;12;12.2;27.9;-1.0;
13/02/2025 11:22:59;118;0;266.76;-4;30.77;-6.63;499.2;15.70;75764;2837.332;-1759.130;1;276;220;221.0;20.4;20.6;12;11.7;28.7;-1.0;
13/02/2025 11:23:19;117;0;256.23;-4;31.48;-6.57;496.3;15.60;75755;2837.333;-1759.134;1;276;220;222.6;20.4;20.6;12;12.2;28.7;-1.0;
13/02/2025 11:23:39;117;0;248.54;-4;30.94;-6.64;492.7;15.60;75755;2837.333;-1759.139;1;276;220;222.6;20.4;20.6;37;37.0;28.7;-1.0;
13/02/2025 11:23:59;117;0;250.78;-4;32.69;7.12;489.4;15.60;75746;2837.333;-1759.142;1;276;220;222.6;21.2;21.2;37;37.5;28.7;-1.0;
13/02/2025 11:24:19;117;0;255.34;-4;32.17;7.22;485.9;15.50;75745;2837.333;-1759.146;1;276;220;222.6;21.9;22.1;35;35.2;28.7;-1.0;
13/02/2025 11:24:39;117;0;252.84;-4;31.08;6.01;482.6;15.50;75751;2837.333;-1759.151;1;276;220;222.6;21.9;22.1;35;35.2;28.7;-1.0;
13/02/2025 11:24:59;117;0;248.87;-4;30.55;6.13;479.3;15.40;75746;2837.333;-1759.154;1;276;220;222.6;21.9;22.1;37;37.5;28.7;-1.0;
13/02/2025 11:25:19;117;0;247.53;-4;30.39;7.49;476.2;15.40;75755;2837.333;-1759.158;1;276;220;222.6;21.9;22.1;37;37.9;28.7;-1.0;
13/02/2025 11:25:39;117;0;247.67;-4;29.95;7.29;473.1;15.40;75752;2837.333;-1759.162;1;276;220;222.6;21.9;22.1;37;37.9;28.7;-1.0;
13/02/2025 11:25:59;117;0;248.59;-4;30.40;7.13;470.1;15.30;75745;2837.333;-1759.166;1;276;220;222.6;21.9;22.1;37;37.5;28.7;-1.0;
13/02/2025 11:26:19;117;0;248.57;-4;30.77;7.27;467.1;15.30;75731;2837.333;-1759.170;1;276;220;222.6;21.9;22.2;37;37.9;28.7;-1.0;
13/02/2025 11:26:39;117;0;249.70;-4;30.70;6.93;464.0;15.30;75730;2837.333;-1759.174;1;276;220;222.6;21.9;22.1;37;37.5;28.7;-1.0;
13/02/2025 11:26:59;117;0;250.24;-4;30.35;7.43;460.9;15.20;75721;2837.333;-1759.178;1;276;220;224.2;21.9;22.1;35;34.3;28.8;-1.0;
13/02/2025 11:27:19;117;0;249.78;-4;30.43;4.79;457.8;15.20;75716;2837.333;-1759.181;1;276;220;222.6;21.9;22.1;38;37.9;28.7;-1.0;
13/02/2025 11:27:39;117;0;250.95;-4;30.66;7.64;454.6;15.20;75710;2837.333;-1759.185;1;276;220;221.0;21.9;22.1;36;36.1;28.7;-1.0;
13/02/2025 11:27:59;117;0;251.58;-4;31.13;6.74;451.3;15.10;75711;2837.333;-1759.189;1;276;220;221.0;21.9;22.1;36;36.1;28.7;-1.0;
13/02/2025 11:28:19;117;0;252.19;-4;30.45;6.66;448.0;15.10;75703;2837.333;-1759.194;1;276;220;222.6;21.9;22.2;36;36.1;28.7;-1.0;
13/02/2025 11:28:39;117;0;252.72;-4;29.96;6.34;444.6;15.10;75705;2837.333;-1759.198;1;276;220;219.4;21.9;22.1;36;36.1;28.7;-1.0;
13/02/2025 11:28:59;117;0;249.90;-4;31.44;6.39;441.3;15.10;75696;2837.333;-1759.202;1;276;220;221.0;21.9;22.1;36;36.1;28.7;-1.0;
13/02/2025 11:29:19;117;0;242.76;-4;31.23;6.45;437.6;15.00;75700;2837.333;-1759.206;1;276;220;222.6;21.9;22.1;47;46.9;28.7;-1.0;
13/02/2025 11:29:39;117;0;242.02;-4;31.24;12.67;433.9;15.00;75698;2837.332;-1759.210;1;276;220;221.0;21.9;22.2;49;49.2;28.7;-1.0;
13/02/2025 11:29:59;117;0;242.79;-4;31.35;13.63;430.2;15.00;75702;2837.332;-1759.214;1;277;220;222.6;21.9;22.2;51;51.0;28.7;-1.0;
13/02/2025 11:30:19;117;0;245.37;-4;31.24;14.77;426.4;15.00;75698;2837.331;-1759.219;1;277;220;222.6;21.9;22.2;47;46.9;28.7;-1.0;
13/02/2025 11:30:39;117;0;246.20;-4;31.08;11.94;422.8;14.90;75680;2837.331;-1759.223;1;277;220;222.6;21.9;22.1;45;45.1;28.7;-1.0;
13/02/2025 11:30:59;117;0;248.45;-4;30.66;10.90;419.1;14.90;75691;2837.331;-1759.227;1;277;220;222.6;21.9;22.1;41;41.1;28.7;-1.0;
13/02/2025 11:31:19;117;0;251.00;-4;30.43;8.81;415.6;14.90;75678;2837.331;-1759.231;1;277;220;222.6;21.9;22.1;38;37.9;28.7;-1.0;
13/02/2025 11:31:39;117;0;252.78;-4;30.72;7.10;412.1;14.90;75694;2837.331;-1759.236;1;277;220;222.6;21.9;22.1;38;37.5;28.7;-1.0;
13/02/2025 11:31:59;117;0;253.42;-4;30.34;7.10;408.4;14.90;75686;2837.331;-1759.240;1;277;220;222.6;21.9;22.1;38;37.5;28.7;-1.0;
13/02/2025 11:32:19;117;0;256.35;-4;30.09;7.05;404.9;14.90;75687;2837.331;-1759.245;1;277;220;222.6;21.9;22.1;36;36.1;28.7;-1.0;
13/02/2025 11:32:39;117;0;253.24;-4;30.14;6.19;401.4;14.80;75682;2837.331;-1759.249;1;277;220;222.6;21.9;22.1;36;35.6;28.7;-1.0;
13/02/2025 11:32:59;117;0;251.59;-4;30.53;6.20;398.0;14.80;75681;2837.331;-1759.253;1;277;220;221.0;21.9;22.2;36;36.1;28.7;-1.0;
13/02/2025 11:33:19;117;0;252.39;-4;30.12;6.16;394.4;14.80;75682;2837.331;-1759.258;1;277;220;222.6;21.9;22.1;38;37.9;28.7;-1.0;
13/02/2025 11:33:39;117;0;253.09;-4;30.22;7.63;391.0;14.80;75679;2837.331;-1759.262;1;277;220;222.6;21.9;22.2;38;38.4;28.7;-1.0;
13/02/2025 11:33:59;117;0;252.79;-4;30.40;7.68;387.6;14.80;75680;2837.332;-1759.266;1;277;220;222.6;21.9;22.1;38;38.4;28.7;-1.0;
13/02/2025 11:34:19;117;0;254.04;-4;30.64;7.73;384.2;14.80;75678;2837.332;-1759.270;1;277;220;222.6;21.9;22.1;36;35.2;28.7;-1.0;
13/02/2025 11:34:39;117;0;253.95;-4;30.18;5.76;380.8;14.80;75686;2837.332;-1759.274;1;277;220;222.6;21.9;22.1;36;35.2;28.7;-1.0;
13/02/2025 11:34:59;117;0;253.39;-4;30.46;5.79;377.4;14.70;75684;2837.332;-1759.279;1;277;220;222.6;21.9;22.1;36;35.2;28.7;-1.0;
13/02/2025 11:35:19;117;0;254.65;-4;30.04;5.83;374.0;14.70;75683;2837.332;-1759.283;1;277;220;222.6;21.9;22.1;36;35.2;28.7;-1.0;
13/02/2025 11:35:39;117;0;256.02;-4;30.05;5.79;370.6;14.70;75677;2837.332;-1759.287;1;277;220;222.6;21.9;22.1;36;35.2;28.7;-1.0;
13/02/2025 11:35:59;117;0;256.78;-4;30.04;5.78;367.6;14.70;75686;2837.333;-1759.291;1;277;220;222.6;21.9;22.1;36;35.2;28.7;-1.0;
13/02/2025 11:36:19;117;0;259.09;-4;29.89;5.82;364.4;14.70;75683;2837.333;-1759.295;1;277;220;224.2;21.9;22.1;36;35.2;28.7;-1.0;
13/02/2025 11:36:39;117;0;263.25;-4;29.78;5.79;361.3;14.70;75690;2837.334;-1759.300;1;277;220;222.6;21.9;22.2;36;35.2;28.7;-1.0;
13/02/2025 11:36:59;117;0;261.45;-4;30.22;5.81;358.4;14.70;75695;2837.334;-1759.303;1;277;220;222.6;21.9;22.1;36;35.2;28.7;-1.0;
13/02/2025 11:37:19;117;0;256.40;-4;29.83;5.80;355.3;14.70;75693;2837.335;-1759.307;1;277;220;222.6;21.9;22.1;36;35.2;28.7;-1.0;
13/02/2025 11:37:39;117;0;254.67;-4;30.00;5.97;352.4;14.70;75693;2837.335;-1759.311;1;277;220;222.6;21.9;22.1;36;35.2;28.7;-1.0;
13/02/2025 11:37:59;117;0;253.43;-4;29.64;5.77;349.5;14.70;75693;2837.335;-1759.315;1;277;220;222.6;21.9;22.1;36;35.2;28.7;-1.0;
13/02/2025 11:38:19;117;0;252.26;-4;29.96;5.90;346.7;14.70;75705;2837.335;-1759.319;1;277;220;222.6;21.9;22.1;36;35.6;28.7;-1.0;
13/02/2025 11:38:39;117;0;252.20;-4;29.67;5.86;344.0;14.70;75705;2837.336;-1759.322;1;277;220;221.0;21.9;22.2;36;35.2;28.7;-1.0;
13/02/2025 11:38:59;117;0;252.45;-4;29.53;5.80;341.2;14.70;75695;2837.336;-1759.326;1;277;220;219.4;21.9;22.1;36;35.2;28.7;-1.0;
13/02/2025 11:39:20;117;0;252.17;-4;29.71;5.88;338.6;14.70;75700;2837.336;-1759.329;1;277;220;222.6;21.9;22.1;36;35.2;28.7;-1.0;
13/02/2025 11:39:40;117;0;253.48;-4;30.46;5.79;336.0;14.60;75693;2837.336;-1759.333;1;277;220;222.6;21.9;22.1;36;35.2;28.7;-1.0;
13/02/2025 11:40:00;117;0;253.50;-4;29.02;5.60;333.3;14.70;75711;2837.337;-1759.337;1;277;220;222.6;21.9;22.1;36;35.2;28.7;-1.0;
13/02/2025 11:40:20;117;0;252.43;-4;30.21;5.83;330.7;14.60;75720;2837.337;-1759.340;1;277;220;222.6;21.9;22.1;36;35.2;28.7;-1.0;
13/02/2025 11:40:40;117;0;252.30;-4;29.79;5.63;328.0;14.70;75735;2837.337;-1759.344;1;277;220;221.0;21.9;22.1;36;35.2;28.7;-1.0;
13/02/2025 11:41:00;117;0;251.65;-4;30.01;5.82;325.2;14.60;75720;2837.337;-1759.347;1;277;220;222.6;21.9;22.1;36;35.2;28.7;-1.0;
13/02/2025 11:41:20;117;0;252.38;-4;29.98;5.86;322.5;14.60;75739;2837.337;-1759.351;1;277;220;222.6;21.9;22.2;36;35.2;28.7;-1.0;
13/02/2025 11:41:40;117;0;253.36;-4;29.78;5.75;319.7;14.70;75736;2837.338;-1759.355;1;277;220;222.6;21.9;22.1;36;35.2;28.7;-1.0;
13/02/2025 11:42:00;117;0;252.94;-4;29.73;5.80;316.9;14.70;75741;2837.338;-1759.358;1;277;220;222.6;21.9;22.1;36;35.2;28.7;-1.0;
13/02/2025 11:42:20;117;0;252.10;-4;30.37;5.72;314.2;14.70;75751;2837.338;-1759.362;1;277;220;222.6;21.9;22.1;36;35.2;28.7;-1.0;
13/02/2025 11:42:40;117;0;249.78;-4;30.18;5.75;311.3;14.70;75751;2837.338;-1759.366;1;277;220;222.6;21.9;22.1;38;37.9;28.7;-1.0;
13/02/2025 11:43:00;117;0;250.58;-4;29.94;7.56;308.5;14.70;75745;2837.338;-1759.369;1;277;220;222.6;21.9;22.2;38;38.4;28.7;-1.0;
13/02/2025 11:43:20;117;0;251.24;-4;30.12;7.58;305.8;14.70;75750;2837.339;-1759.373;1;277;220;222.6;21.9;22.1;38;38.4;28.7;-1.0;
13/02/2025 11:43:40;117;0;250.00;-4;30.08;7.66;303.1;14.70;75757;2837.339;-1759.376;1;277;220;222.6;21.9;22.1;38;38.4;28.7;-1.0;
13/02/2025 11:44:00;117;0;248.12;-4;29.90;7.63;300.5;14.70;75764;2837.339;-1759.380;1;277;220;222.6;21.9;22.1;38;38.4;28.7;-1.0;
13/02/2025 11:44:20;117;0;246.07;-4;30.03;7.72;297.9;14.70;75767;2837.339;-1759.383;1;277;220;222.6;21.9;22.1;38;38.4;28.7;-1.0;
13/02/2025 11:44:40;117;0;245.72;-4;30.11;7.66;295.3;14.70;75763;2837.339;-1759.386;1;277;220;222.6;21.9;22.1;40;40.2;28.7;-1.0;
13/02/2025 11:45:00;117;0;247.09;-4;29.79;8.57;292.6;14.70;75767;2837.339;-1759.390;1;277;220;222.6;21.9;22.1;40;40.6;28.7;-1.0;
13/02/2025 11:45:20;117;0;247.64;-4;30.29;8.71;290.0;14.70;75780;2837.339;-1759.393;1;277;220;222.6;21.9;22.2;38;37.5;28.7;-1.0;
13/02/2025 11:45:40;117;0;249.80;-4;29.23;6.88;287.1;14.70;75777;2837.339;-1759.397;1;277;220;222.6;21.9;22.1;38;37.0;28.7;-1.0;
13/02/2025 11:46:00;117;0;251.58;-4;29.59;6.56;285.0;14.70;75785;2837.339;-1759.400;1;277;220;222.6;21.9;22.1;36;36.1;28.7;-1.0;
13/02/2025 11:46:20;117;0;253.11;-4;31.00;6.30;282.5;14.70;75782;2837.340;-1759.404;1;277;220;222.6;21.9;22.1;36;35.2;28.7;-1.0;
13/02/2025 11:46:40;117;0;253.68;-4;29.68;6.02;279.5;14.70;75788;2837.340;-1759.407;1;277;220;222.6;21.9;22.1;36;35.6;28.7;-1.0;
13/02/2025 11:47:00;117;0;253.32;-4;29.68;6.02;276.7;14.80;75793;2837.340;-1759.411;1;277;220;222.6;21.9;22.2;36;35.2;28.7;-1.0;
13/02/2025 11:47:20;117;0;252.48;-4;30.47;5.99;273.8;14.80;75803;2837.340;-1759.415;1;277;220;222.6;21.9;22.1;36;35.6;28.7;-1.0;
13/02/2025 11:47:40;117;0;251.57;-4;30.08;5.96;270.7;14.80;75803;2837.340;-1759.419;1;277;220;221.0;21.9;22.2;38;37.9;28.7;-1.0;
13/02/2025 11:48:00;117;0;252.52;-4;29.81;7.46;267.6;14.80;75810;2837.341;-1759.423;1;277;220;222.6;21.9;22.1;38;38.4;28.7;-1.0;
13/02/2025 11:48:20;117;0;252.58;-4;30.11;7.56;264.7;14.80;75813;2837.341;-1759.426;1;277;220;222.6;21.9;22.1;38;38.4;28.7;-1.0;
13/02/2025 11:48:40;117;0;253.10;-4;30.22;7.45;261.6;14.80;75807;2837.341;-1759.431;1;277;220;221.0;21.9;22.2;38;38.4;28.7;-1.0;
13/02/2025 11:49:00;117;0;253.49;-4;30.42;7.53;258.4;14.80;75831;2837.341;-1759.435;1;277;220;222.6;21.9;22.1;38;37.9;28.7;-1.0;
13/02/2025 11:49:20;117;0;255.11;-4;30.20;7.43;255.1;14.80;75831;2837.341;-1759.439;1;277;220;222.6;21.9;22.2;38;37.9;28.7;-1.0;
13/02/2025 11:49:40;117;0;255.88;-4;29.99;7.47;252.0;14.80;75819;2837.342;-1759.443;1;277;220;222.6;21.9;22.1;38;37.9;28.7;-1.0;
13/02/2025 11:50:00;117;0;255.89;-4;30.21;7.48;248.7;14.90;75835;2837.342;-1759.447;1;277;220;222.6;21.9;22.1;38;38.4;28.7;-1.0;
13/02/2025 11:50:20;117;0;257.94;-4;30.24;7.51;245.5;14.90;75832;2837.342;-1759.451;1;277;220;224.2;21.9;22.2;38;37.9;28.7;-1.0;
13/02/2025 11:50:40;117;0;255.97;-4;30.27;7.51;242.2;14.90;75829;2837.342;-1759.455;1;277;220;222.6;21.9;22.2;38;37.9;28.7;-1.0;
13/02/2025 11:51:00;117;0;253.11;-4;30.47;7.44;238.9;14.90;75848;2837.343;-1759.459;1;277;220;222.6;21.9;22.2;38;37.9;28.7;-1.0;
13/02/2025 11:51:20;117;0;248.17;-4;30.43;7.48;235.6;14.90;75862;2837.342;-1759.464;1;277;220;224.2;21.9;22.1;42;42.0;28.7;-1.0;
13/02/2025 11:51:40;117;0;245.18;-4;30.21;9.69;232.2;14.90;75872;2837.342;-1759.468;1;277;220;224.2;21.9;22.2;45;45.1;28.7;-1.0;
13/02/2025 11:52:00;117;0;246.47;-4;30.11;11.66;228.9;14.90;75884;2837.342;-1759.472;1;277;220;224.2;21.9;22.1;45;45.6;28.7;-1.0;
13/02/2025 11:52:20;117;0;251.17;-4;30.21;11.67;225.7;15.00;75891;2837.342;-1759.476;1;277;220;222.6;21.9;22.1;39;38.8;28.7;-1.0;
13/02/2025 11:52:40;117;0;254.11;-4;29.72;7.38;222.4;15.00;75896;2837.342;-1759.480;1;277;220;222.6;21.9;22.1;39;38.4;28.7;-1.0;
13/02/2025 11:53:00;117;0;258.84;-4;29.57;7.36;219.4;15.00;75907;2837.343;-1759.484;1;277;220;222.6;21.9;22.2;37;37.0;28.7;-1.0;
13/02/2025 11:53:20;117;0;261.73;-4;29.38;6.37;216.3;15.00;75903;2837.343;-1759.488;1;277;220;224.2;21.9;22.1;37;36.6;28.7;-1.0;
13/02/2025 11:53:40;117;0;262.05;-4;29.84;6.45;213.2;15.00;75903;2837.344;-1759.492;1;277;220;224.2;21.9;22.1;37;36.6;28.7;-1.0;
13/02/2025 11:54:00;117;0;262.11;-4;29.57;6.46;210.0;15.00;75910;2837.344;-1759.496;1;277;220;224.2;21.9;22.1;37;36.6;28.7;-1.0;
13/02/2025 11:54:20;117;0;262.43;-4;29.56;6.47;207.0;15.10;75918;2837.345;-1759.500;1;277;220;222.6;21.9;22.1;37;36.6;28.7;-1.0;
13/02/2025 11:54:40;117;0;261.46;-4;29.85;6.49;203.9;15.10;75918;2837.345;-1759.504;1;277;220;224.2;21.9;22.1;37;36.6;28.7;-1.0;
13/02/2025 11:55:00;117;0;261.60;-4;29.83;6.51;200.7;15.10;75931;2837.346;-1759.509;1;277;220;224.2;21.9;22.1;37;36.6;28.7;-1.0;
13/02/2025 11:55:20;117;0;259.57;-4;29.63;6.52;197.6;15.10;75931;2837.346;-1759.513;1;277;220;222.6;21.9;22.1;37;36.6;28.7;-1.0;
13/02/2025 11:55:40;117;0;259.32;-4;29.46;6.46;194.6;15.10;75938;2837.347;-1759.517;1;277;220;222.6;21.9;22.1;37;36.6;28.7;-1.0;
13/02/2025 11:56:00;117;0;261.01;-4;29.52;6.47;191.7;15.20;75943;2837.347;-1759.521;1;277;220;222.6;21.9;22.1;37;36.6;28.7;-1.0;
13/02/2025 11:56:20;117;0;262.24;-4;29.48;6.48;188.8;15.20;75956;2837.348;-1759.524;1;277;220;224.2;21.9;22.1;37;36.6;28.7;-1.0;
13/02/2025 11:56:40;117;0;263.57;-4;29.82;6.47;185.9;15.20;75956;2837.349;-1759.528;1;277;220;222.6;21.9;22.2;37;36.6;28.7;-1.0;
13/02/2025 11:57:00;117;0;265.53;-4;29.51;6.47;183.0;15.20;75966;2837.349;-1759.532;1;277;220;222.6;21.9;22.1;35;35.2;28.7;-1.0;
13/02/2025 11:57:20;117;0;264.85;-4;29.37;5.54;180.1;15.20;75984;2837.350;-1759.536;1;277;220;224.2;21.9;22.1;35;34.7;28.7;-1.0;
13/02/2025 11:57:40;117;0;270.25;-4;28.99;5.41;177.4;15.20;75978;2837.351;-1759.540;1;277;220;224.2;21.6;21.5;30;29.8;28.7;-1.0;
13/02/2025 11:58:00;117;0;268.29;-4;29.62;2.59;175.0;15.30;76006;2837.352;-1759.544;1;277;220;224.2;21.6;21.5;30;29.3;28.7;-1.0;
13/02/2025 11:58:20;117;0;260.46;-4;29.79;2.83;172.4;15.30;76025;2837.353;-1759.547;1;277;220;224.2;21.6;21.5;36;36.1;28.7;-1.0;
13/02/2025 11:58:40;117;0;258.54;-4;30.53;6.38;169.7;15.30;76042;2837.353;-1759.551;1;277;220;224.2;21.6;21.5;36;36.1;28.7;-1.0;
13/02/2025 11:59:00;117;0;256.55;-4;30.57;6.49;166.9;15.40;76064;2837.354;-1759.554;1;277;220;222.6;21.6;21.6;36;36.1;28.7;-1.0;
13/02/2025 11:59:20;117;0;255.76;-4;30.61;6.37;164.3;15.40;76068;2837.354;-1759.558;1;277;220;224.2;21.6;21.5;36;36.1;28.7;-1.0;
13/02/2025 11:59:40;117;0;254.44;-4;30.88;6.38;161.6;15.40;76066;2837.354;-1759.561;1;277;220;224.2;21.6;21.5;36;36.1;28.7;-1.0;
13/02/2025 12:00:00;117;0;252.06;-4;30.66;6.49;158.8;15.50;76073;2837.355;-1759.565;1;277;220;224.2;21.6;21.5;36;36.1;28.7;-1.0;
13/02/2025 12:00:20;117;0;248.80;-4;30.70;6.43;156.2;15.50;76078;2837.355;-1759.568;1;277;220;224.2;21.6;21.5;36;36.1;28.7;-1.0;
13/02/2025 12:00:40;117;0;245.39;-4;30.89;6.47;153.6;15.50;76088;2837.355;-1759.571;1;277;220;224.2;21.6;21.5;39;38.8;28.7;-1.0;
13/02/2025 12:01:00;117;0;244.36;-4;30.50;7.83;151.1;15.60;76112;2837.355;-1759.575;1;277;220;224.2;21.6;21.5;39;38.8;28.7;-1.0;
13/02/2025 12:01:20;117;0;244.84;-4;30.47;7.82;148.6;15.60;76103;2837.355;-1759.578;1;277;220;222.6;21.6;21.6;39;38.8;28.7;-1.0;
13/02/2025 12:01:40;117;0;246.73;-4;30.49;7.75;146.2;15.60;76118;2837.355;-1759.581;1;277;220;224.2;21.6;21.4;39;38.8;28.7;-1.0;
13/02/2025 12:02:00;117;0;248.71;-4;30.21;7.75;143.6;15.60;76135;2837.355;-1759.584;1;277;220;224.2;21.6;21.5;39;38.8;28.7;-1.0;
13/02/2025 12:02:20;117;0;250.26;-4;30.31;7.81;141.2;15.70;76147;2837.355;-1759.588;1;277;220;224.2;21.6;21.5;37;37.0;28.7;-1.0;
13/02/2025 12:02:40;117;0;252.03;-4;30.25;6.51;138.7;15.70;76164;2837.356;-1759.591;1;277;220;224.2;21.6;21.5;37;36.6;28.7;-1.0;
13/02/2025 12:03:00;117;0;254.23;-4;30.22;6.55;136.2;15.70;76166;2837.356;-1759.595;1;277;220;225.8;21.6;21.5;37;36.6;28.7;-1.0;
13/02/2025 12:03:20;117;0;260.46;-4;31.38;6.66;133.4;15.80;76184;2837.356;-1759.598;1;277;220;224.2;21.6;21.5;37;36.6;28.7;-1.0;
13/02/2025 12:03:40;117;0;263.96;-4;30.64;6.54;130.3;15.80;76203;2837.357;-1759.602;1;277;220;224.2;21.6;21.5;37;36.6;28.7;-1.0;
13/02/2025 12:04:00;117;0;269.25;-4;29.76;6.62;127.2;15.80;76218;2837.358;-1759.606;1;277;220;224.2;21.6;21.5;33;32.9;28.7;-1.0;
13/02/2025 12:04:20;117;0;267.90;-4;29.62;5.14;124.4;15.90;76224;2837.359;-1759.610;1;277;220;224.2;21.6;21.5;33;34.3;28.7;-1.0;
13/02/2025 12:04:40;117;0;263.89;-4;29.45;5.25;121.7;15.90;76242;2837.360;-1759.614;1;277;220;222.6;21.6;21.5;36;36.1;28.7;-1.0;
13/02/2025 12:05:00;117;0;264.37;-4;29.52;6.50;119.3;16.00;76246;2837.360;-1759.617;1;277;220;224.2;21.6;21.5;33;32.9;28.7;-1.0;
13/02/2025 12:05:20;117;0;270.52;-4;29.96;5.11;116.7;16.00;76276;2837.361;-1759.621;1;277;220;222.6;21.6;21.5;27;27.1;28.7;-1.0;
13/02/2025 12:05:40;117;0;268.52;-4;29.53;0.98;114.2;16.00;76297;2837.362;-1759.624;1;277;220;222.6;21.6;21.5;30;29.8;28.7;-1.0;
13/02/2025 12:06:00;117;0;267.82;-4;29.76;3.09;111.5;16.10;76325;2837.363;-1759.628;1;277;220;224.2;21.6;21.5;32;32.0;28.7;-1.0;
13/02/2025 12:06:20;117;0;266.53;-4;30.82;4.32;108.8;16.10;76331;2837.364;-1759.632;1;277;220;224.2;21.6;21.5;32;32.5;28.7;-1.0;
13/02/2025 12:06:40;117;0;265.93;-4;30.17;3.90;105.8;16.20;76338;2837.365;-1759.636;1;277;220;224.2;21.6;21.5;35;35.2;28.7;-1.0;
13/02/2025 12:07:00;117;0;265.63;-4;30.84;6.01;102.7;16.20;76347;2837.365;-1759.640;1;277;220;224.2;21.6;21.6;35;35.6;28.7;-1.0;
13/02/2025 12:07:20;117;0;266.24;-4;31.06;6.27;99.4;16.20;76357;2837.366;-1759.644;1;277;220;224.2;21.6;21.5;35;35.6;28.7;-1.0;
13/02/2025 12:07:40;117;0;265.75;-4;30.53;6.28;96.1;16.30;76377;2837.367;-1759.648;1;277;220;224.2;21.6;21.5;35;35.6;28.7;-1.0;
13/02/2025 12:08:00;117;0;262.93;-4;29.68;6.17;92.8;16.40;76387;2837.368;-1759.652;1;277;220;224.2;21.6;21.5;35;35.6;28.7;-1.0;
13/02/2025 12:08:20;117;0;259.52;-4;30.09;6.06;89.7;16.40;76403;2837.368;-1759.656;1;277;220;224.2;21.6;21.5;35;35.6;28.7;-1.0;
13/02/2025 12:08:40;117;0;254.45;-4;30.56;6.13;86.6;16.40;76417;2837.368;-1759.660;1;277;220;224.2;21.6;21.5;35;35.6;28.7;-1.0;
13/02/2025 12:09:00;117;0;256.69;-4;30.37;6.08;83.4;16.50;76440;2837.369;-1759.664;1;277;220;224.2;21.6;21.5;35;35.6;28.7;-1.0;
13/02/2025 12:09:20;117;0;255.58;-4;29.81;6.04;80.1;16.50;76483;2837.369;-1759.669;1;277;220;224.2;21.6;21.5;37;37.0;28.7;-1.0;
13/02/2025 12:09:40;117;0;253.62;-4;29.96;7.20;76.9;16.60;76514;2837.369;-1759.673;1;277;220;224.2;21.6;21.5;37;37.9;28.7;-1.0;
13/02/2025 12:10:00;117;0;252.99;-4;30.13;7.19;73.8;16.60;76533;2837.369;-1759.677;1;277;220;222.6;21.6;21.5;37;37.9;28.7;-1.0;
13/02/2025 12:10:20;117;0;253.62;-4;29.74;7.22;70.7;16.70;76543;2837.369;-1759.681;1;277;220;224.2;21.6;21.5;37;37.9;28.7;-1.0;
13/02/2025 12:10:40;117;0;255.49;-4;29.58;7.11;67.7;16.80;76564;2837.370;-1759.685;1;277;220;224.2;21.6;21.5;37;37.9;28.7;-1.0;
13/02/2025 12:11:00;117;0;256.70;-4;29.73;7.13;64.5;16.80;76573;2837.370;-1759.689;1;277;220;224.2;21.6;21.5;37;37.9;28.7;-1.0;
13/02/2025 12:11:20;117;0;256.05;-4;29.83;7.27;61.5;16.90;76587;2837.370;-1759.692;1;277;220;224.2;21.6;21.5;37;37.5;28.7;-1.0;
13/02/2025 12:11:40;117;0;255.71;-4;29.94;7.16;58.5;16.90;76593;2837.371;-1759.696;1;277;220;224.2;21.6;21.5;37;37.5;28.7;-1.0;
13/02/2025 12:12:00;117;0;255.34;-4;30.02;7.30;55.5;17.00;76606;2837.371;-1759.700;1;277;220;224.2;21.6;21.5;37;37.9;28.7;-1.0;
13/02/2025 12:12:20;117;0;255.33;-4;30.02;7.16;52.4;17.00;76613;2837.371;-1759.704;1;277;220;224.2;21.6;21.5;37;37.9;28.7;-1.0;
13/02/2025 12:12:40;117;0;254.07;-4;29.93;7.27;49.3;17.10;76625;2837.371;-1759.708;1;277;220;224.2;21.6;21.5;37;37.9;28.7;-1.0;
13/02/2025 12:13:00;117;0;256.89;-4;30.27;7.16;46.1;17.10;76629;2837.372;-1759.712;1;277;220;224.2;21.6;21.5;37;37.5;28.7;-1.0;
13/02/2025 12:13:20;117;0;259.18;-4;29.85;7.13;42.9;17.20;76638;2837.372;-1759.717;1;277;220;225.8;21.6;21.5;37;37.9;28.7;-1.0;
13/02/2025 12:13:40;117;0;260.37;-4;29.73;7.27;39.7;17.20;76650;2837.373;-1759.721;1;277;220;224.2;21.6;21.6;37;37.9;28.7;-1.0;
13/02/2025 12:14:01;117;0;263.03;-4;29.60;7.13;36.6;17.30;76664;2837.373;-1759.725;1;277;220;224.2;21.6;21.5;37;37.5;28.7;-1.0;
13/02/2025 12:14:21;117;0;264.25;-4;29.65;7.10;33.6;17.30;76671;2837.374;-1759.729;1;277;220;224.2;21.6;21.5;37;37.9;28.7;-1.0;
13/02/2025 12:14:41;117;0;264.67;-4;29.85;7.21;30.6;17.40;76682;2837.375;-1759.733;1;277;220;224.2;21.6;21.5;35;35.2;28.7;-1.0;
13/02/2025 12:15:01;117;0;265.64;-4;29.99;5.47;27.6;17.40;76680;2837.375;-1759.737;1;277;220;224.2;21.6;21.5;35;34.7;28.7;-1.0;
13/02/2025 12:15:21;117;0;264.58;-4;29.48;5.62;24.6;17.50;76705;2837.376;-1759.741;1;277;220;224.2;21.6;21.5;35;34.7;28.7;-1.0;
13/02/2025 12:15:41;117;0;263.34;-4;29.48;5.57;21.6;17.50;76700;2837.377;-1759.745;1;277;220;224.2;21.6;21.5;35;34.7;28.7;-1.0;
13/02/2025 12:16:01;117;0;263.86;-4;29.92;5.54;18.7;17.60;76712;2837.377;-1759.749;1;277;220;224.2;21.6;21.5;35;34.7;28.7;-1.0;
13/02/2025 12:16:21;117;0;263.83;-4;30.07;5.46;15.7;17.60;76721;2837.378;-1759.753;1;277;220;224.2;21.6;21.5;35;34.7;28.7;-1.0;
13/02/2025 12:16:41;117;0;263.25;-4;30.03;5.63;13.0;17.70;76721;2837.379;-1759.757;1;277;220;224.2;21.6;21.5;35;34.7;28.7;-1.0;
13/02/2025 12:17:01;117;0;264.04;-4;29.47;5.72;10.0;17.70;76738;2837.379;-1759.761;1;277;220;224.2;21.6;21.5;35;34.7;28.7;-1.0;
13/02/2025 12:17:21;117;0;262.30;-4;28.89;5.82;7.0;17.80;76734;2837.380;-1759.765;1;277;220;224.2;21.2;21.1;35;34.7;28.7;-1.0;
13/02/2025 12:17:41;117;0;262.58;-4;30.58;6.13;4.0;17.80;76740;2837.381;-1759.769;1;277;220;224.2;21.2;20.9;35;34.7;28.7;-1.0;
13/02/2025 12:17:48;115;0;262.23;-4;31.08;5.24;3.0;17.80;76739;2837.381;-1759.770;1;277;500;232.3;100.0;64.9;0;-0.5;28.7;-1.0;
13/02/2025 12:17:58;115;0;260.37;-4;12.50;-12.69;1.7;17.80;76724;2837.381;-1759.772;1;277;500;350.0;100.0;100.1;0;-0.5;28.5;-1.0;
13/02/2025 12:18:08;115;0;232.16;-4;-59.44;-14.51;2.2;17.90;76457;2837.381;-1759.773;1;277;500;464.5;100.0;100.7;0;-0.5;28.5;-1.0;
13/02/2025 12:18:18;115;0;189.74;-4;-68.91;-11.96;1.9;17.90;76212;2837.382;-1759.774;1;277;500;508.1;100.0;100.7;0;-0.5;28.5;-1.0;
13/02/2025 12:18:28;115;0;207.22;-4;-27.88;-12.92;-0.1;18.00;76139;2837.380;-1759.775;1;277;500;508.1;100.0;100.7;0;-0.5;28.7;-1.0;
13/02/2025 12:18:48;119;0;265.26;-4;-57.31;-18.66;0.3;18.00;76160;2837.380;-1759.775;1;277;500;511.3;100.0;100.7;0;-0.5;28.7;-1.0;
13/02/2025 12:18:58;119;0;301.11;-4;-45.32;-15.64;0.2;18.10;76163;2837.446;-1759.599;0;277;500;509.7;100.0;100.7;0;-0.5;28.7;-1.0;
