Timestamp;NavState;SecurityLevel;Heading;Declination;Pitch;Roll;Depth;Temperature;Pa;Lat;Lon;DeadReckoning;DesiredH;BallastCmd;BallastPos;LinCmd;LinPos;AngCmd;AngPos;Voltage;Altitude;
05/03/2025 11:48:20;119;0;172.11;-4;-59.05;-17.03;-0.1;20.90;76630;2838.038;-1757.932;0;203;500;506.5;100.0;100.7;0;-0.5;24.7;-1.0;
05/03/2025 11:48:30;116;0;171.87;-4;-42.07;-12.65;-0.3;20.90;76639;2838.044;-1757.935;0;203;500;506.5;100.0;100.7;0;-0.5;24.7;-1.0;
05/03/2025 11:48:55;116;0;159.70;-4;-47.80;-10.55;-0.2;20.90;76641;2838.048;-1757.936;0;203;500;506.5;100.0;100.9;0;-0.5;24.7;-1.0;
05/03/2025 11:49:13;116;0;163.22;-4;-52.50;-16.46;-0.1;20.90;76641;2838.049;-1757.937;0;203;500;506.5;100.0;100.9;0;-0.5;24.7;-1.0;
05/03/2025 11:49:33;116;0;165.38;-4;-57.74;-18.44;-0.3;20.90;76650;2838.053;-1757.938;0;201;500;506.5;100.0;100.7;0;-0.5;24.7;-1.0;
05/03/2025 11:49:45;116;0;158.98;-4;-48.54;-8.68;-0.1;21.00;76641;2838.056;-1757.939;0;201;500;504.8;100.0;100.9;0;-0.5;24.5;-1.0;
05/03/2025 11:49:56;116;0;147.69;-4;-53.57;-9.77;-0.2;21.00;76646;2838.058;-1757.941;0;201;500;501.6;100.0;100.9;0;-0.5;24.7;-1.0;
05/03/2025 11:50:16;110;0;151.27;-4;-53.96;-11.20;0.0;21.00;76649;2838.058;-1757.941;0;201;-500;388.7;100.0;99.9;-12;-12.6;24.7;-1.0;
05/03/2025 11:50:26;110;0;154.58;-4;-59.11;-23.21;0.2;21.00;77000;2838.059;-1757.942;1;201;-500;238.7;100.0;99.9;-12;-12.6;24.7;-1.0;
05/03/2025 11:50:36;110;0;155.02;-4;-56.18;-11.94;0.7;21.00;77253;2838.060;-1757.942;1;201;-500;80.6;100.0;99.9;-12;-12.6;24.6;-1.0;
05/03/2025 11:50:46;110;0;163.67;-4;-63.85;-15.06;1.0;21.00;77590;2838.062;-1757.943;1;201;-500;-82.3;100.0;99.9;-12;-12.6;24.7;-1.0;
05/03/2025 11:50:56;110;0;167.56;-4;-65.75;-10.99;1.3;21.00;77932;2838.063;-1757.944;1;201;-500;-256.5;54.7;54.9;-12;-12.6;24.6;-1.0;
05/03/2025 11:51:06;110;0;178.11;-4;-54.92;-15.35;2.9;21.00;78325;2838.064;-1757.945;1;201;-500;-491.9;54.7;54.8;-12;-12.6;24.6;-1.0;
05/03/2025 11:51:16;110;0;185.97;-4;-42.33;-15.10;6.3;21.00;78859;2838.063;-1757.946;1;201;-500;-500.0;54.7;54.6;-12;-12.6;24.7;-1.0;
05/03/2025 11:51:36;100;0;203.00;-4;-39.34;-13.30;16.8;21.00;78824;2838.060;-1757.951;1;201;-500;-501.6;54.7;54.5;-12;-12.6;24.7;-1.0;
05/03/2025 11:51:56;100;0;208.42;-4;-39.70;-13.08;29.3;21.10;78835;2838.057;-1757.957;1;201;-500;-501.6;53.3;53.2;44;44.2;24.7;0.0;
05/03/2025 11:52:16;100;0;193.28;-4;-37.99;14.53;40.7;21.10;78823;2838.052;-1757.961;1;201;-500;-506.5;52.4;52.3;17;17.1;24.7;0.0;
05/03/2025 11:52:36;100;0;183.07;-4;-36.03;0.69;51.3;21.10;78818;2838.048;-1757.963;1;201;-500;-506.5;52.4;52.3;13;13.1;24.7;0.0;
05/03/2025 11:52:56;100;0;177.19;-4;-36.44;-2.14;61.5;21.10;78829;2838.043;-1757.964;1;201;-500;-506.5;52.4;52.3;13;13.1;24.7;0.0;
05/03/2025 11:53:16;100;0;170.51;-4;-36.92;-1.68;72.1;21.00;78816;2838.039;-1757.965;1;201;-500;-506.5;52.4;52.3;9;9.0;24.7;0.0;
05/03/2025 11:53:36;100;0;165.10;-4;-37.13;-3.67;82.5;21.00;78816;2838.035;-1757.964;1;201;-500;-506.5;51.8;51.5;3;3.2;24.7;0.0;
05/03/2025 11:53:56;100;0;163.40;-4;-37.32;-6.20;93.4;21.00;78833;2838.031;-1757.963;1;201;-500;-506.5;51.1;51.0;0;-0.5;24.7;0.0;
05/03/2025 11:54:06;118;0;163.18;-4;-36.12;-7.44;98.6;21.00;78828;2838.029;-1757.963;1;201;500;-506.5;14.5;14.7;12;12.6;24.7;0.0;
05/03/2025 11:54:16;118;0;146.35;-4;-30.76;-2.49;102.4;21.00;78808;2838.027;-1757.962;1;201;500;-380.6;14.5;14.3;12;12.6;24.3;-1.0;
05/03/2025 11:54:26;118;0;139.97;-4;-10.61;-2.91;105.7;21.00;78527;2838.025;-1757.959;1;201;500;-248.4;14.5;14.0;12;12.6;24.3;-1.0;
05/03/2025 11:54:36;118;0;137.16;-4;12.03;-3.93;106.3;21.00;78255;2838.026;-1757.959;1;201;500;-116.1;14.5;13.8;12;12.6;24.4;-1.0;
05/03/2025 11:54:46;118;0;135.07;-4;32.10;-5.25;105.6;21.00;77980;2838.027;-1757.960;1;201;500;6.5;14.5;14.4;12;12.6;24.4;-1.0;
05/03/2025 11:54:56;118;0;133.13;-4;45.52;-6.23;104.7;21.00;77725;2838.028;-1757.960;1;201;500;129.0;14.5;14.6;12;12.6;24.3;-1.0;
05/03/2025 11:55:06;118;0;134.39;-4;42.87;-6.56;104.3;21.00;77450;2838.030;-1757.961;1;201;500;251.6;14.5;14.6;12;12.6;24.3;-1.0;
05/03/2025 11:55:16;118;0;136.30;-4;38.97;-6.54;103.5;21.00;77196;2838.031;-1757.961;1;201;500;372.6;14.5;14.6;12;12.6;24.4;-1.0;
05/03/2025 11:55:26;118;0;136.79;-4;38.55;-5.92;102.1;21.00;76941;2838.032;-1757.961;1;201;500;477.4;14.5;14.6;12;12.2;24.3;-1.0;
05/03/2025 11:55:36;118;0;134.18;-4;37.12;-5.56;99.9;21.00;76678;2838.032;-1757.961;1;201;500;504.8;14.5;14.4;12;12.6;24.3;-1.0;
05/03/2025 11:55:46;118;0;156.71;-4;35.60;-5.35;97.1;21.00;76652;2838.032;-1757.961;1;201;500;504.8;14.5;14.6;12;12.2;24.7;-1.0;
05/03/2025 11:56:06;117;0;147.57;-4;34.39;-5.01;90.6;21.00;76660;2838.030;-1757.960;1;201;500;504.8;14.5;14.6;12;12.6;24.7;-1.0;
05/03/2025 11:56:26;117;0;135.03;-4;33.28;-4.76;82.9;21.00;76649;2838.029;-1757.957;1;201;500;506.5;14.0;13.8;70;69.9;24.7;-1.0;
05/03/2025 11:56:46;117;0;142.95;-4;34.58;28.55;76.1;21.00;76653;2838.028;-1757.955;1;201;500;506.5;14.0;13.8;70;70.4;24.7;-1.0;
05/03/2025 11:57:06;117;0;150.37;-4;36.03;28.61;68.5;21.00;76654;2838.027;-1757.954;1;201;500;508.1;14.0;13.8;59;59.1;24.7;-1.0;
05/03/2025 11:57:26;117;0;151.45;-4;37.16;21.54;60.9;21.00;76643;2838.025;-1757.953;1;201;500;506.5;14.6;14.6;57;56.4;24.7;-1.0;
05/03/2025 11:57:46;117;0;153.54;-4;36.08;20.10;53.1;20.90;76647;2838.023;-1757.952;1;201;500;506.5;14.6;14.7;55;55.1;24.7;-1.0;
05/03/2025 11:58:06;117;0;156.32;-4;35.87;19.37;46.0;20.90;76644;2838.021;-1757.951;1;201;500;506.5;14.6;14.7;47;46.9;24.7;-1.0;
05/03/2025 11:58:26;117;0;155.81;-4;35.58;14.06;38.9;20.90;76638;2838.020;-1757.950;1;201;500;508.1;14.6;14.7;47;46.5;24.7;-1.0;
05/03/2025 11:58:46;117;0;155.48;-4;35.78;14.49;31.8;20.90;76633;2838.018;-1757.950;1;201;500;506.5;14.6;14.7;47;46.5;24.6;-1.0;
05/03/2025 11:59:06;117;0;155.66;-4;35.31;14.27;24.7;20.90;76650;2838.016;-1757.949;1;201;500;506.5;14.6;14.7;50;50.1;24.7;-1.0;
05/03/2025 11:59:26;117;0;157.07;-4;35.61;17.10;17.8;20.90;76634;2838.015;-1757.948;1;201;500;504.8;14.6;14.7;44;44.2;24.7;-1.0;
05/03/2025 11:59:46;117;0;155.92;-4;35.31;13.04;11.1;20.90;76637;2838.013;-1757.948;1;201;500;506.5;14.6;14.7;46;46.0;24.7;-1.0;
05/03/2025 12:00:06;117;0;155.77;-4;34.25;15.30;4.2;20.90;76640;2838.011;-1757.947;1;201;500;504.8;14.6;14.7;50;49.2;24.7;-1.0;
05/03/2025 12:00:09;115;0;154.87;-4;35.29;16.84;3.1;20.90;76632;2838.011;-1757.947;1;201;500;506.5;100.0;50.5;0;-0.5;24.7;-1.0;
05/03/2025 12:00:19;115;0;147.68;-4;25.02;-12.47;0.6;20.90;76628;2838.010;-1757.946;1;201;500;508.1;100.0;100.0;0;-0.5;24.6;-1.0;
05/03/2025 12:00:29;115;0;139.81;-4;-20.05;-8.28;0.1;20.90;76640;2838.011;-1757.947;1;201;500;506.5;100.0;100.3;0;-0.5;24.7;-1.0;
05/03/2025 12:00:49;119;0;138.13;-4;-37.75;-9.02;-0.1;20.90;76648;2838.011;-1757.947;1;201;500;506.5;100.0;100.7;0;-0.5;24.7;-1.0;
05/03/2025 12:00:59;119;0;141.22;-4;-63.29;-6.17;0.1;20.90;76656;2838.017;-1757.952;0;201;500;506.5;100.0;100.7;0;-0.5;24.6;-1.0;
