Timestamp;NavState;SecurityLevel;Heading;Declination;Pitch;Roll;Depth;Temperature;Pa;Lat;Lon;DeadReckoning;DesiredH;BallastCmd;BallastPos;LinCmd;LinPos;AngCmd;AngPos;Voltage;Altitude;
12/02/2025 22:50:11;119;0;254.13;-4;-60.12;-5.89;-0.0;18.20;76208;2834.888;-1756.658;0;214;500;509.7;100.0;100.7;0;0.5;28.9;-1.0;
12/02/2025 22:50:20;116;0;264.93;-4;-52.93;-5.14;0.0;18.20;76212;2834.884;-1756.656;0;214;500;508.1;100.0;100.7;0;0.5;28.9;-1.0;
12/02/2025 22:50:46;116;0;282.47;-4;-55.93;-13.09;0.0;18.30;76226;2834.882;-1756.654;0;217;500;509.7;100.0;100.7;0;0.5;28.9;-1.0;
12/02/2025 22:51:02;116;0;279.68;-4;-51.78;-11.07;0.2;18.40;76241;2834.882;-1756.655;0;-9999;500;509.7;100.0;100.7;0;0.5;28.9;-1.0;
12/02/2025 22:51:22;116;0;282.45;-4;-56.69;-10.96;0.0;18.50;76244;2834.880;-1756.654;0;278;500;509.7;100.0;100.7;0;0.5;28.9;-1.0;
12/02/2025 22:51:42;116;0;298.13;-4;-55.63;-17.12;0.1;18.50;76257;2834.879;-1756.654;0;278;500;509.7;100.0;100.7;0;0.5;28.9;-1.0;
12/02/2025 22:52:35;116;0;336.64;-4;-51.70;-13.00;0.1;18.80;76277;2834.871;-1756.653;0;278;500;509.7;100.0;100.7;0;0.5;28.9;-1.0;
12/02/2025 22:52:55;116;0;330.76;-4;-53.52;-17.51;0.2;19.00;76282;2834.870;-1756.652;0;278;500;509.7;100.0;100.7;0;0.5;28.9;-1.0;
12/02/2025 22:53:15;116;0;341.44;-4;-59.83;-12.27;0.2;19.10;76287;2834.871;-1756.651;0;278;500;509.7;100.0;100.7;0;0.5;28.9;-1.0;
12/02/2025 22:54:18;116;0;4.72;-4;-52.09;-10.90;0.2;19.50;76305;2834.866;-1756.649;0;278;500;509.7;100.0;100.7;0;0.5;28.8;-1.0;
12/02/2025 22:54:21;116;0;10.29;-4;-54.71;-12.61;0.1;19.50;76313;2834.866;-1756.650;0;278;500;509.7;100.0;100.7;0;0.5;28.9;-1.0;
12/02/2025 22:54:34;116;0;16.86;-4;-57.52;-18.71;0.1;19.60;76305;2834.865;-1756.649;0;278;500;509.7;100.0;100.7;0;0.5;28.9;-1.0;
12/02/2025 22:54:54;110;0;9.13;-4;-52.46;-18.22;0.0;19.80;76328;2834.865;-1756.649;0;278;-100;395.2;100.0;100.7;0;0.5;28.9;-1.0;
12/02/2025 22:55:04;110;0;25.82;-4;-53.76;-13.29;0.2;19.80;76669;2834.866;-1756.649;1;278;-100;246.8;100.0;100.7;0;0.5;28.8;-1.0;
12/02/2025 22:55:14;110;0;25.99;-4;-60.12;-16.50;0.7;19.90;76919;2834.866;-1756.649;1;278;-100;85.5;100.0;100.7;0;0.5;28.8;-1.0;
12/02/2025 22:55:24;110;0;26.82;-4;-69.60;-26.33;0.9;19.90;77252;2834.867;-1756.649;1;278;-100;-71.0;100.0;100.7;0;0.5;28.9;-1.0;
12/02/2025 22:55:34;110;0;24.08;-4;-66.23;-12.15;1.2;20.00;77594;2834.867;-1756.649;1;278;-100;-100.0;49.2;49.2;0;0.5;28.8;-1.0;
12/02/2025 22:55:44;110;0;18.18;-4;-54.32;-11.95;2.7;20.00;77617;2834.868;-1756.649;1;278;-100;-101.6;49.2;49.0;0;0.5;28.9;-1.0;
12/02/2025 22:56:04;100;0;23.71;-4;-30.15;-11.19;6.6;20.10;77619;2834.872;-1756.648;1;278;-100;-98.4;49.2;48.9;0;0.5;28.9;-1.0;
12/02/2025 22:56:24;100;0;25.71;-4;-31.16;-11.29;11.0;20.10;77615;2834.876;-1756.646;1;278;-100;-98.4;49.2;48.9;70;69.9;28.9;-1.0;
12/02/2025 22:56:44;100;0;18.65;-4;-34.44;23.35;15.6;20.10;77617;2834.880;-1756.645;1;278;-100;-98.4;47.9;47.9;70;70.4;28.9;0.0;
12/02/2025 22:57:04;100;0;5.52;-4;-33.91;23.73;20.4;20.10;77614;2834.885;-1756.645;1;277;-100;-98.4;46.7;46.7;70;70.4;28.9;0.0;
12/02/2025 22:57:24;100;0;350.38;-4;-31.31;23.78;25.4;20.10;77601;2834.890;-1756.646;1;277;-100;-98.4;46.7;46.4;70;70.4;28.9;0.0;
12/02/2025 22:57:44;100;0;336.80;-4;-30.03;23.64;30.0;20.10;77607;2834.894;-1756.648;1;277;-100;-98.4;46.7;46.4;70;70.4;28.9;0.0;
12/02/2025 22:58:04;100;0;322.78;-4;-29.60;23.68;34.5;20.10;77620;2834.898;-1756.650;1;277;-100;-98.4;46.7;46.4;70;70.4;28.9;0.0;
12/02/2025 22:58:24;100;0;309.39;-4;-29.74;23.54;38.9;20.10;77607;2834.901;-1756.654;1;277;-100;-98.4;46.7;46.4;60;59.6;28.9;0.0;
12/02/2025 22:58:44;100;0;296.51;-4;-29.23;17.53;43.2;20.10;77607;2834.904;-1756.658;1;277;-100;-98.4;46.7;46.4;42;42.0;28.9;0.0;
12/02/2025 22:59:04;100;0;286.57;-4;-28.47;8.81;47.5;20.10;77613;2834.906;-1756.663;1;277;-100;-98.4;47.2;47.4;26;26.2;28.9;0.0;
12/02/2025 22:59:24;100;0;281.22;-4;-28.54;1.19;51.7;20.10;77616;2834.907;-1756.667;1;277;-100;-98.4;47.6;47.7;17;17.1;28.9;0.0;
12/02/2025 22:59:44;100;0;278.99;-4;-29.12;-3.37;56.0;20.10;77624;2834.909;-1756.672;1;277;-100;-98.4;47.6;47.9;15;14.9;28.9;0.0;
12/02/2025 23:00:04;100;0;278.07;-4;-29.19;-4.57;60.3;20.10;77624;2834.910;-1756.676;1;277;-100;-98.4;47.6;47.9;15;14.4;28.9;0.0;
12/02/2025 23:00:24;100;0;278.36;-4;-29.21;-4.55;64.6;20.10;77627;2834.911;-1756.681;1;277;-100;-98.4;47.6;47.9;15;14.4;28.9;0.0;
12/02/2025 23:00:44;100;0;280.46;-4;-29.44;-4.53;69.1;20.10;77621;2834.913;-1756.686;1;277;-100;-98.4;47.6;47.7;17;17.6;28.9;0.0;
12/02/2025 23:01:04;100;0;281.97;-4;-29.49;-2.71;73.5;20.10;77639;2834.914;-1756.690;1;277;-100;-98.4;47.6;47.9;19;19.0;28.9;0.0;
12/02/2025 23:01:24;100;0;281.15;-4;-29.52;-1.88;78.0;20.10;77633;2834.916;-1756.695;1;277;-100;-98.4;47.6;47.9;17;17.1;28.9;0.0;
12/02/2025 23:01:44;100;0;280.97;-4;-29.23;-3.22;82.4;20.10;77625;2834.917;-1756.700;1;277;-100;-98.4;47.6;47.9;17;16.7;28.9;0.0;
12/02/2025 23:02:04;100;0;278.63;-4;-29.35;-3.24;86.8;20.10;77631;2834.918;-1756.704;1;277;-100;-98.4;47.6;47.9;15;14.9;28.9;0.0;
12/02/2025 23:02:24;100;0;276.47;-4;-29.25;-4.49;91.2;20.10;77639;2834.920;-1756.709;1;277;-100;-98.4;47.6;47.9;13;13.1;28.9;0.0;
12/02/2025 23:02:44;100;0;277.05;-4;-28.88;-5.12;95.4;20.10;77626;2834.921;-1756.714;1;277;-100;-98.4;48.0;48.2;13;13.1;28.9;0.0;
12/02/2025 23:03:04;100;0;278.57;-4;-29.38;-5.23;99.7;20.10;77626;2834.922;-1756.718;1;276;-100;-98.4;48.0;48.5;16;15.8;28.9;0.0;
12/02/2025 23:03:24;100;0;275.44;-4;-29.64;-3.56;103.9;20.10;77623;2834.923;-1756.723;1;276;-100;-96.8;48.0;48.5;14;14.0;28.9;0.0;
12/02/2025 23:03:44;100;0;271.04;-4;-29.86;-4.74;108.1;20.00;77611;2834.924;-1756.727;1;276;-100;-100.0;48.0;48.5;11;10.8;28.9;0.0;
12/02/2025 23:04:04;100;0;270.46;-4;-29.45;-6.54;112.4;20.00;77608;2834.925;-1756.732;1;276;-100;-98.4;48.0;48.5;11;10.4;28.9;0.0;
12/02/2025 23:04:24;100;0;274.46;-4;-29.67;-6.58;116.6;20.00;77595;2834.926;-1756.736;1;276;-100;-96.8;48.0;48.5;13;13.5;28.9;0.0;
12/02/2025 23:04:44;100;0;276.57;-4;-29.93;-4.83;121.0;20.00;77578;2834.927;-1756.740;1;276;-100;-96.8;48.0;48.5;15;14.9;28.9;0.0;
12/02/2025 23:05:04;100;0;273.69;-4;-29.45;-4.06;125.0;20.00;77570;2834.928;-1756.745;1;276;-100;-98.4;48.0;48.5;12;12.2;28.9;0.0;
12/02/2025 23:05:24;100;0;273.75;-4;-31.05;-5.68;129.4;19.90;77566;2834.929;-1756.749;1;276;-100;-98.4;48.0;48.5;12;11.7;28.9;0.0;
12/02/2025 23:05:44;100;0;275.22;-4;-29.77;-5.80;134.0;19.90;77546;2834.930;-1756.754;1;276;-100;-98.4;48.0;48.5;12;11.7;28.9;0.0;
12/02/2025 23:06:04;100;0;273.63;-4;-30.21;-5.91;138.3;19.90;77517;2834.931;-1756.758;1;276;-100;-96.8;48.0;48.5;12;11.7;28.9;0.0;
12/02/2025 23:06:24;100;0;273.32;-4;-30.00;-5.59;142.7;19.90;77485;2834.932;-1756.763;1;276;-100;-98.4;48.0;48.5;12;11.7;28.9;0.0;
12/02/2025 23:06:44;100;0;269.32;-4;-28.98;-5.95;146.8;19.80;77466;2834.932;-1756.767;1;276;-100;-98.4;48.3;48.2;12;11.7;28.9;0.0;
12/02/2025 23:07:04;100;0;267.35;-4;-29.30;-5.93;150.9;19.80;77445;2834.933;-1756.772;1;276;-100;-98.4;48.3;48.2;10;9.9;28.9;0.0;
12/02/2025 23:07:24;100;0;264.09;-4;-30.33;-6.93;155.1;19.80;77413;2834.933;-1756.776;1;276;-100;-98.4;48.3;48.2;10;9.5;28.9;0.0;
12/02/2025 23:07:44;100;0;262.81;-4;-29.12;-7.02;159.4;19.70;77365;2834.934;-1756.781;1;276;-100;-98.4;48.3;48.0;10;9.5;28.9;0.0;
12/02/2025 23:08:04;100;0;268.76;-4;-29.08;-7.09;163.6;19.70;77349;2834.934;-1756.785;1;276;-100;-98.4;48.3;48.2;10;9.5;28.9;0.0;
12/02/2025 23:08:24;100;0;272.60;-4;-28.99;-7.11;167.8;19.60;77329;2834.935;-1756.790;1;276;-100;-98.4;48.6;48.6;10;9.5;28.9;0.0;
12/02/2025 23:08:44;100;0;276.27;-4;-28.82;-6.87;172.1;19.60;77316;2834.936;-1756.794;1;276;-100;-98.4;48.9;48.9;14;14.0;28.9;0.0;
12/02/2025 23:09:04;100;0;275.27;-4;-30.52;-4.42;176.4;19.50;77282;2834.937;-1756.799;1;276;-100;-98.4;48.9;48.9;14;14.4;28.9;0.0;
12/02/2025 23:09:24;100;0;273.98;-4;-29.38;-4.35;180.9;19.50;77260;2834.938;-1756.804;1;276;-100;-96.8;48.9;48.9;12;12.2;28.9;0.0;
12/02/2025 23:09:44;100;0;271.39;-4;-29.66;-5.81;185.0;19.40;77248;2834.939;-1756.808;1;276;-100;-96.8;48.9;48.9;12;11.7;28.9;0.0;
12/02/2025 23:10:04;100;0;268.65;-4;-29.39;-5.85;189.3;19.40;77222;2834.940;-1756.812;1;276;-100;-98.4;48.9;48.9;12;11.7;28.9;0.0;
12/02/2025 23:10:24;100;0;271.82;-4;-29.53;-5.81;193.6;19.30;77201;2834.941;-1756.817;1;276;-100;-98.4;48.9;49.0;12;12.2;28.9;0.0;
12/02/2025 23:10:44;100;0;268.23;-4;-29.49;-5.81;197.8;19.30;77177;2834.941;-1756.821;1;276;-100;-98.4;48.9;48.9;12;11.7;28.9;0.0;
12/02/2025 23:11:04;100;0;266.44;-4;-30.10;-5.73;202.0;19.20;77164;2834.942;-1756.826;1;276;-100;-98.4;48.9;48.9;12;12.2;28.9;0.0;
12/02/2025 23:11:24;100;0;264.73;-4;-30.00;-5.74;206.5;19.20;77145;2834.942;-1756.831;1;276;-100;-98.4;48.9;48.9;12;12.2;28.9;0.0;
12/02/2025 23:11:45;100;0;262.25;-4;-29.88;-5.78;210.8;19.10;77134;2834.942;-1756.835;1;276;-100;-98.4;48.9;48.9;12;12.2;28.9;0.0;
12/02/2025 23:12:05;100;0;259.04;-4;-29.43;-5.92;215.2;19.00;77122;2834.942;-1756.840;1;276;-100;-96.8;48.9;48.9;9;8.6;28.9;0.0;
12/02/2025 23:12:25;100;0;260.69;-4;-29.36;-7.48;219.4;19.00;77111;2834.942;-1756.844;1;276;-100;-96.8;48.9;48.9;9;8.6;28.9;0.0;
12/02/2025 23:12:45;100;0;265.88;-4;-30.30;-7.39;223.7;19.00;77090;2834.943;-1756.849;1;276;-100;-96.8;48.9;48.9;11;10.8;28.9;0.0;
12/02/2025 23:13:05;100;0;271.08;-4;-30.51;-6.02;228.3;18.90;77074;2834.944;-1756.853;1;276;-100;-98.4;48.9;48.9;11;11.3;28.9;0.0;
12/02/2025 23:13:25;100;0;272.87;-4;-30.65;-5.99;233.0;18.80;77056;2834.944;-1756.858;1;276;-100;-98.4;48.9;49.0;11;11.3;28.9;0.0;
12/02/2025 23:13:45;100;0;277.21;-4;-30.36;-6.04;237.7;18.80;77048;2834.946;-1756.863;1;276;-100;-96.8;48.9;48.9;15;15.3;28.9;0.0;
12/02/2025 23:14:05;100;0;280.28;-4;-30.86;-3.85;242.5;18.70;77033;2834.947;-1756.867;1;276;-100;-98.4;48.9;48.9;18;18.1;28.9;0.0;
12/02/2025 23:14:25;100;0;284.37;-4;-31.05;-2.61;247.3;18.60;77020;2834.949;-1756.872;1;276;-100;-98.4;48.9;48.9;25;24.8;28.9;0.0;
12/02/2025 23:14:45;100;0;283.12;-4;-30.58;0.87;252.2;18.60;76995;2834.951;-1756.877;1;276;-100;-98.4;48.9;49.0;23;23.0;28.9;0.0;
12/02/2025 23:15:05;100;0;278.38;-4;-30.19;-0.53;256.9;18.50;76981;2834.952;-1756.882;1;276;-100;-98.4;48.9;48.9;16;15.8;28.9;0.0;
12/02/2025 23:15:25;100;0;277.77;-4;-29.65;-3.97;261.3;18.50;76965;2834.953;-1756.886;1;276;-100;-96.8;48.9;49.0;16;15.3;28.9;0.0;
12/02/2025 23:15:45;100;0;274.32;-4;-29.61;-3.98;265.7;18.40;76948;2834.954;-1756.891;1;276;-100;-98.4;48.9;49.0;13;13.1;28.9;0.0;
12/02/2025 23:16:05;100;0;270.40;-4;-29.87;-5.31;270.1;18.30;76939;2834.955;-1756.895;1;276;-100;-98.4;48.9;48.9;11;10.8;28.9;0.0;
12/02/2025 23:16:25;100;0;267.52;-4;-30.34;-6.50;274.6;18.30;76922;2834.955;-1756.900;1;276;-100;-98.4;48.9;48.9;11;10.4;28.9;0.0;
12/02/2025 23:16:45;100;0;264.74;-4;-29.53;-6.49;279.2;18.20;76925;2834.956;-1756.905;1;276;-100;-98.4;48.9;49.0;11;10.4;28.9;0.0;
12/02/2025 23:17:05;100;0;265.74;-4;-29.29;-6.73;283.6;18.20;76900;2834.956;-1756.910;1;276;-100;-98.4;48.9;48.9;11;10.8;28.9;0.0;
12/02/2025 23:17:25;100;0;267.81;-4;-28.98;-6.54;288.0;18.10;76892;2834.957;-1756.914;1;276;-100;-98.4;49.2;49.3;11;10.8;28.9;0.0;
12/02/2025 23:17:45;100;0;268.04;-4;-29.85;-6.56;292.3;18.10;76877;2834.957;-1756.919;1;276;-100;-98.4;49.2;49.5;11;10.8;28.9;0.0;
12/02/2025 23:18:05;100;0;267.70;-4;-30.17;-6.43;296.8;18.00;76868;2834.958;-1756.923;1;276;-100;-98.4;49.2;49.5;11;10.4;28.9;0.0;
12/02/2025 23:18:25;100;0;268.19;-4;-31.10;-6.45;301.3;17.90;76843;2834.959;-1756.928;1;276;-100;-98.4;49.2;49.5;11;10.8;28.9;0.0;
12/02/2025 23:18:45;100;0;267.71;-4;-31.03;-6.53;306.1;17.90;76840;2834.959;-1756.933;1;276;-100;-98.4;49.2;49.5;11;10.4;28.9;0.0;
12/02/2025 23:19:05;100;0;269.21;-4;-31.03;-6.45;310.9;17.80;76824;2834.960;-1756.938;1;276;-100;-98.4;49.2;49.5;11;10.8;28.9;0.0;
12/02/2025 23:19:25;100;0;271.48;-4;-30.93;-6.36;315.8;17.80;76813;2834.961;-1756.942;1;276;-100;-98.4;49.2;49.5;11;10.4;28.9;0.0;
12/02/2025 23:19:45;100;0;275.09;-4;-31.21;-6.36;320.7;17.70;76796;2834.962;-1756.947;1;276;-100;-98.4;49.2;49.5;13;13.1;28.9;0.0;
12/02/2025 23:20:05;100;0;272.52;-4;-31.63;-4.99;325.6;17.60;76785;2834.963;-1756.952;1;276;-100;-100.0;49.2;49.5;13;13.5;28.9;0.0;
12/02/2025 23:20:25;100;0;270.38;-4;-30.81;-5.01;330.6;17.60;76776;2834.963;-1756.957;1;276;-100;-98.4;49.2;49.6;11;10.8;28.9;0.0;
12/02/2025 23:20:45;100;0;267.57;-4;-30.39;-6.22;335.3;17.50;76767;2834.964;-1756.962;1;276;-100;-98.4;49.2;49.6;11;10.8;28.9;0.0;
12/02/2025 23:21:05;100;0;267.31;-4;-30.25;-6.14;340.0;17.50;76746;2834.964;-1756.967;1;276;-100;-98.4;49.2;49.5;11;11.3;28.9;0.0;
12/02/2025 23:21:25;100;0;267.48;-4;-30.30;-6.61;344.4;17.40;76729;2834.965;-1756.971;1;276;-100;-98.4;49.2;49.6;11;10.8;28.9;0.0;
12/02/2025 23:21:45;100;0;268.35;-4;-30.18;-6.26;348.8;17.40;76721;2834.966;-1756.976;1;276;-100;-98.4;49.2;49.6;11;11.3;28.9;0.0;
12/02/2025 23:22:05;100;0;269.94;-4;-29.32;-6.57;353.1;17.30;76715;2834.966;-1756.981;1;276;-100;-98.4;49.2;49.6;11;10.8;28.9;0.0;
12/02/2025 23:22:25;100;0;269.85;-4;-30.78;-6.39;357.2;17.20;76712;2834.967;-1756.985;1;276;-100;-98.4;49.2;49.6;11;10.8;28.9;0.0;
12/02/2025 23:22:45;100;0;272.37;-4;-31.21;-6.32;361.6;17.20;76702;2834.968;-1756.989;1;276;-100;-98.4;49.2;49.5;11;10.8;28.9;0.0;
12/02/2025 23:23:05;100;0;274.51;-4;-31.53;-6.25;366.2;17.10;76690;2834.969;-1756.994;1;276;-100;-98.4;49.2;49.5;14;14.0;28.9;0.0;
12/02/2025 23:23:25;100;0;277.35;-4;-31.20;-4.45;371.0;17.10;76681;2834.970;-1756.998;1;276;-100;-96.8;49.2;49.6;16;15.8;28.9;0.0;
12/02/2025 23:23:45;100;0;274.74;-4;-31.76;-3.71;375.7;17.00;76664;2834.971;-1757.003;1;276;-100;-98.4;49.2;49.6;14;14.0;28.9;0.0;
12/02/2025 23:24:05;100;0;274.97;-4;-31.31;-4.68;380.6;17.00;76652;2834.972;-1757.008;1;276;-100;-98.4;49.2;49.6;14;14.0;28.9;0.0;
12/02/2025 23:24:25;100;0;275.00;-4;-30.72;-4.80;385.0;16.90;76646;2834.973;-1757.012;1;276;-100;-96.8;49.2;49.8;14;14.0;28.9;0.0;
12/02/2025 23:24:45;100;0;275.66;-4;-30.34;-4.67;389.4;16.90;76630;2834.974;-1757.017;1;276;-100;-98.4;49.2;49.8;14;14.0;28.9;0.0;
12/02/2025 23:25:05;100;0;277.48;-4;-30.55;-4.83;393.6;16.80;76621;2834.976;-1757.021;1;276;-100;-96.8;49.2;49.6;20;19.9;28.9;0.0;
12/02/2025 23:25:25;100;0;277.16;-4;-30.95;-1.59;398.0;16.70;76619;2834.977;-1757.025;1;276;-100;-98.4;49.2;49.6;16;15.8;28.9;0.0;
12/02/2025 23:25:45;100;0;276.74;-4;-30.97;-3.63;402.2;16.70;76607;2834.978;-1757.030;1;276;-100;-101.6;49.2;49.6;16;16.2;28.9;0.0;
12/02/2025 23:26:05;100;0;269.58;-4;-32.44;-3.55;406.7;16.60;76583;2834.979;-1757.034;1;276;-100;-98.4;48.5;48.5;12;12.2;28.9;0.0;
12/02/2025 23:26:25;100;0;265.12;-4;-29.97;-5.86;411.2;16.60;76586;2834.979;-1757.039;1;276;-100;-98.4;48.5;48.3;12;11.7;28.9;0.0;
12/02/2025 23:26:45;100;0;262.30;-4;-28.55;-5.85;415.4;16.50;76562;2834.979;-1757.043;1;276;-100;-96.8;48.9;48.9;12;11.7;28.9;0.0;
12/02/2025 23:27:05;100;0;260.45;-4;-29.20;-5.86;419.5;16.50;76561;2834.979;-1757.047;1;276;-100;-98.4;48.9;49.0;12;11.7;28.9;0.0;
12/02/2025 23:27:25;100;0;257.64;-4;-29.45;-5.89;423.5;16.40;76543;2834.979;-1757.052;1;276;-100;-98.4;48.9;49.0;10;9.9;28.9;0.0;
12/02/2025 23:27:45;100;0;254.77;-4;-29.21;-7.00;427.5;16.40;76541;2834.979;-1757.056;1;276;-100;-101.6;48.9;49.0;8;8.1;28.9;0.0;
12/02/2025 23:28:05;100;0;256.22;-4;-29.43;-7.84;431.5;16.30;76518;2834.979;-1757.060;1;276;-100;-98.4;48.9;49.0;10;9.9;28.9;0.0;
12/02/2025 23:28:25;100;0;258.48;-4;-29.93;-6.66;435.6;16.30;76508;2834.979;-1757.064;1;276;-100;-98.4;48.9;49.0;10;9.9;28.9;0.0;
12/02/2025 23:28:45;100;0;259.36;-4;-29.24;-6.65;439.8;16.20;76499;2834.979;-1757.069;1;276;-100;-98.4;48.9;49.0;10;10.4;28.9;0.0;
12/02/2025 23:29:05;100;0;261.44;-4;-29.22;-6.65;443.8;16.20;76485;2834.979;-1757.073;1;276;-100;-98.4;48.9;49.0;10;10.4;28.9;0.0;
12/02/2025 23:29:25;100;0;263.01;-4;-29.36;-6.63;447.8;16.10;76468;2834.979;-1757.077;1;276;-100;-98.4;48.9;49.0;10;10.4;28.9;0.0;
12/02/2025 23:29:45;100;0;264.82;-4;-30.20;-6.65;451.8;16.10;76459;2834.980;-1757.081;1;276;-100;-98.4;48.9;49.2;10;9.9;28.9;0.0;
12/02/2025 23:30:05;100;0;262.87;-4;-30.53;-6.84;456.1;16.00;76450;2834.980;-1757.086;1;276;-100;-98.4;48.9;49.0;10;9.9;28.9;0.0;
12/02/2025 23:30:25;100;0;261.28;-4;-29.83;-6.67;460.6;16.00;76442;2834.980;-1757.090;1;276;-100;-98.4;48.9;49.0;10;9.9;28.9;0.0;
12/02/2025 23:30:45;100;0;259.68;-4;-29.95;-6.78;464.8;15.90;76429;2834.980;-1757.095;1;276;-100;-98.4;48.9;49.0;10;9.9;28.9;0.0;
12/02/2025 23:31:05;100;0;262.14;-4;-29.98;-6.60;468.9;15.90;76431;2834.980;-1757.099;1;276;-100;-98.4;48.9;49.0;10;9.9;28.9;0.0;
12/02/2025 23:31:25;100;0;262.46;-4;-29.75;-6.75;473.0;15.80;76415;2834.981;-1757.103;1;276;-100;-96.8;48.9;49.0;10;9.9;28.9;0.0;
12/02/2025 23:31:45;100;0;262.65;-4;-29.77;-6.58;477.2;15.80;76401;2834.981;-1757.107;1;276;-100;-98.4;48.9;49.0;10;10.4;28.9;0.0;
12/02/2025 23:32:05;100;0;263.06;-4;-29.46;-6.68;481.3;15.70;76397;2834.981;-1757.112;1;276;-100;-98.4;48.9;49.0;10;10.4;28.9;0.0;
12/02/2025 23:32:25;100;0;261.29;-4;-29.20;-6.90;485.4;15.70;76399;2834.981;-1757.116;1;276;-100;-96.8;48.9;49.0;10;9.9;28.9;0.0;
12/02/2025 23:32:45;100;0;261.11;-4;-29.24;-6.70;489.4;15.60;76393;2834.981;-1757.121;1;276;-100;-96.8;48.9;49.0;10;9.9;28.9;0.0;
12/02/2025 23:33:05;100;0;265.41;-4;-29.44;-6.49;493.5;15.60;76381;2834.982;-1757.125;1;276;-100;-98.4;48.9;49.0;10;9.9;28.9;0.0;
12/02/2025 23:33:25;100;0;267.73;-4;-29.34;-6.51;497.7;15.60;76378;2834.982;-1757.129;1;276;-100;-98.4;48.9;49.0;10;9.9;28.9;0.0;
12/02/2025 23:33:31;118;0;267.97;-4;-29.86;-6.64;498.9;15.50;76371;2834.983;-1757.131;1;276;220;-91.9;20.4;20.5;0;-0.5;28.9;0.0;
12/02/2025 23:33:41;118;0;233.29;-4;-15.57;-12.58;500.5;15.50;76343;2834.981;-1757.133;1;276;220;37.1;20.4;20.0;0;-0.5;28.2;-1.0;
12/02/2025 23:33:51;118;0;340.41;-4;13.62;-12.77;501.0;15.50;76078;2834.982;-1757.133;1;276;220;162.9;20.4;20.5;0;-0.5;28.1;-1.0;
12/02/2025 23:34:01;118;0;344.39;-4;27.42;-13.87;500.1;15.50;75798;2834.984;-1757.134;1;276;220;222.6;20.4;20.8;0;-0.5;28.2;-1.0;
12/02/2025 23:34:11;118;0;281.42;-4;29.12;-13.22;498.8;15.40;75693;2834.984;-1757.135;1;276;220;222.6;20.4;20.8;0;-0.5;28.8;-1.0;
12/02/2025 23:34:31;117;0;273.77;-4;30.01;-13.26;496.0;15.40;75693;2834.985;-1757.138;1;276;220;222.6;20.4;20.8;0;-0.5;28.9;-1.0;
12/02/2025 23:34:51;117;0;263.57;-4;29.76;-13.31;492.6;15.40;75680;2834.986;-1757.141;1;276;220;222.6;20.4;20.6;11;10.8;28.9;-1.0;
12/02/2025 23:35:11;117;0;253.98;-4;30.97;-7.02;489.5;15.30;75677;2834.986;-1757.144;1;276;220;222.6;20.4;20.8;11;11.3;28.9;-1.0;
12/02/2025 23:35:31;117;0;248.35;-4;30.45;-7.03;486.1;15.30;75680;2834.985;-1757.148;1;276;220;222.6;20.4;20.6;18;18.5;28.9;-1.0;
12/02/2025 23:35:51;117;0;245.13;-4;31.68;-3.15;482.9;15.30;75682;2834.985;-1757.151;1;276;220;222.6;20.4;20.8;21;21.7;28.9;-1.0;
12/02/2025 23:36:11;117;0;240.25;-4;31.08;-1.38;479.6;15.20;75678;2834.984;-1757.154;1;276;220;222.6;20.4;20.8;29;28.9;28.9;-1.0;
12/02/2025 23:36:31;117;0;239.99;-4;31.92;2.67;476.4;15.20;75667;2834.984;-1757.156;1;276;220;222.6;20.4;20.8;29;29.3;28.9;-1.0;
12/02/2025 23:36:51;117;0;238.76;-4;32.37;2.68;473.1;15.20;75671;2834.983;-1757.159;1;276;220;222.6;21.1;21.4;32;32.0;28.9;-1.0;
12/02/2025 23:37:11;117;0;238.86;-4;32.91;4.53;469.9;15.10;75672;2834.982;-1757.162;1;276;220;222.6;22.0;22.1;30;29.3;28.9;-1.0;
12/02/2025 23:37:31;117;0;237.60;-4;29.82;2.87;466.6;15.10;75656;2834.981;-1757.165;1;276;220;222.6;22.0;22.2;35;35.2;28.9;-1.0;
12/02/2025 23:37:51;117;0;240.75;-4;30.29;6.06;463.6;15.10;75659;2834.981;-1757.168;1;276;220;224.2;22.0;22.2;28;28.0;28.9;-1.0;
12/02/2025 23:38:11;117;0;242.62;-4;29.47;1.80;460.7;15.00;75652;2834.980;-1757.170;1;276;220;222.6;22.0;22.1;25;24.4;28.9;-1.0;
12/02/2025 23:38:31;117;0;240.92;-4;29.64;-0.11;457.8;15.00;75647;2834.980;-1757.173;1;276;220;222.6;22.0;22.2;25;24.4;28.9;-1.0;
12/02/2025 23:38:51;117;0;235.71;-4;29.79;-0.07;454.9;15.00;75646;2834.979;-1757.176;1;276;220;224.2;22.0;22.2;35;35.6;28.9;-1.0;
12/02/2025 23:39:11;117;0;232.34;-4;30.44;6.17;451.8;14.90;75648;2834.978;-1757.178;1;276;220;222.6;22.0;22.2;43;42.9;28.9;-1.0;
12/02/2025 23:39:31;117;0;230.90;-4;31.10;10.27;448.6;14.90;75649;2834.977;-1757.181;1;276;220;222.6;22.0;22.2;45;45.1;28.9;-1.0;
12/02/2025 23:39:51;117;0;234.01;-4;31.12;11.60;445.2;14.90;75644;2834.976;-1757.184;1;276;220;222.6;22.0;22.2;42;42.0;28.8;-1.0;
12/02/2025 23:40:11;117;0;231.89;-4;31.05;9.20;441.7;14.80;75644;2834.975;-1757.186;1;276;220;221.0;22.0;22.2;45;45.1;28.9;-1.0;
12/02/2025 23:40:31;117;0;233.06;-4;31.36;11.22;438.3;14.80;75650;2834.974;-1757.189;1;276;220;224.2;22.0;22.2;43;42.4;28.9;-1.0;
12/02/2025 23:40:51;117;0;234.20;-4;31.22;9.51;434.5;14.80;75646;2834.973;-1757.192;1;276;220;221.0;22.0;22.2;43;42.0;28.9;-1.0;
12/02/2025 23:41:11;117;0;235.82;-4;30.91;9.42;430.8;14.80;75639;2834.972;-1757.195;1;276;220;222.6;22.0;22.2;40;40.2;28.9;-1.0;
12/02/2025 23:41:31;117;0;237.49;-4;31.06;8.21;427.0;14.70;75640;2834.971;-1757.199;1;276;220;224.2;22.0;22.2;38;37.5;28.9;-1.0;
12/02/2025 23:41:51;117;0;238.41;-4;30.38;6.97;423.3;14.70;75641;2834.970;-1757.202;1;277;220;224.2;22.0;22.2;38;37.5;28.9;-1.0;
12/02/2025 23:42:11;117;0;240.13;-4;30.34;6.79;419.7;14.70;75648;2834.969;-1757.205;1;277;220;222.6;22.0;22.2;35;35.2;28.9;-1.0;
12/02/2025 23:42:31;117;0;239.83;-4;29.95;5.60;416.1;14.70;75650;2834.968;-1757.209;1;277;220;224.2;22.0;22.2;35;34.7;28.9;-1.0;
12/02/2025 23:42:51;117;0;242.17;-4;30.01;5.57;412.6;14.70;75644;2834.967;-1757.212;1;277;220;222.6;22.0;22.2;31;31.1;28.9;-1.0;
12/02/2025 23:43:11;117;0;246.76;-4;29.55;4.64;409.2;14.70;75649;2834.967;-1757.215;1;277;220;222.6;22.0;22.2;24;23.9;28.9;-1.0;
12/02/2025 23:43:31;117;0;245.47;-4;29.40;-0.41;405.9;14.60;75652;2834.966;-1757.218;1;277;220;222.6;22.0;22.2;26;26.2;28.9;-1.0;
12/02/2025 23:43:51;117;0;241.92;-4;28.97;1.39;402.6;14.60;75648;2834.966;-1757.222;1;277;220;224.2;21.7;21.4;32;32.0;28.9;-1.0;
12/02/2025 23:44:11;117;0;238.45;-4;30.57;4.38;399.4;14.60;75654;2834.965;-1757.224;1;277;220;222.6;21.7;21.4;34;33.8;28.9;-1.0;
12/02/2025 23:44:31;117;0;235.63;-4;31.22;5.14;396.1;14.60;75654;2834.964;-1757.227;1;277;220;224.2;21.7;21.4;41;41.5;28.9;-1.0;
12/02/2025 23:44:51;117;0;234.70;-4;31.96;9.32;392.5;14.60;75655;2834.963;-1757.230;1;277;220;222.6;21.7;21.5;41;42.0;28.9;-1.0;
12/02/2025 23:45:11;117;0;233.47;-4;32.14;9.38;389.0;14.60;75646;2834.962;-1757.233;1;277;220;222.6;22.3;22.5;47;46.9;28.9;-1.0;
12/02/2025 23:45:31;117;0;232.10;-4;31.31;12.62;385.3;14.60;75649;2834.961;-1757.236;1;277;220;222.6;22.3;22.8;47;47.4;28.9;-1.0;
12/02/2025 23:45:51;117;0;230.24;-4;31.60;12.53;381.7;14.60;75647;2834.960;-1757.239;1;277;220;221.0;22.3;22.7;49;49.6;28.9;-1.0;
12/02/2025 23:46:12;117;0;233.33;-4;28.89;13.65;378.1;14.50;75642;2834.958;-1757.242;1;277;220;222.6;22.0;21.8;49;49.6;28.9;-1.0;
12/02/2025 23:46:32;117;0;236.99;-4;30.98;13.28;374.8;14.50;75640;2834.958;-1757.245;1;277;220;222.6;22.0;21.6;37;36.1;28.9;-1.0;
12/02/2025 23:46:52;117;0;237.41;-4;30.71;6.13;371.4;14.50;75651;2834.957;-1757.247;1;277;220;224.2;22.0;21.6;37;36.6;28.9;-1.0;
12/02/2025 23:47:12;117;0;240.88;-4;30.18;6.21;368.1;14.50;75651;2834.956;-1757.251;1;277;220;222.6;22.0;21.6;32;32.0;28.9;-1.0;
12/02/2025 23:47:32;117;0;242.95;-4;30.68;3.46;365.0;14.50;75647;2834.956;-1757.253;1;277;220;224.2;22.0;21.5;27;27.1;28.9;-1.0;
12/02/2025 23:47:52;117;0;242.58;-4;30.52;1.17;361.9;14.50;75633;2834.955;-1757.256;1;277;220;222.6;22.0;21.5;27;26.6;28.9;-1.0;
12/02/2025 23:48:12;117;0;241.14;-4;29.82;1.21;359.0;14.50;75647;2834.955;-1757.259;1;277;220;222.6;22.0;21.5;27;26.6;28.9;-1.0;
12/02/2025 23:48:32;117;0;240.06;-4;30.13;1.14;356.1;14.50;75655;2834.954;-1757.262;1;277;220;222.6;22.0;21.5;30;29.8;28.9;-1.0;
12/02/2025 23:48:52;117;0;238.31;-4;30.48;2.91;353.0;14.50;75648;2834.953;-1757.264;1;278;220;222.6;22.0;21.6;37;37.5;28.9;-1.0;
12/02/2025 23:49:12;117;0;236.63;-4;31.07;7.05;350.1;14.50;75653;2834.953;-1757.267;1;278;220;222.6;22.0;21.5;37;37.5;28.9;-1.0;
12/02/2025 23:49:32;117;0;233.62;-4;31.77;7.04;347.0;14.50;75661;2834.952;-1757.269;1;278;220;222.6;22.0;21.5;43;42.9;28.9;-1.0;
12/02/2025 23:49:52;117;0;230.73;-4;31.14;10.26;343.8;14.50;75663;2834.951;-1757.272;1;278;220;222.6;22.0;21.6;50;50.1;28.9;-1.0;
12/02/2025 23:50:12;117;0;231.14;-4;32.19;14.08;340.6;14.50;75649;2834.950;-1757.274;1;278;220;222.6;22.7;22.7;48;47.4;28.9;-1.0;
12/02/2025 23:50:32;117;0;232.76;-4;30.20;12.32;337.5;14.50;75665;2834.949;-1757.277;1;278;220;222.6;22.7;22.8;46;46.0;28.9;-1.0;
12/02/2025 23:50:52;117;0;234.05;-4;29.62;11.35;334.4;14.50;75656;2834.948;-1757.280;1;278;220;222.6;22.7;22.8;44;44.2;28.9;-1.0;
12/02/2025 23:51:12;117;0;234.71;-4;29.50;10.60;331.6;14.50;75651;2834.947;-1757.282;1;278;220;222.6;22.7;22.8;41;41.1;28.9;-1.0;
12/02/2025 23:51:32;117;0;234.73;-4;29.43;8.65;328.5;14.50;75651;2834.946;-1757.285;1;278;220;221.0;22.7;22.8;43;42.9;28.9;-1.0;
12/02/2025 23:51:52;117;0;235.90;-4;29.01;10.07;325.7;14.40;75652;2834.946;-1757.287;1;278;220;222.6;22.7;22.8;41;41.1;28.9;-1.0;
12/02/2025 23:52:12;117;0;237.02;-4;28.86;8.65;323.0;14.40;75649;2834.945;-1757.290;1;278;220;222.6;22.3;22.1;37;37.0;28.9;-1.0;
12/02/2025 23:52:32;117;0;238.58;-4;29.94;6.61;320.3;14.40;75660;2834.945;-1757.292;1;278;220;222.6;22.3;21.9;33;32.9;28.8;-1.0;
12/02/2025 23:52:52;117;0;237.67;-4;29.95;4.08;317.4;14.50;75668;2834.944;-1757.295;1;278;220;222.6;22.3;21.9;36;36.1;28.9;-1.0;
12/02/2025 23:53:12;117;0;236.50;-4;30.24;6.44;314.6;14.40;75660;2834.943;-1757.298;1;278;220;222.6;22.3;21.9;38;38.4;28.9;-1.0;
12/02/2025 23:53:32;117;0;236.18;-4;30.33;7.45;311.7;14.40;75660;2834.943;-1757.300;1;278;220;222.6;22.3;21.9;40;40.2;28.9;-1.0;
12/02/2025 23:53:52;117;0;239.14;-4;30.15;8.53;308.9;14.50;75668;2834.942;-1757.303;1;278;220;222.6;22.3;21.9;34;33.4;28.9;-1.0;
12/02/2025 23:54:12;117;0;239.11;-4;29.95;5.41;306.0;14.40;75666;2834.941;-1757.305;1;278;220;222.6;22.3;21.9;34;34.7;28.9;-1.0;
12/02/2025 23:54:32;117;0;237.84;-4;30.10;5.42;303.3;14.50;75674;2834.941;-1757.308;1;278;220;222.6;22.3;21.9;34;34.7;28.9;-1.0;
12/02/2025 23:54:52;117;0;239.64;-4;29.77;5.46;300.5;14.40;75672;2834.940;-1757.310;1;278;220;222.6;22.3;21.9;34;34.7;28.9;-1.0;
12/02/2025 23:55:12;117;0;241.29;-4;29.90;5.40;297.8;14.50;75671;2834.940;-1757.313;1;278;220;222.6;22.3;21.9;28;28.0;28.9;-1.0;
12/02/2025 23:55:32;117;0;238.11;-4;29.34;1.61;295.1;14.40;75675;2834.939;-1757.315;1;278;220;224.2;22.3;21.9;32;32.0;28.9;-1.0;
12/02/2025 23:55:52;117;0;234.17;-4;29.47;4.37;292.4;14.50;75680;2834.939;-1757.318;1;278;220;222.6;22.3;21.9;44;44.2;28.9;-1.0;
12/02/2025 23:56:12;117;0;234.86;-4;30.33;10.70;289.7;14.50;75674;2834.938;-1757.320;1;279;220;224.2;22.3;21.9;44;44.2;28.9;-1.0;
12/02/2025 23:56:32;117;0;231.86;-4;31.10;10.81;286.9;14.50;75685;2834.937;-1757.323;1;279;220;224.2;22.3;21.9;46;46.0;28.9;-1.0;
12/02/2025 23:56:52;117;0;235.67;-4;30.77;11.85;284.0;14.50;75680;2834.937;-1757.325;1;279;220;222.6;22.3;21.9;40;39.7;28.9;-1.0;
12/02/2025 23:57:12;117;0;238.55;-4;30.27;8.02;281.2;14.50;75695;2834.936;-1757.328;1;279;220;222.6;22.3;21.9;37;36.1;28.9;-1.0;
12/02/2025 23:57:32;117;0;234.91;-4;30.34;6.74;278.5;14.50;75704;2834.935;-1757.330;1;279;220;224.2;22.3;21.9;41;41.1;28.8;-1.0;
12/02/2025 23:57:52;117;0;235.14;-4;30.47;9.11;275.7;14.50;75715;2834.935;-1757.332;1;279;220;222.6;22.3;21.9;41;41.5;28.9;-1.0;
12/02/2025 23:58:12;117;0;237.24;-4;30.00;8.96;272.9;14.50;75721;2834.934;-1757.335;1;279;220;224.2;22.3;21.9;39;38.8;28.9;-1.0;
12/02/2025 23:58:32;117;0;239.48;-4;30.11;7.24;270.1;14.50;75729;2834.933;-1757.337;1;279;220;224.2;22.3;21.9;33;32.9;28.9;-1.0;
12/02/2025 23:58:52;117;0;240.67;-4;30.03;4.95;267.4;14.50;75747;2834.933;-1757.340;1;279;220;224.2;22.3;21.9;31;31.1;28.9;-1.0;
12/02/2025 23:59:12;117;0;233.28;-4;29.70;3.53;264.7;14.50;75741;2834.932;-1757.342;1;279;220;222.6;22.3;21.9;44;44.2;28.9;-1.0;
12/02/2025 23:59:32;117;0;231.09;-4;30.72;10.74;262.0;14.50;75750;2834.932;-1757.345;1;279;220;222.6;22.3;22.1;47;46.9;28.9;-1.0;
12/02/2025 23:59:52;117;0;229.35;-4;30.99;12.26;259.0;14.60;75752;2834.931;-1757.347;1;279;220;222.6;22.3;21.9;51;51.0;28.9;-1.0;
13/02/2025 00:00:12;117;0;229.48;-4;30.99;14.49;256.2;14.60;75762;2834.930;-1757.349;1;279;220;224.2;22.3;21.9;51;51.0;28.9;-1.0;
13/02/2025 00:00:32;117;0;231.33;-4;30.75;14.56;253.3;14.60;75760;2834.929;-1757.351;1;279;220;222.6;22.3;21.9;48;47.8;28.9;-1.0;
13/02/2025 00:00:52;117;0;234.29;-4;30.57;12.33;250.7;14.60;75772;2834.928;-1757.354;1;279;220;224.2;22.3;21.9;41;41.1;28.9;-1.0;
13/02/2025 00:01:12;117;0;235.78;-4;30.05;8.57;248.0;14.60;75780;2834.928;-1757.356;1;279;220;224.2;22.3;21.9;41;40.6;28.9;-1.0;
13/02/2025 00:01:32;117;0;237.23;-4;30.07;8.57;245.4;14.60;75790;2834.927;-1757.358;1;279;220;224.2;22.3;21.9;36;36.1;28.9;-1.0;
13/02/2025 00:01:52;117;0;236.35;-4;29.95;6.17;242.8;14.60;75796;2834.927;-1757.361;1;279;220;224.2;22.3;21.9;39;38.8;28.9;-1.0;
13/02/2025 00:02:12;117;0;238.75;-4;30.07;7.78;240.2;14.60;75801;2834.926;-1757.363;1;279;220;225.8;22.3;21.9;33;32.5;28.9;-1.0;
13/02/2025 00:02:32;117;0;239.93;-4;29.58;4.08;237.5;14.70;75808;2834.926;-1757.366;1;279;220;224.2;22.3;21.9;33;32.5;28.9;-1.0;
13/02/2025 00:02:52;117;0;238.60;-4;29.58;4.16;234.9;14.70;75807;2834.925;-1757.368;1;279;220;222.6;22.3;21.9;35;35.2;28.9;-1.0;
13/02/2025 00:03:12;117;0;235.83;-4;28.51;6.05;232.3;14.70;75807;2834.925;-1757.370;1;279;220;224.2;21.9;21.9;40;40.2;28.9;-1.0;
13/02/2025 00:03:32;117;0;237.68;-4;30.11;8.59;229.9;14.70;75814;2834.924;-1757.373;1;280;220;225.8;21.9;21.9;35;35.2;28.9;-1.0;
13/02/2025 00:03:52;117;0;237.83;-4;29.58;5.69;227.3;14.70;75829;2834.924;-1757.375;1;280;220;222.6;21.9;21.9;38;37.9;28.9;-1.0;
13/02/2025 00:04:12;117;0;238.76;-4;30.38;7.23;224.7;14.80;75836;2834.923;-1757.377;1;280;220;224.2;21.9;21.9;38;38.4;28.9;-1.0;
13/02/2025 00:04:32;117;0;240.22;-4;29.82;7.06;221.9;14.80;75846;2834.923;-1757.380;1;280;220;224.2;21.9;21.9;32;31.6;28.9;-1.0;
13/02/2025 00:04:52;117;0;240.39;-4;30.14;5.27;219.0;14.80;75851;2834.922;-1757.382;1;280;220;221.0;21.9;21.9;39;38.8;28.9;-1.0;
13/02/2025 00:05:12;117;0;237.06;-4;29.96;8.28;216.0;14.80;75844;2834.921;-1757.385;1;280;220;224.2;21.9;21.8;43;42.9;28.9;-1.0;
13/02/2025 00:05:32;117;0;236.01;-4;30.55;10.26;213.0;14.80;75865;2834.921;-1757.388;1;280;220;224.2;21.9;21.9;43;43.3;28.9;-1.0;
13/02/2025 00:05:52;117;0;236.12;-4;30.45;10.34;210.0;14.90;75864;2834.920;-1757.390;1;280;220;224.2;21.9;21.9;43;43.3;28.9;-1.0;
13/02/2025 00:06:12;117;0;239.60;-4;30.27;10.30;207.1;14.90;75869;2834.919;-1757.393;1;280;220;225.8;21.9;21.9;39;38.8;28.9;-1.0;
13/02/2025 00:06:32;117;0;242.31;-4;30.11;7.39;204.2;14.90;75886;2834.919;-1757.396;1;280;220;224.2;21.9;21.9;32;32.0;28.9;-1.0;
13/02/2025 00:06:52;117;0;242.67;-4;29.74;5.36;201.3;14.90;75889;2834.918;-1757.399;1;280;220;224.2;21.9;21.9;32;34.7;28.9;-1.0;
13/02/2025 00:07:12;117;0;243.33;-4;29.46;5.31;198.5;14.90;75896;2834.918;-1757.401;1;280;220;224.2;21.9;21.9;32;34.7;28.9;-1.0;
13/02/2025 00:07:32;117;0;241.06;-4;29.71;5.50;195.8;14.90;75903;2834.918;-1757.404;1;280;220;224.2;21.9;21.9;32;34.7;28.9;-1.0;
13/02/2025 00:07:52;117;0;238.88;-4;29.57;5.38;193.2;15.00;75908;2834.917;-1757.406;1;280;220;224.2;21.9;21.9;37;37.0;28.9;-1.0;
13/02/2025 00:08:12;117;0;237.00;-4;29.77;6.94;190.5;15.00;75915;2834.917;-1757.409;1;280;220;224.2;21.9;21.9;42;42.0;28.9;-1.0;
13/02/2025 00:08:32;117;0;238.55;-4;30.00;9.57;187.8;15.00;75918;2834.916;-1757.411;1;280;220;224.2;21.9;21.9;37;36.6;28.9;-1.0;
13/02/2025 00:08:52;117;0;240.25;-4;29.76;6.37;185.1;15.00;75928;2834.916;-1757.414;1;280;220;224.2;21.9;21.9;34;33.4;28.9;-1.0;
13/02/2025 00:09:12;117;0;241.23;-4;29.62;5.30;182.6;15.00;75933;2834.915;-1757.416;1;280;220;224.2;21.9;21.9;31;30.7;28.9;-1.0;
13/02/2025 00:09:32;117;0;241.38;-4;29.50;3.02;180.0;15.10;75935;2834.915;-1757.418;1;280;220;224.2;21.9;21.9;31;30.7;28.9;-1.0;
13/02/2025 00:09:52;117;0;239.06;-4;29.39;3.14;177.4;15.10;75944;2834.914;-1757.421;1;280;220;225.8;21.9;21.9;36;36.1;28.9;-1.0;
13/02/2025 00:10:12;117;0;240.02;-4;29.55;6.35;174.9;15.10;75951;2834.914;-1757.423;1;280;220;222.6;21.9;21.9;33;32.5;28.9;-1.0;
13/02/2025 00:10:32;117;0;238.49;-4;29.39;4.52;172.4;15.20;75963;2834.913;-1757.426;1;280;220;224.2;21.9;21.9;36;36.1;28.8;-1.0;
13/02/2025 00:10:52;117;0;238.51;-4;29.67;6.37;169.8;15.10;75964;2834.913;-1757.428;1;280;220;224.2;21.9;21.9;36;36.6;28.9;-1.0;
13/02/2025 00:11:12;117;0;238.85;-4;29.47;6.35;167.4;15.20;75984;2834.913;-1757.430;1;281;220;224.2;21.9;21.9;36;36.6;28.9;-1.0;
13/02/2025 00:11:32;117;0;242.03;-4;29.34;6.34;165.0;15.20;75997;2834.912;-1757.433;1;281;220;224.2;21.9;21.9;31;31.1;28.9;-1.0;
13/02/2025 00:11:52;117;0;240.39;-4;29.12;3.18;162.6;15.20;76006;2834.912;-1757.435;1;281;220;224.2;21.9;21.9;33;32.9;28.9;-1.0;
13/02/2025 00:12:12;117;0;236.16;-4;29.15;4.84;160.4;15.30;76021;2834.911;-1757.437;1;281;220;224.2;21.9;21.9;40;40.2;28.9;-1.0;
13/02/2025 00:12:32;117;0;234.73;-4;29.99;8.54;158.1;15.30;76020;2834.911;-1757.439;1;281;220;224.2;21.9;21.9;40;40.2;28.9;-1.0;
13/02/2025 00:12:52;117;0;238.47;-4;29.81;8.53;155.6;15.30;76031;2834.911;-1757.441;1;281;220;224.2;21.9;21.9;38;37.5;28.9;-1.0;
13/02/2025 00:13:12;117;0;242.06;-4;29.52;6.86;153.1;15.30;76054;2834.910;-1757.444;1;281;220;224.2;21.9;21.9;31;31.1;28.9;-1.0;
13/02/2025 00:13:32;117;0;239.79;-4;29.49;3.27;150.7;15.40;76069;2834.910;-1757.446;1;281;220;224.2;21.9;21.9;35;35.2;28.9;-1.0;
13/02/2025 00:13:52;117;0;240.47;-4;29.61;5.94;148.0;15.40;76081;2834.909;-1757.449;1;281;220;224.2;21.9;21.9;35;35.6;28.9;-1.0;
13/02/2025 00:14:12;117;0;241.57;-4;29.24;5.92;145.5;15.40;76091;2834.909;-1757.451;1;281;220;224.2;21.9;21.9;35;35.6;28.9;-1.0;
13/02/2025 00:14:32;117;0;247.32;-4;29.70;6.06;142.9;15.50;76101;2834.909;-1757.454;1;281;220;224.2;21.9;21.9;25;24.8;28.9;-1.0;
13/02/2025 00:14:52;117;0;247.93;-4;28.95;-0.17;140.2;15.50;76116;2834.909;-1757.456;1;281;220;224.2;21.6;21.5;25;24.4;28.9;-1.0;
13/02/2025 00:15:12;117;0;250.51;-4;29.43;-0.18;137.4;15.50;76124;2834.909;-1757.459;1;281;220;224.2;21.6;21.4;21;21.2;28.9;-1.0;
13/02/2025 00:15:32;117;0;248.15;-4;29.73;-2.10;134.7;15.60;76131;2834.908;-1757.462;1;281;220;224.2;21.6;21.4;23;23.0;28.9;-1.0;
13/02/2025 00:15:52;117;0;241.99;-4;29.75;-0.38;131.9;15.60;76177;2834.908;-1757.465;1;281;220;224.2;21.6;21.4;35;35.2;28.9;-1.0;
13/02/2025 00:16:12;117;0;240.85;-4;30.65;5.99;129.0;15.70;76181;2834.907;-1757.467;1;281;220;227.4;21.6;21.4;37;37.0;28.9;-1.0;
13/02/2025 00:16:32;117;0;237.62;-4;30.57;7.14;126.1;15.70;76197;2834.907;-1757.470;1;281;220;225.8;21.6;21.4;43;43.3;28.9;-1.0;
13/02/2025 00:16:52;117;0;239.34;-4;31.40;10.45;123.0;15.70;76209;2834.906;-1757.472;1;281;220;224.2;21.6;21.4;43;43.3;28.9;-1.0;
13/02/2025 00:17:12;117;0;245.35;-4;31.02;10.44;120.0;15.80;76216;2834.906;-1757.475;1;281;220;224.2;21.6;21.4;31;31.1;28.9;-1.0;
13/02/2025 00:17:32;117;0;247.50;-4;30.39;3.36;117.0;15.80;76246;2834.906;-1757.478;1;281;220;225.8;21.6;21.2;28;27.5;28.9;-1.0;
13/02/2025 00:17:52;117;0;244.43;-4;29.18;1.39;114.1;15.90;76263;2834.905;-1757.481;1;281;220;225.8;21.6;21.2;33;33.4;28.9;-1.0;
13/02/2025 00:18:12;117;0;243.63;-4;29.91;5.05;111.4;15.90;76280;2834.905;-1757.484;1;281;220;225.8;21.6;21.4;31;31.1;28.9;-1.0;
13/02/2025 00:18:32;117;0;242.33;-4;29.86;3.12;108.7;16.00;76298;2834.904;-1757.486;1;281;220;224.2;21.6;21.4;33;32.9;28.9;-1.0;
13/02/2025 00:18:52;117;0;243.17;-4;29.80;4.80;106.0;16.00;76305;2834.904;-1757.489;1;281;220;225.8;21.6;21.4;33;33.4;28.9;-1.0;
13/02/2025 00:19:12;117;0;242.77;-4;29.73;4.80;103.4;16.00;76333;2834.904;-1757.491;1;281;220;224.2;21.6;21.4;33;33.4;28.9;-1.0;
13/02/2025 00:19:32;117;0;242.75;-4;30.31;4.71;100.7;16.10;76345;2834.903;-1757.494;1;282;220;225.8;21.6;21.4;33;33.4;28.9;-1.0;
13/02/2025 00:19:52;117;0;238.09;-4;30.11;4.81;98.0;16.10;76365;2834.903;-1757.496;1;282;220;224.2;21.6;21.4;44;44.2;28.9;-1.0;
13/02/2025 00:20:12;117;0;236.37;-4;30.68;11.03;95.2;16.20;76384;2834.902;-1757.499;1;282;220;224.2;21.6;21.4;44;44.7;28.9;-1.0;
13/02/2025 00:20:33;117;0;233.97;-4;30.96;10.96;92.4;16.20;76393;2834.902;-1757.501;1;282;220;225.8;21.6;21.4;50;50.1;28.9;-1.0;
13/02/2025 00:20:53;117;0;232.70;-4;31.43;14.24;89.6;16.30;76406;2834.901;-1757.503;1;282;220;224.2;21.6;21.4;50;50.5;28.9;-1.0;
13/02/2025 00:21:13;117;0;232.04;-4;31.64;14.18;86.8;16.30;76437;2834.900;-1757.506;1;282;220;224.2;21.6;21.4;50;50.5;28.9;-1.0;
13/02/2025 00:21:33;117;0;237.60;-4;30.92;14.00;84.1;16.40;76466;2834.900;-1757.508;1;282;220;224.2;21.6;21.4;46;45.6;28.8;-1.0;
13/02/2025 00:21:53;117;0;238.41;-4;30.82;11.03;81.4;16.40;76491;2834.899;-1757.510;1;282;220;225.8;21.6;21.4;42;42.0;28.9;-1.0;
13/02/2025 00:22:13;117;0;239.60;-4;30.61;9.05;78.8;16.50;76511;2834.899;-1757.513;1;282;220;225.8;21.6;21.4;38;37.5;28.9;-1.0;
13/02/2025 00:22:33;117;0;239.44;-4;30.49;6.74;76.0;16.50;76526;2834.898;-1757.515;1;282;220;225.8;21.6;21.2;42;42.4;28.9;-1.0;
13/02/2025 00:22:53;117;0;240.10;-4;30.89;9.87;73.4;16.60;76540;2834.898;-1757.517;1;282;220;225.8;21.6;21.2;39;38.8;28.9;-1.0;
13/02/2025 00:23:13;117;0;239.40;-4;30.67;7.26;70.5;16.70;76557;2834.897;-1757.520;1;282;220;225.8;21.6;21.4;42;42.4;28.8;-1.0;
13/02/2025 00:23:33;117;0;239.76;-4;30.99;9.75;67.7;16.70;76568;2834.897;-1757.523;1;282;220;225.8;21.6;21.4;42;42.4;28.9;-1.0;
13/02/2025 00:23:53;117;0;239.25;-4;31.02;9.71;64.8;16.80;76569;2834.896;-1757.525;1;282;220;224.2;21.6;21.4;40;40.2;28.9;-1.0;
13/02/2025 00:24:13;117;0;237.42;-4;30.78;8.09;62.0;16.90;76582;2834.896;-1757.528;1;282;220;225.8;21.6;21.4;45;45.1;28.9;-1.0;
13/02/2025 00:24:33;117;0;237.72;-4;31.17;11.54;59.0;16.90;76600;2834.895;-1757.530;1;282;220;224.2;21.6;21.4;45;45.6;28.9;-1.0;
13/02/2025 00:24:53;117;0;239.36;-4;30.92;11.56;56.0;16.90;76600;2834.894;-1757.533;1;282;220;224.2;21.6;21.5;45;46.0;28.9;-1.0;
13/02/2025 00:25:13;117;0;243.10;-4;31.05;11.57;52.9;17.00;76608;2834.894;-1757.536;1;282;220;224.2;21.6;21.2;37;37.0;28.9;-1.0;
13/02/2025 00:25:33;117;0;243.73;-4;30.75;6.55;50.0;17.10;76623;2834.894;-1757.538;1;282;220;225.8;21.6;21.4;35;35.2;28.9;-1.0;
13/02/2025 00:25:53;117;0;243.01;-4;30.42;5.61;47.0;17.10;76618;2834.893;-1757.541;1;283;220;227.4;21.6;21.4;39;39.3;28.9;-1.0;
13/02/2025 00:26:13;117;0;243.48;-4;30.93;7.99;44.0;17.20;76632;2834.893;-1757.544;1;283;220;225.8;21.6;21.4;39;39.3;28.9;-1.0;
13/02/2025 00:26:33;117;0;243.58;-4;30.73;8.02;40.8;17.20;76635;2834.892;-1757.547;1;283;220;224.2;21.6;21.4;39;39.3;28.9;-1.0;
13/02/2025 00:26:53;117;0;245.92;-4;30.53;7.97;37.8;17.20;76641;2834.892;-1757.550;1;283;220;225.8;21.6;21.4;34;33.8;28.9;-1.0;
13/02/2025 00:27:13;117;0;246.93;-4;30.23;4.80;34.7;17.30;76652;2834.891;-1757.553;1;283;220;225.8;21.6;21.4;34;33.4;28.9;-1.0;
13/02/2025 00:27:33;117;0;244.69;-4;30.08;4.70;31.7;17.30;76659;2834.891;-1757.556;1;283;220;225.8;21.6;21.4;37;37.5;28.9;-1.0;
13/02/2025 00:27:53;117;0;244.11;-4;30.40;7.27;28.8;17.40;76667;2834.891;-1757.558;1;283;220;225.8;21.6;21.4;37;37.9;28.9;-1.0;
13/02/2025 00:28:13;117;0;245.33;-4;30.28;7.25;25.8;17.50;76676;2834.890;-1757.561;1;283;220;225.8;21.6;21.4;35;28.4;28.9;-1.0;
13/02/2025 00:28:33;117;0;245.32;-4;30.35;6.34;22.9;17.50;76688;2834.890;-1757.564;1;283;220;225.8;21.6;21.4;35;36.6;28.9;-1.0;
13/02/2025 00:28:53;117;0;246.54;-4;30.47;6.25;20.0;17.50;76687;2834.890;-1757.567;1;283;220;225.8;21.6;21.4;33;32.5;28.9;-1.0;
13/02/2025 00:29:13;117;0;243.10;-4;29.87;3.86;17.0;17.60;76692;2834.889;-1757.570;1;283;220;225.8;21.6;21.4;39;38.8;28.9;-1.0;
13/02/2025 00:29:33;117;0;243.83;-4;30.57;7.93;14.1;17.60;76698;2834.889;-1757.572;1;283;220;225.8;21.6;21.4;36;34.3;28.9;-1.0;
13/02/2025 00:29:53;117;0;238.65;-4;30.00;5.82;11.1;17.70;76711;2834.888;-1757.575;1;283;220;225.8;21.6;21.2;47;46.9;28.8;-1.0;
13/02/2025 00:30:13;117;0;235.88;-4;30.87;12.51;8.1;17.70;76724;2834.887;-1757.578;1;283;220;222.6;21.6;21.4;51;51.0;28.9;-1.0;
13/02/2025 00:30:33;117;0;233.63;-4;30.68;14.82;4.9;17.80;76745;2834.886;-1757.580;1;283;220;222.6;21.6;21.2;56;56.4;28.8;-1.0;
13/02/2025 00:30:45;115;0;237.02;-4;31.18;17.88;3.0;17.80;76739;2834.886;-1757.582;1;283;500;233.9;100.0;64.9;0;-0.5;28.9;-1.0;
13/02/2025 00:30:55;115;0;216.95;-4;14.16;-12.40;1.8;17.80;76714;2834.885;-1757.583;1;283;500;351.6;100.0;100.0;0;-0.5;28.6;-1.0;
13/02/2025 00:31:05;115;0;205.14;-4;-57.03;-12.47;2.3;17.80;76459;2834.885;-1757.583;1;283;500;466.1;100.0;100.6;0;-0.5;28.6;-1.0;
13/02/2025 00:31:15;115;0;190.06;-4;-67.35;-12.37;2.2;17.90;76219;2834.885;-1757.584;1;283;500;508.1;100.0;100.7;0;-0.5;28.7;-1.0;
13/02/2025 00:31:25;115;0;238.94;-4;-29.98;-7.12;-0.2;17.90;76136;2834.885;-1757.586;1;283;500;508.1;100.0;100.6;0;-0.5;28.9;-1.0;
13/02/2025 00:31:45;119;0;231.21;-4;-58.71;-11.93;0.0;18.00;76154;2834.885;-1757.586;1;283;500;511.3;100.0;100.7;0;-0.5;28.9;-1.0;
13/02/2025 00:31:55;119;0;236.55;-4;-48.40;-13.92;-0.0;18.00;76153;2834.648;-1757.423;0;283;500;509.7;100.0;100.7;0;-0.5;28.9;-1.0;
