Timestamp;NavState;SecurityLevel;Heading;Declination;Pitch;Roll;Depth;Temperature;Pa;Lat;Lon;DeadReckoning;DesiredH;BallastCmd;BallastPos;LinCmd;LinPos;AngCmd;AngPos;Voltage;Altitude;
13/02/2025 02:12:05;119;0;249.64;-4;-62.76;-37.80;0.1;17.90;76132;2834.499;-1758.063;0;318;500;508.1;100.0;100.7;0;-0.5;28.8;-1.0;
13/02/2025 02:12:15;116;0;267.52;-4;-52.56;-7.26;0.1;18.00;76140;2834.498;-1758.065;0;318;500;508.1;100.0;100.7;0;-0.5;28.8;-1.0;
13/02/2025 02:12:42;116;0;341.12;-4;-49.59;-8.99;0.1;18.10;76149;2834.496;-1758.065;0;318;500;508.1;100.0;100.7;0;-0.5;28.8;-1.0;
13/02/2025 02:13:05;116;0;15.00;-4;-51.53;-19.46;0.1;18.20;76156;2834.496;-1758.065;0;318;500;508.1;100.0;100.7;0;-0.5;28.8;-1.0;
13/02/2025 02:13:21;116;0;12.56;-4;-53.19;-24.68;0.1;18.30;76155;2834.496;-1758.065;0;318;500;506.5;100.0;100.7;0;-0.5;28.8;-1.0;
13/02/2025 02:13:41;116;0;359.26;-4;-55.55;-10.86;0.2;18.40;76163;2834.493;-1758.064;0;318;500;508.1;100.0;100.7;0;-0.5;28.8;-1.0;
13/02/2025 02:14:01;116;0;356.99;-4;-55.21;-18.53;0.2;18.50;76172;2834.491;-1758.063;0;318;500;508.1;100.0;100.7;0;-0.5;28.8;-1.0;
13/02/2025 02:14:21;116;0;5.48;-4;-54.87;-9.07;0.2;18.50;76182;2834.487;-1758.061;0;318;500;508.1;100.0;100.7;0;-0.5;28.8;-1.0;
13/02/2025 02:15:20;116;0;349.72;-4;-56.49;-13.31;0.3;18.90;76199;2834.487;-1758.057;0;318;500;508.1;100.0;100.7;0;-0.5;28.8;-1.0;
13/02/2025 02:15:31;116;0;336.82;-4;-52.56;-18.68;0.2;19.00;76207;2834.485;-1758.056;0;318;500;508.1;100.0;100.6;0;-0.5;28.8;-1.0;
13/02/2025 02:15:51;110;0;325.60;-4;-53.60;-15.21;-0.1;19.10;76214;2834.485;-1758.056;0;318;-100;396.8;100.0;99.7;-4;-4.1;28.8;-1.0;
13/02/2025 02:16:01;110;0;321.31;-4;-54.13;-13.11;0.1;19.10;76556;2834.484;-1758.055;1;318;-100;246.8;100.0;99.9;-4;-4.5;28.8;-1.0;
13/02/2025 02:16:11;110;0;324.39;-4;-59.38;-18.66;0.6;19.20;76803;2834.484;-1758.055;1;318;-100;85.5;100.0;99.9;-4;-4.5;28.8;-1.0;
13/02/2025 02:16:21;110;0;317.05;-4;-69.73;-6.01;0.8;19.20;77133;2834.484;-1758.055;1;318;-100;-71.0;100.0;99.9;-4;-4.5;28.8;-1.0;
13/02/2025 02:16:31;110;0;325.63;-4;-67.68;-13.33;1.1;19.30;77472;2834.483;-1758.054;1;318;-100;-100.0;49.2;49.2;-4;-4.5;28.8;-1.0;
13/02/2025 02:16:41;110;0;337.22;-4;-56.23;-15.36;2.6;19.30;77493;2834.483;-1758.054;1;318;-100;-101.6;49.2;49.0;-4;-4.5;28.8;-1.0;
13/02/2025 02:17:01;100;0;347.00;-4;-30.97;-13.47;7.0;19.40;77506;2834.486;-1758.054;1;318;-100;-98.4;49.2;48.9;-4;-4.5;28.8;-1.0;
13/02/2025 02:17:21;100;0;353.12;-4;-30.24;-14.03;11.6;19.40;77500;2834.489;-1758.053;1;318;-100;-98.4;49.2;48.7;49;49.6;28.8;-1.0;
13/02/2025 02:17:41;100;0;351.45;-4;-33.05;12.82;16.3;19.50;77512;2834.491;-1758.053;1;318;-100;-98.4;48.3;48.2;47;46.9;28.8;0.0;
13/02/2025 02:18:01;100;0;343.11;-4;-32.04;11.30;21.2;19.50;77507;2834.494;-1758.053;1;318;-100;-98.4;47.7;47.6;33;32.9;28.8;0.0;
13/02/2025 02:18:21;100;0;336.73;-4;-31.01;4.15;25.9;19.50;77511;2834.497;-1758.054;1;318;-100;-98.4;47.7;47.6;22;21.7;28.8;0.0;
13/02/2025 02:18:41;100;0;334.53;-4;-30.24;-0.93;30.5;19.50;77517;2834.499;-1758.055;1;317;-100;-100.0;47.7;47.6;22;21.7;28.8;0.0;
13/02/2025 02:19:01;100;0;332.28;-4;-29.75;-0.99;35.2;19.50;77509;2834.502;-1758.057;1;317;-100;-98.4;47.7;47.6;18;18.1;28.8;0.0;
13/02/2025 02:19:21;100;0;331.27;-4;-29.55;-3.02;39.7;19.50;77526;2834.504;-1758.058;1;317;-100;-96.8;47.7;47.6;16;15.3;28.8;0.0;
13/02/2025 02:19:41;100;0;328.28;-4;-29.37;-4.13;44.3;19.50;77512;2834.506;-1758.059;1;317;-100;-98.4;47.7;47.6;14;13.5;28.8;0.0;
13/02/2025 02:20:01;100;0;325.97;-4;-29.48;-4.96;48.8;19.50;77523;2834.509;-1758.061;1;317;-100;-96.8;47.7;47.6;12;12.2;28.8;0.0;
13/02/2025 02:20:21;100;0;323.56;-4;-28.73;-5.87;53.3;19.60;77528;2834.511;-1758.063;1;317;-100;-96.8;48.1;48.2;12;11.7;28.8;0.0;
13/02/2025 02:20:41;100;0;320.26;-4;-29.56;-5.80;57.7;19.50;77518;2834.513;-1758.065;1;317;-100;-98.4;48.1;48.3;12;11.7;28.8;0.0;
13/02/2025 02:21:01;100;0;317.76;-4;-29.86;-5.84;62.2;19.60;77528;2834.515;-1758.067;1;317;-100;-98.4;48.1;48.5;12;11.7;28.8;0.0;
13/02/2025 02:21:21;100;0;318.74;-4;-29.79;-5.81;66.9;19.60;77533;2834.517;-1758.069;1;317;-100;-98.4;48.1;48.3;12;11.7;28.8;0.0;
13/02/2025 02:21:41;100;0;316.98;-4;-29.85;-5.84;71.5;19.60;77541;2834.518;-1758.071;1;317;-100;-98.4;48.1;48.3;12;11.7;28.8;0.0;
13/02/2025 02:22:01;100;0;315.40;-4;-29.97;-5.81;76.1;19.60;77550;2834.520;-1758.073;1;317;-100;-96.8;48.1;48.5;12;11.7;28.8;0.0;
13/02/2025 02:22:21;100;0;315.87;-4;-29.47;-5.88;80.6;19.60;77544;2834.522;-1758.076;1;317;-100;-98.4;48.1;48.3;12;11.7;28.8;0.0;
13/02/2025 02:22:41;100;0;317.01;-4;-29.73;-5.65;85.2;19.60;77547;2834.524;-1758.078;1;317;-100;-96.8;48.1;48.3;12;11.7;28.8;0.0;
13/02/2025 02:23:01;100;0;317.83;-4;-30.02;-5.84;89.8;19.60;77550;2834.526;-1758.080;1;317;-100;-96.8;48.1;48.3;12;11.7;28.8;0.0;
13/02/2025 02:23:21;100;0;318.80;-4;-30.03;-5.82;94.5;19.60;77550;2834.528;-1758.082;1;317;-100;-98.4;48.1;48.3;12;11.7;28.8;0.0;
13/02/2025 02:23:41;100;0;320.36;-4;-30.16;-5.73;99.2;19.60;77563;2834.530;-1758.084;1;317;-100;-98.4;48.1;48.5;12;11.7;28.8;0.0;
13/02/2025 02:24:01;100;0;317.65;-4;-30.15;-5.88;103.7;19.60;77538;2834.532;-1758.086;1;317;-100;-96.8;48.1;48.3;12;11.7;28.9;0.0;
13/02/2025 02:24:21;100;0;324.46;-4;-29.71;-5.73;108.4;19.60;77497;2834.534;-1758.088;1;317;-100;-98.4;48.1;48.3;12;11.7;28.8;0.0;
13/02/2025 02:24:41;100;0;329.51;-4;-30.25;-5.78;113.0;19.60;77475;2834.536;-1758.089;1;317;-100;-96.8;48.1;48.3;15;15.3;28.8;0.0;
13/02/2025 02:25:01;100;0;332.14;-4;-30.60;-3.78;117.7;19.50;77450;2834.539;-1758.091;1;317;-100;-96.8;48.1;48.3;17;17.1;28.8;0.0;
13/02/2025 02:25:21;100;0;329.28;-4;-29.79;-3.00;122.3;19.50;77414;2834.541;-1758.092;1;317;-100;-96.8;48.1;48.3;15;14.9;28.8;0.0;
13/02/2025 02:25:41;100;0;324.41;-4;-29.43;-4.34;126.7;19.50;77387;2834.543;-1758.094;1;317;-100;-96.8;48.1;48.6;12;12.2;28.8;0.0;
13/02/2025 02:26:01;100;0;322.02;-4;-30.08;-5.71;131.2;19.50;77377;2834.545;-1758.095;1;317;-100;-100.0;48.1;48.5;12;11.7;28.8;0.0;
13/02/2025 02:26:21;100;0;318.19;-4;-29.45;-5.75;135.8;19.40;77372;2834.547;-1758.098;1;317;-100;-98.4;48.1;48.5;12;12.2;28.8;0.0;
13/02/2025 02:26:41;100;0;310.63;-4;-28.82;-5.76;140.4;19.40;77354;2834.549;-1758.100;1;317;-100;-96.8;48.4;48.5;9;9.0;28.8;0.0;
13/02/2025 02:27:01;100;0;309.62;-4;-29.09;-7.45;144.7;19.40;77338;2834.550;-1758.103;1;317;-100;-98.4;48.4;48.6;9;8.6;28.8;0.0;
13/02/2025 02:27:21;100;0;313.60;-4;-30.07;-7.38;149.2;19.40;77328;2834.552;-1758.105;1;317;-100;-96.8;48.4;48.6;11;10.8;28.8;0.0;
13/02/2025 02:27:42;100;0;310.39;-4;-28.95;-6.00;153.8;19.30;77308;2834.553;-1758.108;1;317;-100;-98.4;48.7;48.9;9;9.0;28.8;0.0;
13/02/2025 02:28:02;100;0;306.29;-4;-30.78;-7.20;158.2;19.30;77292;2834.554;-1758.110;1;317;-100;-96.8;48.7;49.0;5;4.5;28.8;0.0;
13/02/2025 02:28:22;100;0;304.33;-4;-30.93;-9.35;162.9;19.20;77247;2834.556;-1758.113;1;317;-100;-96.8;48.7;49.0;3;3.2;28.8;0.0;
13/02/2025 02:28:42;100;0;308.13;-4;-30.47;-10.30;167.8;19.20;77234;2834.557;-1758.116;1;317;-100;-98.4;48.7;49.0;7;7.2;28.8;0.0;
13/02/2025 02:29:02;100;0;309.55;-4;-29.76;-7.77;172.3;19.20;77219;2834.558;-1758.119;1;318;-100;-98.4;48.7;49.2;7;7.7;28.8;0.0;
13/02/2025 02:29:22;100;0;310.13;-4;-30.06;-7.83;176.7;19.10;77210;2834.560;-1758.121;1;318;-100;-96.8;48.7;49.0;7;7.7;28.8;0.0;
13/02/2025 02:29:42;100;0;311.74;-4;-30.29;-7.74;181.3;19.10;77186;2834.561;-1758.123;1;318;-100;-96.8;48.7;49.0;9;9.0;28.8;0.0;
13/02/2025 02:30:02;100;0;313.56;-4;-30.23;-6.95;185.8;19.00;77168;2834.563;-1758.126;1;318;-100;-96.8;48.7;49.0;9;9.0;28.8;0.0;
13/02/2025 02:30:22;100;0;313.53;-4;-29.47;-7.03;190.2;19.00;77155;2834.565;-1758.128;1;318;-100;-96.8;48.7;49.0;9;9.5;28.8;0.0;
13/02/2025 02:30:42;100;0;310.38;-4;-30.07;-7.12;194.4;19.00;77132;2834.566;-1758.130;1;318;-100;-98.4;48.7;49.0;9;9.5;28.8;0.0;
13/02/2025 02:31:02;100;0;313.36;-4;-29.91;-6.96;198.6;18.90;77113;2834.567;-1758.132;1;318;-100;-96.8;48.7;49.0;9;9.5;28.8;0.0;
13/02/2025 02:31:22;100;0;312.16;-4;-29.76;-7.02;202.9;18.90;77094;2834.569;-1758.135;1;318;-100;-98.4;48.7;49.0;9;9.0;28.8;0.0;
13/02/2025 02:31:42;100;0;311.68;-4;-29.85;-7.08;207.0;18.80;77085;2834.570;-1758.137;1;318;-100;-98.4;48.7;49.0;9;9.0;28.8;0.0;
13/02/2025 02:32:02;100;0;310.58;-4;-30.26;-7.05;211.2;18.80;77055;2834.571;-1758.139;1;318;-100;-98.4;48.7;49.0;9;9.5;28.8;0.0;
13/02/2025 02:32:22;100;0;310.04;-4;-30.39;-6.98;215.7;18.70;77061;2834.573;-1758.141;1;318;-100;-98.4;48.7;49.0;9;9.0;28.8;0.0;
13/02/2025 02:32:42;100;0;313.69;-4;-30.38;-6.90;220.1;18.70;77041;2834.574;-1758.144;1;318;-100;-96.8;48.7;49.0;9;9.0;28.8;0.0;
13/02/2025 02:33:02;100;0;313.70;-4;-30.89;-6.93;224.6;18.60;77019;2834.576;-1758.146;1;318;-100;-96.8;48.7;49.0;9;9.5;28.8;0.0;
13/02/2025 02:33:22;100;0;313.12;-4;-30.29;-6.97;229.2;18.50;77006;2834.577;-1758.148;1;318;-100;-96.8;48.7;49.0;9;9.5;28.8;0.0;
13/02/2025 02:33:42;100;0;311.19;-4;-30.26;-6.99;233.8;18.50;76997;2834.579;-1758.151;1;318;-100;-96.8;48.7;49.0;9;9.0;28.8;0.0;
13/02/2025 02:34:02;100;0;308.14;-4;-30.48;-6.94;238.4;18.50;76988;2834.580;-1758.153;1;318;-100;-96.8;48.7;49.0;6;5.4;28.8;0.0;
13/02/2025 02:34:22;100;0;310.81;-4;-29.58;-9.00;242.7;18.40;76976;2834.582;-1758.156;1;318;-100;-96.8;48.7;49.0;8;8.1;28.8;0.0;
13/02/2025 02:34:42;100;0;313.92;-4;-29.89;-7.27;247.2;18.40;76953;2834.583;-1758.158;1;318;-100;-96.8;48.7;49.0;10;10.4;28.8;0.0;
13/02/2025 02:35:02;100;0;317.29;-4;-30.28;-6.28;251.5;18.30;76947;2834.585;-1758.160;1;318;-100;-96.8;48.7;49.0;10;10.8;28.8;0.0;
13/02/2025 02:35:22;100;0;318.32;-4;-30.47;-6.24;256.0;18.30;76940;2834.587;-1758.162;1;318;-100;-96.8;48.7;49.0;10;10.4;28.8;0.0;
13/02/2025 02:35:42;100;0;316.80;-4;-29.77;-6.37;260.5;18.20;76913;2834.589;-1758.164;1;318;-100;-100.0;48.7;49.0;10;10.8;28.8;0.0;
13/02/2025 02:36:02;100;0;317.78;-4;-29.93;-6.34;264.8;18.10;76913;2834.590;-1758.166;1;318;-100;-96.8;48.7;49.0;10;10.4;28.8;0.0;
13/02/2025 02:36:22;100;0;319.05;-4;-29.86;-6.34;269.1;18.10;76906;2834.592;-1758.168;1;318;-100;-98.4;48.7;49.0;10;10.8;28.8;0.0;
13/02/2025 02:36:42;100;0;316.92;-4;-29.68;-6.52;273.5;18.00;76900;2834.594;-1758.170;1;318;-100;-96.8;48.7;49.0;10;10.4;28.8;0.0;
13/02/2025 02:37:02;100;0;315.70;-4;-29.81;-6.43;277.8;18.00;76883;2834.595;-1758.172;1;318;-100;-96.8;48.7;49.0;10;10.8;28.8;0.0;
13/02/2025 02:37:22;100;0;316.91;-4;-30.17;-6.30;282.2;17.90;76875;2834.597;-1758.174;1;318;-100;-98.4;48.7;49.0;10;10.4;28.8;0.0;
13/02/2025 02:37:42;100;0;315.75;-4;-29.94;-6.46;286.6;17.90;76866;2834.599;-1758.176;1;318;-100;-96.8;48.7;49.2;10;10.4;28.8;0.0;
13/02/2025 02:38:02;100;0;315.37;-4;-29.52;-6.43;290.9;17.90;76859;2834.600;-1758.178;1;318;-100;-96.8;48.7;49.0;10;10.4;28.8;0.0;
13/02/2025 02:38:22;100;0;317.60;-4;-29.74;-6.35;295.2;17.80;76831;2834.602;-1758.180;1;318;-100;-96.8;48.7;49.0;10;10.8;28.8;0.0;
13/02/2025 02:38:42;100;0;318.73;-4;-29.68;-6.31;299.6;17.70;76828;2834.604;-1758.182;1;318;-100;-98.4;48.7;49.0;10;10.8;28.8;0.0;
13/02/2025 02:39:02;100;0;314.00;-4;-29.73;-6.40;303.8;17.70;76810;2834.605;-1758.184;1;318;-100;-98.4;48.7;49.0;10;10.4;28.8;0.0;
13/02/2025 02:39:22;100;0;309.36;-4;-29.55;-6.43;308.0;17.60;76793;2834.606;-1758.187;1;319;-100;-96.8;48.7;49.0;5;4.5;28.8;0.0;
13/02/2025 02:39:42;100;0;308.02;-4;-29.19;-9.50;312.2;17.60;76776;2834.608;-1758.189;1;319;-100;-98.4;48.7;49.0;5;4.5;28.8;0.0;
13/02/2025 02:40:02;100;0;308.93;-4;-29.39;-9.44;316.3;17.50;76772;2834.609;-1758.191;1;319;-100;-98.4;48.7;49.2;5;4.5;28.8;0.0;
13/02/2025 02:40:22;100;0;309.85;-4;-29.16;-9.58;320.4;17.50;76732;2834.610;-1758.194;1;319;-100;-96.8;48.7;49.0;7;7.2;28.8;0.0;
13/02/2025 02:40:42;100;0;313.03;-4;-29.30;-7.84;324.5;17.40;76718;2834.612;-1758.196;1;319;-100;-98.4;48.7;49.0;7;7.7;28.8;0.0;
13/02/2025 02:41:02;100;0;310.91;-4;-29.19;-8.02;328.6;17.40;76712;2834.613;-1758.198;1;319;-100;-96.8;48.7;49.0;7;7.7;28.8;0.0;
13/02/2025 02:41:22;100;0;307.05;-4;-29.41;-7.89;332.7;17.30;76687;2834.614;-1758.201;1;319;-100;-98.4;48.7;49.0;2;1.8;28.8;0.0;
13/02/2025 02:41:42;100;0;304.74;-4;-28.96;-10.72;336.7;17.30;76674;2834.615;-1758.203;1;319;-100;-96.8;49.1;49.0;-1;-1.4;28.8;0.0;
13/02/2025 02:42:02;100;0;308.97;-4;-28.51;-12.40;340.6;17.20;76664;2834.616;-1758.205;1;319;-100;-98.4;49.5;49.8;5;5.4;28.8;0.0;
13/02/2025 02:42:22;100;0;311.62;-4;-30.93;-8.88;344.6;17.10;76660;2834.617;-1758.207;1;319;-100;-98.4;49.5;49.8;7;7.2;28.8;0.0;
13/02/2025 02:42:42;100;0;315.89;-4;-31.65;-7.61;349.1;17.10;76646;2834.619;-1758.209;1;319;-100;-96.8;49.5;49.8;9;9.0;28.8;0.0;
13/02/2025 02:43:02;100;0;317.06;-4;-31.45;-6.95;353.7;17.00;76640;2834.620;-1758.211;1;319;-100;-96.8;49.5;49.9;9;9.0;28.8;0.0;
13/02/2025 02:43:22;100;0;318.80;-4;-31.40;-6.89;358.3;17.00;76621;2834.622;-1758.213;1;319;-100;-98.4;49.5;49.9;9;9.0;28.8;0.0;
13/02/2025 02:43:42;100;0;322.93;-4;-31.33;-6.91;363.0;16.90;76610;2834.624;-1758.215;1;319;-100;-96.8;49.5;49.9;9;9.0;28.8;0.0;
13/02/2025 02:44:02;100;0;326.11;-4;-31.30;-6.98;367.6;16.90;76596;2834.627;-1758.217;1;319;-100;-96.8;49.5;49.8;11;10.8;28.8;0.0;
13/02/2025 02:44:22;100;0;329.15;-4;-31.68;-5.88;372.4;16.80;76599;2834.629;-1758.218;1;319;-100;-96.8;49.5;49.9;11;11.3;28.8;0.0;
13/02/2025 02:44:42;100;0;333.87;-4;-31.53;-5.92;377.2;16.80;76589;2834.631;-1758.219;1;319;-100;-98.4;49.5;49.9;17;17.1;28.8;0.0;
13/02/2025 02:45:02;100;0;336.19;-4;-31.28;-3.01;382.1;16.70;76566;2834.634;-1758.220;1;319;-100;-98.4;49.5;49.8;20;19.9;28.8;0.0;
13/02/2025 02:45:22;100;0;334.46;-4;-31.24;-1.45;386.8;16.70;76551;2834.636;-1758.221;1;319;-100;-96.8;49.5;49.9;18;18.1;28.8;0.0;
13/02/2025 02:45:42;100;0;331.22;-4;-30.91;-2.83;391.4;16.60;76529;2834.639;-1758.222;1;319;-100;-98.4;49.5;49.9;14;14.0;28.8;0.0;
13/02/2025 02:46:02;100;0;326.46;-4;-30.90;-4.94;396.0;16.60;76532;2834.641;-1758.223;1;319;-100;-100.0;49.5;49.9;11;10.4;28.8;0.0;
13/02/2025 02:46:22;100;0;321.01;-4;-30.85;-6.15;400.7;16.50;76513;2834.643;-1758.225;1;319;-100;-96.8;49.5;49.9;11;10.8;28.8;0.0;
13/02/2025 02:46:42;100;0;319.51;-4;-30.97;-6.30;405.4;16.40;76503;2834.645;-1758.227;1;319;-100;-98.4;49.5;49.9;11;10.8;28.8;0.0;
13/02/2025 02:47:02;100;0;316.64;-4;-30.97;-6.17;410.2;16.40;76494;2834.646;-1758.230;1;319;-100;-96.8;49.5;49.9;11;10.8;28.8;0.0;
13/02/2025 02:47:22;100;0;313.41;-4;-30.82;-6.20;414.9;16.30;76494;2834.648;-1758.232;1;319;-100;-98.4;49.5;49.8;9;9.0;28.8;0.0;
13/02/2025 02:47:42;100;0;312.04;-4;-30.53;-7.25;419.6;16.30;76485;2834.650;-1758.234;1;319;-100;-96.8;49.5;49.9;9;8.6;28.8;0.0;
13/02/2025 02:48:02;100;0;309.41;-4;-30.40;-7.42;424.2;16.20;76476;2834.651;-1758.237;1;319;-100;-96.8;49.5;49.9;6;5.9;28.8;0.0;
13/02/2025 02:48:22;100;0;309.62;-4;-30.11;-8.83;428.9;16.20;76475;2834.653;-1758.240;1;319;-100;-98.4;49.5;49.9;6;5.4;28.8;0.0;
13/02/2025 02:48:42;100;0;311.92;-4;-29.69;-9.08;433.4;16.10;76461;2834.654;-1758.242;1;319;-100;-98.4;49.5;49.9;8;8.1;28.8;0.0;
13/02/2025 02:49:02;100;0;312.34;-4;-31.16;-7.30;438.0;16.10;76441;2834.656;-1758.244;1;319;-100;-98.4;49.5;49.9;8;8.6;28.8;0.0;
13/02/2025 02:49:22;100;0;309.13;-4;-31.21;-7.28;442.9;16.00;76430;2834.657;-1758.247;1;319;-100;-98.4;49.5;49.9;6;5.4;28.8;0.0;
13/02/2025 02:49:42;100;0;311.73;-4;-31.12;-9.13;447.7;16.00;76420;2834.659;-1758.250;1;319;-100;-98.4;49.5;49.9;8;8.1;28.8;0.0;
13/02/2025 02:50:02;100;0;315.80;-4;-30.75;-7.39;452.4;15.90;76409;2834.661;-1758.252;1;319;-100;-95.2;49.5;49.9;8;8.6;28.8;0.0;
13/02/2025 02:50:22;100;0;317.17;-4;-30.69;-7.41;457.1;15.90;76417;2834.662;-1758.254;1;319;-100;-96.8;49.5;49.9;10;9.9;28.8;0.0;
13/02/2025 02:50:42;100;0;322.34;-4;-31.03;-6.41;461.7;15.90;76396;2834.664;-1758.256;1;319;-100;-98.4;49.5;49.9;10;10.4;28.8;0.0;
13/02/2025 02:51:02;100;0;324.49;-4;-30.99;-6.45;466.4;15.80;76388;2834.666;-1758.257;1;319;-100;-96.8;49.5;49.9;10;10.4;28.8;0.0;
13/02/2025 02:51:22;100;0;318.57;-4;-31.33;-6.37;471.1;15.80;76384;2834.668;-1758.259;1;319;-100;-98.4;49.5;49.9;10;10.4;28.8;0.0;
13/02/2025 02:51:42;100;0;312.44;-4;-31.46;-6.37;475.8;15.70;76371;2834.670;-1758.262;1;319;-100;-96.8;49.5;49.9;8;7.7;28.8;0.0;
13/02/2025 02:52:02;100;0;313.99;-4;-30.63;-7.77;480.6;15.60;76359;2834.672;-1758.264;1;319;-100;-96.8;49.5;49.9;8;7.7;28.8;0.0;
13/02/2025 02:52:22;100;0;318.30;-4;-30.74;-7.93;485.1;15.60;76354;2834.673;-1758.266;1;319;-100;-96.8;49.5;49.9;10;9.9;28.8;0.0;
13/02/2025 02:52:42;100;0;322.08;-4;-31.20;-6.60;489.7;15.60;76350;2834.675;-1758.268;1;319;-100;-96.8;49.5;49.8;10;10.4;28.8;0.0;
13/02/2025 02:53:02;100;0;322.63;-4;-31.32;-6.46;494.2;15.50;76339;2834.677;-1758.270;1;319;-100;-96.8;49.5;49.9;10;10.4;28.8;0.0;
13/02/2025 02:53:22;100;0;320.34;-4;-30.27;-6.32;498.8;15.50;76334;2834.679;-1758.272;1;319;-100;-96.8;49.5;49.8;10;10.4;28.8;0.0;
13/02/2025 02:53:25;118;0;320.29;-4;-29.88;-6.60;499.5;15.40;76324;2834.680;-1758.272;1;319;220;-93.5;20.4;20.5;4;3.6;28.8;0.0;
13/02/2025 02:53:35;118;0;9.98;-4;-15.91;-10.73;500.9;15.40;76314;2834.681;-1758.271;1;319;220;37.1;20.4;20.2;4;3.6;28.2;-1.0;
13/02/2025 02:53:45;118;0;14.58;-4;14.14;-10.57;501.5;15.40;76030;2834.681;-1758.270;1;319;220;162.9;20.4;20.6;4;3.6;28.1;-1.0;
13/02/2025 02:53:55;118;0;11.63;-4;28.54;-11.63;500.5;15.40;75767;2834.682;-1758.270;1;319;220;222.6;20.4;20.8;4;3.6;28.1;-1.0;
13/02/2025 02:54:05;118;0;328.56;-4;30.20;-11.40;499.2;15.40;75656;2834.682;-1758.270;1;319;220;222.6;20.4;20.8;4;3.6;28.8;-1.0;
13/02/2025 02:54:25;117;0;323.65;-4;30.68;-11.22;495.9;15.30;75655;2834.683;-1758.271;1;319;220;222.6;20.4;20.6;4;3.6;28.8;-1.0;
13/02/2025 02:54:45;117;0;317.90;-4;30.29;-11.23;492.4;15.30;75641;2834.684;-1758.272;1;319;220;222.6;20.4;20.8;18;18.1;28.8;-1.0;
13/02/2025 02:55:05;117;0;313.02;-4;30.93;-3.17;489.2;15.30;75650;2834.685;-1758.273;1;319;220;221.0;20.4;20.8;20;19.9;28.8;-1.0;
13/02/2025 02:55:25;117;0;307.47;-4;31.33;-2.08;486.0;15.20;75648;2834.686;-1758.275;1;319;220;221.0;20.4;20.6;25;24.8;28.8;-1.0;
13/02/2025 02:55:45;117;0;303.23;-4;31.89;0.54;482.6;15.20;75638;2834.686;-1758.277;1;319;220;222.6;20.4;20.8;31;31.1;28.8;-1.0;
13/02/2025 02:56:05;117;0;298.61;-4;32.26;4.07;479.3;15.10;75627;2834.686;-1758.278;1;319;220;222.6;21.1;21.2;39;38.8;28.8;-1.0;
13/02/2025 02:56:25;117;0;298.10;-4;32.64;8.08;475.9;15.10;75629;2834.686;-1758.280;1;319;220;221.0;21.9;21.9;39;39.3;28.8;-1.0;
13/02/2025 02:56:45;117;0;302.80;-4;31.32;8.22;472.6;15.10;75623;2834.687;-1758.282;1;319;220;222.6;21.9;22.1;32;32.0;28.8;-1.0;
13/02/2025 02:57:05;117;0;307.01;-4;30.56;3.52;469.4;15.00;75606;2834.687;-1758.283;1;320;220;222.6;21.9;22.1;27;26.6;28.8;-1.0;
13/02/2025 02:57:25;117;0;308.78;-4;29.97;1.26;466.3;15.00;75618;2834.688;-1758.285;1;320;220;222.6;21.9;22.1;25;24.8;28.8;-1.0;
13/02/2025 02:57:45;117;0;305.87;-4;30.10;0.01;463.4;15.00;75614;2834.688;-1758.286;1;320;220;222.6;21.9;22.1;29;28.9;28.8;-1.0;
13/02/2025 02:58:05;117;0;302.99;-4;30.26;2.63;460.3;14.90;75613;2834.688;-1758.288;1;320;220;222.6;21.9;22.1;33;32.9;28.9;-1.0;
13/02/2025 02:58:25;117;0;300.57;-4;30.44;4.88;457.3;14.90;75603;2834.689;-1758.289;1;320;220;222.6;21.9;22.1;38;37.9;28.8;-1.0;
13/02/2025 02:58:45;117;0;297.82;-4;30.96;7.60;454.2;14.80;75606;2834.689;-1758.291;1;320;220;222.6;21.9;22.1;42;42.0;28.8;-1.0;
13/02/2025 02:59:05;117;0;298.35;-4;31.09;9.75;451.1;14.80;75601;2834.689;-1758.293;1;320;220;222.6;21.9;22.1;42;42.4;28.8;-1.0;
13/02/2025 02:59:25;117;0;296.43;-4;31.08;9.77;448.0;14.80;75597;2834.689;-1758.295;1;320;220;221.0;21.9;22.1;45;45.1;28.8;-1.0;
13/02/2025 02:59:45;117;0;297.15;-4;30.97;11.36;444.8;14.80;75596;2834.689;-1758.296;1;320;220;222.6;21.9;22.1;45;45.6;28.8;-1.0;
13/02/2025 03:00:05;117;0;298.51;-4;31.08;11.45;441.6;14.80;75595;2834.689;-1758.298;1;320;220;221.0;21.9;22.1;41;41.1;28.8;-1.0;
13/02/2025 03:00:25;117;0;302.64;-4;30.81;8.64;438.5;14.70;75585;2834.689;-1758.300;1;320;220;222.6;21.9;22.1;34;32.9;28.8;-1.0;
13/02/2025 03:00:45;117;0;301.87;-4;30.87;4.80;435.4;14.70;75583;2834.690;-1758.301;1;321;220;222.6;21.9;22.1;34;33.4;28.8;-1.0;
13/02/2025 03:01:05;117;0;298.10;-4;31.10;4.88;432.2;14.70;75595;2834.690;-1758.303;1;321;220;224.2;21.9;22.1;42;42.0;28.8;-1.0;
13/02/2025 03:01:25;117;0;298.69;-4;31.48;9.63;428.8;14.60;75597;2834.690;-1758.305;1;321;220;222.6;21.9;22.1;42;42.0;28.8;-1.0;
13/02/2025 03:01:45;117;0;299.57;-4;31.31;9.65;425.4;14.60;75600;2834.690;-1758.307;1;321;220;222.6;21.9;22.1;40;40.2;28.8;-1.0;
13/02/2025 03:02:05;117;0;301.01;-4;31.13;8.18;422.1;14.60;75592;2834.691;-1758.309;1;321;220;222.6;21.9;22.1;37;36.6;28.8;-1.0;
13/02/2025 03:02:25;117;0;301.26;-4;31.07;6.90;418.7;14.60;75589;2834.691;-1758.310;1;321;220;222.6;21.9;22.1;37;37.0;28.8;-1.0;
13/02/2025 03:02:45;117;0;301.57;-4;30.62;6.94;415.3;14.60;75589;2834.691;-1758.312;1;321;220;221.0;21.9;22.1;37;37.0;28.8;-1.0;
13/02/2025 03:03:05;117;0;302.59;-4;30.75;6.88;412.0;14.60;75584;2834.692;-1758.314;1;321;220;222.6;21.9;22.1;34;33.8;28.8;-1.0;
13/02/2025 03:03:25;117;0;305.16;-4;30.44;5.00;408.7;14.50;75589;2834.692;-1758.316;1;321;220;222.6;21.9;21.9;30;29.8;28.8;-1.0;
13/02/2025 03:03:45;117;0;306.68;-4;30.71;4.31;405.3;14.50;75589;2834.693;-1758.317;1;322;220;222.6;21.9;22.1;30;32.5;28.8;-1.0;
13/02/2025 03:04:05;117;0;302.57;-4;30.47;4.46;401.9;14.50;75587;2834.693;-1758.319;1;322;220;222.6;21.9;22.1;35;35.2;28.8;-1.0;
13/02/2025 03:04:25;117;0;300.42;-4;30.56;6.10;398.6;14.50;75586;2834.694;-1758.321;1;322;220;222.6;21.9;21.9;40;40.6;28.8;-1.0;
13/02/2025 03:04:45;117;0;301.24;-4;31.39;8.95;395.2;14.50;75580;2834.694;-1758.323;1;322;220;222.6;21.9;22.1;37;37.0;28.8;-1.0;
13/02/2025 03:05:05;117;0;296.69;-4;30.51;6.80;391.8;14.50;75590;2834.694;-1758.325;1;322;220;222.6;21.9;21.9;45;45.1;28.8;-1.0;
13/02/2025 03:05:25;117;0;296.40;-4;30.82;11.41;388.6;14.40;75593;2834.694;-1758.327;1;322;220;222.6;21.9;22.1;47;46.9;28.8;-1.0;
13/02/2025 03:05:46;117;0;300.04;-4;30.97;12.37;385.3;14.40;75599;2834.695;-1758.329;1;322;220;221.0;21.9;22.1;41;41.1;28.8;-1.0;
13/02/2025 03:06:06;117;0;298.72;-4;30.75;8.70;382.1;14.40;75598;2834.695;-1758.330;1;322;220;222.6;21.9;22.1;43;42.9;28.8;-1.0;
13/02/2025 03:06:26;117;0;296.58;-4;30.88;10.21;378.9;14.40;75597;2834.695;-1758.332;1;322;220;222.6;21.9;22.1;47;46.9;28.8;-1.0;
13/02/2025 03:06:46;117;0;299.09;-4;30.97;12.30;375.6;14.40;75590;2834.695;-1758.334;1;323;220;222.6;21.9;22.1;42;41.5;28.8;-1.0;
13/02/2025 03:07:06;117;0;299.46;-4;30.64;8.78;372.5;14.40;75601;2834.695;-1758.336;1;323;220;222.6;21.9;22.2;42;41.1;28.8;-1.0;
13/02/2025 03:07:26;117;0;299.07;-4;30.51;8.87;369.4;14.40;75598;2834.696;-1758.337;1;323;220;224.2;21.9;22.1;42;41.1;28.8;-1.0;
13/02/2025 03:07:46;117;0;298.14;-4;30.57;8.88;366.2;14.40;75594;2834.696;-1758.339;1;323;220;222.6;21.9;22.1;44;44.2;28.8;-1.0;
13/02/2025 03:08:06;117;0;296.18;-4;30.84;10.95;363.0;14.40;75603;2834.696;-1758.341;1;323;220;224.2;21.9;22.1;47;46.9;28.8;-1.0;
13/02/2025 03:08:26;117;0;296.26;-4;30.96;12.41;359.8;14.40;75608;2834.696;-1758.343;1;323;220;222.6;21.9;22.1;47;47.4;28.8;-1.0;
13/02/2025 03:08:46;117;0;297.74;-4;31.30;12.37;356.8;14.40;75595;2834.696;-1758.344;1;323;220;222.6;21.9;22.1;45;44.7;28.8;-1.0;
13/02/2025 03:09:06;117;0;298.75;-4;30.82;10.63;353.6;14.40;75600;2834.696;-1758.346;1;323;220;222.6;21.9;22.1;43;42.9;28.8;-1.0;
13/02/2025 03:09:26;117;0;300.00;-4;30.66;9.74;350.7;14.40;75595;2834.696;-1758.348;1;324;220;222.6;21.9;22.1;41;41.1;28.8;-1.0;
13/02/2025 03:09:46;117;0;299.28;-4;30.84;8.81;347.7;14.40;75595;2834.696;-1758.349;1;324;220;222.6;21.9;22.1;41;41.1;28.8;-1.0;
13/02/2025 03:10:06;117;0;299.12;-4;30.91;8.80;344.5;14.40;75607;2834.696;-1758.351;1;324;220;221.0;21.9;21.9;43;42.9;28.8;-1.0;
13/02/2025 03:10:26;117;0;298.38;-4;30.99;10.27;341.5;14.40;75607;2834.697;-1758.352;1;324;220;221.0;21.9;22.1;43;43.3;28.8;-1.0;
13/02/2025 03:10:46;117;0;301.83;-4;31.01;10.32;338.3;14.40;75612;2834.697;-1758.354;1;324;220;221.0;21.9;22.1;38;37.5;28.8;-1.0;
13/02/2025 03:11:06;117;0;304.37;-4;30.65;7.01;335.3;14.40;75618;2834.697;-1758.356;1;324;220;222.6;21.9;22.1;34;33.4;28.8;-1.0;
13/02/2025 03:11:26;117;0;307.51;-4;30.16;5.51;332.2;14.40;75618;2834.698;-1758.357;1;324;220;222.6;21.9;22.1;29;28.9;28.8;-1.0;
13/02/2025 03:11:46;117;0;305.04;-4;29.72;2.03;329.2;14.40;75621;2834.698;-1758.358;1;324;220;222.6;21.9;22.1;33;33.4;28.8;-1.0;
13/02/2025 03:12:06;117;0;301.85;-4;30.03;5.01;326.2;14.40;75629;2834.698;-1758.360;1;324;220;222.6;21.9;22.1;38;37.9;28.8;-1.0;
13/02/2025 03:12:26;117;0;303.59;-4;30.77;7.47;323.4;14.40;75624;2834.699;-1758.361;1;324;220;221.0;21.9;22.1;35;34.3;28.8;-1.0;
13/02/2025 03:12:46;117;0;301.48;-4;30.64;5.56;320.2;14.40;75629;2834.699;-1758.363;1;325;220;222.6;21.9;22.1;40;40.6;28.8;-1.0;
13/02/2025 03:13:06;117;0;300.82;-4;30.95;8.83;317.1;14.40;75629;2834.699;-1758.365;1;325;220;222.6;21.9;22.1;42;42.0;28.8;-1.0;
13/02/2025 03:13:26;117;0;302.18;-4;30.63;9.52;314.0;14.40;75638;2834.699;-1758.366;1;325;220;224.2;21.9;21.9;39;38.8;28.8;-1.0;
13/02/2025 03:13:46;117;0;303.08;-4;30.51;7.51;311.0;14.40;75646;2834.700;-1758.368;1;325;220;222.6;21.9;22.1;39;38.4;28.8;-1.0;
13/02/2025 03:14:06;117;0;305.80;-4;30.45;7.45;307.9;14.40;75646;2834.700;-1758.369;1;325;220;222.6;21.9;22.1;33;32.5;28.8;-1.0;
13/02/2025 03:14:26;117;0;305.95;-4;30.08;4.15;304.9;14.40;75649;2834.700;-1758.371;1;325;220;222.6;21.9;22.1;33;32.5;28.8;-1.0;
13/02/2025 03:14:46;117;0;307.83;-4;30.10;4.22;301.8;14.40;75660;2834.701;-1758.372;1;325;220;222.6;21.9;21.9;30;29.8;28.8;-1.0;
13/02/2025 03:15:06;117;0;309.46;-4;29.83;2.61;298.9;14.40;75657;2834.701;-1758.374;1;325;220;222.6;21.9;22.1;28;28.0;28.8;-1.0;
13/02/2025 03:15:26;117;0;308.28;-4;29.61;1.71;295.9;14.40;75669;2834.702;-1758.375;1;325;220;222.6;21.9;21.9;30;29.8;28.8;-1.0;
13/02/2025 03:15:46;117;0;306.62;-4;29.68;3.14;293.0;14.40;75674;2834.702;-1758.376;1;325;220;222.6;21.9;21.9;32;32.0;28.8;-1.0;
13/02/2025 03:16:06;117;0;305.52;-4;29.90;4.33;290.1;14.40;75682;2834.703;-1758.378;1;326;220;222.6;21.9;22.1;34;33.8;28.8;-1.0;
13/02/2025 03:16:26;117;0;303.70;-4;30.30;5.33;287.3;14.40;75691;2834.703;-1758.379;1;326;220;224.2;21.9;22.1;37;37.0;28.8;-1.0;
13/02/2025 03:16:46;117;0;303.82;-4;30.46;6.96;284.1;14.40;75704;2834.703;-1758.381;1;326;220;222.6;21.9;22.1;37;37.5;28.8;-1.0;
13/02/2025 03:17:06;117;0;304.28;-4;30.33;6.92;281.0;14.40;75706;2834.704;-1758.382;1;326;220;222.6;21.9;22.1;37;37.5;28.8;-1.0;
13/02/2025 03:17:26;117;0;300.53;-4;30.31;7.01;278.1;14.50;75714;2834.704;-1758.384;1;326;220;222.6;21.9;22.1;43;42.9;28.8;-1.0;
13/02/2025 03:17:46;117;0;298.93;-4;30.79;10.31;275.0;14.50;75730;2834.704;-1758.386;1;326;220;222.6;21.9;22.1;45;45.1;28.8;-1.0;
13/02/2025 03:18:06;117;0;298.62;-4;30.78;11.41;272.0;14.50;75729;2834.704;-1758.387;1;326;220;222.6;21.9;22.1;45;45.6;28.8;-1.0;
13/02/2025 03:18:26;117;0;298.83;-4;31.02;11.45;269.0;14.50;75726;2834.704;-1758.389;1;326;220;224.2;21.9;22.1;45;45.1;28.8;-1.0;
13/02/2025 03:18:46;117;0;299.05;-4;30.99;11.45;265.9;14.50;75742;2834.704;-1758.390;1;326;220;221.0;21.9;22.2;45;45.6;28.8;-1.0;
13/02/2025 03:19:06;117;0;300.31;-4;30.79;11.44;263.0;14.50;75747;2834.705;-1758.392;1;327;220;222.6;21.9;22.2;45;45.6;28.8;-1.0;
13/02/2025 03:19:26;117;0;302.01;-4;30.68;11.37;260.0;14.60;75747;2834.705;-1758.393;1;327;220;222.6;21.9;22.1;42;41.5;28.8;-1.0;
13/02/2025 03:19:46;117;0;304.04;-4;30.33;8.89;257.1;14.60;75752;2834.705;-1758.395;1;327;220;222.6;21.9;22.1;38;37.5;28.8;-1.0;
13/02/2025 03:20:06;117;0;305.75;-4;30.06;6.87;254.4;14.60;75762;2834.705;-1758.396;1;327;220;222.6;21.9;22.1;35;32.5;28.8;-1.0;
13/02/2025 03:20:26;117;0;301.99;-4;30.04;6.30;251.6;14.60;75760;2834.705;-1758.397;1;327;220;222.6;21.9;22.1;42;42.4;28.8;-1.0;
13/02/2025 03:20:46;117;0;301.75;-4;30.61;9.71;248.9;14.60;75778;2834.706;-1758.399;1;327;220;222.6;21.9;22.1;42;42.4;28.8;-1.0;
13/02/2025 03:21:06;117;0;300.61;-4;30.35;9.74;246.2;14.60;75783;2834.706;-1758.400;1;327;220;222.6;21.9;21.9;44;44.2;28.8;-1.0;
13/02/2025 03:21:26;117;0;299.59;-4;30.52;10.90;243.6;14.60;75784;2834.706;-1758.401;1;327;220;222.6;21.9;22.1;44;44.7;28.8;-1.0;
13/02/2025 03:21:46;117;0;303.59;-4;30.96;11.01;240.9;14.60;75795;2834.706;-1758.403;1;327;220;222.6;21.9;22.1;39;38.8;28.8;-1.0;
13/02/2025 03:22:06;117;0;304.97;-4;30.30;7.38;238.2;14.70;75797;2834.706;-1758.404;1;328;220;224.2;21.9;22.1;37;36.1;28.8;-1.0;
13/02/2025 03:22:26;117;0;306.71;-4;30.26;6.70;235.5;14.70;75809;2834.706;-1758.405;1;328;220;224.2;21.9;22.1;34;33.4;28.8;-1.0;
13/02/2025 03:22:46;117;0;307.67;-4;29.95;4.75;232.8;14.70;75818;2834.707;-1758.406;1;328;220;224.2;21.9;21.9;34;33.4;28.8;-1.0;
13/02/2025 03:23:06;117;0;309.66;-4;29.58;4.74;230.1;14.70;75820;2834.707;-1758.407;1;328;220;222.6;21.9;22.1;30;29.8;28.8;-1.0;
13/02/2025 03:23:26;117;0;307.23;-4;29.79;2.57;227.5;14.70;75827;2834.707;-1758.408;1;328;220;222.6;21.9;22.1;33;32.9;28.8;-1.0;
13/02/2025 03:23:46;117;0;305.12;-4;29.75;5.02;225.1;14.80;75846;2834.707;-1758.409;1;328;220;224.2;21.9;22.1;37;37.5;28.8;-1.0;
13/02/2025 03:24:06;117;0;304.50;-4;30.00;7.12;222.6;14.80;75859;2834.708;-1758.410;1;328;220;224.2;21.9;22.1;37;37.9;28.8;-1.0;
13/02/2025 03:24:26;117;0;304.32;-4;30.11;7.22;220.1;14.80;75856;2834.708;-1758.412;1;328;220;222.6;21.9;22.1;37;37.9;28.8;-1.0;
13/02/2025 03:24:46;117;0;303.67;-4;30.12;7.18;217.5;14.80;75865;2834.708;-1758.413;1;328;220;224.2;21.9;22.1;39;38.8;28.8;-1.0;
13/02/2025 03:25:06;117;0;305.22;-4;30.48;7.98;215.0;14.80;75864;2834.708;-1758.414;1;328;220;224.2;21.9;22.1;37;36.1;28.8;-1.0;
13/02/2025 03:25:26;117;0;306.54;-4;29.99;6.55;212.4;14.90;75869;2834.708;-1758.415;1;328;220;224.2;21.9;22.1;35;35.2;28.8;-1.0;
13/02/2025 03:25:46;117;0;304.29;-4;30.05;5.53;210.0;14.90;75892;2834.708;-1758.416;1;328;220;224.2;21.9;22.1;38;38.4;28.8;-1.0;
13/02/2025 03:26:06;117;0;305.78;-4;30.16;7.64;207.4;14.90;75894;2834.708;-1758.417;1;329;220;224.2;21.9;21.9;36;35.6;28.8;-1.0;
13/02/2025 03:26:26;117;0;306.11;-4;30.06;5.74;204.9;14.90;75893;2834.709;-1758.418;1;329;220;222.6;21.9;22.1;36;35.2;28.8;-1.0;
13/02/2025 03:26:46;117;0;304.55;-4;29.85;5.77;202.4;15.00;75903;2834.709;-1758.419;1;329;220;224.2;21.9;22.1;38;38.4;28.8;-1.0;
13/02/2025 03:27:06;117;0;302.68;-4;30.15;7.54;200.0;15.00;75914;2834.709;-1758.420;1;329;220;224.2;21.9;22.1;41;41.1;28.8;-1.0;
13/02/2025 03:27:26;117;0;302.29;-4;30.40;9.03;197.5;15.00;75926;2834.709;-1758.422;1;329;220;224.2;21.9;22.1;41;41.1;28.8;-1.0;
13/02/2025 03:27:46;117;0;303.86;-4;30.40;9.04;195.0;15.00;75930;2834.709;-1758.423;1;329;220;222.6;21.9;22.1;39;38.8;28.8;-1.0;
13/02/2025 03:28:06;117;0;304.87;-4;29.94;7.61;192.6;15.10;75943;2834.709;-1758.424;1;329;220;224.2;21.9;22.1;39;38.8;28.8;-1.0;
13/02/2025 03:28:26;117;0;306.10;-4;29.84;7.51;190.2;15.10;75943;2834.709;-1758.425;1;329;220;224.2;21.9;22.1;36;35.6;28.8;-1.0;
13/02/2025 03:28:46;117;0;304.63;-4;29.64;6.16;187.9;15.10;75963;2834.709;-1758.426;1;329;220;224.2;21.9;22.1;38;37.9;28.8;-1.0;
13/02/2025 03:29:06;117;0;308.56;-4;30.54;7.38;185.6;15.10;75979;2834.709;-1758.426;1;329;220;224.2;21.9;22.2;32;31.1;28.8;-1.0;
13/02/2025 03:29:26;117;0;307.51;-4;29.75;4.28;183.2;15.20;75985;2834.709;-1758.427;1;329;220;224.2;21.9;22.1;32;32.5;28.8;-1.0;
13/02/2025 03:29:46;117;0;306.68;-4;29.61;4.25;180.8;15.20;75997;2834.709;-1758.428;1;329;220;222.6;21.9;22.1;35;35.6;28.8;-1.0;
13/02/2025 03:30:06;117;0;304.21;-4;29.69;6.20;178.5;15.20;76009;2834.709;-1758.429;1;330;220;224.2;21.9;21.9;39;38.8;28.8;-1.0;
13/02/2025 03:30:26;117;0;303.73;-4;29.92;7.86;176.3;15.20;76016;2834.709;-1758.430;1;330;220;224.2;21.9;22.2;39;39.3;28.8;-1.0;
13/02/2025 03:30:46;117;0;303.85;-4;29.97;7.86;173.9;15.30;76026;2834.709;-1758.431;1;330;220;224.2;21.9;22.1;39;38.8;28.8;-1.0;
13/02/2025 03:31:06;117;0;305.76;-4;29.95;7.84;171.5;15.30;76036;2834.710;-1758.432;1;330;220;224.2;21.9;22.1;36;36.1;28.8;-1.0;
13/02/2025 03:31:26;117;0;310.91;-4;29.48;6.39;169.1;15.30;76051;2834.710;-1758.433;1;330;220;225.8;21.9;22.1;29;28.9;28.8;-1.0;
13/02/2025 03:31:46;117;0;314.82;-4;29.30;2.01;166.8;15.40;76052;2834.710;-1758.434;1;330;220;224.2;21.9;22.1;24;23.5;28.8;-1.0;
13/02/2025 03:32:06;117;0;312.70;-4;29.05;-0.56;164.6;15.40;76065;2834.710;-1758.434;1;330;220;224.2;21.9;22.1;26;26.2;28.8;-1.0;
13/02/2025 03:32:26;117;0;312.34;-4;29.14;1.30;162.2;15.40;76086;2834.711;-1758.435;1;330;220;224.2;21.9;22.1;26;26.6;28.8;-1.0;
13/02/2025 03:32:46;117;0;310.38;-4;29.44;1.43;160.0;15.50;76092;2834.711;-1758.436;1;330;220;224.2;21.9;22.1;29;28.9;28.8;-1.0;
13/02/2025 03:33:06;117;0;310.84;-4;29.39;2.83;157.5;15.50;76097;2834.711;-1758.437;1;330;220;224.2;21.9;22.1;29;29.3;28.8;-1.0;
13/02/2025 03:33:26;117;0;306.47;-4;29.27;2.82;155.2;15.50;76113;2834.711;-1758.438;1;330;220;224.2;21.9;22.1;36;36.1;28.8;-1.0;
13/02/2025 03:33:46;117;0;305.01;-4;29.41;6.59;153.0;15.60;76139;2834.711;-1758.439;1;330;220;224.2;21.9;22.1;38;37.9;28.8;-1.0;
13/02/2025 03:34:06;117;0;306.57;-4;30.17;7.73;150.8;15.60;76143;2834.711;-1758.440;1;330;220;225.8;21.9;22.1;35;34.7;28.8;-1.0;
13/02/2025 03:34:26;117;0;314.55;-4;29.71;5.47;148.3;15.60;76162;2834.712;-1758.441;1;330;220;224.2;21.9;22.1;25;24.8;28.8;-1.0;
13/02/2025 03:34:46;117;0;313.58;-4;28.45;-0.18;145.9;15.70;76191;2834.712;-1758.442;1;331;220;224.2;21.4;21.2;27;27.1;28.8;-1.0;
13/02/2025 03:35:06;117;0;313.63;-4;30.28;1.66;143.7;15.70;76192;2834.713;-1758.442;1;331;220;224.2;21.4;21.2;27;27.5;28.8;-1.0;
13/02/2025 03:35:26;117;0;315.54;-4;30.53;1.65;141.1;15.80;76221;2834.713;-1758.443;1;331;220;224.2;21.4;21.2;25;24.8;28.8;-1.0;
13/02/2025 03:35:46;117;0;311.65;-4;29.77;-0.03;138.4;15.80;76228;2834.713;-1758.444;1;331;220;222.6;21.4;21.2;29;28.9;28.8;-1.0;
13/02/2025 03:36:06;117;0;308.17;-4;30.24;2.63;135.8;15.90;76252;2834.714;-1758.445;1;331;220;224.2;21.4;21.2;35;35.2;28.8;-1.0;
13/02/2025 03:36:26;117;0;306.24;-4;30.83;6.09;133.1;15.90;76267;2834.714;-1758.446;1;331;220;224.2;21.4;21.2;38;37.9;28.8;-1.0;
13/02/2025 03:36:46;117;0;305.33;-4;31.14;7.55;130.4;16.00;76280;2834.714;-1758.447;1;331;220;224.2;21.4;21.2;40;40.2;28.8;-1.0;
13/02/2025 03:37:06;117;0;306.85;-4;30.82;8.53;127.5;16.00;76291;2834.715;-1758.449;1;331;220;224.2;21.4;21.2;40;40.6;28.8;-1.0;
13/02/2025 03:37:26;117;0;308.04;-4;31.02;8.68;124.5;16.00;76313;2834.715;-1758.450;1;331;220;224.2;21.4;21.2;35;35.2;28.8;-1.0;
13/02/2025 03:37:46;117;0;310.00;-4;30.58;5.49;121.5;16.10;76332;2834.715;-1758.451;1;331;220;224.2;21.4;21.2;35;35.2;28.8;-1.0;
13/02/2025 03:38:06;117;0;310.90;-4;29.87;5.63;118.5;16.10;76348;2834.716;-1758.453;1;331;220;224.2;21.4;21.2;32;32.0;28.8;-1.0;
13/02/2025 03:38:26;117;0;312.37;-4;29.65;3.86;115.8;16.20;76385;2834.717;-1758.454;1;331;220;224.2;21.4;21.2;29;28.9;28.8;-1.0;
13/02/2025 03:38:46;117;0;309.04;-4;29.89;1.99;113.2;16.20;76422;2834.717;-1758.455;1;331;220;224.2;21.4;21.2;34;33.8;28.8;-1.0;
13/02/2025 03:39:06;117;0;308.26;-4;30.34;5.37;110.3;16.30;76447;2834.717;-1758.456;1;332;220;224.2;21.4;21.2;36;36.1;28.8;-1.0;
13/02/2025 03:39:26;117;0;308.98;-4;30.71;6.49;107.5;16.30;76459;2834.718;-1758.457;1;332;220;224.2;21.4;21.2;36;36.6;28.8;-1.0;
13/02/2025 03:39:46;117;0;307.36;-4;30.76;6.52;104.5;16.40;76471;2834.718;-1758.458;1;332;220;224.2;21.4;21.2;38;37.9;28.8;-1.0;
13/02/2025 03:40:06;117;0;304.07;-4;31.14;7.38;101.5;16.50;76504;2834.718;-1758.460;1;332;220;225.8;21.4;21.2;44;44.2;28.8;-1.0;
13/02/2025 03:40:27;117;0;304.43;-4;31.28;10.92;98.3;16.50;76514;2834.719;-1758.461;1;332;220;224.2;21.4;21.2;44;44.7;28.8;-1.0;
13/02/2025 03:40:47;117;0;304.17;-4;31.42;10.90;95.1;16.60;76528;2834.719;-1758.463;1;332;220;221.0;21.4;21.2;44;44.7;28.8;-1.0;
13/02/2025 03:41:07;117;0;304.62;-4;31.27;10.91;91.9;16.60;76539;2834.720;-1758.465;1;332;220;224.2;21.4;21.2;44;44.7;28.8;-1.0;
13/02/2025 03:41:27;117;0;305.54;-4;31.31;10.88;88.6;16.70;76561;2834.720;-1758.466;1;332;220;224.2;21.4;21.2;41;41.1;28.8;-1.0;
13/02/2025 03:41:47;117;0;305.14;-4;31.02;8.61;85.6;16.70;76553;2834.720;-1758.468;1;333;220;224.2;21.4;21.2;44;44.2;28.8;-1.0;
13/02/2025 03:42:07;117;0;305.37;-4;31.21;10.93;82.4;16.80;76576;2834.721;-1758.469;1;333;220;225.8;21.4;21.2;44;44.7;28.8;-1.0;
13/02/2025 03:42:27;117;0;306.08;-4;31.27;10.84;79.4;16.90;76567;2834.721;-1758.471;1;333;220;224.2;21.4;21.2;42;41.5;28.8;-1.0;
13/02/2025 03:42:47;117;0;306.27;-4;31.18;8.88;76.3;16.90;76582;2834.722;-1758.472;1;333;220;224.2;21.4;21.2;42;41.1;28.8;-1.0;
13/02/2025 03:43:07;117;0;305.16;-4;30.97;8.91;73.2;17.00;76587;2834.722;-1758.474;1;333;220;221.0;21.4;21.2;44;44.7;28.8;-1.0;
13/02/2025 03:43:27;117;0;306.71;-4;31.51;11.25;70.1;17.00;76602;2834.722;-1758.475;1;333;220;224.2;21.4;21.4;41;40.6;28.8;-1.0;
13/02/2025 03:43:47;117;0;307.68;-4;31.18;8.54;67.1;17.10;76611;2834.723;-1758.476;1;333;220;225.8;21.4;21.2;41;40.2;28.8;-1.0;
13/02/2025 03:44:07;117;0;309.30;-4;31.18;8.44;64.0;17.10;76606;2834.723;-1758.478;1;333;220;224.2;21.4;21.2;37;37.0;28.8;-1.0;
13/02/2025 03:44:27;117;0;309.44;-4;30.87;6.69;60.9;17.20;76615;2834.724;-1758.479;1;333;220;225.8;21.4;21.2;37;37.0;28.8;-1.0;
13/02/2025 03:44:47;117;0;308.10;-4;30.73;6.70;57.9;17.20;76630;2834.724;-1758.480;1;334;220;224.2;21.4;21.2;39;38.8;28.8;-1.0;
13/02/2025 03:45:07;117;0;308.18;-4;31.22;7.83;54.9;17.30;76639;2834.725;-1758.482;1;334;220;224.2;21.4;21.2;39;38.8;28.8;-1.0;
13/02/2025 03:45:27;117;0;308.53;-4;31.19;7.84;51.8;17.30;76635;2834.725;-1758.483;1;334;220;224.2;21.4;21.2;39;38.8;28.8;-1.0;
13/02/2025 03:45:47;117;0;309.88;-4;30.72;7.77;48.8;17.40;76649;2834.726;-1758.484;1;334;220;224.2;21.4;21.2;36;35.6;28.8;-1.0;
13/02/2025 03:46:07;117;0;309.72;-4;30.63;6.10;45.9;17.40;76653;2834.726;-1758.485;1;334;220;224.2;21.4;21.2;36;35.6;28.8;-1.0;
13/02/2025 03:46:27;117;0;307.57;-4;30.68;6.18;43.0;17.50;76666;2834.727;-1758.487;1;334;220;224.2;21.4;21.1;40;40.2;28.8;-1.0;
13/02/2025 03:46:47;117;0;307.34;-4;30.91;8.80;40.2;17.50;76675;2834.727;-1758.488;1;334;220;224.2;21.4;21.2;40;40.6;28.8;-1.0;
13/02/2025 03:47:07;117;0;306.54;-4;30.79;8.74;37.2;17.60;76677;2834.727;-1758.489;1;334;220;224.2;21.4;21.2;42;42.0;28.8;-1.0;
13/02/2025 03:47:27;117;0;306.18;-4;30.73;9.71;34.3;17.60;76691;2834.728;-1758.491;1;334;220;225.8;21.4;21.2;42;42.4;28.8;-1.0;
13/02/2025 03:47:47;117;0;306.32;-4;30.94;9.55;31.4;17.60;76698;2834.728;-1758.492;1;335;220;224.2;21.4;21.2;42;42.4;28.8;-1.0;
13/02/2025 03:48:07;117;0;306.34;-4;31.09;9.58;28.4;17.70;76709;2834.728;-1758.493;1;335;220;224.2;21.4;21.2;42;42.4;28.8;-1.0;
13/02/2025 03:48:27;117;0;306.97;-4;31.21;9.63;25.5;17.70;76715;2834.729;-1758.495;1;335;220;224.2;21.4;21.2;42;42.4;28.8;-1.0;
13/02/2025 03:48:47;117;0;307.06;-4;31.12;9.57;22.5;17.80;76716;2834.729;-1758.496;1;335;220;224.2;21.4;21.2;42;42.4;28.8;-1.0;
13/02/2025 03:49:07;117;0;305.90;-4;30.86;9.78;19.4;17.80;76719;2834.730;-1758.497;1;335;220;224.2;21.4;21.2;45;45.6;28.8;-1.0;
13/02/2025 03:49:27;117;0;306.50;-4;31.28;11.79;16.5;17.90;76729;2834.730;-1758.499;1;335;220;224.2;21.4;21.2;42;42.0;28.8;-1.0;
13/02/2025 03:49:47;117;0;305.71;-4;31.29;9.15;13.3;17.90;76727;2834.730;-1758.500;1;335;220;225.8;21.4;21.2;45;45.1;28.8;-1.0;
13/02/2025 03:50:07;117;0;306.90;-4;30.66;11.41;10.4;18.00;76742;2834.731;-1758.501;1;335;220;224.2;21.4;21.2;41;41.1;28.8;-1.0;
13/02/2025 03:50:27;117;0;306.36;-4;31.58;8.51;7.3;18.00;76748;2834.731;-1758.503;1;336;220;224.2;21.4;21.2;44;44.2;28.8;-1.0;
13/02/2025 03:50:47;117;0;306.09;-4;30.95;11.08;4.1;18.00;76749;2834.732;-1758.504;1;336;220;224.2;21.4;21.4;44;44.7;28.8;-1.0;
13/02/2025 03:50:54;115;0;304.03;-4;30.83;10.15;3.1;18.00;76751;2834.732;-1758.505;1;336;500;232.3;100.0;65.2;0;-0.5;28.8;-1.0;
13/02/2025 03:51:04;115;0;305.53;-4;13.54;-12.84;1.9;18.10;76727;2834.732;-1758.506;1;336;500;351.6;100.0;100.0;0;-0.5;28.6;-1.0;
13/02/2025 03:51:14;115;0;268.10;-4;-61.26;-10.02;2.5;18.10;76461;2834.732;-1758.506;1;336;500;464.5;100.0;100.7;0;-0.9;28.6;-1.0;
13/02/2025 03:51:24;115;0;233.95;-4;-69.89;-20.52;2.4;18.10;76208;2834.731;-1758.506;1;336;500;506.5;100.0;100.7;0;-0.9;28.6;-1.0;
13/02/2025 03:51:34;115;0;261.48;-4;-33.58;-17.09;-0.1;18.10;76136;2834.730;-1758.507;1;336;500;506.5;100.0;100.7;0;-0.5;28.8;-1.0;
13/02/2025 03:51:54;119;0;288.03;-4;-65.06;-15.44;0.1;18.20;76149;2834.730;-1758.507;1;336;500;506.5;100.0;100.7;0;-0.5;28.8;-1.0;
13/02/2025 03:52:04;119;0;317.15;-4;-49.81;-10.07;0.1;18.30;76162;2834.652;-1758.402;0;336;500;508.1;100.0;100.7;0;-0.5;28.8;-1.0;
