Timestamp;NavState;SecurityLevel;Heading;Declination;Pitch;Roll;Depth;Temperature;Pa;Lat;Lon;DeadReckoning;DesiredH;BallastCmd;BallastPos;LinCmd;LinPos;AngCmd;AngPos;Voltage;Altitude;
20/02/2025 05:25:53;119;0;71.63;-4;-67.07;-7.31;0.0;19.40;76288;2837.559;-1758.645;0;153;500;509.7;100.0;100.6;0;-0.9;27.6;-1.0;
20/02/2025 05:26:03;116;0;59.99;-4;-59.09;-16.21;-0.1;19.50;76293;2837.562;-1758.649;0;153;500;509.7;100.0;100.6;0;-0.9;27.5;-1.0;
20/02/2025 05:26:28;116;0;77.82;-4;-57.08;-13.11;-0.1;19.50;76297;2837.563;-1758.650;0;153;500;509.7;100.0;100.6;0;-0.9;27.6;-1.0;
20/02/2025 05:26:44;116;0;83.60;-4;-58.73;-20.79;-0.1;19.50;76307;2837.564;-1758.651;0;153;500;508.1;100.0;100.6;0;-0.9;27.5;-1.0;
20/02/2025 05:27:05;116;0;75.06;-4;-56.63;-5.54;0.0;19.60;76307;2837.565;-1758.652;0;153;500;508.1;100.0;100.6;0;-0.9;27.6;-1.0;
20/02/2025 05:27:25;116;0;78.54;-4;-50.12;-14.77;-0.1;19.60;76314;2837.568;-1758.654;0;153;500;508.1;100.0;100.6;0;-0.9;27.5;-1.0;
20/02/2025 05:27:36;116;0;77.34;-4;-56.77;-11.75;0.2;19.60;76305;2837.570;-1758.657;0;153;500;509.7;100.0;100.7;0;-0.9;27.5;-1.0;
20/02/2025 05:27:46;116;0;79.62;-4;-48.73;-10.96;-0.1;19.60;76318;2837.570;-1758.658;0;153;500;506.5;100.0;100.6;0;-0.9;27.5;-1.0;
20/02/2025 05:28:06;110;0;64.78;-4;-56.57;-21.78;-0.1;19.60;76319;2837.570;-1758.658;0;153;-50;393.5;100.0;99.7;-14;-14.0;27.5;-1.0;
20/02/2025 05:28:16;110;0;82.30;-4;-60.36;-19.45;0.0;19.60;76667;2837.571;-1758.659;1;153;-50;246.8;100.0;99.7;-14;-14.4;27.5;-1.0;
20/02/2025 05:28:27;110;0;79.78;-4;-55.68;-13.63;0.6;19.70;76904;2837.571;-1758.659;1;153;-50;83.9;100.0;99.7;-14;-14.4;27.5;-1.0;
20/02/2025 05:28:37;110;0;72.45;-4;-69.74;-38.64;1.0;19.70;77251;2837.572;-1758.660;1;153;-50;-46.8;100.0;99.7;-14;-14.0;27.5;-1.0;
20/02/2025 05:28:47;110;0;53.11;-4;-64.88;-22.87;1.5;19.70;77509;2837.573;-1758.660;1;153;-50;-46.8;48.1;48.0;-14;-14.4;27.5;-1.0;
20/02/2025 05:29:07;100;0;67.33;-4;-33.32;-19.21;4.9;19.80;77497;2837.575;-1758.659;1;153;-50;-46.8;48.1;47.7;-14;-14.4;27.5;-1.0;
20/02/2025 05:29:27;100;0;78.53;-4;-30.49;-19.10;8.8;19.80;77502;2837.577;-1758.656;1;153;-50;-45.2;48.1;47.6;-67;-66.8;27.5;-1.0;
20/02/2025 05:29:47;100;0;86.96;-4;-31.27;-43.04;12.7;19.80;77510;2837.578;-1758.654;1;153;-50;-41.9;48.1;47.7;-58;-58.2;27.5;-1.0;
20/02/2025 05:30:07;100;0;100.54;-4;-26.69;-38.70;16.8;19.80;77513;2837.578;-1758.651;1;154;-50;-43.5;49.1;49.3;-44;-44.2;27.6;0.0;
20/02/2025 05:30:27;100;0;115.36;-4;-31.25;-31.87;20.2;19.80;77514;2837.578;-1758.649;1;154;-50;-41.9;49.1;49.5;-19;-19.0;27.5;0.0;
20/02/2025 05:30:47;100;0;126.62;-4;-31.31;-19.67;24.2;19.90;77507;2837.577;-1758.647;1;154;-50;-41.9;49.1;49.5;-3;-3.2;27.5;0.0;
20/02/2025 05:31:07;100;0;132.41;-4;-33.39;-12.47;28.5;19.90;77513;2837.576;-1758.646;1;154;-50;-43.5;48.1;47.7;5;5.0;27.6;0.0;
20/02/2025 05:31:27;100;0;137.27;-4;-30.92;-8.56;32.9;19.90;77515;2837.575;-1758.644;1;154;-50;-43.5;48.1;47.7;8;8.1;27.5;0.0;
20/02/2025 05:31:47;100;0;134.45;-4;-30.59;-6.95;37.2;19.90;77515;2837.573;-1758.643;1;154;-50;-43.5;48.1;47.7;6;5.9;27.5;0.0;
20/02/2025 05:32:07;100;0;128.05;-4;-29.20;-8.67;41.3;19.90;77517;2837.572;-1758.641;1;154;-50;-43.5;48.1;47.7;-3;-3.2;27.6;0.0;
20/02/2025 05:32:27;100;0;130.52;-4;-29.50;-13.37;45.2;19.90;77520;2837.571;-1758.639;1;154;-50;-43.5;48.1;47.7;2;1.8;27.6;0.0;
20/02/2025 05:32:47;100;0;134.70;-4;-29.33;-10.16;49.2;19.90;77505;2837.569;-1758.638;1;154;-50;-41.9;48.1;47.7;6;5.9;27.6;0.0;
20/02/2025 05:33:07;100;0;134.00;-4;-30.08;-8.58;53.2;19.90;77515;2837.568;-1758.636;1;154;-50;-41.9;48.1;47.7;6;6.3;27.6;0.0;
20/02/2025 05:33:27;100;0;135.32;-4;-29.65;-8.39;57.4;19.90;77506;2837.566;-1758.635;1;154;-50;-43.5;48.1;47.7;6;6.3;27.5;0.0;
20/02/2025 05:33:47;100;0;135.79;-4;-29.50;-8.47;61.6;19.90;77507;2837.565;-1758.633;1;155;-50;-43.5;48.1;47.7;6;6.3;27.5;0.0;
20/02/2025 05:34:07;100;0;137.47;-4;-29.62;-8.47;65.8;19.90;77504;2837.563;-1758.631;1;155;-50;-41.9;48.1;47.7;6;6.3;27.5;0.0;
20/02/2025 05:34:27;100;0;137.77;-4;-29.48;-8.42;70.0;19.90;77496;2837.561;-1758.630;1;155;-50;-43.5;48.1;47.7;8;8.1;27.5;0.0;
20/02/2025 05:34:47;100;0;135.88;-4;-29.31;-7.18;74.2;19.90;77509;2837.560;-1758.628;1;155;-50;-41.9;48.1;47.7;6;5.4;27.5;0.0;
20/02/2025 05:35:07;100;0;136.99;-4;-28.86;-8.98;78.2;19.90;77511;2837.558;-1758.627;1;155;-50;-41.9;48.4;48.5;6;5.4;27.5;0.0;
20/02/2025 05:35:27;100;0;139.99;-4;-30.36;-9.02;82.3;19.90;77504;2837.556;-1758.626;1;155;-50;-41.9;48.4;48.7;8;8.1;27.5;0.0;
20/02/2025 05:35:47;100;0;139.77;-4;-30.50;-7.33;86.4;19.90;77508;2837.555;-1758.624;1;155;-50;-43.5;48.4;48.7;8;8.6;27.5;0.0;
20/02/2025 05:36:07;100;0;139.07;-4;-30.75;-7.27;90.6;19.90;77505;2837.553;-1758.623;1;155;-50;-43.5;48.4;48.7;8;8.6;27.5;0.0;
20/02/2025 05:36:27;100;0;139.54;-4;-30.76;-7.24;95.0;19.90;77502;2837.551;-1758.622;1;155;-50;-43.5;48.4;48.7;8;8.6;27.5;0.0;
20/02/2025 05:36:47;100;0;144.41;-4;-31.06;-7.25;99.5;19.90;77499;2837.549;-1758.620;1;155;-50;-43.5;48.4;48.7;8;8.6;27.5;0.0;
20/02/2025 05:37:07;100;0;143.58;-4;-31.49;-7.47;104.0;19.90;77493;2837.547;-1758.619;1;155;-50;-41.9;48.4;48.6;8;8.6;27.5;0.0;
20/02/2025 05:37:27;100;0;140.66;-4;-30.58;-7.22;108.6;19.90;77491;2837.545;-1758.618;1;155;-50;-41.9;48.4;48.7;8;8.6;27.6;0.0;
20/02/2025 05:37:47;100;0;136.93;-4;-30.30;-7.19;113.0;19.90;77484;2837.544;-1758.616;1;155;-50;-41.9;48.4;48.7;8;8.6;27.5;0.0;
20/02/2025 05:38:07;100;0;128.56;-4;-30.87;-7.81;117.3;19.80;77472;2837.543;-1758.614;1;155;-50;-43.5;48.4;48.7;-2;-1.8;27.5;0.0;
20/02/2025 05:38:27;100;0;125.57;-4;-30.85;-12.29;122.0;19.80;77450;2837.541;-1758.612;1;155;-50;-43.5;48.4;48.7;-9;-9.0;27.5;0.0;
20/02/2025 05:38:47;100;0;134.18;-4;-29.29;-16.08;126.5;19.80;77451;2837.539;-1758.610;1;155;-50;-41.9;48.4;48.7;4;4.5;27.5;0.0;
20/02/2025 05:39:07;100;0;137.82;-4;-29.89;-9.22;131.0;19.80;77443;2837.538;-1758.608;1;155;-50;-43.5;48.4;48.7;7;7.2;27.5;0.0;
20/02/2025 05:39:27;100;0;140.11;-4;-29.51;-7.55;135.2;19.80;77429;2837.536;-1758.607;1;155;-50;-43.5;48.4;48.7;7;7.7;27.5;0.0;
20/02/2025 05:39:47;100;0;136.88;-4;-31.74;-7.52;139.2;19.80;77426;2837.535;-1758.606;1;156;-50;-43.5;48.4;48.7;7;8.1;27.5;0.0;
20/02/2025 05:40:07;100;0;131.21;-4;-30.59;-7.98;143.6;19.80;77416;2837.533;-1758.604;1;156;-50;-41.9;48.4;48.7;0;-0.5;27.5;0.0;
20/02/2025 05:40:27;100;0;136.64;-4;-30.73;-12.02;148.1;19.70;77415;2837.532;-1758.603;1;156;-50;-41.9;48.4;48.7;6;5.9;27.5;0.0;
20/02/2025 05:40:47;100;0;145.37;-4;-31.21;-8.22;152.8;19.70;77406;2837.529;-1758.601;1;156;-50;-41.9;48.4;48.7;8;8.1;27.6;0.0;
20/02/2025 05:41:07;100;0;151.44;-4;-30.71;-7.05;157.4;19.70;77401;2837.527;-1758.601;1;156;-50;-41.9;48.4;48.7;8;8.6;27.5;0.0;
20/02/2025 05:41:27;100;0;147.82;-4;-28.82;-7.14;161.9;19.70;77405;2837.525;-1758.599;1;156;-50;-41.9;48.8;48.7;8;8.6;27.6;0.0;
20/02/2025 05:41:47;100;0;148.26;-4;-30.90;-7.25;166.2;19.70;77396;2837.523;-1758.599;1;156;-50;-43.5;48.8;48.7;8;8.1;27.5;0.0;
20/02/2025 05:42:07;100;0;143.86;-4;-31.44;-7.00;170.5;19.70;77392;2837.521;-1758.598;1;156;-50;-43.5;48.8;48.7;8;8.6;27.6;0.0;
20/02/2025 05:42:27;100;0;135.27;-4;-30.86;-7.26;174.6;19.60;77374;2837.519;-1758.596;1;156;-50;-43.5;48.8;48.7;5;5.0;27.6;0.0;
20/02/2025 05:42:47;100;0;141.27;-4;-30.11;-9.40;178.8;19.60;77354;2837.518;-1758.595;1;156;-50;-41.9;48.8;48.7;8;8.6;27.5;0.0;
20/02/2025 05:43:07;100;0;142.38;-4;-29.86;-7.20;182.7;19.60;77333;2837.516;-1758.594;1;156;-50;-45.2;48.8;48.7;8;8.6;27.5;0.0;
20/02/2025 05:43:27;100;0;142.13;-4;-29.61;-7.03;186.5;19.60;77298;2837.514;-1758.593;1;156;-50;-43.5;48.8;48.7;8;8.6;27.6;0.0;
20/02/2025 05:43:47;100;0;137.83;-4;-29.69;-7.21;190.3;19.50;77279;2837.513;-1758.592;1;156;-50;-43.5;48.8;48.7;8;9.0;27.5;0.0;
20/02/2025 05:44:07;100;0;140.18;-4;-30.39;-7.25;194.0;19.50;77262;2837.512;-1758.591;1;156;-50;-41.9;48.8;48.7;8;8.6;27.5;0.0;
20/02/2025 05:44:27;100;0;138.53;-4;-29.44;-7.22;197.8;19.50;77242;2837.510;-1758.590;1;156;-50;-43.5;48.8;48.7;8;8.6;27.5;0.0;
20/02/2025 05:44:32;118;0;136.73;-4;-29.54;-7.24;198.7;19.50;77248;2837.510;-1758.589;1;156;190;-37.1;22.0;21.9;14;14.4;27.5;0.0;
20/02/2025 05:44:42;118;0;123.78;-4;-16.23;-5.10;200.1;19.40;77220;2837.509;-1758.588;1;156;190;91.9;22.0;21.6;14;14.4;27.2;-1.0;
20/02/2025 05:44:52;118;0;118.93;-4;11.54;-4.78;200.5;19.40;76940;2837.509;-1758.588;1;156;190;193.5;22.0;21.9;14;14.4;27.2;-1.0;
20/02/2025 05:45:02;118;0;135.00;-4;23.61;-5.09;199.9;19.40;76730;2837.509;-1758.588;1;156;190;193.5;22.0;22.1;14;14.4;27.5;-1.0;
20/02/2025 05:45:12;118;0;135.17;-4;26.92;-4.91;199.0;19.40;76743;2837.509;-1758.588;1;156;190;196.8;22.0;22.1;14;14.4;27.5;-1.0;
20/02/2025 05:45:32;117;0;134.91;-4;28.33;-5.09;196.7;19.40;76732;2837.509;-1758.588;1;156;190;195.2;22.0;22.1;14;14.4;27.5;-1.0;
20/02/2025 05:45:52;117;0;128.89;-4;27.84;-4.91;194.3;19.40;76734;2837.509;-1758.587;1;156;190;195.2;21.4;21.2;38;37.9;27.5;-1.0;
20/02/2025 05:46:12;117;0;127.96;-4;31.12;7.80;192.0;19.30;76731;2837.509;-1758.587;1;156;190;195.2;21.4;21.2;38;38.4;27.5;-1.0;
20/02/2025 05:46:32;117;0;129.58;-4;31.65;7.90;189.3;19.30;76724;2837.508;-1758.586;1;156;190;195.2;21.4;21.2;38;38.4;27.5;-1.0;
20/02/2025 05:46:52;117;0;130.91;-4;31.66;7.87;186.4;19.20;76714;2837.508;-1758.586;1;156;190;195.2;21.4;21.2;38;38.4;27.6;-1.0;
20/02/2025 05:47:12;117;0;129.69;-4;31.88;7.94;183.6;19.20;76724;2837.507;-1758.585;1;156;190;191.9;21.4;21.2;38;38.4;27.5;-1.0;
20/02/2025 05:47:32;117;0;131.95;-4;31.20;7.79;180.6;19.20;76737;2837.507;-1758.584;1;156;190;196.8;21.4;21.2;38;37.9;27.6;-1.0;
20/02/2025 05:47:52;117;0;128.78;-4;31.02;7.91;177.7;19.20;76749;2837.506;-1758.584;1;156;190;196.8;21.4;21.2;41;41.5;27.6;-1.0;
20/02/2025 05:48:12;117;0;126.36;-4;31.12;9.79;175.0;19.10;76756;2837.506;-1758.583;1;156;190;195.2;21.4;21.2;43;42.9;27.5;-1.0;
20/02/2025 05:48:32;117;0;131.71;-4;31.52;10.65;172.2;19.10;76761;2837.506;-1758.582;1;156;190;193.5;21.4;21.2;38;37.9;27.5;-1.0;
20/02/2025 05:48:52;117;0;134.41;-4;30.58;7.44;169.5;19.10;76790;2837.505;-1758.582;1;156;190;195.2;21.4;21.2;38;37.5;27.6;-1.0;
20/02/2025 05:49:12;117;0;134.78;-4;30.76;7.40;166.9;19.10;76792;2837.505;-1758.581;1;156;190;195.2;21.4;21.2;38;37.5;27.5;-1.0;
20/02/2025 05:49:32;117;0;136.25;-4;30.36;7.60;164.2;19.10;76805;2837.504;-1758.581;1;156;190;195.2;21.4;21.2;38;37.5;27.6;-1.0;
20/02/2025 05:49:52;117;0;135.41;-4;30.42;7.50;161.5;19.10;76806;2837.504;-1758.580;1;156;190;195.2;21.4;21.2;38;37.5;27.5;-1.0;
20/02/2025 05:50:12;117;0;135.30;-4;30.06;7.50;159.0;19.10;76804;2837.503;-1758.580;1;156;190;193.5;21.4;21.2;38;37.5;27.5;-1.0;
20/02/2025 05:50:32;117;0;136.03;-4;31.01;7.22;156.5;19.00;76808;2837.503;-1758.580;1;156;190;195.2;21.4;21.2;38;37.5;27.6;-1.0;
20/02/2025 05:50:52;117;0;134.16;-4;31.05;7.62;153.9;19.00;76808;2837.502;-1758.579;1;156;190;195.2;21.4;21.2;38;37.9;27.5;-1.0;
20/02/2025 05:51:12;117;0;132.78;-4;29.61;7.63;151.1;19.00;76809;2837.502;-1758.579;1;157;190;195.2;21.4;21.2;38;37.5;27.6;-1.0;
20/02/2025 05:51:32;117;0;131.42;-4;31.39;7.51;148.9;19.00;76798;2837.501;-1758.578;1;157;190;191.9;21.4;21.2;38;37.5;27.6;-1.0;
20/02/2025 05:51:52;117;0;129.85;-4;32.09;7.42;146.2;19.00;76807;2837.501;-1758.578;1;157;190;195.2;22.0;21.9;40;40.2;27.5;-1.0;
20/02/2025 05:52:12;117;0;126.40;-4;29.33;9.25;143.4;19.00;76813;2837.501;-1758.577;1;157;190;195.2;22.0;22.2;46;46.5;27.6;-1.0;
20/02/2025 05:52:32;117;0;127.48;-4;29.71;12.59;140.8;19.00;76830;2837.500;-1758.576;1;157;190;193.5;22.0;22.2;42;41.5;27.5;-1.0;
20/02/2025 05:52:52;117;0;128.44;-4;29.60;9.35;138.4;19.00;76818;2837.500;-1758.576;1;157;190;195.2;22.0;22.1;40;39.7;27.6;-1.0;
20/02/2025 05:53:12;117;0;126.58;-4;29.93;8.42;135.9;19.00;76827;2837.500;-1758.575;1;157;190;195.2;22.0;22.2;42;42.0;27.5;-1.0;
20/02/2025 05:53:32;117;0;126.11;-4;29.78;10.15;133.6;19.00;76830;2837.500;-1758.575;1;157;190;195.2;22.0;22.2;42;42.4;27.5;-1.0;
20/02/2025 05:53:52;117;0;124.87;-4;29.71;10.15;131.2;19.00;76838;2837.500;-1758.574;1;157;190;195.2;22.0;22.1;44;44.2;27.5;-1.0;
20/02/2025 05:54:12;117;0;126.64;-4;30.55;11.61;128.8;19.00;76838;2837.500;-1758.574;1;157;190;195.2;22.0;22.1;42;41.5;27.5;-1.0;
20/02/2025 05:54:32;117;0;128.20;-4;29.84;9.31;126.3;19.00;76836;2837.499;-1758.573;1;157;190;195.2;22.0;22.1;40;39.7;27.5;-1.0;
20/02/2025 05:54:52;117;0;131.82;-4;30.70;8.37;123.8;19.00;76847;2837.499;-1758.573;1;157;190;195.2;22.0;22.1;38;37.9;27.5;-1.0;
20/02/2025 05:55:12;117;0;134.78;-4;29.05;7.30;121.2;19.00;76851;2837.499;-1758.572;1;157;190;195.2;22.0;22.4;38;37.5;27.6;-1.0;
20/02/2025 05:55:32;117;0;133.55;-4;29.50;7.49;118.9;19.00;76853;2837.498;-1758.572;1;157;190;195.2;22.0;22.2;38;37.5;27.5;-1.0;
20/02/2025 05:55:52;117;0;143.58;-4;29.70;7.28;116.3;19.00;76865;2837.498;-1758.572;1;157;190;193.5;22.0;22.1;38;37.5;27.5;-1.0;
20/02/2025 05:56:12;117;0;147.54;-4;29.35;7.57;113.9;19.00;76870;2837.497;-1758.572;1;157;190;193.5;22.0;22.1;34;32.9;27.5;-1.0;
20/02/2025 05:56:32;117;0;147.73;-4;29.25;5.75;111.6;19.00;76876;2837.496;-1758.572;1;157;190;195.2;22.0;22.1;36;36.1;27.5;-1.0;
20/02/2025 05:56:52;117;0;146.44;-4;29.39;6.98;109.2;19.00;76899;2837.495;-1758.572;1;157;190;195.2;22.0;22.2;36;36.6;27.6;-1.0;
20/02/2025 05:57:12;117;0;142.53;-4;29.75;7.11;106.9;19.00;76896;2837.495;-1758.572;1;157;190;195.2;22.0;22.1;36;36.6;27.5;-1.0;
20/02/2025 05:57:32;117;0;141.01;-4;29.65;7.12;104.5;19.00;76886;2837.494;-1758.572;1;157;190;195.2;22.0;22.2;36;36.6;27.5;-1.0;
20/02/2025 05:57:52;117;0;142.59;-4;29.09;6.97;102.1;19.00;76910;2837.494;-1758.572;1;157;190;195.2;22.0;22.2;36;36.6;27.5;-1.0;
20/02/2025 05:58:12;117;0;144.82;-4;29.30;7.01;99.7;19.00;76904;2837.493;-1758.572;1;157;190;196.8;22.0;22.2;36;36.6;27.5;-1.0;
20/02/2025 05:58:32;117;0;147.03;-4;29.64;7.09;97.2;19.00;76907;2837.492;-1758.572;1;157;190;196.8;22.0;22.2;36;37.0;27.5;-1.0;
20/02/2025 05:58:52;117;0;147.62;-4;29.31;7.05;94.9;19.10;76923;2837.492;-1758.572;1;157;190;195.2;22.0;22.2;34;33.8;27.5;-1.0;
20/02/2025 05:59:12;117;0;145.04;-4;28.92;5.62;92.5;19.10;76929;2837.491;-1758.572;1;157;190;193.5;21.7;21.4;36;36.6;27.5;-1.0;
20/02/2025 05:59:32;117;0;144.10;-4;30.11;7.05;90.0;19.10;76925;2837.490;-1758.572;1;157;190;195.2;21.7;21.4;36;37.0;27.6;-1.0;
20/02/2025 05:59:52;117;0;144.19;-4;30.33;7.01;87.6;19.10;76930;2837.490;-1758.572;1;157;190;195.2;21.7;21.5;36;37.0;27.5;-1.0;
20/02/2025 06:00:12;117;0;142.58;-4;30.40;6.98;85.1;19.10;76944;2837.489;-1758.571;1;157;190;196.8;21.7;21.4;36;37.0;27.5;-1.0;
20/02/2025 06:00:32;117;0;140.81;-4;30.27;6.98;82.8;19.10;76932;2837.488;-1758.571;1;157;190;195.2;21.7;21.4;36;37.0;27.5;-1.0;
20/02/2025 06:00:52;117;0;139.07;-4;30.40;6.99;80.3;19.10;76938;2837.488;-1758.571;1;157;190;195.2;21.7;21.4;36;36.6;27.5;-1.0;
20/02/2025 06:01:12;117;0;137.64;-4;29.85;7.04;77.9;19.10;76946;2837.487;-1758.571;1;157;190;195.2;21.7;21.4;36;37.0;27.5;-1.0;
20/02/2025 06:01:32;117;0;138.15;-4;30.56;7.01;75.6;19.10;76949;2837.487;-1758.571;1;157;190;195.2;21.7;21.4;36;37.0;27.6;-1.0;
20/02/2025 06:01:52;117;0;139.29;-4;30.46;7.02;73.2;19.20;76956;2837.487;-1758.571;1;157;190;195.2;21.7;21.4;36;37.0;27.5;-1.0;
20/02/2025 06:02:13;117;0;139.51;-4;29.59;6.83;70.9;19.20;76950;2837.486;-1758.571;1;157;190;195.2;21.7;21.4;36;37.0;27.5;-1.0;
20/02/2025 06:02:33;117;0;135.06;-4;30.76;6.91;68.6;19.20;76961;2837.486;-1758.570;1;157;190;195.2;21.7;21.4;36;37.0;27.5;-1.0;
20/02/2025 06:02:53;117;0;133.82;-4;30.72;7.30;66.1;19.20;76963;2837.485;-1758.570;1;157;190;195.2;21.7;21.4;36;37.0;27.5;-1.0;
20/02/2025 06:03:13;117;0;133.50;-4;30.33;7.15;63.6;19.20;76974;2837.485;-1758.570;1;157;190;195.2;21.7;21.4;38;37.9;27.5;-1.0;
20/02/2025 06:03:33;117;0;135.31;-4;30.85;7.86;61.0;19.20;76967;2837.485;-1758.569;1;157;190;196.8;21.7;21.4;38;38.4;27.6;-1.0;
20/02/2025 06:03:53;117;0;137.02;-4;30.55;7.84;58.4;19.20;76973;2837.484;-1758.569;1;157;190;196.8;21.7;21.4;38;38.4;27.6;-1.0;
20/02/2025 06:04:13;117;0;136.21;-4;31.11;7.90;55.7;19.20;76978;2837.484;-1758.568;1;157;190;195.2;21.7;21.4;38;38.4;27.5;-1.0;
20/02/2025 06:04:33;117;0;134.64;-4;30.36;7.87;53.0;19.20;76981;2837.483;-1758.568;1;157;190;195.2;21.7;21.4;38;38.4;27.5;-1.0;
20/02/2025 06:04:53;117;0;133.95;-4;30.86;7.87;50.4;19.30;76980;2837.483;-1758.567;1;157;190;195.2;21.7;21.4;38;38.4;27.6;-1.0;
20/02/2025 06:05:13;117;0;135.25;-4;30.18;7.67;47.7;19.30;76980;2837.482;-1758.567;1;157;190;191.9;21.7;21.4;38;38.4;27.6;-1.0;
20/02/2025 06:05:33;117;0;136.51;-4;30.02;7.77;45.2;19.30;76993;2837.481;-1758.567;1;157;190;195.2;21.7;21.5;38;38.4;27.6;-1.0;
20/02/2025 06:05:53;117;0;136.22;-4;30.35;7.88;42.9;19.30;76988;2837.481;-1758.566;1;157;190;195.2;21.7;21.4;38;38.4;27.6;-1.0;
20/02/2025 06:06:13;117;0;136.36;-4;29.93;7.85;40.5;19.30;77009;2837.481;-1758.566;1;157;190;195.2;21.7;21.5;38;38.4;27.5;-1.0;
20/02/2025 06:06:33;117;0;135.56;-4;30.14;7.83;38.1;19.30;77006;2837.480;-1758.566;1;157;190;195.2;21.7;21.4;38;38.4;27.6;-1.0;
20/02/2025 06:06:53;117;0;133.06;-4;31.34;7.85;35.7;19.30;77012;2837.480;-1758.566;1;157;190;195.2;21.7;21.4;38;38.4;27.5;-1.0;
20/02/2025 06:07:13;117;0;131.78;-4;30.57;7.73;33.2;19.30;77016;2837.480;-1758.565;1;157;190;195.2;21.7;21.4;38;38.4;27.5;-1.0;
20/02/2025 06:07:33;117;0;130.22;-4;30.33;7.93;30.7;19.40;77016;2837.479;-1758.565;1;157;190;195.2;21.7;21.4;40;40.2;27.6;-1.0;
20/02/2025 06:07:53;117;0;130.83;-4;30.09;8.94;28.1;19.40;77009;2837.479;-1758.564;1;157;190;195.2;21.7;21.5;40;40.2;27.6;-1.0;
20/02/2025 06:08:13;117;0;129.57;-4;29.37;9.01;25.6;19.40;77020;2837.479;-1758.563;1;157;190;195.2;21.7;21.4;40;40.2;27.5;-1.0;
20/02/2025 06:08:33;117;0;126.91;-4;30.95;8.85;23.1;19.40;77024;2837.478;-1758.563;1;157;190;195.2;21.7;21.4;42;42.0;27.5;-1.0;
20/02/2025 06:08:53;117;0;128.92;-4;30.40;10.02;20.4;19.40;77021;2837.478;-1758.562;1;157;190;195.2;21.7;21.4;42;42.4;27.5;-1.0;
20/02/2025 06:09:13;117;0;130.44;-4;30.64;9.92;17.8;19.40;77024;2837.478;-1758.562;1;157;190;195.2;21.7;21.4;40;40.2;27.5;-1.0;
20/02/2025 06:09:33;117;0;129.33;-4;30.08;8.58;15.2;19.40;77029;2837.477;-1758.561;1;157;190;196.8;21.7;21.4;40;39.3;27.6;-1.0;
20/02/2025 06:09:53;117;0;129.17;-4;31.89;8.49;12.6;19.40;77025;2837.477;-1758.561;1;157;190;195.2;21.7;21.4;40;39.3;27.6;-1.0;
20/02/2025 06:10:13;117;0;129.93;-4;30.75;8.38;9.8;19.50;77038;2837.477;-1758.560;1;157;190;195.2;21.7;21.4;40;39.3;27.5;-1.0;
20/02/2025 06:10:33;117;0;129.80;-4;31.85;8.27;7.2;19.50;77035;2837.476;-1758.560;1;157;190;195.2;21.7;21.4;38;37.5;27.5;-1.0;
20/02/2025 06:10:53;117;0;130.40;-4;28.10;6.69;4.8;19.50;77027;2837.476;-1758.559;1;157;190;196.8;21.1;20.8;41;41.1;27.5;-1.0;
20/02/2025 06:11:06;115;0;128.68;-4;32.27;10.40;3.1;19.50;77030;2837.476;-1758.558;1;157;500;203.2;100.0;61.9;0;-0.5;27.5;-1.0;
20/02/2025 06:11:16;115;0;118.67;-4;13.38;-12.48;1.9;19.50;76999;2837.475;-1758.557;1;157;500;321.0;100.0;100.0;0;-0.5;27.3;-1.0;
20/02/2025 06:11:26;115;0;125.67;-4;-61.54;-15.31;2.3;19.50;76735;2837.476;-1758.558;1;157;500;440.3;100.0;100.4;0;-0.5;27.3;-1.0;
20/02/2025 06:11:36;115;0;97.28;-4;-74.11;-0.67;2.2;19.50;76474;2837.476;-1758.558;1;157;500;508.1;100.0;100.6;0;-0.5;27.3;-1.0;
20/02/2025 06:11:46;115;0;80.07;-4;-32.10;-9.95;-0.3;19.50;76350;2837.477;-1758.557;1;158;500;508.1;100.0;100.4;0;-0.5;27.5;-1.0;
20/02/2025 06:12:06;119;0;117.55;-4;-64.92;-15.64;0.1;19.60;76363;2837.477;-1758.557;1;158;500;509.7;100.0;100.4;0;-0.5;27.5;-1.0;
20/02/2025 06:12:16;119;0;128.38;-4;-51.60;-15.35;-0.1;19.60;76351;2837.441;-1758.507;0;158;500;508.1;100.0;100.4;0;-0.5;27.5;-1.0;
