Timestamp;NavState;SecurityLevel;Heading;Declination;Pitch;Roll;Depth;Temperature;Pa;Lat;Lon;DeadReckoning;DesiredH;BallastCmd;BallastPos;LinCmd;LinPos;AngCmd;AngPos;Voltage;Altitude;
12/02/2025 21:08:18;119;0;344.59;-4;-59.09;-17.34;-0.2;18.60;76279;2835.183;-1757.264;0;128;500;509.7;100.0;100.6;0;-0.5;28.9;-1.0;
12/02/2025 21:08:28;116;0;336.87;-4;-52.21;-13.16;-0.3;18.60;76286;2835.180;-1757.263;0;128;500;509.7;100.0;100.6;0;-0.5;28.9;-1.0;
12/02/2025 21:08:55;116;0;323.40;-4;-54.55;-10.45;-0.2;18.70;76285;2835.178;-1757.263;0;128;500;509.7;100.0;100.6;0;-0.5;28.9;-1.0;
12/02/2025 21:09:17;116;0;310.64;-4;-51.18;-9.45;-0.1;18.80;76295;2835.178;-1757.262;0;128;500;509.7;100.0;100.6;0;-0.5;28.9;-1.0;
12/02/2025 21:09:42;116;0;317.98;-4;-52.56;-9.56;-0.1;18.90;76309;2835.175;-1757.261;0;128;500;508.1;100.0;100.6;0;-0.5;28.9;-1.0;
12/02/2025 21:10:02;116;0;318.92;-4;-49.97;-8.62;0.0;19.00;76311;2835.173;-1757.259;0;127;500;509.7;100.0;100.6;0;-0.5;28.9;-1.0;
12/02/2025 21:11:05;116;0;301.74;-4;-53.39;-10.24;-0.1;19.30;76341;2835.169;-1757.255;0;127;500;509.7;100.0;100.6;0;-0.5;28.9;-1.0;
12/02/2025 21:11:29;116;0;289.58;-4;-50.82;-9.67;-0.2;19.40;76344;2835.166;-1757.255;0;127;500;509.7;100.0;100.6;0;-0.5;28.9;-1.0;
12/02/2025 21:11:49;116;0;292.96;-4;-53.26;-9.34;-0.1;19.60;76352;2835.162;-1757.254;0;127;500;511.3;100.0;100.6;0;-0.5;28.9;-1.0;
12/02/2025 21:12:09;116;0;305.90;-4;-56.44;-18.13;-0.1;19.70;76359;2835.163;-1757.255;0;127;500;509.7;100.0;100.6;0;-0.5;28.9;-1.0;
12/02/2025 21:12:29;116;0;305.37;-4;-57.17;-16.02;-0.0;19.80;76361;2835.161;-1757.255;0;127;500;509.7;100.0;100.6;0;-0.5;28.9;-1.0;
12/02/2025 21:13:39;116;0;294.24;-4;-54.75;-4.54;-0.1;20.20;76389;2835.143;-1757.249;0;127;500;509.7;100.0;100.6;0;-0.5;28.9;-1.0;
12/02/2025 21:13:45;116;0;295.24;-4;-56.46;-17.43;-0.0;20.20;76379;2835.147;-1757.249;0;125;500;509.7;100.0;100.6;0;-0.5;28.9;-1.0;
12/02/2025 21:13:57;116;0;288.97;-4;-50.78;-11.69;-0.1;20.30;76388;2835.152;-1757.252;0;126;500;509.7;100.0;100.6;0;-0.5;28.9;-1.0;
12/02/2025 21:14:17;110;0;300.86;-4;-58.48;-16.38;-0.0;20.50;76390;2835.152;-1757.252;0;126;-100;396.8;100.0;100.6;0;-0.5;28.9;-1.0;
12/02/2025 21:14:27;110;0;296.31;-4;-54.66;-12.90;0.1;20.50;76747;2835.152;-1757.253;1;126;-100;245.2;100.0;100.6;0;-0.5;28.9;-1.0;
12/02/2025 21:14:37;110;0;300.64;-4;-58.66;-14.48;0.7;20.50;76984;2835.152;-1757.253;1;126;-100;83.9;100.0;100.6;0;-0.5;28.9;-1.0;
12/02/2025 21:14:47;110;0;299.96;-4;-68.53;-21.33;1.0;20.60;77325;2835.153;-1757.253;1;126;-100;-75.8;100.0;100.6;0;-0.5;28.9;-1.0;
12/02/2025 21:14:57;110;0;299.27;-4;-67.63;-7.81;1.2;20.60;77670;2835.153;-1757.254;1;126;-100;-100.0;49.2;49.2;0;-0.5;28.9;-1.0;
12/02/2025 21:15:07;110;0;309.33;-4;-48.21;-13.66;2.6;20.60;77689;2835.154;-1757.255;1;126;-100;-100.0;49.2;48.9;0;-0.5;28.9;-1.0;
12/02/2025 21:15:27;100;0;317.65;-4;-31.98;-12.41;6.1;20.70;77685;2835.156;-1757.257;1;126;-100;-98.4;49.2;48.7;0;-0.5;28.9;-1.0;
12/02/2025 21:15:47;100;0;323.32;-4;-30.31;-12.05;10.6;20.70;77673;2835.160;-1757.261;1;126;-100;-96.8;49.2;48.6;-70;-69.9;28.9;-1.0;
12/02/2025 21:16:07;100;0;329.64;-4;-29.65;-44.86;15.0;20.80;77674;2835.163;-1757.263;1;126;-100;-96.8;49.2;48.6;-70;-70.4;28.9;0.0;
12/02/2025 21:16:27;100;0;341.39;-4;-29.88;-44.97;19.3;20.80;77671;2835.167;-1757.265;1;127;-100;-96.8;49.2;48.6;-70;-70.4;28.9;0.0;
12/02/2025 21:16:47;100;0;354.14;-4;-29.46;-44.83;23.7;20.80;77676;2835.172;-1757.266;1;127;-100;-96.8;49.2;48.7;-70;-70.4;28.9;0.0;
12/02/2025 21:17:07;100;0;6.67;-4;-29.81;-44.89;28.1;20.80;77673;2835.176;-1757.266;1;127;-100;-96.8;49.2;48.7;-70;-69.9;28.9;0.0;
12/02/2025 21:17:27;100;0;18.05;-4;-29.75;-44.65;32.5;20.80;77671;2835.180;-1757.265;1;128;-100;-98.4;49.2;48.6;-70;-69.9;28.9;0.0;
12/02/2025 21:17:47;100;0;30.32;-4;-29.67;-44.79;37.0;20.80;77674;2835.184;-1757.263;1;128;-100;-96.8;49.2;48.7;-70;-70.4;28.9;0.0;
12/02/2025 21:18:07;100;0;43.32;-4;-29.46;-44.86;41.5;20.80;77674;2835.187;-1757.260;1;128;-100;-96.8;49.2;48.6;-70;-70.4;28.9;0.0;
12/02/2025 21:18:27;100;0;54.76;-4;-29.52;-44.83;46.0;20.80;77680;2835.190;-1757.257;1;129;-100;-96.8;49.2;48.7;-70;-70.4;28.9;0.0;
12/02/2025 21:18:47;100;0;66.34;-4;-29.39;-44.76;50.4;20.70;77684;2835.192;-1757.253;1;129;-100;-96.8;49.2;48.6;-66;-65.9;28.9;0.0;
12/02/2025 21:19:07;100;0;79.75;-4;-29.19;-42.48;54.9;20.70;77681;2835.193;-1757.249;1;129;-100;-100.0;49.2;48.7;-50;-50.1;28.9;0.0;
12/02/2025 21:19:27;100;0;91.89;-4;-29.46;-34.57;59.3;20.70;77680;2835.194;-1757.245;1;130;-100;-96.8;49.2;48.7;-36;-36.1;28.9;0.0;
12/02/2025 21:19:47;100;0;102.17;-4;-29.09;-27.82;63.9;20.70;77684;2835.193;-1757.241;1;130;-100;-98.4;49.2;48.7;-21;-21.2;28.9;0.0;
12/02/2025 21:20:07;100;0;109.78;-4;-29.52;-20.98;68.3;20.70;77684;2835.192;-1757.237;1;130;-100;-95.2;49.2;48.7;-8;-8.1;28.9;0.0;
12/02/2025 21:20:27;100;0;113.76;-4;-29.99;-14.89;73.0;20.70;77687;2835.191;-1757.233;1;130;-100;-100.0;49.2;48.7;-2;-1.4;28.9;0.0;
12/02/2025 21:20:47;100;0;117.37;-4;-30.20;-11.61;77.6;20.60;77685;2835.189;-1757.229;1;130;-100;-96.8;49.2;48.7;3;3.2;28.9;0.0;
12/02/2025 21:21:07;100;0;119.08;-4;-30.53;-9.66;82.2;20.60;77689;2835.188;-1757.226;1;130;-100;-96.8;49.2;48.7;5;5.0;28.9;0.0;
12/02/2025 21:21:27;100;0;120.15;-4;-31.06;-8.86;86.9;20.60;77700;2835.186;-1757.223;1;130;-100;-96.8;49.2;48.7;5;5.4;28.9;0.0;
12/02/2025 21:21:47;100;0;118.26;-4;-30.15;-8.99;91.3;20.60;77705;2835.185;-1757.219;1;130;-100;-95.2;49.2;48.7;5;5.4;28.9;0.0;
12/02/2025 21:22:07;100;0;120.38;-4;-31.63;-8.57;95.8;20.50;77694;2835.183;-1757.216;1;130;-100;-96.8;49.2;48.7;7;7.7;28.9;0.0;
12/02/2025 21:22:27;100;0;114.84;-4;-32.38;-7.48;100.5;20.50;77697;2835.182;-1757.212;1;131;-100;-96.8;48.5;48.2;-2;-2.3;28.9;0.0;
12/02/2025 21:22:47;100;0;115.86;-4;-29.80;-12.65;105.2;20.50;77679;2835.181;-1757.209;1;131;-100;-96.8;48.5;48.2;0;0.0;28.9;0.0;
12/02/2025 21:23:07;100;0;118.61;-4;-29.18;-11.36;109.6;20.50;77682;2835.179;-1757.205;1;131;-100;-96.8;48.5;48.2;3;3.2;28.9;0.0;
12/02/2025 21:23:27;100;0;116.13;-4;-29.55;-9.83;113.8;20.50;77666;2835.178;-1757.202;1;131;-100;-96.8;48.5;48.3;0;0.0;28.9;0.0;
12/02/2025 21:23:47;100;0;117.27;-4;-30.56;-11.54;118.2;20.40;77636;2835.177;-1757.198;1;131;-100;-96.8;48.5;48.2;2;1.8;28.9;0.0;
12/02/2025 21:24:07;100;0;120.89;-4;-30.68;-10.15;122.9;20.40;77631;2835.175;-1757.195;1;131;-100;-96.8;48.5;48.3;6;6.3;28.9;0.0;
12/02/2025 21:24:27;100;0;120.05;-4;-30.12;-8.18;127.6;20.40;77614;2835.173;-1757.191;1;131;-100;-96.8;48.5;48.3;6;6.3;28.9;0.0;
12/02/2025 21:24:47;100;0;117.22;-4;-29.37;-8.41;132.1;20.30;77607;2835.172;-1757.187;1;131;-100;-96.8;48.5;48.2;1;0.9;28.9;0.0;
12/02/2025 21:25:07;100;0;115.59;-4;-28.87;-11.40;136.2;20.30;77602;2835.171;-1757.184;1;131;-100;-96.8;48.8;49.0;-1;-1.4;28.9;0.0;
12/02/2025 21:25:27;100;0;119.20;-4;-30.21;-12.11;140.4;20.30;77589;2835.169;-1757.181;1;131;-100;-96.8;48.8;49.2;4;4.1;28.9;0.0;
12/02/2025 21:25:47;100;0;121.56;-4;-30.18;-9.20;144.7;20.30;77562;2835.168;-1757.177;1;131;-100;-96.8;48.8;49.2;6;5.9;28.9;0.0;
12/02/2025 21:26:07;100;0;127.00;-4;-30.66;-8.47;149.0;20.20;77538;2835.166;-1757.175;1;131;-100;-96.8;48.8;49.3;9;9.0;28.9;0.0;
12/02/2025 21:26:27;100;0;131.74;-4;-31.48;-6.83;153.4;20.20;77518;2835.164;-1757.172;1;132;-100;-95.2;48.8;49.3;9;9.5;28.9;0.0;
12/02/2025 21:26:47;100;0;133.87;-4;-30.91;-6.76;158.2;20.10;77503;2835.161;-1757.169;1;131;-100;-96.8;48.8;49.3;9;9.5;28.9;0.0;
12/02/2025 21:27:07;100;0;127.71;-4;-31.08;-6.78;162.8;20.10;77474;2835.159;-1757.166;1;132;-100;-95.2;48.8;49.3;9;9.5;28.9;0.0;
12/02/2025 21:27:27;100;0;125.03;-4;-30.14;-6.79;167.2;20.10;77453;2835.157;-1757.163;1;132;-100;-96.8;48.8;49.3;9;9.5;28.9;0.0;
12/02/2025 21:27:47;100;0;124.28;-4;-29.93;-6.91;171.4;20.00;77438;2835.156;-1757.160;1;132;-100;-96.8;48.8;49.3;9;9.5;28.9;0.0;
12/02/2025 21:28:07;100;0;123.24;-4;-30.82;-6.91;175.5;20.00;77413;2835.154;-1757.157;1;132;-100;-96.8;48.8;49.3;9;9.5;28.9;0.0;
12/02/2025 21:28:27;100;0;120.91;-4;-30.86;-6.82;180.1;19.90;77406;2835.153;-1757.153;1;132;-100;-96.8;48.8;49.3;6;5.4;28.9;0.0;
12/02/2025 21:28:47;100;0;125.19;-4;-30.59;-8.95;184.7;19.90;77401;2835.151;-1757.150;1;132;-100;-95.2;48.8;49.2;9;9.5;28.9;0.0;
12/02/2025 21:29:07;100;0;122.98;-4;-30.88;-6.69;189.2;19.80;77374;2835.149;-1757.147;1;132;-100;-96.8;48.8;49.2;7;7.2;28.9;0.0;
12/02/2025 21:29:27;100;0;119.77;-4;-30.22;-8.35;193.7;19.80;77374;2835.147;-1757.144;1;132;-100;-96.8;48.8;49.3;4;4.1;28.9;0.0;
12/02/2025 21:29:47;100;0;120.84;-4;-30.21;-9.92;197.9;19.70;77353;2835.146;-1757.140;1;132;-100;-96.8;48.8;49.3;4;3.2;28.9;0.0;
12/02/2025 21:30:07;100;0;120.04;-4;-30.45;-9.92;202.1;19.70;77349;2835.144;-1757.137;1;132;-100;-96.8;48.8;49.3;4;3.2;28.9;0.0;
12/02/2025 21:30:27;100;0;120.93;-4;-30.46;-9.88;206.5;19.60;77342;2835.143;-1757.134;1;132;-100;-96.8;48.8;49.2;4;3.2;28.9;0.0;
12/02/2025 21:30:47;100;0;121.26;-4;-30.54;-9.90;210.8;19.60;77324;2835.141;-1757.131;1;132;-100;-95.2;48.8;49.2;6;5.9;28.9;0.0;
12/02/2025 21:31:07;100;0;121.13;-4;-30.64;-8.43;215.0;19.50;77302;2835.140;-1757.128;1;132;-100;-96.8;48.8;49.3;6;6.3;28.9;0.0;
12/02/2025 21:31:27;100;0;129.65;-4;-30.31;-8.54;219.1;19.50;77285;2835.138;-1757.125;1;132;-100;-96.8;48.8;49.3;9;9.0;28.9;0.0;
12/02/2025 21:31:47;100;0;129.93;-4;-31.02;-6.88;223.3;19.40;77264;2835.136;-1757.122;1;132;-100;-96.8;48.8;49.3;9;9.5;28.9;0.0;
12/02/2025 21:32:07;100;0;131.39;-4;-30.40;-6.89;227.5;19.40;77231;2835.134;-1757.120;1;132;-100;-96.8;48.8;49.3;9;9.5;28.9;0.0;
12/02/2025 21:32:27;100;0;131.91;-4;-30.26;-6.98;231.5;19.30;77205;2835.132;-1757.117;1;132;-100;-96.8;48.8;49.3;9;9.5;28.9;0.0;
12/02/2025 21:32:47;100;0;131.69;-4;-30.15;-6.95;235.4;19.30;77189;2835.130;-1757.114;1;133;-100;-98.4;48.8;49.3;9;9.5;28.9;0.0;
12/02/2025 21:33:07;100;0;133.75;-4;-30.60;-6.86;239.3;19.20;77182;2835.128;-1757.112;1;133;-100;-96.8;48.8;49.3;9;9.5;28.9;0.0;
12/02/2025 21:33:27;100;0;141.10;-4;-31.71;-6.88;243.5;19.10;77168;2835.126;-1757.110;1;132;-100;-96.8;48.8;49.3;12;12.2;28.9;0.0;
12/02/2025 21:33:47;100;0;137.95;-4;-31.05;-5.24;247.9;19.10;77142;2835.124;-1757.108;1;132;-100;-96.8;48.8;49.3;10;9.9;28.9;0.0;
12/02/2025 21:34:07;100;0;133.37;-4;-30.84;-6.73;252.0;19.00;77120;2835.122;-1757.105;1;132;-100;-96.8;48.8;49.3;10;9.5;28.9;0.0;
12/02/2025 21:34:27;100;0;128.43;-4;-30.71;-6.88;256.0;19.00;77109;2835.120;-1757.103;1;132;-100;-96.8;48.8;49.3;10;9.5;28.9;0.0;
12/02/2025 21:34:47;100;0;124.39;-4;-30.42;-6.88;260.0;18.90;77102;2835.118;-1757.100;1;132;-100;-96.8;48.8;49.3;8;8.1;28.9;0.0;
12/02/2025 21:35:07;100;0;117.24;-4;-30.65;-7.69;264.1;18.80;77084;2835.117;-1757.097;1;133;-100;-96.8;48.8;49.3;-1;-0.9;28.9;0.0;
12/02/2025 21:35:27;100;0;114.53;-4;-29.74;-12.20;268.2;18.80;77069;2835.116;-1757.093;1;133;-100;-96.8;48.8;49.3;-5;-5.0;28.9;0.0;
12/02/2025 21:35:47;100;0;115.45;-4;-30.08;-14.14;272.2;18.70;77045;2835.115;-1757.090;1;133;-100;-96.8;48.8;49.2;-3;-3.2;28.9;0.0;
12/02/2025 21:36:07;100;0;120.00;-4;-30.29;-13.02;276.3;18.70;77044;2835.113;-1757.087;1;133;-100;-96.8;48.8;49.3;3;3.2;28.9;0.0;
12/02/2025 21:36:27;100;0;122.75;-4;-30.21;-9.75;280.4;18.60;77032;2835.112;-1757.084;1;133;-100;-96.8;48.8;49.3;6;5.9;28.9;0.0;
12/02/2025 21:36:47;100;0;124.15;-4;-30.71;-8.35;284.5;18.60;77029;2835.110;-1757.081;1;133;-100;-96.8;48.8;49.3;6;6.3;28.9;0.0;
12/02/2025 21:37:07;100;0;128.00;-4;-30.30;-8.52;288.6;18.50;76998;2835.108;-1757.078;1;133;-100;-96.8;48.8;49.3;9;9.0;28.9;0.0;
12/02/2025 21:37:27;100;0;132.22;-4;-30.23;-6.88;292.5;18.40;76983;2835.106;-1757.076;1;133;-100;-95.2;48.8;49.3;9;9.5;28.9;0.0;
12/02/2025 21:37:47;100;0;136.12;-4;-31.07;-6.86;296.6;18.40;76956;2835.104;-1757.074;1;133;-100;-96.8;48.8;49.3;9;9.5;28.9;0.0;
12/02/2025 21:38:07;100;0;139.61;-4;-30.49;-6.71;300.8;18.30;76946;2835.102;-1757.071;1;133;-100;-96.8;48.8;49.3;9;9.5;28.9;0.0;
12/02/2025 21:38:27;100;0;139.73;-4;-30.37;-6.79;304.8;18.30;76927;2835.100;-1757.069;1;133;-100;-96.8;48.8;49.3;9;9.5;28.9;0.0;
12/02/2025 21:38:47;100;0;137.39;-4;-30.28;-6.84;308.7;18.20;76916;2835.097;-1757.067;1;133;-100;-95.2;48.8;49.3;9;9.5;28.9;0.0;
12/02/2025 21:39:07;100;0;137.11;-4;-30.47;-6.82;312.6;18.10;76896;2835.095;-1757.065;1;133;-100;-96.8;48.8;49.3;9;9.9;28.9;0.0;
12/02/2025 21:39:27;100;0;139.01;-4;-30.68;-6.75;316.6;18.00;76883;2835.093;-1757.063;1;133;-100;-95.2;48.8;49.3;9;9.5;28.9;0.0;
12/02/2025 21:39:47;100;0;136.63;-4;-30.56;-6.71;320.4;18.00;76869;2835.091;-1757.061;1;133;-100;-96.8;48.8;49.3;9;9.9;28.9;0.0;
12/02/2025 21:40:07;100;0;134.65;-4;-30.44;-6.74;324.3;17.90;76866;2835.089;-1757.058;1;133;-100;-96.8;48.8;49.3;9;9.5;28.9;0.0;
12/02/2025 21:40:27;100;0;132.43;-4;-30.45;-6.79;328.1;17.90;76858;2835.087;-1757.056;1;133;-100;-96.8;48.8;49.3;9;9.5;28.9;0.0;
12/02/2025 21:40:47;100;0;129.88;-4;-30.52;-6.78;331.8;17.80;76838;2835.086;-1757.054;1;133;-100;-98.4;48.8;49.3;9;9.5;28.9;0.0;
12/02/2025 21:41:07;100;0;131.41;-4;-30.20;-6.79;335.5;17.80;76826;2835.084;-1757.051;1;133;-100;-96.8;48.8;49.3;9;9.5;28.9;0.0;
12/02/2025 21:41:27;100;0;134.23;-4;-29.92;-6.77;339.2;17.70;76816;2835.082;-1757.049;1;133;-100;-95.2;48.8;49.3;9;9.5;28.9;0.0;
12/02/2025 21:41:47;100;0;137.53;-4;-30.03;-6.81;342.6;17.60;76799;2835.080;-1757.047;1;133;-100;-96.8;48.8;49.3;9;9.5;28.9;0.0;
12/02/2025 21:42:07;100;0;137.83;-4;-30.10;-6.74;346.1;17.60;76807;2835.078;-1757.045;1;133;-100;-96.8;48.8;49.3;9;9.5;29.0;0.0;
12/02/2025 21:42:27;100;0;142.02;-4;-30.16;-6.71;349.5;17.50;76787;2835.076;-1757.044;1;133;-100;-96.8;48.8;49.2;12;12.6;28.9;0.0;
12/02/2025 21:42:48;100;0;145.80;-4;-30.38;-5.35;352.9;17.50;76767;2835.074;-1757.042;1;133;-100;-95.2;48.8;49.3;15;15.3;28.9;0.0;
12/02/2025 21:43:08;100;0;145.89;-4;-30.41;-4.01;356.4;17.40;76761;2835.072;-1757.041;1;133;-100;-96.8;48.8;49.3;15;15.3;28.9;0.0;
12/02/2025 21:43:28;100;0;146.45;-4;-30.42;-4.03;360.0;17.40;76749;2835.070;-1757.039;1;133;-100;-96.8;48.8;49.3;15;15.3;28.9;0.0;
12/02/2025 21:43:48;100;0;150.45;-4;-31.40;-3.85;363.7;17.30;76734;2835.067;-1757.038;1;132;-100;-96.8;48.8;49.3;22;22.6;28.9;0.0;
12/02/2025 21:44:08;100;0;145.50;-4;-31.36;-0.18;367.7;17.20;76723;2835.065;-1757.036;1;132;-100;-96.8;48.8;49.3;16;15.8;28.9;0.0;
12/02/2025 21:44:28;100;0;139.99;-4;-30.91;-3.78;371.7;17.20;76725;2835.063;-1757.034;1;132;-100;-95.2;48.8;49.3;11;10.8;28.9;0.0;
12/02/2025 21:44:48;100;0;138.51;-4;-31.09;-5.95;375.8;17.10;76713;2835.061;-1757.032;1;132;-100;-96.8;48.8;49.3;11;10.8;28.9;0.0;
12/02/2025 21:45:08;100;0;133.93;-4;-31.01;-6.34;380.1;17.10;76709;2835.058;-1757.029;1;132;-100;-96.8;48.8;49.3;11;10.8;28.9;0.0;
12/02/2025 21:45:28;100;0;133.68;-4;-30.74;-6.29;384.3;17.00;76695;2835.056;-1757.027;1;132;-100;-95.2;48.8;49.3;11;10.4;28.9;0.0;
12/02/2025 21:45:48;100;0;134.13;-4;-30.48;-6.36;388.6;17.00;76675;2835.054;-1757.024;1;132;-100;-96.8;48.8;49.3;11;10.8;28.9;0.0;
12/02/2025 21:46:08;100;0;134.69;-4;-30.35;-6.37;392.8;16.90;76670;2835.052;-1757.022;1;132;-100;-96.8;48.8;49.3;11;10.4;28.9;0.0;
12/02/2025 21:46:28;100;0;133.68;-4;-30.25;-6.33;396.9;16.90;76671;2835.050;-1757.019;1;132;-100;-96.8;48.8;49.3;11;10.8;28.9;0.0;
12/02/2025 21:46:48;100;0;130.87;-4;-30.14;-6.45;401.0;16.80;76663;2835.048;-1757.016;1;132;-100;-96.8;48.8;49.3;11;10.8;28.9;0.0;
12/02/2025 21:47:08;100;0;128.13;-4;-30.43;-6.43;405.0;16.80;76657;2835.046;-1757.014;1;132;-100;-96.8;48.8;49.3;9;8.6;28.9;0.0;
12/02/2025 21:47:28;100;0;126.90;-4;-30.13;-7.36;409.1;16.70;76644;2835.044;-1757.011;1;132;-100;-100.0;48.8;49.2;9;8.1;28.9;0.0;
12/02/2025 21:47:48;100;0;127.21;-4;-29.87;-7.41;413.0;16.70;76638;2835.043;-1757.008;1;132;-100;-100.0;48.8;49.3;9;8.1;28.9;0.0;
12/02/2025 21:48:08;100;0;127.37;-4;-30.20;-7.47;416.9;16.60;76635;2835.041;-1757.005;1;132;-100;-96.8;48.8;49.3;9;8.1;28.9;0.0;
12/02/2025 21:48:28;100;0;128.70;-4;-29.92;-7.35;420.6;16.60;76628;2835.039;-1757.003;1;132;-100;-96.8;48.8;49.3;9;8.1;28.9;0.0;
12/02/2025 21:48:48;100;0;128.90;-4;-29.69;-7.50;424.3;16.50;76615;2835.038;-1757.000;1;132;-100;-96.8;48.8;49.3;9;8.1;28.9;0.0;
12/02/2025 21:49:08;100;0;129.10;-4;-30.07;-7.38;428.0;16.50;76598;2835.036;-1756.998;1;132;-100;-95.2;48.8;49.3;9;8.1;28.9;0.0;
12/02/2025 21:49:28;100;0;129.63;-4;-29.90;-7.32;431.7;16.50;76580;2835.034;-1756.996;1;132;-100;-95.2;48.8;49.3;9;8.1;28.9;0.0;
12/02/2025 21:49:48;100;0;133.34;-4;-30.02;-7.54;435.4;16.40;76575;2835.032;-1756.993;1;132;-100;-96.8;48.8;49.3;9;8.1;28.9;0.0;
12/02/2025 21:50:08;100;0;136.02;-4;-29.65;-7.48;439.1;16.30;76566;2835.030;-1756.991;1;132;-100;-96.8;48.8;49.3;9;8.1;28.9;0.0;
12/02/2025 21:50:28;100;0;135.58;-4;-29.15;-7.45;442.8;16.30;76562;2835.028;-1756.989;1;132;-100;-95.2;48.8;49.3;9;8.1;28.9;0.0;
12/02/2025 21:50:48;100;0;135.87;-4;-29.00;-7.54;446.4;16.30;76555;2835.026;-1756.987;1;132;-100;-96.8;48.8;49.3;9;8.1;28.9;0.0;
12/02/2025 21:51:08;100;0;138.32;-4;-29.80;-7.50;450.1;16.20;76555;2835.024;-1756.985;1;132;-100;-96.8;48.8;49.3;9;8.1;28.9;0.0;
12/02/2025 21:51:28;100;0;141.68;-4;-30.06;-7.49;453.9;16.20;76534;2835.022;-1756.983;1;132;-100;-96.8;48.8;49.3;12;12.2;28.9;0.0;
12/02/2025 21:51:48;100;0;140.47;-4;-29.99;-5.41;458.0;16.10;76515;2835.020;-1756.981;1;132;-100;-96.8;48.8;49.3;12;12.6;28.9;0.0;
12/02/2025 21:52:08;100;0;138.50;-4;-30.14;-5.32;461.9;16.10;76515;2835.018;-1756.979;1;132;-100;-96.8;48.8;49.3;12;12.6;28.9;0.0;
12/02/2025 21:52:28;100;0;135.26;-4;-30.29;-5.26;466.1;16.00;76505;2835.015;-1756.976;1;132;-100;-96.8;48.8;49.3;10;9.9;28.9;0.0;
12/02/2025 21:52:48;100;0;131.58;-4;-30.38;-6.85;470.4;16.00;76496;2835.013;-1756.973;1;132;-100;-96.8;48.8;49.3;10;9.5;28.9;0.0;
12/02/2025 21:53:08;100;0;128.42;-4;-30.17;-6.77;474.6;15.90;76486;2835.011;-1756.970;1;132;-100;-96.8;48.8;49.3;10;9.5;28.9;0.0;
12/02/2025 21:53:28;100;0;127.33;-4;-30.15;-6.80;479.0;15.90;76485;2835.009;-1756.967;1;132;-100;-96.8;48.8;49.3;10;9.9;28.9;0.0;
12/02/2025 21:53:48;100;0;129.16;-4;-30.10;-6.79;483.5;15.80;76476;2835.007;-1756.964;1;132;-100;-96.8;48.8;49.3;10;9.9;28.9;0.0;
12/02/2025 21:54:08;100;0;129.64;-4;-30.24;-6.69;488.0;15.80;76472;2835.005;-1756.961;1;132;-100;-95.2;48.8;49.3;10;9.9;28.9;0.0;
12/02/2025 21:54:28;100;0;129.20;-4;-29.91;-6.73;492.4;15.80;76466;2835.003;-1756.958;1;132;-100;-96.8;48.8;49.3;10;9.5;28.9;0.0;
12/02/2025 21:54:48;100;0;124.42;-4;-29.64;-6.85;496.8;15.70;76449;2835.001;-1756.955;1;132;-100;-96.8;48.8;49.3;8;8.1;28.9;0.0;
12/02/2025 21:54:58;118;0;123.85;-4;-29.37;-7.59;498.9;15.70;76444;2835.000;-1756.953;1;132;220;-90.3;20.4;20.3;0;0.0;28.9;0.0;
12/02/2025 21:55:08;118;0;114.95;-4;-15.21;-12.55;500.5;15.70;76419;2834.999;-1756.951;1;133;220;38.7;20.4;20.2;0;0.0;28.1;-1.0;
12/02/2025 21:55:18;118;0;105.46;-4;14.52;-12.68;501.0;15.60;76145;2834.999;-1756.951;1;133;220;164.5;20.4;20.5;0;0.0;28.2;-1.0;
12/02/2025 21:55:28;118;0;101.38;-4;28.10;-13.52;500.2;15.60;75879;2835.000;-1756.950;1;133;220;222.6;20.4;20.6;0;0.0;28.2;-1.0;
12/02/2025 21:55:38;118;0;133.22;-4;30.00;-13.30;499.1;15.60;75766;2834.999;-1756.949;1;133;220;222.6;20.4;20.6;0;0.0;28.9;-1.0;
12/02/2025 21:55:58;117;0;127.83;-4;30.25;-13.13;496.2;15.60;75768;2834.998;-1756.948;1;133;220;222.6;20.4;20.6;0;0.0;28.9;-1.0;
12/02/2025 21:56:18;117;0;122.57;-4;30.43;-13.14;492.8;15.60;75756;2834.997;-1756.945;1;133;220;222.6;20.4;20.6;12;12.2;28.9;-1.0;
12/02/2025 21:56:38;117;0;118.22;-4;31.19;-6.16;489.5;15.50;75750;2834.996;-1756.943;1;133;220;222.6;20.4;20.6;17;17.1;28.9;-1.0;
12/02/2025 21:56:58;117;0;112.74;-4;31.44;-3.60;486.2;15.50;75760;2834.995;-1756.940;1;133;220;222.6;20.4;20.5;26;26.2;28.9;-1.0;
12/02/2025 21:57:18;117;0;109.61;-4;31.89;1.16;482.8;15.40;75760;2834.994;-1756.938;1;134;220;222.6;20.4;20.6;33;32.9;28.9;-1.0;
12/02/2025 21:57:38;117;0;108.54;-4;32.69;4.81;479.4;15.40;75755;2834.994;-1756.935;1;134;220;222.6;21.2;21.2;35;35.2;28.9;-1.0;
12/02/2025 21:57:58;117;0;107.30;-4;32.01;6.18;475.8;15.40;75754;2834.994;-1756.933;1;134;220;222.6;21.8;21.9;37;37.5;28.9;-1.0;
12/02/2025 21:58:18;117;0;107.91;-4;30.78;7.26;472.5;15.30;75749;2834.993;-1756.930;1;134;220;222.6;21.8;22.1;37;37.9;28.9;-1.0;
12/02/2025 21:58:38;117;0;108.25;-4;30.53;7.21;469.1;15.30;75745;2834.993;-1756.927;1;135;220;222.6;21.8;22.1;37;37.5;28.9;-1.0;
12/02/2025 21:58:58;117;0;109.40;-4;30.57;7.29;465.9;15.30;75738;2834.992;-1756.925;1;135;220;222.6;21.8;22.1;35;34.3;28.9;-1.0;
12/02/2025 21:59:18;117;0;110.43;-4;30.49;5.52;462.6;15.20;75737;2834.991;-1756.922;1;135;220;222.6;21.8;22.1;35;34.7;28.9;-1.0;
12/02/2025 21:59:38;117;0;111.99;-4;30.28;5.40;459.3;15.20;75723;2834.991;-1756.919;1;135;220;222.6;21.8;22.1;31;31.1;28.9;-1.0;
12/02/2025 21:59:58;117;0;113.37;-4;30.27;3.34;456.0;15.20;75730;2834.990;-1756.917;1;136;220;224.2;21.8;22.1;31;30.7;28.9;-1.0;
12/02/2025 22:00:18;117;0;113.23;-4;30.20;3.20;452.7;15.10;75712;2834.989;-1756.914;1;136;220;222.6;21.8;22.1;31;30.7;28.9;-1.0;
12/02/2025 22:00:38;117;0;112.05;-4;30.06;3.35;449.5;15.10;75713;2834.989;-1756.912;1;136;220;221.0;21.8;22.1;33;33.4;28.9;-1.0;
12/02/2025 22:00:58;117;0;110.91;-4;30.20;5.00;446.2;15.10;75713;2834.988;-1756.909;1;137;220;224.2;21.8;21.9;36;36.1;28.9;-1.0;
12/02/2025 22:01:18;117;0;109.41;-4;30.32;6.61;443.1;15.00;75708;2834.987;-1756.907;1;137;220;222.6;21.8;22.1;39;38.8;28.9;-1.0;
12/02/2025 22:01:38;117;0;107.96;-4;30.96;7.94;439.9;15.00;75710;2834.987;-1756.904;1;137;220;222.6;21.8;22.1;41;41.1;28.9;-1.0;
12/02/2025 22:01:58;117;0;108.27;-4;30.57;9.27;436.6;15.00;75697;2834.986;-1756.901;1;137;220;222.6;21.8;22.1;41;41.5;28.9;-1.0;
12/02/2025 22:02:18;117;0;107.97;-4;31.16;9.28;433.4;15.00;75695;2834.986;-1756.899;1;138;220;221.0;21.8;22.1;41;41.5;28.9;-1.0;
12/02/2025 22:02:38;117;0;106.94;-4;30.82;9.37;430.1;15.00;75699;2834.986;-1756.896;1;138;220;222.6;21.8;22.1;43;42.9;28.9;-1.0;
12/02/2025 22:02:58;117;0;105.26;-4;31.23;10.19;426.8;14.90;75712;2834.985;-1756.894;1;138;220;224.2;21.8;22.1;45;45.1;28.9;-1.0;
12/02/2025 22:03:18;117;0;104.91;-4;30.98;11.36;423.5;14.90;75696;2834.985;-1756.891;1;139;220;224.2;21.8;22.1;47;46.9;28.9;-1.0;
12/02/2025 22:03:38;117;0;103.43;-4;31.67;12.52;420.2;14.90;75702;2834.985;-1756.888;1;139;220;222.6;21.8;22.1;50;50.1;28.9;-1.0;
12/02/2025 22:03:58;117;0;102.30;-4;31.59;14.12;416.6;14.90;75717;2834.984;-1756.886;1;140;220;224.2;21.8;22.1;52;51.9;28.9;-1.0;
12/02/2025 22:04:18;117;0;105.40;-4;31.14;15.16;413.1;14.80;75707;2834.984;-1756.883;1;140;220;222.6;21.8;22.1;48;47.8;28.9;-1.0;
12/02/2025 22:04:38;117;0;107.14;-4;30.89;12.16;409.8;14.80;75707;2834.984;-1756.880;1;140;220;222.6;21.8;22.1;46;46.0;28.9;-1.0;
12/02/2025 22:04:58;117;0;110.40;-4;30.85;11.29;406.4;14.80;75701;2834.983;-1756.878;1;141;220;222.6;21.8;22.1;42;42.0;28.9;-1.0;
12/02/2025 22:05:18;117;0;113.20;-4;30.70;9.07;403.1;14.80;75710;2834.982;-1756.875;1;141;220;222.6;21.8;22.1;38;37.9;28.9;-1.0;
12/02/2025 22:05:38;117;0;114.27;-4;30.42;6.83;399.8;14.80;75713;2834.982;-1756.873;1;141;220;224.2;21.8;22.1;36;36.1;28.9;-1.0;
12/02/2025 22:05:58;117;0;115.21;-4;30.15;5.77;396.6;14.80;75718;2834.981;-1756.870;1;142;220;224.2;21.8;22.1;36;35.2;28.9;-1.0;
12/02/2025 22:06:18;117;0;115.50;-4;29.68;5.74;393.4;14.80;75717;2834.980;-1756.868;1;142;220;224.2;21.8;22.1;36;35.2;28.9;-1.0;
12/02/2025 22:06:38;117;0;113.87;-4;30.13;5.82;390.3;14.80;75720;2834.979;-1756.865;1;142;220;222.6;21.8;22.1;38;38.4;28.9;-1.0;
12/02/2025 22:06:58;117;0;112.30;-4;30.36;7.77;387.2;14.80;75718;2834.979;-1756.863;1;143;220;224.2;21.8;22.2;41;41.1;28.9;-1.0;
12/02/2025 22:07:18;117;0;115.60;-4;30.37;9.19;384.1;14.80;75712;2834.978;-1756.860;1;143;220;221.0;21.8;22.1;35;35.2;28.9;-1.0;
12/02/2025 22:07:38;117;0;116.37;-4;30.07;5.38;381.0;14.70;75713;2834.977;-1756.858;1;143;220;222.6;21.8;22.1;35;34.7;28.9;-1.0;
12/02/2025 22:07:58;117;0;118.01;-4;30.27;5.32;377.9;14.70;75725;2834.976;-1756.856;1;144;220;222.6;21.8;22.1;33;32.9;28.9;-1.0;
12/02/2025 22:08:18;117;0;118.59;-4;29.97;4.08;374.8;14.70;75731;2834.975;-1756.853;1;144;220;222.6;21.8;22.1;33;32.5;28.9;-1.0;
12/02/2025 22:08:38;117;0;116.86;-4;29.87;4.04;371.8;14.70;75723;2834.974;-1756.851;1;144;220;222.6;21.8;22.1;35;35.2;28.9;-1.0;
12/02/2025 22:08:58;117;0;117.35;-4;30.06;5.67;368.6;14.70;75717;2834.973;-1756.849;1;145;220;222.6;21.8;22.1;35;35.6;28.9;-1.0;
12/02/2025 22:09:18;117;0;116.53;-4;30.15;5.83;365.6;14.70;75725;2834.973;-1756.847;1;145;220;222.6;21.8;22.1;37;37.0;28.9;-1.0;
12/02/2025 22:09:38;117;0;117.41;-4;31.20;7.10;362.6;14.70;75732;2834.972;-1756.844;1;145;220;222.6;21.8;22.2;37;37.5;28.9;-1.0;
12/02/2025 22:09:58;117;0;116.57;-4;30.36;6.70;359.4;14.70;75724;2834.971;-1756.842;1;146;220;222.6;21.8;22.1;39;39.3;28.9;-1.0;
12/02/2025 22:10:18;117;0;115.59;-4;30.96;7.89;356.3;14.70;75722;2834.970;-1756.840;1;146;220;222.6;21.8;22.1;41;41.1;28.9;-1.0;
12/02/2025 22:10:38;117;0;117.46;-4;30.21;9.02;353.0;14.70;75718;2834.969;-1756.837;1;147;220;222.6;21.8;22.1;39;38.8;28.9;-1.0;
12/02/2025 22:10:58;117;0;117.07;-4;30.06;7.27;349.8;14.70;75716;2834.968;-1756.835;1;147;220;224.2;21.8;22.2;39;37.9;28.9;-1.0;
12/02/2025 22:11:18;117;0;114.79;-4;30.36;7.38;346.6;14.60;75709;2834.968;-1756.832;1;147;220;224.2;21.8;22.1;43;42.9;28.9;-1.0;
12/02/2025 22:11:38;117;0;113.41;-4;30.63;9.96;343.4;14.70;75711;2834.967;-1756.830;1;148;220;222.6;21.8;22.1;46;46.5;28.9;-1.0;
12/02/2025 22:11:58;117;0;114.33;-4;30.69;12.02;340.3;14.60;75709;2834.966;-1756.828;1;148;220;222.6;21.8;22.1;44;44.2;28.9;-1.0;
12/02/2025 22:12:18;117;0;114.80;-4;30.70;10.19;337.1;14.60;75715;2834.965;-1756.825;1;149;220;224.2;21.8;22.1;44;43.8;28.9;-1.0;
12/02/2025 22:12:38;117;0;114.72;-4;30.53;10.21;333.9;14.60;75713;2834.965;-1756.823;1;149;220;222.6;21.8;22.1;44;43.8;28.9;-1.0;
12/02/2025 22:12:58;117;0;115.10;-4;30.58;10.11;330.7;14.60;75721;2834.964;-1756.820;1;150;220;222.6;21.8;22.1;46;46.0;28.9;-1.0;
12/02/2025 22:13:18;117;0;115.97;-4;30.75;11.86;327.6;14.60;75721;2834.963;-1756.818;1;150;220;222.6;21.8;22.2;46;46.5;28.9;-1.0;
12/02/2025 22:13:38;117;0;117.96;-4;30.72;11.85;324.4;14.60;75721;2834.962;-1756.816;1;150;220;222.6;21.8;22.1;42;41.5;28.9;-1.0;
12/02/2025 22:13:58;117;0;117.38;-4;30.21;8.93;321.1;14.60;75715;2834.961;-1756.813;1;151;220;224.2;21.8;22.1;44;44.2;28.9;-1.0;
12/02/2025 22:14:18;117;0;117.13;-4;30.39;11.01;318.3;14.60;75724;2834.961;-1756.811;1;151;220;222.6;21.8;22.1;44;45.1;28.9;-1.0;
12/02/2025 22:14:38;117;0;119.49;-4;30.89;11.04;315.3;14.60;75722;2834.960;-1756.809;1;152;220;222.6;21.8;22.2;41;41.1;28.9;-1.0;
12/02/2025 22:14:58;117;0;122.94;-4;30.55;8.52;312.3;14.60;75719;2834.959;-1756.807;1;152;220;224.2;21.8;22.1;35;35.2;28.9;-1.0;
12/02/2025 22:15:18;117;0;124.55;-4;30.14;6.19;309.1;14.60;75740;2834.958;-1756.805;1;152;220;222.6;21.8;22.1;35;36.1;28.9;-1.0;
12/02/2025 22:15:38;117;0;125.40;-4;30.05;6.19;306.2;14.60;75725;2834.956;-1756.803;1;153;220;222.6;21.8;22.1;33;32.9;28.9;-1.0;
12/02/2025 22:15:58;117;0;125.82;-4;29.90;4.35;303.2;14.60;75732;2834.955;-1756.801;1;153;220;222.6;21.8;22.1;33;32.5;28.9;-1.0;
12/02/2025 22:16:18;117;0;126.86;-4;29.87;4.27;300.2;14.60;75737;2834.954;-1756.799;1;154;220;224.2;21.8;22.1;33;32.5;28.9;-1.0;
12/02/2025 22:16:38;117;0;126.51;-4;29.72;4.29;297.2;14.60;75738;2834.953;-1756.797;1;154;220;222.6;21.8;22.1;33;32.5;28.9;-1.0;
12/02/2025 22:16:59;117;0;125.03;-4;29.35;4.17;294.3;14.60;75732;2834.952;-1756.795;1;154;220;224.2;21.8;22.1;35;35.2;28.9;-1.0;
12/02/2025 22:17:19;117;0;125.58;-4;29.97;6.01;291.4;14.60;75739;2834.951;-1756.793;1;155;220;222.6;21.8;22.1;35;35.6;28.9;-1.0;
12/02/2025 22:17:39;117;0;126.18;-4;29.95;5.96;288.5;14.60;75748;2834.950;-1756.791;1;155;220;222.6;21.8;22.1;35;35.6;28.9;-1.0;
12/02/2025 22:17:59;117;0;124.92;-4;30.19;6.05;285.5;14.60;75737;2834.948;-1756.789;1;155;220;222.6;21.8;22.1;37;37.5;28.9;-1.0;
12/02/2025 22:18:19;117;0;123.79;-4;30.09;7.10;282.5;14.70;75748;2834.947;-1756.787;1;156;220;222.6;21.8;22.1;41;41.1;28.9;-1.0;
12/02/2025 22:18:39;117;0;123.26;-4;30.45;9.00;279.4;14.70;75749;2834.946;-1756.785;1;156;220;222.6;21.8;22.2;41;41.5;28.9;-1.0;
12/02/2025 22:18:59;117;0;120.97;-4;30.11;9.11;276.4;14.70;75745;2834.945;-1756.783;1;157;220;222.6;21.8;22.1;47;46.9;28.9;-1.0;
12/02/2025 22:19:19;117;0;122.60;-4;30.00;12.44;273.4;14.60;75758;2834.944;-1756.781;1;157;220;222.6;21.8;22.1;43;42.9;28.9;-1.0;
12/02/2025 22:19:39;117;0;121.38;-4;30.47;9.66;270.4;14.70;75766;2834.943;-1756.779;1;158;220;222.6;21.8;22.1;46;46.0;28.9;-1.0;
12/02/2025 22:19:59;117;0;120.90;-4;30.86;11.94;267.3;14.70;75774;2834.942;-1756.777;1;159;220;224.2;21.8;22.1;48;47.8;28.9;-1.0;
12/02/2025 22:20:19;117;0;118.40;-4;31.11;13.16;264.1;14.70;75782;2834.941;-1756.774;1;159;220;224.2;21.8;22.1;52;51.9;28.9;-1.0;
12/02/2025 22:20:39;117;0;120.62;-4;30.67;15.29;261.0;14.70;75787;2834.940;-1756.772;1;160;220;222.6;21.8;22.1;50;50.1;28.9;-1.0;
12/02/2025 22:20:59;117;0;122.26;-4;30.79;13.37;258.0;14.70;75799;2834.940;-1756.770;1;160;220;224.2;21.8;22.1;48;47.8;28.9;-1.0;
12/02/2025 22:21:19;117;0;122.10;-4;30.54;12.41;254.8;14.70;75801;2834.938;-1756.768;1;161;220;224.2;21.8;22.1;48;47.8;28.9;-1.0;
12/02/2025 22:21:39;117;0;126.44;-4;30.63;12.53;251.8;14.70;75814;2834.937;-1756.766;1;162;220;224.2;21.8;22.2;43;42.9;28.9;-1.0;
12/02/2025 22:21:59;117;0;132.17;-4;30.09;9.41;248.7;14.70;75819;2834.936;-1756.764;1;162;220;224.2;21.8;22.1;35;35.2;28.9;-1.0;
12/02/2025 22:22:19;117;0;136.73;-4;29.67;5.37;245.9;14.80;75834;2834.935;-1756.763;1;162;220;224.2;21.8;22.1;26;26.2;28.9;-1.0;
12/02/2025 22:22:39;117;0;137.64;-4;29.15;0.49;243.0;14.80;75832;2834.933;-1756.761;1;163;220;224.2;21.8;22.1;26;25.7;28.9;-1.0;
12/02/2025 22:22:59;117;0;138.34;-4;28.79;0.55;240.2;14.80;75841;2834.931;-1756.760;1;163;220;222.6;21.5;21.5;26;25.3;28.9;-1.0;
12/02/2025 22:23:19;117;0;139.08;-4;30.08;0.48;237.4;14.80;75844;2834.930;-1756.758;1;163;220;222.6;21.5;21.2;23;23.0;28.9;-1.0;
12/02/2025 22:23:39;117;0;138.69;-4;30.27;-1.22;234.5;14.80;75861;2834.928;-1756.757;1;164;220;224.2;21.5;21.2;26;26.2;28.9;-1.0;
12/02/2025 22:23:59;117;0;141.86;-4;30.47;0.90;231.5;14.80;75865;2834.927;-1756.755;1;164;220;224.2;21.5;21.2;21;21.2;28.9;-1.0;
12/02/2025 22:24:19;117;0;142.87;-4;30.13;-2.07;228.5;14.90;75872;2834.925;-1756.754;1;164;220;224.2;21.5;21.2;19;19.0;28.9;-1.0;
12/02/2025 22:24:39;117;0;138.62;-4;29.55;-2.98;225.5;14.90;75880;2834.923;-1756.753;1;165;220;224.2;21.5;21.2;28;28.4;28.9;-1.0;
12/02/2025 22:24:59;117;0;135.50;-4;30.46;2.22;222.7;14.90;75879;2834.922;-1756.751;1;165;220;224.2;21.5;21.2;33;32.9;28.9;-1.0;
12/02/2025 22:25:19;117;0;133.80;-4;30.89;4.85;219.7;14.90;75889;2834.921;-1756.749;1;166;220;224.2;21.5;21.2;36;36.1;28.9;-1.0;
12/02/2025 22:25:39;117;0;133.00;-4;31.33;6.54;216.7;14.90;75890;2834.919;-1756.748;1;166;220;224.2;21.5;21.2;39;38.8;28.9;-1.0;
12/02/2025 22:25:59;117;0;134.10;-4;31.16;7.92;213.6;14.90;75903;2834.918;-1756.746;1;167;220;222.6;21.5;21.2;39;39.3;28.9;-1.0;
12/02/2025 22:26:19;117;0;132.72;-4;31.67;7.97;210.5;14.90;75898;2834.917;-1756.744;1;168;220;224.2;21.5;21.2;41;41.5;28.9;-1.0;
12/02/2025 22:26:39;117;0;131.88;-4;31.77;9.40;207.3;15.00;75907;2834.915;-1756.742;1;168;220;222.6;21.5;21.2;43;42.9;28.9;-1.0;
12/02/2025 22:26:59;117;0;128.72;-4;31.77;10.14;204.1;15.00;75907;2834.914;-1756.741;1;169;220;224.2;21.5;21.4;49;49.2;28.9;-1.0;
12/02/2025 22:27:19;117;0;126.48;-4;32.20;13.60;200.8;15.00;75915;2834.913;-1756.739;1;170;220;224.2;22.1;22.2;53;52.8;28.9;-1.0;
12/02/2025 22:27:39;117;0;125.98;-4;30.48;15.62;197.5;15.00;75937;2834.911;-1756.736;1;171;220;224.2;22.1;22.4;57;56.9;28.9;-1.0;
12/02/2025 22:27:59;117;0;131.71;-4;30.63;17.93;194.4;15.00;75941;2834.910;-1756.735;1;172;220;224.2;22.1;22.4;49;48.7;28.9;-1.0;
12/02/2025 22:28:19;117;0;132.34;-4;30.58;12.83;191.3;15.10;75954;2834.909;-1756.733;1;172;220;224.2;22.1;22.4;49;48.3;28.9;-1.0;
12/02/2025 22:28:39;117;0;131.47;-4;30.09;12.85;188.1;15.10;75982;2834.907;-1756.731;1;173;220;224.2;22.1;22.2;51;51.4;28.9;-1.0;
12/02/2025 22:28:59;117;0;130.56;-4;30.16;14.62;185.0;15.10;75982;2834.906;-1756.729;1;174;220;224.2;22.1;22.2;53;52.8;28.9;-1.0;
12/02/2025 22:29:19;117;0;133.45;-4;30.38;15.64;182.0;15.10;75997;2834.904;-1756.727;1;175;220;222.6;22.1;22.4;49;48.7;28.9;-1.0;
12/02/2025 22:29:39;117;0;133.97;-4;29.80;12.81;178.9;15.20;76020;2834.903;-1756.725;1;176;220;224.2;22.1;22.4;49;48.3;28.9;-1.0;
12/02/2025 22:29:59;117;0;137.60;-4;29.86;12.80;175.8;15.20;76033;2834.901;-1756.724;1;177;220;224.2;22.1;22.4;46;46.0;28.9;-1.0;
12/02/2025 22:30:19;117;0;140.47;-4;29.74;11.27;172.8;15.20;76040;2834.900;-1756.722;1;178;220;222.6;22.1;22.2;43;42.9;28.9;-1.0;
12/02/2025 22:30:39;117;0;144.29;-4;29.61;9.55;169.6;15.30;76050;2834.898;-1756.721;1;178;220;224.2;22.1;22.4;37;37.0;28.9;-1.0;
12/02/2025 22:30:59;117;0;145.16;-4;28.77;6.52;166.5;15.30;76063;2834.896;-1756.719;1;179;220;224.2;21.8;21.6;37;36.6;28.9;-1.0;
12/02/2025 22:31:19;117;0;142.12;-4;30.10;6.59;163.5;15.30;76073;2834.894;-1756.718;1;180;220;224.2;21.8;21.5;44;44.2;28.9;-1.0;
12/02/2025 22:31:39;117;0;142.22;-4;30.77;10.86;160.4;15.40;76095;2834.892;-1756.717;1;181;220;225.8;21.8;21.6;44;45.1;28.9;-1.0;
12/02/2025 22:31:59;117;0;143.55;-4;31.40;10.94;157.2;15.40;76119;2834.891;-1756.715;1;182;220;224.2;21.8;21.5;44;44.7;28.9;-1.0;
12/02/2025 22:32:19;117;0;149.07;-4;30.96;11.03;153.8;15.40;76135;2834.888;-1756.714;1;183;220;224.2;21.8;21.5;37;37.0;28.9;-1.0;
12/02/2025 22:32:39;117;0;150.81;-4;30.16;6.28;150.6;15.50;76147;2834.886;-1756.713;1;183;220;224.2;21.8;21.5;33;32.9;28.9;-1.0;
12/02/2025 22:32:59;117;0;147.35;-4;30.08;4.17;147.5;15.50;76173;2834.884;-1756.712;1;184;220;225.8;21.8;21.5;42;42.0;28.9;-1.0;
12/02/2025 22:33:19;117;0;147.79;-4;30.61;9.60;144.4;15.50;76194;2834.883;-1756.710;1;185;220;225.8;21.8;21.5;42;42.0;28.9;-1.0;
12/02/2025 22:33:39;117;0;153.50;-4;30.35;9.46;141.2;15.60;76220;2834.881;-1756.709;1;186;220;224.2;21.8;21.5;33;32.9;28.9;-1.0;
12/02/2025 22:33:59;117;0;146.17;-4;29.77;4.49;138.3;15.60;76255;2834.879;-1756.708;1;187;220;224.2;21.8;21.4;45;45.1;28.9;-1.0;
12/02/2025 22:34:19;117;0;143.08;-4;30.45;11.21;135.4;15.70;76278;2834.877;-1756.707;1;188;220;224.2;21.8;21.5;51;51.0;28.9;-1.0;
12/02/2025 22:34:39;117;0;145.90;-4;30.92;14.52;132.5;15.70;76295;2834.875;-1756.706;1;189;220;225.8;21.8;21.5;47;46.9;28.9;-1.0;
12/02/2025 22:34:59;117;0;147.68;-4;30.77;11.89;129.5;15.80;76308;2834.874;-1756.705;1;191;220;225.8;21.8;21.5;47;46.5;28.9;-1.0;
12/02/2025 22:35:19;117;0;153.27;-4;30.61;11.80;126.6;15.80;76333;2834.872;-1756.704;1;191;220;222.6;21.8;21.5;39;38.8;28.9;-1.0;
12/02/2025 22:35:39;117;0;155.45;-4;30.22;7.27;123.7;15.90;76363;2834.870;-1756.703;1;192;220;224.2;21.8;21.5;39;38.4;28.9;-1.0;
12/02/2025 22:35:59;117;0;153.68;-4;30.15;7.31;120.9;16.00;76385;2834.868;-1756.702;1;194;220;224.2;21.8;21.5;43;42.9;28.9;-1.0;
12/02/2025 22:36:19;117;0;153.24;-4;30.19;10.07;118.0;16.00;76394;2834.866;-1756.702;1;195;220;224.2;21.8;21.5;45;45.1;28.9;-1.0;
12/02/2025 22:36:39;117;0;156.67;-4;30.46;11.57;115.2;16.10;76400;2834.864;-1756.701;1;196;220;224.2;21.8;21.5;42;42.0;28.9;-1.0;
12/02/2025 22:36:59;117;0;159.77;-4;30.24;8.89;112.3;16.10;76412;2834.862;-1756.700;1;197;220;225.8;21.8;21.5;38;37.5;28.9;-1.0;
12/02/2025 22:37:19;117;0;159.06;-4;29.60;6.83;109.6;16.10;76429;2834.861;-1756.700;1;198;220;225.8;21.8;21.5;38;37.0;28.9;-1.0;
12/02/2025 22:37:39;117;0;158.08;-4;30.00;6.56;106.9;16.20;76446;2834.859;-1756.699;1;199;220;224.2;21.8;21.4;43;42.9;28.9;-1.0;
12/02/2025 22:37:59;117;0;160.21;-4;30.34;10.25;104.1;16.30;76463;2834.857;-1756.699;1;200;220;224.2;21.8;21.4;41;40.6;28.9;-1.0;
12/02/2025 22:38:19;117;0;161.23;-4;30.45;8.24;101.2;16.30;76471;2834.855;-1756.698;1;202;220;225.8;21.8;21.4;41;40.2;28.9;-1.0;
12/02/2025 22:38:39;117;0;162.62;-4;30.35;8.28;98.2;16.40;76489;2834.853;-1756.698;1;203;220;224.2;21.8;21.5;41;40.2;28.9;-1.0;
12/02/2025 22:38:59;117;0;161.79;-4;30.53;8.31;95.3;16.40;76510;2834.851;-1756.697;1;205;220;225.8;21.8;21.5;46;46.0;28.9;-1.0;
12/02/2025 22:39:19;117;0;159.72;-4;31.03;12.01;92.2;16.50;76518;2834.849;-1756.697;1;206;220;225.8;21.8;21.5;51;51.0;28.9;-1.0;
12/02/2025 22:39:39;117;0;158.94;-4;31.20;14.67;89.2;16.50;76526;2834.847;-1756.696;1;208;220;222.6;21.8;21.5;54;54.2;28.9;-1.0;
12/02/2025 22:39:59;117;0;162.96;-4;31.23;16.50;86.1;16.60;76547;2834.844;-1756.696;1;210;220;224.2;21.8;21.5;52;51.9;28.9;-1.0;
12/02/2025 22:40:19;117;0;165.77;-4;31.08;14.33;82.9;16.60;76562;2834.842;-1756.695;1;213;220;224.2;21.8;21.5;52;51.0;28.9;-1.0;
12/02/2025 22:40:39;117;0;168.50;-4;31.11;14.36;79.8;16.70;76575;2834.840;-1756.695;1;215;220;225.8;21.8;21.5;52;51.0;28.9;-1.0;
12/02/2025 22:40:59;117;0;171.47;-4;31.13;14.42;76.7;16.80;76587;2834.838;-1756.695;1;217;220;225.8;21.8;21.4;50;49.6;28.9;-1.0;
12/02/2025 22:41:19;117;0;174.26;-4;31.14;13.33;73.5;16.80;76598;2834.835;-1756.695;1;219;220;225.8;21.8;21.4;48;47.8;28.9;-1.0;
12/02/2025 22:41:39;117;0;176.30;-4;30.69;12.29;70.4;16.90;76604;2834.833;-1756.696;1;222;220;227.4;21.8;21.4;50;50.1;28.9;-1.0;
12/02/2025 22:41:59;117;0;180.21;-4;30.97;14.22;67.3;16.90;76615;2834.831;-1756.696;1;224;220;225.8;21.8;21.5;46;46.0;28.9;-1.0;
12/02/2025 22:42:19;117;0;182.46;-4;30.54;11.51;64.2;17.00;76627;2834.829;-1756.697;1;227;220;225.8;21.8;21.5;48;47.8;28.9;-1.0;
12/02/2025 22:42:39;117;0;185.25;-4;30.79;12.84;61.2;17.00;76638;2834.827;-1756.697;1;229;220;224.2;21.8;21.5;46;46.0;28.9;-1.0;
12/02/2025 22:42:59;117;0;187.35;-4;30.47;11.52;58.2;17.10;76641;2834.824;-1756.698;1;232;220;225.8;21.8;21.5;48;47.8;28.9;-1.0;
12/02/2025 22:43:19;117;0;191.31;-4;30.68;12.84;55.3;17.10;76652;2834.822;-1756.699;1;236;220;225.8;21.8;21.5;48;47.8;28.9;-1.0;
12/02/2025 22:43:39;117;0;194.32;-4;30.88;12.88;52.3;17.20;76662;2834.820;-1756.700;1;239;220;224.2;21.8;21.5;48;48.3;28.9;-1.0;
12/02/2025 22:43:59;117;0;195.17;-4;30.80;12.89;49.3;17.20;76662;2834.818;-1756.702;1;243;220;225.8;21.8;21.5;51;51.0;28.9;-1.0;
12/02/2025 22:44:19;117;0;197.06;-4;31.22;14.61;46.2;17.30;76673;2834.816;-1756.703;1;249;220;225.8;21.8;21.5;61;60.9;28.9;-1.0;
12/02/2025 22:44:39;117;0;200.42;-4;31.69;20.29;43.0;17.30;76677;2834.814;-1756.704;1;256;220;224.2;21.8;21.5;64;64.1;28.9;-1.0;
12/02/2025 22:44:59;117;0;203.91;-4;32.22;22.12;39.8;17.40;76693;2834.812;-1756.706;1;265;220;225.8;22.4;22.5;70;69.9;28.9;-1.0;
12/02/2025 22:45:19;117;0;209.98;-4;30.95;25.64;36.6;17.40;76698;2834.810;-1756.708;1;277;220;222.6;22.4;22.5;70;70.4;28.9;-1.0;
12/02/2025 22:45:39;117;0;214.60;-4;30.72;25.70;33.3;17.50;76698;2834.808;-1756.710;1;294;220;225.8;22.4;22.5;70;70.4;28.9;-1.0;
12/02/2025 22:45:59;117;0;219.32;-4;30.65;25.63;30.3;17.50;76714;2834.806;-1756.713;1;315;220;225.8;22.4;22.5;70;69.9;28.9;-1.0;
12/02/2025 22:46:19;117;0;224.01;-4;30.83;25.64;27.1;17.60;76713;2834.805;-1756.715;1;339;220;225.8;22.4;22.5;70;70.4;28.9;-1.0;
12/02/2025 22:46:39;117;0;227.96;-4;30.63;25.83;23.9;17.60;76722;2834.803;-1756.718;1;1;220;225.8;22.4;22.5;70;70.4;28.9;-1.0;
12/02/2025 22:46:59;117;0;235.11;-4;30.87;25.99;20.7;17.70;76728;2834.802;-1756.721;1;17;220;225.8;22.4;22.5;70;70.4;28.9;-1.0;
12/02/2025 22:47:19;117;0;241.15;-4;31.01;25.74;17.5;17.70;76738;2834.801;-1756.724;1;30;220;225.8;22.4;22.5;70;70.4;28.9;-1.0;
12/02/2025 22:47:39;117;0;246.01;-4;30.81;25.60;14.2;17.70;76747;2834.801;-1756.728;1;39;220;224.2;22.4;22.8;70;70.4;28.9;-1.0;
12/02/2025 22:47:59;117;0;250.55;-4;30.62;25.91;11.0;17.80;76762;2834.800;-1756.731;1;46;220;225.8;22.4;22.5;70;70.4;28.9;-1.0;
12/02/2025 22:48:19;117;0;253.30;-4;30.09;26.22;7.8;17.80;76763;2834.800;-1756.735;1;52;220;224.2;22.4;22.5;70;70.4;28.9;-1.0;
12/02/2025 22:48:39;117;0;247.57;-4;29.70;25.24;4.8;17.90;76775;2834.799;-1756.738;1;56;220;222.6;22.4;22.5;-70;-69.9;28.9;-1.0;
12/02/2025 22:48:50;115;0;236.86;-4;25.64;-49.88;3.1;17.90;76763;2834.798;-1756.740;1;56;500;232.3;100.0;68.6;0;0.5;28.9;-1.0;
12/02/2025 22:49:00;115;0;225.64;-4;4.80;-11.32;2.3;17.90;76762;2834.798;-1756.741;1;56;500;351.6;100.0;100.0;0;0.5;28.7;-1.0;
12/02/2025 22:49:10;115;0;198.24;-4;-67.56;-11.47;2.9;18.00;76503;2834.798;-1756.741;1;57;500;466.1;100.0;100.7;0;0.5;28.7;-1.0;
12/02/2025 22:49:20;115;0;197.03;-4;-67.95;-5.56;2.0;18.00;76249;2834.797;-1756.741;1;57;500;508.1;100.0;100.6;0;0.5;28.7;-1.0;
12/02/2025 22:49:30;115;0;244.24;-4;-29.68;-10.80;-0.1;18.00;76183;2834.797;-1756.744;1;58;500;508.1;100.0;100.6;0;0.5;28.9;-1.0;
12/02/2025 22:49:51;119;0;242.34;-4;-59.17;-12.14;0.1;18.10;76211;2834.797;-1756.744;1;58;500;508.1;100.0;100.7;0;0.5;28.9;-1.0;
12/02/2025 22:50:01;119;0;248.48;-4;-55.15;-14.90;0.1;18.10;76209;2834.889;-1756.658;0;58;500;508.1;100.0;100.7;0;0.5;28.9;-1.0;
