Timestamp;NavState;SecurityLevel;Heading;Declination;Pitch;Roll;Depth;Temperature;Pa;Lat;Lon;DeadReckoning;DesiredH;BallastCmd;BallastPos;LinCmd;LinPos;AngCmd;AngPos;Voltage;Altitude;
03/03/2025 00:35:38;119;0;258.89;-4;-48.63;-10.59;-0.1;16.50;75534;2835.764;-1759.314;0;318;500;506.5;100.0;100.6;0;-0.9;25.2;-1.0;
03/03/2025 00:35:48;116;0;240.85;-4;-59.09;-7.91;-0.0;16.60;75532;2835.769;-1759.319;0;318;500;506.5;100.0;100.6;0;-0.5;25.2;-1.0;
03/03/2025 00:36:12;116;0;229.55;-4;-61.50;-9.82;-0.1;16.60;75540;0.000;0.000;0;318;500;506.5;100.0;100.6;0;-0.5;25.2;-1.0;
03/03/2025 00:36:39;116;0;226.28;-4;-54.66;-14.95;-0.2;16.70;75552;2835.777;-1759.258;0;318;500;506.5;100.0;100.6;0;-0.5;25.2;-1.0;
03/03/2025 00:36:59;116;0;243.53;-4;-51.33;-13.20;0.1;16.80;75566;2835.769;-1759.327;0;315;500;506.5;100.0;100.6;0;-0.5;25.2;-1.0;
03/03/2025 00:37:10;116;0;238.74;-4;-53.23;-14.92;-0.1;16.80;75564;2835.771;-1759.330;0;315;500;506.5;100.0;100.6;0;-0.9;25.2;-1.0;
03/03/2025 00:38:12;116;0;239.63;-4;-50.80;-1.20;-0.1;17.00;75593;2835.781;-1759.342;0;315;500;504.8;100.0;100.6;0;-0.5;25.2;-1.0;
03/03/2025 00:38:59;116;0;255.81;-4;-59.31;-5.27;-0.1;17.20;75602;2835.790;-1759.347;0;315;500;506.5;100.0;100.6;0;-0.9;25.2;-1.0;
03/03/2025 00:40:02;116;0;189.37;-4;-54.57;-5.05;-0.1;17.50;75624;2835.802;-1759.357;0;315;500;504.8;100.0;100.6;0;-0.9;25.2;-1.0;
03/03/2025 00:41:57;116;0;212.52;-4;-57.83;-16.78;-0.1;18.00;75672;2835.821;-1759.371;0;315;500;506.5;100.0;100.6;0;-0.5;25.2;-1.0;
03/03/2025 00:42:08;116;0;217.75;-4;-59.67;-23.94;-0.1;18.10;75685;2835.823;-1759.372;0;315;500;504.8;100.0;100.6;0;-0.5;25.2;-1.0;
03/03/2025 00:42:28;110;0;203.28;-4;-50.59;-9.62;-0.2;18.20;75680;2835.823;-1759.372;0;315;-110;385.5;100.0;100.0;-7;-7.2;25.2;-1.0;
03/03/2025 00:42:38;110;0;178.05;-4;-52.02;-14.13;0.1;18.20;76040;2835.823;-1759.372;1;315;-110;240.3;100.0;99.9;-7;-7.2;25.2;-1.0;
03/03/2025 00:42:48;110;0;181.07;-4;-60.90;-5.51;0.3;18.20;76269;2835.823;-1759.372;1;315;-110;90.3;100.0;100.0;-7;-7.2;25.2;-1.0;
03/03/2025 00:42:58;110;0;197.08;-4;-67.24;-12.37;0.9;18.30;76589;2835.823;-1759.373;1;315;-110;-64.5;100.0;99.9;-7;-7.2;25.2;-1.0;
03/03/2025 00:43:08;110;0;213.83;-4;-64.33;-25.22;0.9;18.30;76915;2835.824;-1759.373;1;315;-110;-109.7;41.9;53.8;-7;-7.2;25.2;-1.0;
03/03/2025 00:43:18;110;0;229.70;-4;-58.60;-21.78;1.9;18.40;76967;2835.824;-1759.374;1;315;-110;-111.3;41.9;42.0;-7;-7.2;25.2;-1.0;
03/03/2025 00:43:38;100;0;244.03;-4;-21.05;-14.16;5.1;18.40;76972;2835.823;-1759.378;1;315;-110;-106.5;41.9;41.7;-7;-7.2;25.2;-1.0;
03/03/2025 00:43:58;100;0;250.15;-4;-18.30;-15.00;8.0;18.50;76977;2835.823;-1759.383;1;315;-110;-104.8;42.4;42.7;-55;-55.1;25.2;-1.0;
03/03/2025 00:44:18;100;0;256.68;-4;-18.16;-38.31;10.5;18.50;76986;2835.823;-1759.387;1;315;-110;-103.2;43.0;43.2;-47;-46.5;25.2;-1.0;
03/03/2025 00:44:38;100;0;272.06;-4;-19.90;-33.65;13.1;18.50;76997;2835.824;-1759.392;1;315;-110;-103.2;43.0;43.3;-28;-28.0;25.2;0.0;
03/03/2025 00:44:58;100;0;284.05;-4;-20.16;-24.29;15.5;18.60;77001;2835.826;-1759.396;1;315;-110;-103.2;43.0;43.4;-8;-7.7;25.2;0.0;
03/03/2025 00:45:18;100;0;291.67;-4;-21.14;-15.03;18.2;18.60;77000;2835.828;-1759.400;1;315;-110;-103.2;43.0;43.4;3;3.2;25.2;0.0;
03/03/2025 00:45:38;100;0;295.05;-4;-21.85;-9.82;20.8;18.60;77017;2835.830;-1759.403;1;315;-110;-103.2;43.0;43.4;9;9.0;25.2;0.0;
03/03/2025 00:45:58;100;0;296.90;-4;-22.36;-6.78;23.4;18.60;77017;2835.833;-1759.407;1;315;-110;-103.2;42.3;42.3;11;11.3;25.2;0.0;
03/03/2025 00:46:18;100;0;298.92;-4;-20.00;-5.79;26.1;18.70;77014;2835.835;-1759.411;1;315;-110;-101.6;42.3;42.0;11;11.3;25.2;0.0;
03/03/2025 00:46:38;100;0;300.09;-4;-19.51;-5.81;28.5;18.70;77022;2835.838;-1759.414;1;315;-110;-103.2;42.3;42.0;13;13.1;25.2;0.0;
03/03/2025 00:46:58;100;0;300.83;-4;-19.45;-4.87;30.9;18.70;77040;2835.840;-1759.418;1;315;-110;-103.2;42.3;42.0;13;13.5;25.2;0.0;
03/03/2025 00:47:18;100;0;301.50;-4;-19.45;-4.81;33.3;18.70;77040;2835.843;-1759.422;1;315;-110;-103.2;42.3;42.0;13;13.5;25.2;0.0;
03/03/2025 00:47:38;100;0;302.52;-4;-19.41;-4.79;35.8;18.70;77043;2835.846;-1759.425;1;315;-110;-103.2;42.3;42.0;13;13.5;25.2;0.0;
03/03/2025 00:47:58;100;0;302.51;-4;-19.44;-4.81;38.2;18.70;77051;2835.848;-1759.429;1;315;-110;-103.2;42.3;42.0;13;13.5;25.2;0.0;
03/03/2025 00:48:18;100;0;303.06;-4;-19.34;-4.89;40.6;18.70;77050;2835.851;-1759.432;1;315;-110;-103.2;42.3;42.0;15;14.9;25.2;0.0;
03/03/2025 00:48:38;100;0;303.77;-4;-19.30;-3.87;42.8;18.70;77061;2835.854;-1759.436;1;315;-110;-103.2;42.3;42.0;15;15.3;25.2;0.0;
03/03/2025 00:48:58;100;0;303.97;-4;-19.57;-3.94;45.3;18.70;77061;2835.856;-1759.439;1;315;-110;-103.2;42.3;42.0;15;15.3;25.2;0.0;
03/03/2025 00:49:18;100;0;302.86;-4;-19.42;-3.91;47.6;18.70;77066;2835.859;-1759.443;1;315;-110;-103.2;42.3;42.0;15;15.3;25.2;0.0;
03/03/2025 00:49:38;100;0;302.53;-4;-19.24;-3.89;49.9;18.80;77074;2835.862;-1759.446;1;315;-110;-103.2;42.3;42.0;15;15.3;25.2;0.0;
03/03/2025 00:49:58;100;0;302.88;-4;-19.17;-3.86;52.3;18.80;77077;2835.864;-1759.450;1;315;-110;-103.2;42.3;42.0;15;15.3;25.2;0.0;
03/03/2025 00:50:18;100;0;302.75;-4;-19.24;-3.84;54.4;18.80;77101;2835.867;-1759.453;1;315;-110;-101.6;42.3;42.0;15;15.3;25.2;0.0;
03/03/2025 00:50:38;100;0;303.29;-4;-19.34;-3.85;56.8;18.80;77092;2835.870;-1759.456;1;315;-110;-103.2;42.3;42.0;15;15.3;25.2;0.0;
03/03/2025 00:50:58;100;0;302.37;-4;-19.44;-3.90;59.1;18.80;77097;2835.872;-1759.460;1;315;-110;-103.2;42.3;42.0;15;15.3;25.2;0.0;
03/03/2025 00:51:18;100;0;300.43;-4;-19.14;-3.95;61.4;18.80;77103;2835.875;-1759.463;1;315;-110;-103.2;42.3;42.0;13;13.1;25.2;0.0;
03/03/2025 00:51:38;100;0;299.44;-4;-18.78;-5.28;63.6;18.80;77096;2835.877;-1759.467;1;315;-110;-103.2;42.6;42.6;13;12.6;25.2;0.0;
03/03/2025 00:51:58;100;0;300.13;-4;-19.84;-5.26;65.9;18.80;77102;2835.879;-1759.470;1;315;-110;-103.2;42.6;42.7;13;12.6;25.2;0.0;
03/03/2025 00:52:18;100;0;298.88;-4;-20.04;-5.33;68.2;18.80;77093;2835.882;-1759.474;1;315;-110;-103.2;42.6;42.7;13;12.6;25.2;0.0;
03/03/2025 00:52:38;100;0;299.23;-4;-20.21;-5.25;70.5;18.80;77108;2835.884;-1759.477;1;315;-110;-103.2;42.6;42.7;13;12.6;25.2;0.0;
03/03/2025 00:52:58;100;0;298.95;-4;-20.23;-5.25;73.1;18.80;77111;2835.887;-1759.481;1;315;-110;-103.2;42.6;42.9;11;10.8;25.2;0.0;
03/03/2025 00:53:18;100;0;295.98;-4;-19.98;-6.29;75.4;18.80;77111;2835.889;-1759.484;1;315;-110;-103.2;42.6;42.7;9;9.0;25.2;0.0;
03/03/2025 00:53:38;100;0;300.74;-4;-20.20;-7.30;77.9;18.80;77099;2835.892;-1759.488;1;315;-110;-103.2;42.6;42.9;13;13.1;25.2;0.0;
03/03/2025 00:53:58;100;0;317.20;-4;-20.76;-4.83;80.2;18.80;77087;2835.895;-1759.491;1;315;-110;-103.2;42.6;42.9;17;17.1;25.2;0.0;
03/03/2025 00:54:18;100;0;316.01;-4;-20.48;-2.90;82.9;18.80;77055;2835.898;-1759.494;1;315;-110;-103.2;42.6;42.9;17;17.1;25.2;0.0;
03/03/2025 00:54:38;100;0;317.21;-4;-20.61;-2.90;85.3;18.80;77027;2835.901;-1759.497;1;315;-110;-103.2;42.6;42.9;17;17.1;25.2;0.0;
03/03/2025 00:54:58;100;0;317.39;-4;-20.51;-2.84;87.7;18.80;77020;2835.904;-1759.500;1;315;-110;-103.2;42.6;42.9;17;17.1;25.2;0.0;
03/03/2025 00:55:18;100;0;319.05;-4;-20.86;-2.83;90.2;18.80;77011;2835.908;-1759.502;1;315;-110;-103.2;42.6;42.9;19;19.4;25.2;0.0;
03/03/2025 00:55:38;100;0;317.66;-4;-20.78;-1.68;92.9;18.80;76990;2835.911;-1759.505;1;315;-110;-103.2;42.6;42.9;17;17.1;25.2;0.0;
03/03/2025 00:55:58;100;0;316.16;-4;-20.50;-3.16;95.2;18.80;76980;2835.914;-1759.508;1;315;-110;-101.6;42.6;42.7;17;16.7;25.2;0.0;
03/03/2025 00:56:18;100;0;314.49;-4;-20.55;-3.13;97.6;18.70;76963;2835.917;-1759.511;1;315;-110;-103.2;42.6;42.9;17;17.1;25.2;0.0;
03/03/2025 00:56:38;100;0;314.41;-4;-20.34;-3.15;99.9;18.70;76956;2835.920;-1759.514;1;315;-110;-103.2;42.6;42.7;17;17.1;25.2;0.0;
03/03/2025 00:56:58;100;0;310.65;-4;-20.14;-3.20;102.1;18.70;76959;2835.923;-1759.517;1;315;-110;-101.6;42.6;42.9;15;14.9;25.2;0.0;
03/03/2025 00:57:18;100;0;306.65;-4;-19.79;-4.42;104.1;18.70;76954;2835.926;-1759.520;1;315;-110;-103.2;42.6;42.9;15;14.4;25.2;0.0;
03/03/2025 00:57:38;100;0;303.47;-4;-20.23;-4.38;106.3;18.70;76938;2835.928;-1759.523;1;315;-110;-103.2;42.6;42.9;15;14.4;25.2;0.0;
03/03/2025 00:57:58;100;0;305.27;-4;-20.03;-4.44;108.5;18.60;76915;2835.931;-1759.526;1;315;-110;-103.2;42.6;42.9;15;14.4;25.2;0.0;
03/03/2025 00:58:18;100;0;306.76;-4;-20.12;-4.39;110.8;18.60;76903;2835.933;-1759.529;1;315;-110;-103.2;42.6;42.7;15;14.4;25.2;0.0;
03/03/2025 00:58:38;100;0;304.18;-4;-19.88;-4.35;112.9;18.60;76891;2835.936;-1759.533;1;315;-110;-103.2;42.6;42.9;15;14.4;25.2;0.0;
03/03/2025 00:58:58;100;0;299.50;-4;-19.81;-4.32;114.9;18.50;76886;2835.938;-1759.536;1;315;-130;-130.6;42.6;42.9;13;13.1;25.2;0.0;
03/03/2025 00:59:18;100;0;290.76;-4;-18.92;-5.13;117.2;18.50;76948;2835.940;-1759.539;1;315;-130;-132.3;43.0;43.3;2;1.8;25.2;0.0;
03/03/2025 00:59:38;100;0;287.33;-4;-19.38;-10.62;119.4;18.50;76941;2835.942;-1759.543;1;315;-130;-132.3;43.0;43.3;-3;-3.2;25.2;0.0;
03/03/2025 00:59:58;100;0;287.51;-4;-19.62;-13.11;121.9;18.50;76919;2835.944;-1759.547;1;315;-130;-133.9;43.0;43.3;-5;-5.0;25.2;0.0;
03/03/2025 01:00:18;100;0;294.30;-4;-19.04;-14.01;124.4;18.40;76910;2835.946;-1759.551;1;315;-130;-133.9;43.0;43.3;6;5.9;25.2;0.0;
03/03/2025 01:00:38;100;0;301.05;-4;-19.74;-8.47;126.7;18.40;76899;2835.949;-1759.554;1;315;-130;-133.9;43.0;43.4;13;13.1;25.2;0.0;
03/03/2025 01:00:58;100;0;304.78;-4;-20.32;-4.66;129.2;18.40;76895;2835.951;-1759.558;1;315;-130;-133.9;43.0;43.4;13;13.5;25.2;0.0;
03/03/2025 01:01:18;100;0;304.12;-4;-20.21;-4.69;131.9;18.40;76890;2835.954;-1759.562;1;315;-130;-133.9;43.0;43.4;13;13.5;25.2;0.0;
03/03/2025 01:01:38;100;0;303.59;-4;-20.11;-4.79;134.4;18.30;76876;2835.957;-1759.565;1;315;-130;-133.9;43.0;43.4;13;13.5;25.2;0.0;
03/03/2025 01:01:58;100;0;299.66;-4;-20.35;-4.67;136.8;18.30;76866;2835.959;-1759.569;1;315;-130;-133.9;43.0;43.3;13;13.5;25.2;0.0;
03/03/2025 01:02:18;100;0;305.72;-4;-20.49;-4.64;139.4;18.20;76851;2835.962;-1759.572;1;315;-130;-133.9;43.0;43.3;13;13.5;25.2;0.0;
03/03/2025 01:02:38;100;0;306.11;-4;-20.57;-4.62;142.1;18.20;76836;2835.965;-1759.576;1;315;-130;-133.9;43.0;43.4;13;13.5;25.2;0.0;
03/03/2025 01:02:58;100;0;307.31;-4;-20.14;-4.63;145.0;18.20;76832;2835.968;-1759.580;1;315;-130;-135.5;43.0;43.4;13;13.5;25.2;0.0;
03/03/2025 01:03:18;100;0;306.66;-4;-19.94;-4.67;147.5;18.10;76811;2835.971;-1759.583;1;315;-130;-133.9;43.0;43.4;13;13.5;25.2;0.0;
03/03/2025 01:03:38;100;0;308.32;-4;-20.22;-4.65;150.1;18.10;76790;2835.974;-1759.587;1;315;-130;-132.3;43.0;43.3;13;13.5;25.2;0.0;
03/03/2025 01:03:58;100;0;309.60;-4;-19.97;-4.71;152.5;18.10;76799;2835.977;-1759.590;1;315;-130;-133.9;43.0;43.4;13;13.5;25.2;0.0;
03/03/2025 01:04:18;100;0;312.20;-4;-19.89;-4.65;155.2;18.00;76785;2835.981;-1759.593;1;315;-130;-133.9;43.0;43.4;15;14.9;25.2;0.0;
03/03/2025 01:04:38;100;0;313.78;-4;-20.05;-3.80;158.1;18.00;76775;2835.984;-1759.597;1;315;-130;-132.3;43.0;43.4;15;15.3;25.2;0.0;
03/03/2025 01:04:58;100;0;315.58;-4;-20.20;-3.73;160.5;18.00;76771;2835.987;-1759.600;1;315;-130;-132.3;43.0;43.4;15;15.3;25.2;0.0;
03/03/2025 01:05:18;100;0;316.77;-4;-20.19;-3.74;163.2;17.90;76759;2835.991;-1759.603;1;315;-130;-133.9;43.0;43.4;15;15.3;25.2;0.0;
03/03/2025 01:05:38;100;0;317.94;-4;-20.26;-3.72;165.9;17.90;76751;2835.994;-1759.606;1;315;-130;-133.9;43.0;43.3;17;17.1;25.2;0.0;
03/03/2025 01:05:58;100;0;321.39;-4;-20.46;-2.62;168.5;17.80;76745;2835.998;-1759.609;1;315;-130;-133.9;43.0;43.4;20;19.9;25.2;0.0;
03/03/2025 01:06:18;100;0;322.58;-4;-20.60;-1.22;171.4;17.80;76743;2836.002;-1759.612;1;315;-130;-132.3;43.0;43.3;22;22.1;25.2;0.0;
03/03/2025 01:06:38;100;0;316.47;-4;-20.70;-0.05;173.9;17.80;76722;2836.005;-1759.615;1;315;-130;-132.3;43.0;43.4;17;17.1;25.2;0.0;
03/03/2025 01:06:59;100;0;316.44;-4;-20.45;-3.04;176.8;17.70;76707;2836.009;-1759.618;1;315;-130;-133.9;43.0;43.3;17;17.1;25.2;0.0;
03/03/2025 01:07:19;100;0;314.79;-4;-20.20;-3.03;179.5;17.70;76699;2836.012;-1759.622;1;315;-130;-133.9;43.0;43.4;15;14.9;25.2;0.0;
03/03/2025 01:07:39;100;0;311.28;-4;-20.38;-4.24;182.1;17.60;76692;2836.015;-1759.625;1;315;-130;-132.3;43.0;43.4;15;14.4;25.2;0.0;
03/03/2025 01:07:59;100;0;309.41;-4;-20.34;-4.25;184.8;17.60;76685;2836.018;-1759.629;1;315;-130;-133.9;43.0;43.4;15;14.4;25.2;0.0;
03/03/2025 01:08:19;100;0;307.07;-4;-20.20;-4.31;187.5;17.60;76671;2836.021;-1759.632;1;315;-130;-132.3;43.0;43.4;15;14.4;25.2;0.0;
03/03/2025 01:08:39;100;0;301.74;-4;-19.91;-4.32;190.1;17.50;76660;2836.024;-1759.636;1;315;-130;-133.9;43.0;43.4;13;13.1;25.2;0.0;
03/03/2025 01:08:59;100;0;298.88;-4;-19.91;-4.99;192.9;17.50;76651;2836.027;-1759.640;1;315;-130;-133.9;43.0;43.4;11;10.8;25.2;0.0;
03/03/2025 01:09:19;100;0;294.31;-4;-19.87;-6.26;195.5;17.40;76624;2836.029;-1759.644;1;315;-130;-133.9;43.0;43.4;6;5.9;25.2;0.0;
03/03/2025 01:09:39;100;0;292.21;-4;-19.54;-8.63;197.9;17.40;76619;2836.031;-1759.648;1;315;-130;-135.5;43.0;43.3;6;5.4;25.2;0.0;
03/03/2025 01:09:59;100;0;295.22;-4;-19.12;-8.67;200.4;17.40;76618;2836.033;-1759.652;1;315;-130;-133.9;43.0;43.3;6;5.4;25.2;0.0;
03/03/2025 01:10:19;100;0;297.89;-4;-19.22;-8.76;203.2;17.30;76615;2836.036;-1759.656;1;315;-130;-133.9;43.0;43.3;10;9.9;25.2;0.0;
03/03/2025 01:10:39;100;0;300.77;-4;-19.45;-6.35;206.0;17.30;76605;2836.039;-1759.660;1;315;-130;-133.9;43.0;43.3;13;13.1;25.2;0.0;
03/03/2025 01:10:59;100;0;300.82;-4;-19.72;-4.73;208.6;17.20;76590;2836.042;-1759.664;1;315;-130;-132.3;43.0;43.3;13;13.5;25.2;0.0;
03/03/2025 01:11:19;100;0;299.92;-4;-19.87;-4.78;211.3;17.20;76574;2836.044;-1759.668;1;315;-130;-133.9;43.0;43.3;13;13.5;25.2;0.0;
03/03/2025 01:11:39;100;0;299.88;-4;-19.74;-4.75;214.1;17.20;76564;2836.047;-1759.672;1;315;-130;-133.9;43.0;43.3;13;13.5;25.2;0.0;
03/03/2025 01:11:59;100;0;301.12;-4;-20.08;-4.71;217.1;17.10;76560;2836.050;-1759.676;1;315;-130;-133.9;43.0;43.3;13;13.5;25.2;0.0;
03/03/2025 01:12:19;100;0;301.42;-4;-20.07;-4.71;219.9;17.10;76553;2836.053;-1759.680;1;315;-130;-133.9;43.0;43.4;13;13.5;25.2;0.0;
03/03/2025 01:12:39;100;0;300.19;-4;-20.01;-4.71;222.7;17.00;76528;2836.056;-1759.684;1;315;-130;-132.3;43.0;43.3;13;13.5;25.2;0.0;
03/03/2025 01:12:59;100;0;300.49;-4;-19.88;-4.80;225.9;17.00;76529;2836.059;-1759.689;1;315;-130;-133.9;43.0;43.4;13;13.5;25.2;0.0;
03/03/2025 01:13:19;100;0;301.46;-4;-19.83;-4.72;228.9;17.00;76519;2836.062;-1759.693;1;315;-130;-133.9;43.0;43.4;13;13.5;25.2;0.0;
03/03/2025 01:13:39;100;0;305.10;-4;-20.21;-4.71;231.8;16.90;76514;2836.065;-1759.697;1;315;-130;-132.3;43.0;43.3;13;13.5;25.2;0.0;
03/03/2025 01:13:59;100;0;308.32;-4;-19.77;-4.81;234.8;16.90;76510;2836.068;-1759.701;1;315;-130;-132.3;43.0;43.3;13;13.5;25.2;0.0;
03/03/2025 01:14:19;100;0;310.41;-4;-20.01;-4.57;237.9;16.80;76500;2836.072;-1759.705;1;315;-130;-133.9;43.0;43.4;13;13.5;25.2;0.0;
03/03/2025 01:14:39;100;0;313.76;-4;-18.99;-5.03;240.9;16.80;76495;2836.075;-1759.709;1;315;-130;-133.9;43.3;43.3;13;13.5;25.2;0.0;
03/03/2025 01:14:59;100;0;317.54;-4;-19.74;-4.74;243.8;16.80;76483;2836.079;-1759.712;1;315;-130;-133.9;43.3;43.3;16;15.8;25.2;0.0;
03/03/2025 01:15:19;100;0;318.79;-4;-20.10;-3.30;246.7;16.70;76485;2836.083;-1759.715;1;315;-130;-133.9;43.3;43.4;16;16.2;25.2;0.0;
03/03/2025 01:15:39;100;0;318.84;-4;-19.64;-3.35;249.8;16.70;76473;2836.087;-1759.719;1;315;-130;-133.9;43.3;43.3;16;16.2;25.2;0.0;
03/03/2025 01:15:59;100;0;320.57;-4;-19.54;-3.47;252.7;16.60;76457;2836.090;-1759.722;1;315;-130;-133.9;43.3;43.4;19;19.0;25.2;0.0;
03/03/2025 01:16:19;100;0;321.35;-4;-19.89;-1.86;255.4;16.60;76474;2836.094;-1759.725;1;315;-130;-133.9;43.3;43.3;19;19.0;25.2;0.0;
03/03/2025 01:16:39;100;0;322.35;-4;-19.98;-1.79;258.4;16.50;76457;2836.098;-1759.728;1;315;-130;-133.9;43.3;43.3;19;19.4;25.2;0.0;
03/03/2025 01:16:59;100;0;322.01;-4;-19.97;-1.82;261.3;16.50;76456;2836.102;-1759.731;1;315;-130;-132.3;43.3;43.3;21;21.2;25.2;0.0;
03/03/2025 01:17:19;100;0;322.57;-4;-19.92;-0.66;264.1;16.50;76452;2836.106;-1759.734;1;315;-130;-133.9;43.3;43.4;21;21.7;25.2;0.0;
03/03/2025 01:17:39;100;0;320.78;-4;-19.67;-0.66;266.9;16.40;76457;2836.109;-1759.737;1;315;-130;-132.3;43.3;43.3;19;18.5;25.2;0.0;
03/03/2025 01:17:59;100;0;320.00;-4;-19.35;-2.33;269.9;16.40;76443;2836.114;-1759.741;1;315;-130;-133.9;43.3;43.3;19;18.5;25.2;0.0;
03/03/2025 01:18:19;100;0;319.05;-4;-20.17;-2.21;272.6;16.40;76429;2836.117;-1759.744;1;315;-130;-132.3;43.3;43.4;19;18.5;25.2;0.0;
03/03/2025 01:18:39;100;0;321.81;-4;-20.38;-2.06;275.4;16.30;76411;2836.121;-1759.747;1;315;-130;-133.9;43.3;43.3;21;21.2;25.2;0.0;
03/03/2025 01:18:59;100;0;313.37;-4;-20.33;-0.65;278.7;16.30;76401;2836.125;-1759.751;1;315;-130;-133.9;43.3;43.3;15;14.9;25.2;0.0;
03/03/2025 01:19:19;100;0;311.41;-4;-20.15;-3.94;281.8;16.30;76390;2836.128;-1759.755;1;315;-130;-133.9;43.3;43.3;15;14.9;25.2;0.0;
03/03/2025 01:19:39;100;0;306.80;-4;-19.97;-4.00;284.9;16.20;76383;2836.132;-1759.759;1;315;-130;-132.3;43.3;43.3;15;14.9;25.2;0.0;
03/03/2025 01:19:59;100;0;303.62;-4;-20.02;-3.96;288.0;16.20;76377;2836.135;-1759.763;1;315;-130;-133.9;43.3;43.4;15;14.9;25.2;0.0;
03/03/2025 01:20:19;100;0;300.60;-4;-19.85;-4.02;290.9;16.10;76359;2836.138;-1759.767;1;315;-130;-133.9;43.3;43.3;13;13.1;25.2;0.0;
03/03/2025 01:20:39;100;0;299.58;-4;-19.54;-5.07;294.1;16.10;76365;2836.141;-1759.772;1;315;-130;-133.9;43.3;43.3;11;10.8;25.2;0.0;
03/03/2025 01:20:59;100;0;299.54;-4;-19.41;-6.21;297.2;16.10;76353;2836.144;-1759.776;1;315;-130;-133.9;43.3;43.4;11;10.4;25.2;0.0;
03/03/2025 01:21:19;100;0;300.76;-4;-19.47;-6.19;300.1;16.00;76343;2836.147;-1759.781;1;315;-130;-133.9;43.3;43.4;11;10.4;25.2;0.0;
03/03/2025 01:21:39;100;0;300.93;-4;-19.52;-6.19;303.3;16.00;76337;2836.150;-1759.785;1;315;-130;-133.9;43.3;43.3;11;10.4;25.2;0.0;
03/03/2025 01:21:59;100;0;301.27;-4;-19.60;-6.21;306.1;15.90;76327;2836.152;-1759.789;1;315;-130;-133.9;43.3;43.4;13;13.1;25.2;0.0;
03/03/2025 01:22:19;100;0;299.84;-4;-19.63;-4.80;309.1;15.90;76331;2836.155;-1759.794;1;315;-130;-133.9;43.3;43.3;11;10.4;25.2;0.0;
03/03/2025 01:22:39;100;0;299.63;-4;-19.30;-6.29;312.1;15.90;76320;2836.158;-1759.798;1;315;-130;-133.9;43.3;43.4;11;10.4;25.2;0.0;
03/03/2025 01:22:59;100;0;301.51;-4;-19.31;-6.29;315.0;15.80;76316;2836.161;-1759.802;1;315;-130;-132.3;43.3;43.4;11;10.4;25.2;0.0;
03/03/2025 01:23:19;100;0;303.81;-4;-19.31;-6.32;317.8;15.80;76311;2836.164;-1759.806;1;315;-130;-133.9;43.3;43.3;13;13.1;25.2;0.0;
03/03/2025 01:23:39;100;0;307.22;-4;-19.16;-4.69;320.6;15.80;76310;2836.167;-1759.810;1;315;-130;-133.9;43.3;43.3;13;13.5;25.2;0.0;
03/03/2025 01:23:59;100;0;308.69;-4;-19.11;-4.74;323.4;15.70;76295;2836.171;-1759.814;1;315;-130;-133.9;43.3;43.4;13;13.5;25.2;0.0;
03/03/2025 01:24:19;100;0;308.98;-4;-19.03;-4.72;325.9;15.70;76301;2836.174;-1759.817;1;315;-130;-133.9;43.3;43.3;13;13.5;25.2;0.0;
03/03/2025 01:24:39;100;0;307.96;-4;-18.96;-4.76;328.6;15.70;76284;2836.177;-1759.821;1;315;-130;-133.9;43.6;43.6;13;13.5;25.2;0.0;
03/03/2025 01:24:59;100;0;306.61;-4;-20.15;-4.67;331.4;15.60;76288;2836.180;-1759.825;1;315;-130;-132.3;43.6;43.9;13;13.5;25.2;0.0;
03/03/2025 01:25:19;100;0;307.03;-4;-20.25;-4.70;334.0;15.60;76272;2836.183;-1759.828;1;315;-130;-133.9;43.6;43.9;13;13.5;25.2;0.0;
03/03/2025 01:25:39;100;0;307.49;-4;-20.12;-4.72;336.7;15.60;76267;2836.186;-1759.832;1;315;-130;-133.9;43.6;43.9;13;13.5;25.2;0.0;
03/03/2025 01:25:59;100;0;308.14;-4;-20.31;-4.68;339.3;15.50;76260;2836.189;-1759.836;1;315;-130;-133.9;43.6;43.9;13;13.5;25.2;0.0;
03/03/2025 01:26:19;100;0;309.20;-4;-20.24;-4.74;342.0;15.50;76248;2836.192;-1759.839;1;315;-130;-133.9;43.6;43.9;13;13.5;25.2;0.0;
03/03/2025 01:26:39;100;0;310.10;-4;-20.41;-4.72;344.8;15.50;76238;2836.195;-1759.843;1;315;-130;-132.3;43.6;43.9;13;13.5;25.2;0.0;
03/03/2025 01:26:59;100;0;311.34;-4;-20.49;-4.67;347.5;15.40;76244;2836.199;-1759.846;1;315;-130;-133.9;43.6;43.9;13;13.5;25.2;0.0;
03/03/2025 01:27:19;100;0;312.54;-4;-20.83;-4.62;350.1;15.40;76232;2836.202;-1759.849;1;315;-130;-133.9;43.6;43.9;13;13.5;25.2;0.0;
03/03/2025 01:27:39;100;0;312.54;-4;-20.35;-4.64;352.9;15.40;76233;2836.205;-1759.853;1;315;-130;-133.9;43.6;43.9;13;13.5;25.2;0.0;
03/03/2025 01:27:59;100;0;306.94;-4;-20.64;-4.72;355.7;15.30;76219;2836.208;-1759.857;1;315;-130;-133.9;43.6;43.9;13;13.5;25.2;0.0;
03/03/2025 01:28:19;100;0;304.02;-4;-20.61;-4.60;358.4;15.30;76209;2836.211;-1759.860;1;315;-130;-133.9;43.6;44.0;13;13.5;25.2;0.0;
03/03/2025 01:28:39;100;0;301.65;-4;-20.41;-4.79;361.1;15.30;76207;2836.214;-1759.864;1;315;-130;-133.9;43.6;43.9;13;13.5;25.2;0.0;
03/03/2025 01:28:59;100;0;299.89;-4;-20.44;-4.57;363.7;15.20;76211;2836.216;-1759.868;1;315;-130;-132.3;43.6;43.9;13;13.5;25.2;0.0;
03/03/2025 01:29:19;100;0;298.49;-4;-20.47;-4.67;366.4;15.20;76196;2836.219;-1759.872;1;315;-130;-133.9;43.6;43.9;11;10.8;25.2;0.0;
03/03/2025 01:29:39;100;0;294.27;-4;-19.95;-6.11;369.0;15.20;76197;2836.221;-1759.876;1;315;-130;-133.9;43.6;43.9;6;5.9;25.2;0.0;
03/03/2025 01:29:59;100;0;295.83;-4;-20.07;-8.61;371.4;15.10;76188;2836.224;-1759.880;1;315;-130;-133.9;43.6;43.9;9;9.0;25.2;0.0;
03/03/2025 01:30:19;100;0;299.10;-4;-20.33;-6.79;374.0;15.10;76186;2836.226;-1759.883;1;315;-130;-133.9;43.6;43.9;11;10.8;25.2;0.0;
03/03/2025 01:30:39;100;0;301.09;-4;-20.48;-5.84;376.8;15.10;76188;2836.229;-1759.887;1;315;-130;-132.3;43.6;43.9;11;11.3;25.2;0.0;
03/03/2025 01:30:59;100;0;302.02;-4;-20.27;-5.82;379.5;15.00;76174;2836.232;-1759.891;1;315;-130;-133.9;43.6;44.0;13;13.1;25.2;0.0;
03/03/2025 01:31:19;100;0;303.99;-4;-20.77;-4.62;382.3;15.00;76158;2836.235;-1759.895;1;315;-130;-133.9;43.6;43.9;13;13.5;25.2;0.0;
03/03/2025 01:31:39;100;0;303.40;-4;-20.87;-4.53;384.9;15.00;76160;2836.237;-1759.899;1;315;-130;-133.9;43.6;44.0;13;13.1;25.2;0.0;
03/03/2025 01:31:59;100;0;302.88;-4;-21.01;-4.69;387.8;15.00;76158;2836.240;-1759.902;1;315;-130;-133.9;43.6;44.0;13;13.5;25.2;0.0;
03/03/2025 01:32:19;100;0;304.11;-4;-20.51;-4.83;390.5;14.90;76148;2836.243;-1759.906;1;315;-130;-132.3;43.6;44.0;13;13.5;25.2;0.0;
03/03/2025 01:32:39;100;0;306.08;-4;-20.63;-4.70;393.3;14.90;76150;2836.246;-1759.910;1;315;-130;-133.9;43.6;43.9;13;13.5;25.2;0.0;
03/03/2025 01:32:59;100;0;309.69;-4;-20.72;-4.70;395.8;14.90;76151;2836.249;-1759.913;1;315;-130;-133.9;43.6;43.9;13;13.5;25.2;0.0;
03/03/2025 01:33:19;100;0;311.68;-4;-20.61;-4.73;398.4;14.80;76150;2836.252;-1759.916;1;315;-130;-132.3;43.6;43.9;13;13.1;25.2;0.0;
03/03/2025 01:33:39;100;0;315.93;-4;-20.62;-4.76;401.1;14.80;76143;2836.256;-1759.919;1;315;-130;-132.3;43.6;43.9;15;14.9;25.2;0.0;
03/03/2025 01:33:59;100;0;320.69;-4;-20.27;-3.77;403.8;14.80;76141;2836.259;-1759.922;1;315;-130;-132.3;43.6;44.0;19;19.0;25.2;0.0;
03/03/2025 01:34:19;100;0;325.65;-4;-20.99;-1.84;406.5;14.80;76119;2836.263;-1759.925;1;315;-130;-133.9;43.6;43.9;25;25.3;25.2;0.0;
03/03/2025 01:34:39;100;0;324.34;-4;-21.02;1.28;409.2;14.70;76122;2836.267;-1759.928;1;315;-130;-133.9;43.6;43.9;23;23.0;25.2;0.0;
03/03/2025 01:34:59;100;0;320.08;-4;-20.77;-0.15;411.8;14.70;76110;2836.270;-1759.931;1;315;-130;-132.3;43.6;44.0;18;18.1;25.2;0.0;
03/03/2025 01:35:19;100;0;318.27;-4;-20.51;-2.63;414.5;14.70;76110;2836.273;-1759.934;1;315;-130;-135.5;43.6;43.9;18;17.6;25.2;0.0;
03/03/2025 01:35:39;100;0;314.46;-4;-20.47;-2.61;417.0;14.60;76107;2836.277;-1759.937;1;315;-130;-133.9;43.6;44.0;15;14.4;25.2;0.0;
03/03/2025 01:35:59;100;0;311.98;-4;-20.88;-4.30;419.7;14.60;76089;2836.280;-1759.940;1;315;-130;-135.5;43.6;43.9;15;14.0;25.2;0.0;
03/03/2025 01:36:19;100;0;309.99;-4;-20.44;-4.29;422.3;14.60;76077;2836.283;-1759.944;1;315;-130;-135.5;43.6;43.9;15;14.4;25.2;0.0;
03/03/2025 01:36:39;100;0;310.93;-4;-20.22;-4.30;425.0;14.60;76080;2836.286;-1759.947;1;315;-130;-133.9;43.6;43.9;15;14.4;25.2;0.0;
03/03/2025 01:36:59;100;0;311.78;-4;-20.05;-4.34;427.8;14.50;76066;2836.289;-1759.951;1;315;-130;-132.3;43.6;44.0;15;14.4;25.2;0.0;
03/03/2025 01:37:19;100;0;311.65;-4;-19.99;-4.38;430.4;14.50;76067;2836.293;-1759.954;1;315;-130;-133.9;43.6;44.0;15;14.4;25.2;0.0;
03/03/2025 01:37:39;100;0;311.85;-4;-20.14;-4.36;433.1;14.50;76066;2836.296;-1759.957;1;315;-130;-133.9;43.6;43.9;15;14.4;25.2;0.0;
03/03/2025 01:37:59;100;0;311.23;-4;-20.17;-4.36;435.8;14.40;76061;2836.299;-1759.961;1;315;-130;-133.9;43.6;43.9;15;14.4;25.2;0.0;
03/03/2025 01:38:19;100;0;312.16;-4;-20.10;-4.35;438.6;14.40;76049;2836.302;-1759.964;1;315;-130;-133.9;43.6;44.0;15;14.4;25.2;0.0;
03/03/2025 01:38:39;100;0;311.70;-4;-20.16;-4.36;441.4;14.40;76045;2836.306;-1759.968;1;315;-130;-133.9;43.6;44.0;15;14.0;25.2;0.0;
03/03/2025 01:38:59;100;0;312.74;-4;-20.13;-4.36;444.2;14.40;76038;2836.309;-1759.971;1;315;-130;-133.9;43.6;43.9;15;14.4;25.2;0.0;
03/03/2025 01:39:19;100;0;312.59;-4;-20.15;-4.28;447.1;14.40;76041;2836.313;-1759.975;1;315;-130;-133.9;43.6;43.9;15;14.4;25.2;0.0;
03/03/2025 01:39:39;100;0;313.32;-4;-20.17;-4.34;450.0;14.30;76028;2836.316;-1759.979;1;315;-130;-132.3;43.6;43.9;15;14.4;25.2;0.0;
03/03/2025 01:39:59;100;0;314.21;-4;-20.07;-4.38;453.0;14.30;76019;2836.320;-1759.982;1;315;-130;-132.3;43.6;43.9;15;14.4;25.2;0.0;
03/03/2025 01:40:19;100;0;316.23;-4;-19.99;-4.32;456.0;14.30;76018;2836.324;-1759.986;1;315;-130;-133.9;43.6;44.0;15;14.4;25.2;0.0;
03/03/2025 01:40:39;100;0;314.91;-4;-19.91;-4.40;458.9;14.20;76006;2836.327;-1759.989;1;315;-130;-132.3;43.6;43.9;15;14.4;25.2;0.0;
03/03/2025 01:40:59;100;0;313.20;-4;-19.92;-4.34;462.0;14.20;76004;2836.331;-1759.993;1;315;-130;-133.9;43.6;43.9;15;14.4;25.2;0.0;
03/03/2025 01:41:20;100;0;312.97;-4;-19.81;-4.39;464.8;14.20;76000;2836.334;-1759.997;1;315;-130;-135.5;43.6;43.9;15;14.4;25.2;0.0;
03/03/2025 01:41:40;100;0;311.44;-4;-19.84;-4.40;467.8;14.10;75994;2836.338;-1800.001;1;315;-130;-132.3;43.6;43.9;15;14.4;25.2;0.0;
03/03/2025 01:42:00;100;0;309.51;-4;-19.82;-4.38;470.9;14.10;75992;2836.341;-1800.004;1;315;-130;-133.9;43.6;43.9;15;14.4;25.2;0.0;
03/03/2025 01:42:20;100;0;308.74;-4;-19.87;-4.36;473.8;14.10;75982;2836.344;-1800.008;1;315;-130;-132.3;43.6;44.0;15;14.4;25.2;0.0;
03/03/2025 01:42:40;100;0;308.44;-4;-19.89;-4.36;476.9;14.10;75984;2836.348;-1800.012;1;315;-130;-133.9;43.6;43.9;15;14.4;25.2;0.0;
03/03/2025 01:43:00;100;0;310.73;-4;-19.55;-4.38;479.8;14.00;75959;2836.351;-1800.016;1;315;-130;-133.9;43.6;43.9;15;14.4;25.2;0.0;
03/03/2025 01:43:20;100;0;312.11;-4;-20.05;-4.38;482.7;14.00;75965;2836.355;-1800.020;1;315;-130;-133.9;43.6;43.9;15;14.4;25.2;0.0;
03/03/2025 01:43:40;100;0;313.72;-4;-19.83;-4.31;485.7;14.00;75960;2836.358;-1800.023;1;315;-130;-133.9;43.6;43.9;15;14.4;25.2;0.0;
03/03/2025 01:44:00;100;0;315.03;-4;-20.09;-4.31;488.6;13.90;75952;2836.362;-1800.027;1;315;-130;-132.3;43.6;44.0;15;14.4;25.2;0.0;
03/03/2025 01:44:20;100;0;316.37;-4;-20.01;-4.31;491.7;13.90;75955;2836.366;-1800.030;1;315;-130;-132.3;43.6;43.9;15;14.4;25.2;0.0;
03/03/2025 01:44:40;100;0;319.42;-4;-20.23;-4.39;494.6;13.90;75956;2836.369;-1800.034;1;315;-130;-132.3;43.6;44.0;18;18.1;25.2;0.0;
03/03/2025 01:45:00;100;0;320.63;-4;-19.99;-2.23;497.7;13.90;75937;2836.374;-1800.037;1;315;-130;-133.9;43.6;44.0;18;18.1;25.2;0.0;
03/03/2025 01:45:20;100;0;321.73;-4;-20.27;-2.35;500.6;13.80;75934;2836.377;-1800.040;1;315;-130;-133.9;43.6;43.9;20;19.9;25.2;0.0;
03/03/2025 01:45:40;100;0;320.61;-4;-20.75;-1.26;503.7;13.80;75937;2836.381;-1800.044;1;315;-130;-133.9;43.6;43.9;18;18.1;25.2;0.0;
03/03/2025 01:46:00;100;0;320.37;-4;-20.68;-2.54;506.8;13.80;75924;2836.385;-1800.047;1;315;-130;-133.9;43.6;43.9;18;18.1;25.2;0.0;
03/03/2025 01:46:20;100;0;321.47;-4;-20.53;-2.52;510.0;13.80;75921;2836.389;-1800.050;1;315;-130;-133.9;43.6;43.9;18;18.1;25.2;0.0;
03/03/2025 01:46:40;100;0;321.64;-4;-20.11;-2.54;513.2;13.80;75918;2836.393;-1800.054;1;315;-130;-133.9;43.6;44.0;18;18.1;25.2;0.0;
03/03/2025 01:47:00;100;0;320.47;-4;-19.75;-2.54;516.5;13.70;75907;2836.398;-1800.057;1;315;-130;-133.9;43.6;43.9;18;18.1;25.2;0.0;
03/03/2025 01:47:20;100;0;318.53;-4;-20.11;-2.58;519.5;13.70;75916;2836.402;-1800.061;1;315;-130;-133.9;43.6;43.9;18;18.1;25.2;0.0;
03/03/2025 01:47:40;100;0;316.22;-4;-19.93;-2.54;522.6;13.70;75901;2836.405;-1800.064;1;315;-130;-133.9;43.6;43.9;16;15.8;25.2;0.0;
03/03/2025 01:48:00;100;0;315.95;-4;-20.34;-3.65;525.6;13.60;75891;2836.409;-1800.068;1;315;-130;-133.9;43.6;43.9;16;15.3;25.2;0.0;
03/03/2025 01:48:20;100;0;315.80;-4;-20.35;-3.56;528.8;13.60;75889;2836.413;-1800.072;1;315;-130;-132.3;43.6;44.0;16;15.3;25.2;0.0;
03/03/2025 01:48:40;100;0;317.32;-4;-20.32;-3.69;532.0;13.60;75895;2836.417;-1800.075;1;315;-130;-132.3;43.6;44.2;16;15.3;25.2;0.0;
03/03/2025 01:49:00;100;0;317.48;-4;-19.92;-3.77;535.2;13.60;75892;2836.421;-1800.079;1;315;-130;-135.5;43.6;43.9;16;15.3;25.2;0.0;
03/03/2025 01:49:20;100;0;313.72;-4;-19.92;-3.85;538.2;13.50;75882;2836.425;-1800.083;1;315;-130;-133.9;43.6;43.9;16;15.3;25.2;0.0;
03/03/2025 01:49:40;100;0;310.66;-4;-19.96;-3.80;541.3;13.50;75884;2836.428;-1800.086;1;315;-130;-133.9;43.6;43.9;16;15.3;25.2;0.0;
03/03/2025 01:50:00;100;0;308.03;-4;-19.70;-3.79;544.3;13.50;75869;2836.431;-1800.090;1;315;-130;-133.9;43.6;44.0;16;15.3;25.2;0.0;
03/03/2025 01:50:20;100;0;304.98;-4;-19.82;-3.84;547.3;13.50;75873;2836.435;-1800.095;1;315;-130;-133.9;43.6;43.9;16;15.8;25.2;0.0;
03/03/2025 01:50:40;100;0;303.22;-4;-19.49;-3.77;550.2;13.40;75863;2836.438;-1800.099;1;315;-130;-132.3;43.6;43.9;14;13.5;25.2;0.0;
03/03/2025 01:51:00;100;0;302.15;-4;-19.16;-4.78;553.0;13.40;75864;2836.441;-1800.103;1;315;-130;-133.9;43.6;44.0;14;13.5;25.2;0.0;
03/03/2025 01:51:20;100;0;304.11;-4;-19.28;-4.74;555.7;13.40;75867;2836.444;-1800.107;1;315;-130;-133.9;43.6;43.9;14;13.5;25.2;0.0;
03/03/2025 01:51:40;100;0;304.40;-4;-19.09;-4.78;558.3;13.40;75846;2836.446;-1800.110;1;315;-130;-133.9;43.6;43.9;14;13.5;25.2;0.0;
03/03/2025 01:52:00;100;0;304.17;-4;-19.10;-4.90;561.1;13.30;75848;2836.449;-1800.114;1;315;-130;-133.9;43.6;43.9;14;13.5;25.2;0.0;
03/03/2025 01:52:20;100;0;303.58;-4;-19.33;-4.85;563.6;13.30;75829;2836.452;-1800.118;1;315;-130;-137.1;43.6;43.9;14;13.5;25.2;0.0;
03/03/2025 01:52:40;100;0;304.65;-4;-19.75;-4.85;566.5;13.30;75836;2836.455;-1800.122;1;315;-130;-133.9;43.6;43.9;14;13.5;25.2;0.0;
03/03/2025 01:53:00;100;0;306.11;-4;-19.68;-4.73;569.3;13.30;75839;2836.458;-1800.126;1;315;-130;-133.9;43.6;43.9;14;13.5;25.2;0.0;
03/03/2025 01:53:20;100;0;306.82;-4;-19.71;-4.76;572.1;13.30;75832;2836.461;-1800.130;1;315;-130;-133.9;43.6;43.9;14;13.5;25.2;0.0;
03/03/2025 01:53:40;100;0;307.62;-4;-19.51;-4.74;574.8;13.20;75817;2836.465;-1800.133;1;315;-130;-133.9;43.6;43.9;14;13.5;25.2;0.0;
03/03/2025 01:54:00;100;0;308.89;-4;-19.67;-4.69;577.6;13.20;75814;2836.468;-1800.137;1;315;-130;-133.9;43.6;43.9;14;13.5;25.2;0.0;
03/03/2025 01:54:20;100;0;309.82;-4;-20.31;-4.77;580.6;13.20;75814;2836.471;-1800.141;1;315;-130;-132.3;43.6;44.0;14;13.5;25.2;0.0;
03/03/2025 01:54:40;100;0;312.78;-4;-20.06;-4.75;583.5;13.20;75810;2836.475;-1800.144;1;315;-130;-133.9;43.6;43.9;14;13.5;25.2;0.0;
03/03/2025 01:55:00;100;0;316.49;-4;-19.84;-4.75;586.4;13.10;75800;2836.478;-1800.148;1;315;-130;-132.3;43.6;44.0;16;15.8;25.2;0.0;
03/03/2025 01:55:20;100;0;315.05;-4;-19.94;-3.35;589.4;13.10;75798;2836.482;-1800.151;1;315;-130;-133.9;43.6;43.9;16;16.2;25.2;0.0;
03/03/2025 01:55:40;100;0;315.90;-4;-19.48;-3.33;592.1;13.10;75802;2836.486;-1800.155;1;315;-130;-132.3;43.6;44.0;16;16.2;25.2;0.0;
03/03/2025 01:56:00;100;0;315.80;-4;-19.59;-3.55;595.0;13.10;75787;2836.489;-1800.158;1;315;-130;-132.3;43.6;44.0;16;16.2;25.2;0.0;
03/03/2025 01:56:20;100;0;315.85;-4;-19.97;-3.39;597.7;13.10;75789;2836.493;-1800.162;1;315;-130;-133.9;43.6;43.9;16;16.2;25.2;0.0;
03/03/2025 01:56:40;100;0;315.42;-4;-19.70;-3.34;600.7;13.00;75779;2836.496;-1800.165;1;315;-130;-133.9;43.6;44.0;16;16.2;25.2;0.0;
03/03/2025 01:57:00;100;0;315.05;-4;-19.26;-3.50;603.4;13.00;75778;2836.500;-1800.169;1;315;-130;-132.3;43.6;43.9;16;16.2;25.2;0.0;
03/03/2025 01:57:20;100;0;315.02;-4;-19.69;-3.47;606.2;13.00;75772;2836.503;-1800.172;1;315;-130;-133.9;43.6;44.0;16;16.2;25.2;0.0;
03/03/2025 01:57:40;100;0;316.20;-4;-19.66;-3.45;608.9;13.00;75764;2836.507;-1800.175;1;315;-130;-135.5;43.6;44.0;16;16.2;25.2;0.0;
03/03/2025 01:58:00;100;0;317.51;-4;-19.59;-3.43;611.8;13.00;75767;2836.510;-1800.178;1;315;-130;-132.3;43.6;43.9;16;16.2;25.2;0.0;
03/03/2025 01:58:20;100;0;318.32;-4;-19.44;-3.44;614.7;12.90;75764;2836.514;-1800.182;1;315;-130;-133.9;43.6;43.9;16;16.2;25.2;0.0;
03/03/2025 01:58:40;100;0;319.62;-4;-19.43;-3.40;617.5;12.90;75762;2836.518;-1800.185;1;315;-130;-132.3;43.6;43.9;19;19.4;25.2;0.0;
03/03/2025 01:59:00;100;0;319.92;-4;-19.73;-1.67;620.4;12.90;75760;2836.522;-1800.188;1;315;-130;-133.9;43.6;44.0;19;19.4;25.2;0.0;
03/03/2025 01:59:20;100;0;319.21;-4;-19.82;-1.63;623.1;12.90;75760;2836.525;-1800.192;1;315;-130;-133.9;43.6;43.9;19;19.4;25.2;0.0;
03/03/2025 01:59:40;100;0;319.37;-4;-19.80;-1.73;625.9;12.80;75744;2836.529;-1800.195;1;315;-130;-132.3;43.6;43.9;19;19.9;25.2;0.0;
03/03/2025 02:00:00;100;0;319.25;-4;-20.07;-1.64;628.7;12.80;75739;2836.533;-1800.198;1;315;-130;-133.9;43.6;44.0;19;19.4;25.2;0.0;
03/03/2025 02:00:20;100;0;316.89;-4;-19.93;-1.74;631.5;12.80;75740;2836.536;-1800.201;1;315;-130;-133.9;43.6;43.9;17;17.1;25.2;0.0;
03/03/2025 02:00:40;100;0;312.18;-4;-20.02;-3.24;634.4;12.80;75731;2836.540;-1800.205;1;315;-130;-133.9;43.6;43.9;15;14.4;25.2;0.0;
03/03/2025 02:01:00;100;0;308.29;-4;-19.94;-4.33;637.1;12.70;75728;2836.543;-1800.208;1;315;-130;-133.9;43.6;44.0;15;14.4;25.2;0.0;
03/03/2025 02:01:20;100;0;309.28;-4;-19.53;-4.39;640.1;12.70;75711;2836.546;-1800.212;1;315;-130;-133.9;43.6;43.9;15;14.4;25.2;0.0;
03/03/2025 02:01:40;100;0;310.47;-4;-19.19;-4.47;642.8;12.70;75709;2836.550;-1800.216;1;315;-130;-133.9;43.6;43.9;15;14.4;25.2;0.0;
03/03/2025 02:02:00;100;0;309.86;-4;-18.24;-4.55;645.6;12.70;75699;2836.553;-1800.220;1;315;-130;-133.9;44.1;44.0;15;14.4;25.2;0.0;
03/03/2025 02:02:20;100;0;310.85;-4;-18.84;-4.49;648.2;12.60;75689;2836.556;-1800.223;1;315;-130;-132.3;44.4;44.5;15;14.4;25.2;0.0;
03/03/2025 02:02:40;100;0;312.28;-4;-21.08;-4.48;650.9;12.60;75701;2836.559;-1800.227;1;315;-130;-132.3;44.4;44.6;15;14.4;25.2;0.0;
03/03/2025 02:03:00;100;0;314.17;-4;-20.63;-4.29;653.9;12.60;75683;2836.563;-1800.230;1;315;-130;-133.9;44.4;44.6;15;14.4;25.2;0.0;
03/03/2025 02:03:20;100;0;314.96;-4;-20.06;-4.30;656.8;12.60;75677;2836.567;-1800.234;1;315;-130;-133.9;44.4;44.6;15;14.4;25.2;0.0;
03/03/2025 02:03:40;100;0;315.68;-4;-20.90;-4.34;659.7;12.60;75677;2836.570;-1800.237;1;315;-130;-133.9;44.4;44.6;15;14.4;25.2;0.0;
03/03/2025 02:04:00;100;0;316.22;-4;-20.61;-4.38;662.7;12.50;75678;2836.574;-1800.240;1;315;-130;-133.9;44.4;44.8;17;17.1;25.2;0.0;
03/03/2025 02:04:20;100;0;312.75;-4;-21.50;-2.91;665.7;12.50;75677;2836.577;-1800.244;1;315;-130;-132.3;44.4;44.6;17;17.1;25.2;0.0;
03/03/2025 02:04:40;100;0;312.40;-4;-20.35;-2.79;668.7;12.50;75680;2836.581;-1800.248;1;315;-130;-133.9;44.4;44.6;17;17.1;25.2;0.0;
03/03/2025 02:05:00;100;0;312.68;-4;-21.07;-2.52;671.5;12.50;75662;2836.584;-1800.251;1;315;-130;-133.9;44.4;44.6;17;17.1;25.2;0.0;
03/03/2025 02:05:20;100;0;312.08;-4;-20.49;-2.94;674.5;12.40;75666;2836.587;-1800.255;1;315;-130;-133.9;44.4;44.6;17;17.1;25.2;0.0;
03/03/2025 02:05:40;100;0;307.20;-4;-20.18;-2.98;677.1;12.40;75660;2836.590;-1800.258;1;315;-130;-133.9;44.4;44.6;17;17.1;25.2;0.0;
03/03/2025 02:06:00;100;0;305.49;-4;-21.16;-3.02;679.7;12.40;75649;2836.593;-1800.262;1;315;-130;-133.9;44.4;44.6;15;14.9;25.2;0.0;
03/03/2025 02:06:20;100;0;307.74;-4;-20.18;-4.54;682.2;12.40;75631;2836.596;-1800.265;1;315;-130;-132.3;44.4;44.8;15;14.4;25.2;0.0;
03/03/2025 02:06:40;100;0;303.87;-4;-19.42;-4.57;684.8;12.30;75630;2836.599;-1800.269;1;315;-130;-133.9;44.4;44.6;15;14.4;25.2;0.0;
03/03/2025 02:07:00;100;0;305.42;-4;-20.66;-4.19;687.0;12.30;75630;2836.602;-1800.272;1;315;-130;-133.9;44.4;44.6;15;14.4;25.2;0.0;
03/03/2025 02:07:20;100;0;303.52;-4;-20.62;-4.30;689.6;12.30;75618;2836.604;-1800.276;1;315;-130;-130.6;44.4;44.6;15;14.4;25.2;0.0;
03/03/2025 02:07:40;100;0;307.20;-4;-22.51;-4.36;691.6;12.30;75625;2836.607;-1800.278;1;315;-150;-148.4;43.7;43.7;15;14.4;25.2;0.0;
03/03/2025 02:08:00;100;0;316.09;-4;-19.56;-4.22;694.2;12.30;75661;2836.610;-1800.281;1;315;-150;-151.6;43.7;43.6;17;17.1;25.2;0.0;
03/03/2025 02:08:20;100;0;317.04;-4;-18.95;-2.76;696.6;12.20;75647;2836.613;-1800.284;1;315;-150;-150.0;44.0;44.0;17;17.6;25.2;0.0;
03/03/2025 02:08:40;100;0;317.15;-4;-19.69;-2.78;698.9;12.20;75635;2836.616;-1800.287;1;315;-150;-150.0;44.0;44.3;17;17.6;25.2;0.0;
03/03/2025 02:09:00;100;0;316.61;-4;-19.56;-2.73;701.2;12.20;75630;2836.620;-1800.290;1;315;-150;-151.6;44.0;44.3;17;17.6;25.2;0.0;
03/03/2025 02:09:20;100;0;314.97;-4;-19.72;-2.68;703.4;12.20;75621;2836.622;-1800.293;1;315;-150;-151.6;44.0;44.2;17;17.1;25.2;0.0;
03/03/2025 02:09:40;100;0;313.90;-4;-19.86;-2.67;705.7;12.10;75618;2836.625;-1800.296;1;315;-150;-151.6;44.0;44.3;17;17.6;25.2;0.0;
03/03/2025 02:10:00;100;0;313.24;-4;-19.99;-2.78;707.9;12.10;75616;2836.628;-1800.298;1;315;-150;-151.6;44.0;44.2;17;17.6;25.2;0.0;
03/03/2025 02:10:20;100;0;316.56;-4;-20.80;-2.96;710.4;12.10;75609;2836.632;-1800.301;1;315;-150;-150.0;44.0;44.3;17;17.6;25.2;0.0;
03/03/2025 02:10:40;100;0;319.54;-4;-19.78;-2.87;713.0;12.10;75596;2836.635;-1800.304;1;315;-150;-151.6;44.0;44.2;19;19.0;25.2;0.0;
03/03/2025 02:11:00;100;0;323.72;-4;-18.45;-1.54;715.4;12.10;75592;2836.639;-1800.307;1;315;-150;-150.0;44.5;44.8;24;23.9;25.2;0.0;
03/03/2025 02:11:20;100;0;324.88;-4;-21.11;0.80;717.8;12.00;75585;2836.642;-1800.310;1;315;-150;-151.6;44.5;44.8;27;27.1;25.2;0.0;
03/03/2025 02:11:40;100;0;324.65;-4;-21.34;2.17;720.4;12.00;75581;2836.646;-1800.312;1;315;-150;-151.6;44.5;44.8;27;27.5;25.2;0.0;
03/03/2025 02:12:00;100;0;325.68;-4;-21.16;2.26;722.9;12.00;75573;2836.649;-1800.315;1;315;-150;-150.0;44.5;44.8;29;29.3;25.2;0.0;
03/03/2025 02:12:20;100;0;322.29;-4;-21.32;3.28;725.7;12.00;75566;2836.653;-1800.318;1;315;-150;-151.6;44.5;44.8;22;22.1;25.2;0.0;
03/03/2025 02:12:40;100;0;318.27;-4;-21.04;-0.55;728.3;11.90;75562;2836.656;-1800.321;1;315;-150;-151.6;44.5;44.8;18;18.1;25.2;0.0;
03/03/2025 02:13:00;100;0;315.91;-4;-20.77;-2.64;730.8;11.90;75555;2836.659;-1800.323;1;315;-150;-151.6;44.5;44.8;18;17.6;25.2;0.0;
03/03/2025 02:13:20;100;0;311.76;-4;-21.03;-2.62;733.4;11.90;75550;2836.662;-1800.327;1;315;-150;-151.6;44.5;44.8;16;15.3;25.2;0.0;
03/03/2025 02:13:40;100;0;309.81;-4;-21.09;-3.02;736.2;11.90;75538;2836.666;-1800.330;1;315;-150;-151.6;44.5;44.9;16;16.7;25.2;0.0;
03/03/2025 02:14:00;100;0;306.66;-4;-21.10;-2.96;739.1;11.80;75536;2836.669;-1800.334;1;315;-150;-151.6;44.5;44.9;16;16.7;25.2;0.0;
03/03/2025 02:14:20;100;0;301.43;-4;-20.89;-3.18;741.8;11.80;75534;2836.671;-1800.338;1;315;-150;-153.2;44.5;44.8;16;16.7;25.2;0.0;
03/03/2025 02:14:40;100;0;299.48;-4;-20.95;-3.16;744.6;11.80;75530;2836.674;-1800.342;1;315;-150;-151.6;44.5;44.9;13;13.1;25.2;0.0;
03/03/2025 02:15:01;100;0;299.47;-4;-20.38;-4.99;747.6;11.80;75536;2836.677;-1800.346;1;315;-150;-151.6;44.5;44.8;13;13.1;25.2;0.0;
03/03/2025 02:15:21;100;0;299.62;-4;-20.83;-4.87;750.2;11.80;75540;2836.679;-1800.350;1;315;-150;-151.6;44.5;44.8;13;13.1;25.2;0.0;
03/03/2025 02:15:41;100;0;300.95;-4;-20.85;-4.92;752.9;11.70;75530;2836.682;-1800.353;1;315;-150;-151.6;44.5;44.8;13;13.1;25.2;0.0;
03/03/2025 02:16:01;100;0;301.56;-4;-20.34;-4.95;755.9;11.70;75516;2836.685;-1800.358;1;315;-150;-150.0;44.5;44.8;13;13.1;25.2;0.0;
03/03/2025 02:16:21;100;0;302.02;-4;-20.39;-5.14;758.6;11.70;75513;2836.688;-1800.362;1;315;-150;-151.6;44.5;44.8;15;14.9;25.2;0.0;
03/03/2025 02:16:41;100;0;297.52;-4;-20.62;-3.84;761.2;11.70;75507;2836.690;-1800.365;1;315;-150;-151.6;44.5;44.9;11;10.8;25.2;0.0;
03/03/2025 02:17:01;100;0;297.52;-4;-20.61;-6.28;764.0;11.60;75508;2836.693;-1800.369;1;315;-150;-150.0;44.5;44.8;11;10.4;25.2;0.0;
03/03/2025 02:17:21;100;0;299.42;-4;-20.08;-6.27;766.7;11.60;75502;2836.695;-1800.373;1;315;-150;-151.6;44.5;44.8;13;13.1;25.2;0.0;
03/03/2025 02:17:41;100;0;299.50;-4;-20.39;-4.84;769.2;11.60;75502;2836.698;-1800.377;1;315;-150;-153.2;44.5;44.9;13;13.5;25.2;0.0;
03/03/2025 02:18:01;100;0;296.67;-4;-20.83;-4.77;771.9;11.60;75498;2836.700;-1800.381;1;315;-150;-151.6;44.5;44.8;10;9.9;25.2;0.0;
03/03/2025 02:18:21;100;0;297.39;-4;-20.49;-6.63;774.6;11.60;75499;2836.703;-1800.385;1;315;-150;-151.6;44.5;44.8;10;9.5;25.2;0.0;
03/03/2025 02:18:41;100;0;293.39;-4;-20.57;-6.36;777.3;11.50;75497;2836.705;-1800.389;1;315;-150;-151.6;44.5;44.8;6;5.9;25.2;0.0;
03/03/2025 02:19:01;100;0;292.61;-4;-20.04;-9.19;779.9;11.50;75487;2836.707;-1800.393;1;315;-150;-150.0;44.5;44.8;6;5.4;25.2;0.0;
03/03/2025 02:19:21;100;0;296.45;-4;-19.42;-8.40;782.7;11.50;75480;2836.710;-1800.397;1;315;-150;-151.6;44.5;44.8;10;9.9;25.2;0.0;
03/03/2025 02:19:41;100;0;294.59;-4;-20.66;-6.46;785.0;11.50;75486;2836.712;-1800.401;1;315;-150;-151.6;44.5;44.8;10;10.4;25.2;0.0;
03/03/2025 02:20:01;100;0;298.83;-4;-20.33;-6.30;787.6;11.40;75482;2836.715;-1800.404;1;315;-150;-151.6;44.5;44.8;12;12.2;25.2;0.0;
03/03/2025 02:20:21;100;0;299.48;-4;-20.15;-5.09;790.5;11.40;75483;2836.718;-1800.409;1;315;-150;-151.6;44.5;44.8;12;12.2;25.2;0.0;
03/03/2025 02:20:41;100;0;300.92;-4;-19.96;-5.38;793.0;11.40;75482;2836.720;-1800.412;1;315;-150;-151.6;44.5;44.8;14;14.0;25.2;0.0;
03/03/2025 02:21:01;100;0;299.60;-4;-19.28;-4.54;795.6;11.40;75463;2836.723;-1800.416;1;315;-150;-151.6;44.5;44.8;14;14.4;25.2;0.0;
03/03/2025 02:21:21;100;0;297.44;-4;-20.51;-4.38;798.0;11.40;75470;2836.725;-1800.420;1;315;-150;-151.6;44.5;44.9;12;12.2;25.2;0.0;
03/03/2025 02:21:41;100;0;293.92;-4;-21.41;-5.49;800.5;11.40;75468;2836.727;-1800.423;1;315;-150;-151.6;44.5;44.8;8;7.7;25.2;0.0;
03/03/2025 02:22:01;100;0;295.01;-4;-20.46;-7.52;803.2;11.30;75452;2836.730;-1800.428;1;315;-150;-151.6;44.5;44.8;8;8.1;25.2;0.0;
03/03/2025 02:22:21;100;0;298.04;-4;-20.24;-7.31;805.8;11.30;75456;2836.732;-1800.431;1;315;-150;-150.0;44.5;44.8;11;10.8;25.2;0.0;
03/03/2025 02:22:41;100;0;299.00;-4;-19.90;-5.73;808.5;11.30;75441;2836.735;-1800.435;1;315;-150;-151.6;44.5;44.8;11;10.8;25.2;0.0;
03/03/2025 02:23:01;100;0;302.34;-4;-20.83;-5.97;811.2;11.30;75437;2836.738;-1800.439;1;315;-150;-151.6;44.5;44.8;14;14.0;25.2;0.0;
03/03/2025 02:23:21;100;0;304.76;-4;-20.82;-4.29;813.8;11.20;75443;2836.740;-1800.443;1;315;-150;-151.6;44.5;44.8;14;14.4;25.2;0.0;
03/03/2025 02:23:41;100;0;307.11;-4;-20.59;-4.32;816.6;11.20;75441;2836.744;-1800.446;1;315;-150;-153.2;44.5;44.8;14;14.4;25.2;0.0;
03/03/2025 02:24:01;100;0;307.76;-4;-20.83;-4.30;819.3;11.20;75433;2836.747;-1800.450;1;315;-150;-151.6;44.5;44.9;14;14.4;25.2;0.0;
03/03/2025 02:24:21;100;0;312.25;-4;-20.25;-4.22;822.0;11.20;75428;2836.750;-1800.453;1;315;-150;-151.6;44.5;44.9;14;14.4;25.2;0.0;
03/03/2025 02:24:41;100;0;313.65;-4;-20.07;-4.25;824.9;11.20;75420;2836.753;-1800.457;1;315;-150;-151.6;44.5;44.9;14;14.4;25.2;0.0;
03/03/2025 02:25:01;100;0;313.78;-4;-20.37;-4.23;827.6;11.10;75413;2836.757;-1800.460;1;315;-150;-151.6;44.5;44.8;14;14.4;25.2;0.0;
03/03/2025 02:25:21;100;0;312.23;-4;-20.44;-4.24;830.4;11.10;75419;2836.760;-1800.464;1;315;-150;-151.6;44.5;44.8;14;14.4;25.2;0.0;
03/03/2025 02:25:41;100;0;312.97;-4;-20.51;-4.26;833.3;11.10;75408;2836.763;-1800.467;1;315;-150;-151.6;44.5;44.8;14;14.4;25.2;0.0;
03/03/2025 02:26:01;100;0;313.88;-4;-20.87;-4.26;836.2;11.10;75420;2836.767;-1800.471;1;315;-150;-151.6;44.5;44.8;16;15.8;25.2;0.0;
03/03/2025 02:26:21;100;0;319.27;-4;-20.80;-3.45;839.2;11.10;75402;2836.771;-1800.474;1;315;-150;-151.6;44.5;44.8;18;18.1;25.2;0.0;
03/03/2025 02:26:41;100;0;318.63;-4;-20.94;-2.31;842.2;11.10;75394;2836.774;-1800.477;1;315;-150;-150.0;44.5;44.9;18;18.1;25.2;0.0;
03/03/2025 02:27:01;100;0;315.59;-4;-20.45;-2.38;845.1;11.00;75394;2836.778;-1800.481;1;315;-150;-151.6;44.5;44.8;16;15.8;25.2;0.0;
03/03/2025 02:27:21;100;0;317.33;-4;-20.76;-3.88;848.3;11.00;75392;2836.782;-1800.484;1;315;-150;-151.6;44.5;44.8;16;15.3;25.2;0.0;
03/03/2025 02:27:41;100;0;316.43;-4;-20.54;-3.91;851.4;11.00;75385;2836.786;-1800.488;1;315;-150;-151.6;44.5;44.8;16;15.3;25.2;0.0;
03/03/2025 02:28:01;100;0;316.88;-4;-20.37;-3.86;854.6;11.00;75388;2836.790;-1800.491;1;315;-150;-151.6;44.5;44.8;16;15.3;25.2;0.0;
03/03/2025 02:28:21;100;0;317.83;-4;-19.40;-3.75;857.5;11.00;75380;2836.793;-1800.495;1;315;-150;-151.6;44.5;44.8;16;15.3;25.2;0.0;
03/03/2025 02:28:41;100;0;322.86;-4;-22.95;-4.37;860.0;11.00;75377;2836.797;-1800.497;1;315;-150;-150.0;43.6;43.3;24;24.4;25.2;0.0;
03/03/2025 02:29:01;100;0;315.78;-4;-18.39;0.69;863.3;10.90;75384;2836.801;-1800.501;1;315;-150;-151.6;44.1;44.3;16;15.3;25.2;0.0;
03/03/2025 02:29:21;100;0;311.11;-4;-18.74;-3.66;866.2;10.90;75373;2836.804;-1800.505;1;315;-150;-151.6;44.4;44.6;16;15.3;25.2;0.0;
03/03/2025 02:29:41;100;0;312.33;-4;-19.14;-3.80;869.1;10.90;75384;2836.808;-1800.509;1;315;-150;-151.6;44.4;44.8;16;15.3;25.2;0.0;
03/03/2025 02:30:01;100;0;314.34;-4;-20.57;-3.94;871.8;10.90;75366;2836.811;-1800.512;1;315;-150;-153.2;44.4;44.8;16;15.3;25.2;0.0;
03/03/2025 02:30:21;100;0;319.57;-4;-20.16;-3.37;874.2;10.90;75358;2836.814;-1800.515;1;315;-150;-151.6;44.4;44.8;20;19.9;25.2;0.0;
03/03/2025 02:30:41;100;0;320.31;-4;-20.09;-1.45;877.1;10.80;75362;2836.818;-1800.518;1;315;-150;-151.6;44.4;44.8;20;19.9;25.2;0.0;
03/03/2025 02:31:01;100;0;319.24;-4;-21.30;-1.24;879.4;10.80;75357;2836.821;-1800.521;1;315;-150;-151.6;44.4;44.8;20;19.9;25.2;0.0;
03/03/2025 02:31:21;100;0;315.29;-4;-20.67;-1.70;882.3;10.80;75344;2836.825;-1800.524;1;315;-150;-151.6;44.4;44.8;16;15.8;25.2;0.0;
03/03/2025 02:31:41;100;0;317.39;-4;-19.86;-3.68;884.9;10.80;75353;2836.828;-1800.527;1;315;-150;-150.0;44.4;44.9;18;18.1;25.2;0.0;
03/03/2025 02:32:01;100;0;316.39;-4;-19.88;-2.58;887.4;10.80;75341;2836.832;-1800.530;1;315;-150;-151.6;44.4;44.8;18;18.1;25.2;0.0;
03/03/2025 02:32:21;100;0;317.08;-4;-19.63;-2.73;889.7;10.70;75334;2836.835;-1800.533;1;315;-150;-151.6;44.4;44.8;18;18.1;25.2;0.0;
03/03/2025 02:32:41;100;0;316.64;-4;-20.83;-2.55;892.2;10.70;75342;2836.838;-1800.536;1;315;-150;-150.0;44.4;44.8;18;18.1;25.2;0.0;
03/03/2025 02:33:01;100;0;317.57;-4;-18.89;-2.72;894.8;10.70;75346;2836.841;-1800.539;1;315;-150;-151.6;44.8;44.8;18;18.1;25.2;0.0;
03/03/2025 02:33:21;100;0;317.21;-4;-20.38;-2.78;897.0;10.70;75339;2836.844;-1800.542;1;315;-150;-151.6;44.8;44.9;18;18.1;25.2;0.0;
03/03/2025 02:33:41;100;0;317.91;-4;-20.45;-2.43;899.5;10.70;75340;2836.848;-1800.545;1;315;-150;-153.2;44.8;44.9;18;18.1;25.2;0.0;
03/03/2025 02:34:01;100;0;316.20;-4;-19.95;-2.63;901.9;10.70;75333;2836.851;-1800.548;1;315;-150;-151.6;44.8;44.9;18;18.1;25.2;0.0;
03/03/2025 02:34:21;100;0;314.69;-4;-19.74;-2.37;904.1;10.60;75331;2836.854;-1800.550;1;315;-150;-150.0;44.8;44.8;18;18.1;25.2;0.0;
03/03/2025 02:34:41;100;0;311.49;-4;-19.90;-2.44;906.2;10.60;75329;2836.857;-1800.553;1;315;-150;-151.6;44.8;44.9;16;15.8;25.2;0.0;
03/03/2025 02:35:01;100;0;311.06;-4;-19.62;-3.70;908.3;10.60;75316;2836.859;-1800.556;1;315;-150;-151.6;44.8;44.8;16;15.8;25.2;0.0;
03/03/2025 02:35:21;100;0;309.79;-4;-20.91;-3.83;910.4;10.60;75332;2836.862;-1800.559;1;315;-150;-150.0;44.8;44.8;16;15.8;25.2;0.0;
03/03/2025 02:35:41;100;0;309.34;-4;-20.93;-4.24;912.6;10.60;75329;2836.865;-1800.562;1;315;-150;-151.6;44.8;44.8;16;15.8;25.2;0.0;
03/03/2025 02:36:01;100;0;309.72;-4;-18.91;-3.33;915.1;10.60;75318;2836.868;-1800.565;1;315;-150;-151.6;45.1;45.1;16;15.8;25.2;0.0;
03/03/2025 02:36:21;100;0;315.73;-4;-18.79;-3.38;917.6;10.60;75327;2836.871;-1800.568;1;315;-150;-151.6;45.5;45.5;16;15.8;25.2;0.0;
03/03/2025 02:36:41;100;0;318.59;-4;-20.83;-4.02;919.7;10.50;75317;2836.874;-1800.571;1;315;-150;-151.6;45.5;45.4;21;21.2;25.2;0.0;
03/03/2025 02:37:01;100;0;322.77;-4;-19.71;-0.71;921.6;10.50;75312;2836.877;-1800.573;1;315;-170;-169.4;45.5;45.4;26;26.2;25.2;0.0;
03/03/2025 02:37:21;100;0;317.33;-4;-22.29;1.48;924.3;10.50;75355;2836.880;-1800.576;1;315;-170;-171.0;44.8;44.5;18;18.1;25.2;0.0;
03/03/2025 02:37:41;100;0;321.04;-4;-19.61;-2.41;927.3;10.50;75355;2836.884;-1800.579;1;315;-170;-174.2;44.8;44.5;20;19.9;25.2;0.0;
03/03/2025 02:38:01;100;0;321.81;-4;-20.97;-1.17;929.8;10.50;75345;2836.887;-1800.582;1;315;-170;-171.0;44.8;44.5;23;23.0;25.2;0.0;
03/03/2025 02:38:21;100;0;318.22;-4;-19.31;0.12;932.4;10.50;75346;2836.891;-1800.585;1;315;-170;-171.0;44.8;44.5;19;19.0;25.2;0.0;
03/03/2025 02:38:41;100;0;318.53;-4;-17.65;-2.34;935.0;10.50;75335;2836.895;-1800.588;1;315;-170;-171.0;45.5;45.7;19;18.5;25.2;0.0;
03/03/2025 02:39:01;100;0;314.21;-4;-21.88;-2.30;936.9;10.40;75341;2836.897;-1800.591;1;315;-190;-191.9;45.5;45.8;19;18.5;25.2;0.0;
03/03/2025 02:39:21;100;0;311.72;-4;-21.87;-2.29;939.8;10.40;75373;2836.900;-1800.594;1;315;-190;-193.5;45.5;45.9;16;15.8;25.2;0.0;
03/03/2025 02:39:41;100;0;312.41;-4;-22.25;-3.55;943.3;10.40;75381;2836.904;-1800.598;1;315;-190;-193.5;44.8;44.8;16;15.8;25.2;0.0;
03/03/2025 02:40:01;100;0;311.51;-4;-20.75;-3.45;946.9;10.40;75378;2836.908;-1800.602;1;315;-190;-193.5;44.8;44.5;16;15.8;25.2;0.0;
03/03/2025 02:40:21;100;0;312.59;-4;-19.96;-3.25;950.1;10.40;75371;2836.912;-1800.606;1;315;-190;-193.5;44.8;44.5;16;15.8;25.2;0.0;
03/03/2025 02:40:41;100;0;304.39;-4;-21.04;-3.44;953.4;10.40;75369;2836.915;-1800.611;1;315;-190;-193.5;44.8;44.5;16;15.3;25.2;0.0;
03/03/2025 02:41:01;100;0;306.94;-4;-20.63;-3.89;956.5;10.30;75375;2836.918;-1800.615;1;315;-190;-193.5;44.8;44.5;16;15.8;25.2;0.0;
03/03/2025 02:41:21;100;0;303.60;-4;-19.89;-5.43;959.7;10.30;75373;2836.921;-1800.619;1;315;-190;-193.5;44.8;44.5;16;15.8;25.2;0.0;
03/03/2025 02:41:41;100;0;301.83;-4;-19.79;-3.65;962.7;10.30;75377;2836.924;-1800.623;1;315;-190;-195.2;44.8;44.5;14;14.0;25.2;0.0;
03/03/2025 02:42:01;100;0;302.77;-4;-19.21;-4.52;965.6;10.30;75366;2836.927;-1800.627;1;315;-190;-195.2;44.8;44.5;14;14.0;25.2;0.0;
03/03/2025 02:42:21;100;0;293.08;-4;-18.18;-4.35;968.2;10.30;75362;2836.930;-1800.632;1;315;-190;-195.2;45.4;45.5;6;5.9;25.2;0.0;
03/03/2025 02:42:41;100;0;295.35;-4;-20.63;-8.40;970.4;10.30;75373;2836.932;-1800.635;1;315;-190;-195.2;45.4;45.5;10;9.9;25.2;0.0;
03/03/2025 02:43:01;100;0;301.93;-4;-21.05;-5.99;972.9;10.30;75365;2836.935;-1800.639;1;315;-190;-193.5;45.4;45.7;15;14.9;25.2;0.0;
03/03/2025 02:43:21;100;0;294.65;-4;-19.61;-4.02;975.2;10.20;75361;2836.937;-1800.642;1;315;-190;-193.5;45.4;45.5;9;9.0;25.2;0.0;
03/03/2025 02:43:41;100;0;289.53;-4;-21.72;-6.89;977.4;10.20;75356;2836.939;-1800.645;1;315;-190;-195.2;45.4;45.5;3;3.2;25.2;0.0;
03/03/2025 02:44:01;100;0;292.10;-4;-22.53;-10.46;978.9;10.20;75368;2836.940;-1800.648;1;315;-210;-211.3;44.6;44.5;13;13.1;25.2;0.0;
03/03/2025 02:44:21;100;0;297.40;-4;-20.52;-4.40;980.6;10.20;75386;2836.942;-1800.650;1;315;-230;-229.0;44.6;44.5;13;13.5;25.2;0.0;
03/03/2025 02:44:41;100;0;298.73;-4;-19.76;-4.29;983.3;10.20;75435;2836.945;-1800.654;1;315;-230;-229.0;44.6;44.5;13;13.5;25.2;0.0;
03/03/2025 02:45:01;100;0;300.65;-4;-19.61;-4.47;985.6;10.20;75438;2836.947;-1800.658;1;315;-230;-229.0;44.6;44.5;15;14.9;25.2;0.0;
03/03/2025 02:45:21;100;0;303.63;-4;-20.47;-2.64;987.9;10.20;75441;2836.950;-1800.661;1;315;-230;-230.6;44.6;44.5;15;15.3;25.2;0.0;
03/03/2025 02:45:41;100;0;306.50;-4;-19.67;-4.33;990.8;10.20;75436;2836.953;-1800.665;1;315;-230;-230.6;44.6;44.5;15;15.3;25.2;0.0;
03/03/2025 02:46:01;100;0;296.55;-4;-16.77;-3.49;992.9;10.20;75438;2836.955;-1800.668;1;315;-230;-230.6;45.6;45.8;11;10.8;25.2;0.0;
03/03/2025 02:46:21;100;0;297.35;-4;-20.89;-6.54;994.4;10.10;75430;2836.957;-1800.671;1;315;-250;-251.6;45.6;45.8;15;14.9;25.2;0.0;
03/03/2025 02:46:41;100;0;285.66;-4;-24.30;-3.22;997.3;10.10;75470;2836.959;-1800.675;1;315;-250;-254.8;44.3;43.9;-7;-7.2;25.2;0.0;
03/03/2025 02:46:56;118;0;292.34;-4;-21.29;-14.56;999.7;10.10;75468;2836.961;-1800.678;1;315;450;-253.2;21.9;21.8;7;7.7;25.2;27.3;
03/03/2025 02:47:06;118;0;66.00;-4;-8.59;-7.55;1001.0;10.10;75457;2836.962;-1800.676;1;315;450;-124.2;21.9;21.5;7;7.2;23.5;-1.0;
03/03/2025 02:47:16;118;0;50.20;-4;15.39;-7.82;1001.4;10.10;75185;2836.963;-1800.676;1;315;450;-0.0;21.9;22.1;7;7.7;23.6;-1.0;
03/03/2025 02:47:26;118;0;40.20;-4;28.90;-8.64;1000.7;10.10;74927;2836.964;-1800.676;1;315;450;124.2;21.9;22.2;7;7.7;23.6;-1.0;
03/03/2025 02:47:36;118;0;36.89;-4;29.94;-8.74;999.6;10.10;74685;2836.965;-1800.675;1;315;450;246.8;21.9;22.2;7;7.7;23.3;-1.0;
03/03/2025 02:47:46;118;0;37.87;-4;27.93;-9.22;998.3;10.10;74436;2836.967;-1800.675;1;315;450;369.4;21.9;22.2;7;7.7;23.5;-1.0;
03/03/2025 02:47:56;118;0;43.16;-4;25.36;-7.86;996.7;10.20;74191;2836.968;-1800.674;1;315;450;451.6;21.9;22.2;7;7.7;23.6;-1.0;
03/03/2025 02:48:06;118;0;290.35;-4;23.23;-7.79;994.8;10.20;74033;2836.970;-1800.676;1;315;450;448.4;21.9;22.2;7;7.7;25.2;-1.0;
03/03/2025 02:48:26;117;0;283.42;-4;19.13;-7.13;991.2;10.20;74027;2836.972;-1800.682;1;315;450;451.6;21.9;22.2;7;7.7;25.2;-1.0;
03/03/2025 02:48:47;117;0;279.00;-4;17.16;-7.36;987.2;10.30;74025;2836.974;-1800.689;1;315;450;451.6;21.1;20.8;65;65.0;25.2;-1.0;
03/03/2025 02:49:07;117;0;290.82;-4;20.46;22.50;984.2;10.40;74029;2836.976;-1800.694;1;315;450;451.6;21.1;20.5;44;44.2;25.2;-1.0;
03/03/2025 02:49:27;117;0;297.22;-4;24.76;11.89;980.4;10.40;74023;2836.979;-1800.698;1;315;450;451.6;22.5;22.7;35;35.2;25.2;-1.0;
03/03/2025 02:49:47;117;0;297.91;-4;20.90;6.34;976.5;10.40;74023;2836.982;-1800.703;1;315;450;450.0;22.5;22.7;35;34.7;25.2;-1.0;
03/03/2025 02:50:07;117;0;298.72;-4;21.47;6.50;973.0;10.40;74022;2836.985;-1800.708;1;315;450;451.6;22.5;22.5;33;32.9;25.2;-1.0;
03/03/2025 02:50:27;117;0;301.37;-4;20.60;5.49;969.4;10.40;74015;2836.988;-1800.713;1;315;450;451.6;22.5;22.7;31;31.1;25.2;-1.0;
03/03/2025 02:50:47;117;0;304.70;-4;19.98;3.45;965.8;10.40;74039;2836.992;-1800.718;1;315;450;451.6;22.5;22.7;31;30.7;25.2;-1.0;
03/03/2025 02:51:07;117;0;306.46;-4;20.48;4.12;962.3;10.40;74025;2836.995;-1800.723;1;315;450;453.2;22.5;22.5;29;28.9;25.2;-1.0;
03/03/2025 02:51:27;117;0;304.17;-4;19.93;3.04;958.7;10.40;74023;2836.999;-1800.727;1;315;450;451.6;22.5;22.5;29;28.4;25.2;-1.0;
03/03/2025 02:51:47;117;0;305.84;-4;20.01;3.24;955.2;10.40;74014;2837.003;-1800.732;1;315;450;451.6;22.5;22.7;29;28.4;25.2;-1.0;
03/03/2025 02:52:07;117;0;307.76;-4;20.80;2.71;952.1;10.40;74014;2837.006;-1800.736;1;315;450;451.6;22.5;22.7;29;28.4;25.2;-1.0;
03/03/2025 02:52:27;117;0;307.29;-4;18.85;3.79;949.0;10.40;74014;2837.009;-1800.740;1;315;450;451.6;22.2;22.1;29;28.4;25.2;-1.0;
03/03/2025 02:52:47;117;0;307.88;-4;21.20;2.84;946.2;10.40;73999;2837.012;-1800.744;1;315;450;451.6;22.2;21.5;29;28.4;25.2;-1.0;
03/03/2025 02:53:07;117;0;309.74;-4;21.34;2.86;943.1;10.30;74010;2837.016;-1800.748;1;315;450;451.6;22.2;21.5;29;28.4;25.2;-1.0;
03/03/2025 02:53:27;117;0;312.22;-4;23.03;2.97;939.6;10.30;74010;2837.019;-1800.752;1;315;450;451.6;23.1;23.1;29;28.0;25.2;-1.0;
03/03/2025 02:53:47;117;0;314.18;-4;21.39;3.32;935.6;10.30;73997;2837.024;-1800.756;1;315;450;451.6;23.1;23.3;29;28.4;25.2;-1.0;
03/03/2025 02:54:07;117;0;314.18;-4;20.36;3.18;931.7;10.30;73998;2837.028;-1800.761;1;315;450;451.6;23.1;23.3;29;28.4;25.2;-1.0;
03/03/2025 02:54:27;117;0;311.45;-4;19.56;4.24;927.6;10.30;73982;2837.033;-1800.766;1;315;450;451.6;23.1;23.3;29;28.4;25.2;-1.0;
03/03/2025 02:54:47;117;0;313.47;-4;18.11;2.86;924.5;10.30;73994;2837.037;-1800.770;1;315;450;451.6;22.5;22.4;29;28.4;25.2;-1.0;
03/03/2025 02:55:07;117;0;310.89;-4;19.26;3.40;921.4;10.30;73983;2837.040;-1800.774;1;315;450;453.2;22.5;22.2;29;28.4;25.2;-1.0;
03/03/2025 02:55:27;117;0;313.24;-4;20.74;2.47;918.1;10.30;73986;2837.044;-1800.778;1;315;450;451.6;22.5;21.8;29;28.4;25.2;-1.0;
03/03/2025 02:55:47;117;0;312.67;-4;20.13;2.78;914.4;10.30;73986;2837.048;-1800.782;1;315;450;451.6;22.5;21.8;29;28.4;25.2;-1.0;
03/03/2025 02:56:07;117;0;311.97;-4;19.89;3.66;911.0;10.20;73980;2837.052;-1800.786;1;315;450;450.0;22.5;21.8;29;28.4;25.2;-1.0;
03/03/2025 02:56:27;117;0;313.09;-4;21.81;3.13;907.6;10.20;73977;2837.056;-1800.790;1;315;450;451.6;22.5;21.8;29;28.0;25.2;-1.0;
03/03/2025 02:56:47;117;0;312.95;-4;19.65;3.24;903.6;10.20;73970;2837.060;-1800.795;1;315;450;450.0;22.5;21.8;29;28.4;25.2;-1.0;
03/03/2025 02:57:07;117;0;314.35;-4;20.22;3.11;900.1;10.20;73958;2837.064;-1800.799;1;315;450;451.6;22.5;21.8;29;28.4;25.2;-1.0;
03/03/2025 02:57:27;117;0;313.73;-4;21.57;2.90;896.8;10.20;73961;2837.068;-1800.803;1;315;450;451.6;22.5;21.8;29;28.4;25.2;-1.0;
03/03/2025 02:57:47;117;0;314.62;-4;21.03;2.70;893.2;10.20;73966;2837.072;-1800.807;1;315;450;451.6;22.5;21.8;29;28.4;25.2;-1.0;
03/03/2025 02:58:07;117;0;312.89;-4;21.19;2.91;889.6;10.20;73950;2837.076;-1800.811;1;315;450;451.6;22.5;21.8;29;28.4;25.2;-1.0;
03/03/2025 02:58:27;117;0;313.45;-4;20.98;3.20;886.3;10.20;73956;2837.080;-1800.815;1;315;450;451.6;22.5;21.8;29;28.4;25.2;-1.0;
03/03/2025 02:58:47;117;0;312.52;-4;21.20;3.16;882.9;10.20;73951;2837.084;-1800.819;1;315;450;450.0;22.5;21.8;29;28.4;25.2;-1.0;
03/03/2025 02:59:07;117;0;314.28;-4;20.26;3.27;879.4;10.10;73947;2837.088;-1800.823;1;315;450;451.6;22.5;21.8;29;28.4;25.2;-1.0;
03/03/2025 02:59:27;117;0;316.37;-4;20.80;2.98;876.3;10.10;73951;2837.091;-1800.827;1;315;450;453.2;22.5;21.8;29;28.4;25.2;-1.0;
03/03/2025 02:59:47;117;0;316.33;-4;21.12;3.03;872.7;10.10;73930;2837.096;-1800.831;1;315;450;451.6;22.5;21.8;29;28.4;25.2;-1.0;
03/03/2025 03:00:07;117;0;315.01;-4;21.23;2.78;869.0;10.10;73934;2837.100;-1800.835;1;315;450;451.6;22.5;21.8;29;28.4;25.2;-1.0;
03/03/2025 03:00:27;117;0;315.81;-4;20.35;3.35;865.8;10.10;73929;2837.104;-1800.839;1;315;450;451.6;22.5;21.8;29;28.4;25.2;-1.0;
03/03/2025 03:00:47;117;0;313.05;-4;20.89;3.05;862.4;10.10;73923;2837.107;-1800.843;1;315;450;451.6;22.5;21.8;29;28.4;25.2;-1.0;
03/03/2025 03:01:07;117;0;311.05;-4;20.86;3.05;858.8;10.10;73930;2837.111;-1800.847;1;315;450;453.2;22.5;21.8;29;28.4;25.2;-1.0;
03/03/2025 03:01:27;117;0;311.17;-4;20.94;3.07;855.4;10.10;73921;2837.115;-1800.851;1;315;450;451.6;22.5;21.8;29;28.4;25.2;-1.0;
03/03/2025 03:01:47;117;0;311.88;-4;21.14;3.05;852.0;10.10;73932;2837.119;-1800.855;1;315;450;450.0;22.5;21.9;29;28.4;25.2;-1.0;
03/03/2025 03:02:07;117;0;311.12;-4;20.84;2.95;848.4;10.00;73915;2837.123;-1800.860;1;315;450;450.0;22.5;21.8;29;28.4;25.2;-1.0;
03/03/2025 03:02:27;117;0;310.56;-4;21.11;3.14;844.7;10.00;73919;2837.127;-1800.864;1;315;450;453.2;22.5;21.8;29;28.4;25.2;-1.0;
03/03/2025 03:02:47;117;0;311.80;-4;20.51;3.14;841.1;10.00;73906;2837.131;-1800.868;1;315;450;453.2;22.5;21.8;29;28.4;25.2;-1.0;
03/03/2025 03:03:07;117;0;312.52;-4;20.42;3.05;837.7;10.00;73924;2837.134;-1800.873;1;315;450;451.6;22.5;21.9;29;28.4;25.2;-1.0;
03/03/2025 03:03:27;117;0;312.39;-4;21.11;2.88;834.2;10.00;73916;2837.138;-1800.877;1;315;450;450.0;22.5;21.8;29;28.4;25.2;-1.0;
03/03/2025 03:03:47;117;0;313.96;-4;20.75;3.12;830.2;10.00;73923;2837.143;-1800.881;1;315;450;451.6;22.5;21.8;29;28.4;25.2;-1.0;
03/03/2025 03:04:07;117;0;313.07;-4;21.16;3.18;826.7;10.00;73914;2837.147;-1800.885;1;315;450;451.6;22.5;21.8;29;28.4;25.2;-1.0;
03/03/2025 03:04:27;117;0;312.29;-4;20.87;3.19;822.7;10.00;73921;2837.151;-1800.890;1;315;450;451.6;22.5;21.8;29;28.4;25.2;-1.0;
03/03/2025 03:04:47;117;0;310.54;-4;20.66;3.08;818.9;10.00;73913;2837.155;-1800.895;1;315;450;451.6;22.5;21.9;29;28.4;25.2;-1.0;
03/03/2025 03:05:07;117;0;310.11;-4;20.93;2.88;815.1;10.00;73921;2837.159;-1800.899;1;315;450;451.6;22.5;21.8;29;28.4;25.2;-1.0;
03/03/2025 03:05:27;117;0;309.75;-4;20.91;2.97;811.2;10.00;73921;2837.163;-1800.904;1;315;450;451.6;22.5;21.8;29;28.4;25.2;-1.0;
03/03/2025 03:05:47;117;0;308.65;-4;20.53;3.10;807.1;10.00;73930;2837.167;-1800.909;1;315;450;453.2;22.5;21.8;29;28.4;25.2;-1.0;
03/03/2025 03:06:07;117;0;309.31;-4;20.68;3.09;803.0;10.00;73930;2837.171;-1800.914;1;315;450;453.2;22.5;21.8;29;28.4;25.2;-1.0;
03/03/2025 03:06:27;117;0;309.09;-4;20.86;2.87;798.8;10.00;73938;2837.175;-1800.919;1;315;450;451.6;22.5;21.8;29;28.4;25.2;-1.0;
03/03/2025 03:06:47;117;0;310.69;-4;20.31;3.01;794.8;9.90;73939;2837.180;-1800.924;1;315;450;451.6;22.5;21.8;29;28.4;25.2;-1.0;
03/03/2025 03:07:07;117;0;311.42;-4;19.85;2.90;790.8;10.00;73933;2837.184;-1800.929;1;315;450;451.6;22.5;21.8;29;28.4;25.2;-1.0;
03/03/2025 03:07:27;117;0;312.26;-4;20.88;2.89;787.0;10.00;73933;2837.188;-1800.933;1;315;450;453.2;22.5;21.8;29;28.4;25.2;-1.0;
03/03/2025 03:07:47;117;0;311.94;-4;21.39;2.85;783.0;10.00;73933;2837.192;-1800.938;1;315;450;451.6;22.5;21.8;29;28.4;25.2;-1.0;
03/03/2025 03:08:07;117;0;311.70;-4;20.96;2.89;778.8;10.00;73922;2837.197;-1800.943;1;315;450;451.6;22.5;21.8;29;28.4;25.2;-1.0;
