Timestamp;NavState;SecurityLevel;Heading;Declination;Pitch;Roll;Depth;Temperature;Pa;Lat;Lon;DeadReckoning;DesiredH;BallastCmd;BallastPos;LinCmd;LinPos;AngCmd;AngPos;Voltage;Altitude;
05/03/2025 12:58:16;117;0;127.77;-4;36.08;14.27;102.0;19.60;76444;2837.939;-1757.867;1;121;500;506.5;14.5;14.7;43;46.0;24.7;-1.0;
05/03/2025 12:58:19;110;0;128.09;-4;35.91;11.60;101.1;19.60;76453;2837.939;-1757.867;1;121;-500;241.9;51.6;50.5;-14;-14.4;24.7;-1.0;
05/03/2025 12:58:29;110;0;121.54;-4;24.24;-19.12;99.0;19.60;77187;2837.939;-1757.865;1;121;-500;-140.3;51.6;51.7;-14;-14.0;24.6;0.0;
05/03/2025 12:58:39;110;0;117.01;-4;-2.87;-18.57;98.9;19.60;77956;2837.940;-1757.865;1;121;-500;-501.6;51.6;52.0;-14;-14.4;24.6;0.0;
05/03/2025 12:58:49;110;0;113.43;-4;-18.69;-16.74;101.1;19.60;78704;2837.940;-1757.863;1;121;-500;-501.6;51.6;52.7;-14;-14.0;24.6;0.0;
05/03/2025 12:59:09;100;0;125.00;-4;-28.67;-15.35;108.8;19.70;78674;2837.938;-1757.857;1;121;-500;-509.7;51.6;52.7;-14;-14.4;24.7;0.0;
05/03/2025 12:59:29;100;0;139.46;-4;-33.03;-15.28;120.9;19.70;78676;2837.932;-1757.852;1;121;-500;-509.7;52.2;52.0;15;15.3;24.7;0.0;
05/03/2025 12:59:49;100;0;130.89;-4;-37.38;-4.69;132.8;19.70;78606;2837.929;-1757.846;1;121;-500;-514.5;51.5;51.4;12;12.2;24.7;0.0;
05/03/2025 13:00:09;100;0;128.83;-4;-27.86;-2.64;142.8;19.70;78538;2837.925;-1757.838;1;121;-500;-512.9;53.6;53.6;12;12.2;24.6;0.0;
05/03/2025 13:00:29;100;0;126.26;-4;-34.26;-0.87;149.4;19.60;78495;2837.924;-1757.835;1;121;-500;-514.5;53.6;53.9;10;9.9;24.7;0.0;
05/03/2025 13:00:49;100;0;117.35;-4;-40.46;-3.59;158.3;19.60;78516;2837.923;-1757.831;1;121;-500;-516.1;52.0;51.8;2;1.8;24.7;0.0;
05/03/2025 13:01:09;100;0;114.98;-4;-36.34;-6.59;169.1;19.60;78495;2837.922;-1757.824;1;121;-500;-517.7;52.0;51.7;4;4.1;24.6;0.0;
05/03/2025 13:01:29;100;0;110.39;-4;-35.34;-5.83;178.4;19.50;78434;2837.922;-1757.818;1;121;-500;-516.1;52.0;51.8;-6;-5.9;24.7;0.0;
05/03/2025 13:01:49;100;0;114.41;-4;-35.76;-10.35;187.1;19.50;78412;2837.921;-1757.812;1;121;-500;-516.1;52.0;51.8;-1;-0.5;24.6;0.0;
05/03/2025 13:02:09;100;0;113.47;-4;-35.69;-8.16;196.0;19.40;78397;2837.920;-1757.807;1;121;-500;-519.4;52.0;51.7;-1;-0.5;24.6;0.0;
05/03/2025 13:02:15;118;0;114.03;-4;-35.19;-7.36;198.5;19.40;78389;2837.920;-1757.805;1;121;500;-519.4;15.7;15.8;14;14.4;24.7;0.0;
05/03/2025 13:02:25;118;0;109.57;-4;-29.38;-2.10;201.8;19.40;78354;2837.920;-1757.802;1;121;500;-390.3;15.7;15.8;14;14.4;24.2;-1.0;
05/03/2025 13:02:35;118;0;103.14;-4;-9.75;-2.27;204.1;19.40;78071;2837.920;-1757.799;1;121;500;-261.3;15.7;15.5;14;14.4;24.2;-1.0;
05/03/2025 13:02:45;118;0;98.49;-4;11.65;-4.18;204.0;19.40;77800;2837.921;-1757.800;1;121;500;-130.6;15.7;15.2;14;14.4;24.2;-1.0;
05/03/2025 13:02:55;118;0;92.51;-4;31.54;-4.86;202.5;19.40;77527;2837.922;-1757.799;1;121;500;-8.1;15.7;15.9;14;14.4;24.2;-1.0;
05/03/2025 13:03:05;118;0;87.75;-4;42.43;-5.19;201.2;19.40;77258;2837.923;-1757.798;1;121;500;112.9;15.7;15.9;14;14.4;24.2;-1.0;
05/03/2025 13:03:15;118;0;88.34;-4;41.72;-5.46;199.8;19.30;76984;2837.924;-1757.798;1;121;500;237.1;15.7;15.9;14;14.4;24.1;-1.0;
05/03/2025 13:03:25;118;0;88.87;-4;38.16;-5.48;198.4;19.30;76717;2837.925;-1757.798;1;121;500;359.7;15.7;15.9;14;14.4;24.1;-1.0;
05/03/2025 13:03:35;118;0;88.12;-4;37.74;-4.81;196.2;19.30;76460;2837.926;-1757.797;1;121;500;469.4;15.7;15.9;14;14.4;24.2;-1.0;
05/03/2025 13:03:45;118;0;86.47;-4;35.39;-4.70;193.3;19.30;76206;2837.927;-1757.795;1;121;500;504.8;15.7;15.9;14;14.4;24.2;-1.0;
05/03/2025 13:03:55;118;0;96.04;-4;33.47;-4.15;189.9;19.30;76136;2837.928;-1757.792;1;121;500;504.8;15.7;15.9;14;14.0;24.6;-1.0;
05/03/2025 13:04:15;117;0;82.77;-4;31.67;-4.07;182.7;19.30;76134;2837.930;-1757.787;1;121;500;504.8;15.7;16.1;14;14.0;24.7;-1.0;
05/03/2025 13:04:35;117;0;72.16;-4;32.02;-4.26;173.9;19.20;76117;2837.935;-1757.780;1;121;500;504.8;14.8;14.7;70;69.9;24.7;-1.0;
05/03/2025 13:04:55;117;0;83.27;-4;33.91;28.62;165.2;19.20;76141;2837.938;-1757.774;1;121;500;504.8;14.5;14.6;70;69.9;24.7;-1.0;
05/03/2025 13:05:15;117;0;101.50;-4;28.74;24.06;156.6;19.20;76164;2837.938;-1757.766;1;121;500;504.8;12.6;12.7;70;69.9;24.6;-1.0;
05/03/2025 13:05:35;117;0;115.67;-4;40.80;29.74;151.3;19.10;76183;2837.938;-1757.764;1;121;500;504.8;14.4;14.4;67;66.3;24.6;-1.0;
05/03/2025 13:05:55;117;0;123.67;-4;39.35;24.31;143.2;19.10;76188;2837.938;-1757.760;1;121;500;506.5;15.7;15.8;43;42.9;24.7;-1.0;
05/03/2025 13:06:15;117;0;118.60;-4;39.07;12.45;133.6;19.10;76211;2837.936;-1757.755;1;121;500;504.8;16.9;16.9;45;45.1;24.6;-1.0;
05/03/2025 13:06:35;117;0;121.24;-4;33.57;12.68;124.8;19.10;76267;2837.935;-1757.750;1;121;500;504.8;16.5;16.3;42;42.0;24.6;-1.0;
05/03/2025 13:06:55;117;0;111.27;-4;32.50;11.00;117.1;19.10;76310;2837.935;-1757.744;1;121;500;506.5;15.7;15.6;58;58.2;24.6;-1.0;
05/03/2025 13:07:15;117;0;115.25;-4;31.21;19.78;109.7;19.10;76346;2837.934;-1757.739;1;121;500;506.5;14.6;14.3;50;50.1;24.7;-1.0;
05/03/2025 13:07:35;117;0;119.66;-4;33.08;15.73;102.9;19.10;76377;2837.933;-1757.735;1;121;500;506.5;14.0;13.8;46;46.0;24.6;-1.0;
05/03/2025 13:07:55;117;0;122.30;-4;34.56;13.23;96.2;19.10;76383;2837.932;-1757.731;1;121;500;506.5;14.0;13.8;44;44.2;24.6;-1.0;
05/03/2025 13:08:15;117;0;124.33;-4;35.34;12.80;88.9;19.10;76392;2837.931;-1757.727;1;121;500;506.5;14.0;14.0;42;42.0;24.6;-1.0;
05/03/2025 13:08:35;117;0;125.66;-4;35.72;10.97;81.6;19.20;76394;2837.930;-1757.724;1;121;500;506.5;14.0;13.8;42;41.5;24.7;-1.0;
05/03/2025 13:08:55;117;0;128.78;-4;35.87;11.43;74.1;19.20;76399;2837.929;-1757.720;1;121;500;506.5;14.0;13.8;40;40.2;24.6;-1.0;
05/03/2025 13:09:15;117;0;127.44;-4;35.70;10.60;66.4;19.20;76412;2837.927;-1757.716;1;121;500;504.8;14.0;13.8;40;39.7;24.7;-1.0;
05/03/2025 13:09:35;117;0;126.88;-4;35.47;10.51;58.7;19.20;76428;2837.926;-1757.712;1;121;500;506.5;14.0;14.0;40;39.7;24.7;-1.0;
05/03/2025 13:09:55;117;0;125.70;-4;34.20;10.42;51.6;19.20;76431;2837.925;-1757.709;1;121;500;504.8;14.0;13.8;40;39.7;24.6;-1.0;
05/03/2025 13:10:16;117;0;122.76;-4;35.02;10.13;45.0;19.30;76441;2837.924;-1757.705;1;121;500;508.1;14.0;14.0;44;44.7;24.7;-1.0;
05/03/2025 13:10:36;117;0;121.51;-4;36.03;14.00;38.1;19.30;76443;2837.923;-1757.701;1;121;500;504.8;14.0;13.8;46;46.0;24.6;-1.0;
05/03/2025 13:10:56;117;0;120.91;-4;36.76;14.60;31.0;19.30;76457;2837.923;-1757.698;1;121;500;506.5;14.0;14.0;46;46.5;24.7;-1.0;
05/03/2025 13:11:16;117;0;120.85;-4;35.02;13.87;23.6;19.30;76464;2837.922;-1757.694;1;121;500;504.8;14.0;14.0;46;46.5;24.7;-1.0;
05/03/2025 13:11:36;117;0;122.09;-4;36.41;14.82;16.1;19.30;76465;2837.921;-1757.690;1;121;500;504.8;14.0;14.0;44;44.2;24.6;-1.0;
05/03/2025 13:11:56;117;0;122.17;-4;35.45;11.85;9.1;19.40;76467;2837.920;-1757.686;1;121;500;504.8;14.0;14.0;44;43.8;24.7;-1.0;
05/03/2025 13:12:13;115;0;121.31;-4;35.01;10.88;3.1;19.40;76474;2837.920;-1757.682;1;121;500;504.8;100.0;49.6;0;-0.9;24.7;-1.0;
05/03/2025 13:12:23;115;0;112.86;-4;24.37;-13.02;0.8;19.40;76474;2837.919;-1757.680;1;121;500;506.5;100.0;100.1;0;-0.5;24.6;-1.0;
05/03/2025 13:12:33;115;0;108.73;-4;-32.60;-13.52;0.5;19.40;76480;2837.920;-1757.681;1;121;500;506.5;100.0;100.4;0;-0.5;24.6;-1.0;
05/03/2025 13:12:53;119;0;35.30;-4;-38.26;-3.95;-0.4;19.40;76487;2837.920;-1757.681;1;121;500;506.5;100.0;100.7;0;-0.5;24.7;-1.0;
05/03/2025 13:13:03;119;0;300.71;-4;-57.81;-10.89;-0.2;19.40;76495;2837.886;-1757.722;0;121;500;506.5;100.0;100.7;0;-0.5;24.6;-1.0;
