Timestamp;NavState;SecurityLevel;Heading;Declination;Pitch;Roll;Depth;Temperature;Pa;Lat;Lon;DeadReckoning;DesiredH;BallastCmd;BallastPos;LinCmd;LinPos;AngCmd;AngPos;Voltage;Altitude;
15/02/2025 06:03:39;119;0;188.06;-4;-54.90;-2.11;-0.2;17.60;75828;2836.216;-1757.730;0;327;500;508.1;100.0;100.6;0;0.5;28.5;-1.0;
15/02/2025 06:03:49;116;0;228.61;-4;-62.25;-14.04;-0.1;17.70;75841;2836.215;-1757.730;0;327;500;508.1;100.0;100.6;0;0.9;28.5;-1.0;
15/02/2025 06:04:15;116;0;316.25;-4;-53.50;-1.17;-0.1;17.80;75847;2836.215;-1757.731;0;327;500;509.7;100.0;100.7;0;0.9;28.5;-1.0;
15/02/2025 06:04:35;116;0;12.11;-4;-52.16;-10.26;-0.1;17.80;75851;2836.215;-1757.731;0;-9999;500;508.1;100.0;100.6;0;0.5;28.5;-1.0;
15/02/2025 06:04:51;116;0;21.88;-4;-49.78;-9.88;-0.2;17.80;75857;2836.214;-1757.731;0;218;500;508.1;100.0;100.7;0;0.5;28.5;-1.0;
15/02/2025 06:05:11;116;0;9.72;-4;-54.02;-21.15;-0.2;17.90;75860;2836.215;-1757.731;0;218;500;508.1;100.0;100.6;0;0.5;28.5;-1.0;
15/02/2025 06:06:14;116;0;1.17;-4;-54.32;-13.37;-0.0;18.10;75885;2836.215;-1757.731;0;218;500;508.1;100.0;100.6;0;0.9;28.5;-1.0;
15/02/2025 06:06:52;116;0;359.71;-4;-51.92;-18.95;-0.2;18.20;75891;2836.215;-1757.731;0;-9999;500;508.1;100.0;100.7;0;0.9;28.5;-1.0;
15/02/2025 06:07:03;116;0;19.98;-4;-53.56;-12.66;-0.1;18.20;75896;2836.215;-1757.731;0;218;500;509.7;100.0;100.7;0;0.5;28.5;-1.0;
15/02/2025 06:08:06;116;0;355.10;-4;-53.59;-13.24;-0.2;18.50;75914;2836.215;-1757.731;0;218;500;508.1;100.0;100.6;0;0.5;28.5;-1.0;
15/02/2025 06:09:06;116;0;342.98;-4;-50.42;-8.84;-0.1;18.80;75934;2836.215;-1757.730;0;218;500;508.1;100.0;100.7;0;0.5;28.5;-1.0;
15/02/2025 06:09:26;110;0;354.17;-4;-50.37;-8.43;-0.1;18.80;75941;2836.215;-1757.730;0;218;-50;390.3;100.0;99.9;-9;-9.0;28.5;-1.0;
15/02/2025 06:09:36;110;0;349.10;-4;-55.71;-10.85;0.1;18.90;76292;2836.215;-1757.729;1;218;-50;241.9;100.0;99.7;-9;-9.5;28.5;-1.0;
15/02/2025 06:09:46;110;0;349.75;-4;-63.03;-6.15;0.6;18.90;76540;2836.215;-1757.729;1;218;-50;87.1;100.0;99.7;-9;-9.5;28.5;-1.0;
15/02/2025 06:09:56;110;0;327.62;-4;-67.63;-14.91;0.8;19.00;76855;2836.215;-1757.729;1;218;-50;-50.0;100.0;99.9;-9;-9.5;28.5;-1.0;
15/02/2025 06:10:06;110;0;324.53;-4;-64.94;-11.15;1.0;19.00;77133;2836.215;-1757.729;1;218;-50;-50.0;41.5;41.5;-9;-9.5;28.5;-1.0;
15/02/2025 06:10:26;100;0;346.29;-4;-22.28;-16.44;3.8;19.10;77110;2836.217;-1757.729;1;218;-50;-45.2;41.5;41.1;-9;-9.5;28.5;-1.0;
15/02/2025 06:10:46;100;0;353.56;-4;-16.22;-17.04;6.0;19.10;77125;2836.220;-1757.729;1;218;-50;-43.5;42.7;43.0;70;69.9;28.5;-1.0;
15/02/2025 06:11:06;100;0;352.57;-4;-24.41;23.16;8.2;19.10;77120;2836.222;-1757.729;1;218;-50;-43.5;41.4;41.2;70;70.4;28.5;-1.0;
15/02/2025 06:11:27;100;0;341.26;-4;-21.17;23.90;10.6;19.20;77128;2836.224;-1757.729;1;218;-50;-43.5;41.4;41.1;70;70.4;28.5;-1.0;
15/02/2025 06:11:47;100;0;334.79;-4;-21.78;23.08;13.2;19.20;77138;2836.226;-1757.730;1;218;-50;-43.5;41.4;41.1;70;70.4;28.5;0.0;
15/02/2025 06:12:07;100;0;322.84;-4;-20.27;23.66;15.7;19.20;77141;2836.229;-1757.732;1;218;-50;-43.5;41.4;41.1;70;70.4;28.5;0.0;
15/02/2025 06:12:27;100;0;316.31;-4;-19.14;23.38;18.2;19.20;77154;2836.230;-1757.734;1;217;-50;-41.9;41.4;41.1;70;70.4;28.5;0.0;
15/02/2025 06:12:47;100;0;310.84;-4;-19.28;23.36;20.7;19.20;77148;2836.232;-1757.736;1;217;-50;-41.9;41.4;41.1;70;70.4;28.5;0.0;
15/02/2025 06:13:07;100;0;296.40;-4;-20.60;23.19;23.2;19.20;77158;2836.233;-1757.739;1;217;-50;-41.9;41.4;41.2;70;70.4;28.6;0.0;
15/02/2025 06:13:27;100;0;288.88;-4;-19.75;23.46;25.8;19.20;77164;2836.234;-1757.742;1;217;-50;-43.5;41.4;41.2;70;70.4;28.5;0.0;
15/02/2025 06:13:47;100;0;282.11;-4;-20.46;23.81;28.3;19.20;77158;2836.234;-1757.745;1;217;-50;-41.9;41.4;41.1;70;70.4;28.5;0.0;
15/02/2025 06:14:07;100;0;270.81;-4;-21.97;23.25;30.9;19.30;77163;2836.233;-1757.748;1;217;-50;-41.9;41.4;41.1;63;63.2;28.5;0.0;
15/02/2025 06:14:27;100;0;262.69;-4;-18.95;18.97;33.6;19.30;77176;2836.232;-1757.752;1;217;-50;-43.5;41.7;41.8;55;55.1;28.5;0.0;
15/02/2025 06:14:47;100;0;253.08;-4;-18.45;15.22;36.0;19.30;77165;2836.231;-1757.755;1;217;-50;-41.9;42.1;42.4;38;37.5;28.5;0.0;
15/02/2025 06:15:07;100;0;245.89;-4;-19.86;6.16;38.4;19.30;77175;2836.229;-1757.757;1;217;-50;-41.9;42.1;42.4;25;24.8;28.5;0.0;
15/02/2025 06:15:27;100;0;243.10;-4;-19.30;0.01;40.7;19.30;77181;2836.227;-1757.760;1;217;-50;-45.2;42.1;42.4;22;22.1;28.5;0.0;
15/02/2025 06:15:47;100;0;240.13;-4;-19.31;-0.98;43.1;19.30;77185;2836.225;-1757.762;1;217;-50;-41.9;42.1;42.4;19;18.5;28.6;0.0;
15/02/2025 06:16:07;100;0;237.22;-4;-19.09;-3.01;45.5;19.40;77195;2836.223;-1757.765;1;217;-50;-41.9;42.1;42.4;16;15.8;28.5;0.0;
15/02/2025 06:16:27;100;0;237.88;-4;-19.04;-4.46;47.8;19.40;77195;2836.221;-1757.767;1;217;-50;-41.9;42.1;42.6;16;15.3;28.5;0.0;
15/02/2025 06:16:47;100;0;237.22;-4;-19.06;-4.54;50.2;19.40;77195;2836.219;-1757.770;1;217;-50;-43.5;42.1;42.4;16;15.3;28.5;0.0;
15/02/2025 06:17:07;100;0;237.37;-4;-18.87;-4.46;52.6;19.40;77197;2836.216;-1757.772;1;217;-50;-41.9;42.5;42.4;16;15.3;28.5;0.0;
15/02/2025 06:17:27;100;0;239.30;-4;-18.75;-4.52;55.0;19.40;77205;2836.214;-1757.775;1;217;-50;-43.5;42.9;43.2;18;18.1;28.5;0.0;
15/02/2025 06:17:47;100;0;240.67;-4;-19.95;-2.81;57.4;19.40;77205;2836.212;-1757.778;1;217;-50;-41.9;42.9;43.2;18;19.0;28.5;0.0;
15/02/2025 06:18:07;100;0;239.99;-4;-19.93;-2.85;59.7;19.40;77210;2836.210;-1757.780;1;217;-50;-41.9;42.9;43.2;18;18.5;28.5;0.0;
15/02/2025 06:18:27;100;0;239.62;-4;-20.15;-2.78;62.1;19.40;77201;2836.208;-1757.782;1;217;-50;-41.9;42.9;43.2;18;18.5;28.5;0.0;
15/02/2025 06:18:47;100;0;238.43;-4;-20.48;-2.77;64.6;19.40;77212;2836.206;-1757.785;1;217;-50;-41.9;42.9;43.2;18;18.5;28.5;0.0;
15/02/2025 06:19:07;100;0;238.46;-4;-19.98;-2.72;66.9;19.40;77215;2836.204;-1757.787;1;217;-50;-41.9;42.9;43.0;18;19.0;28.5;0.0;
15/02/2025 06:19:27;100;0;238.76;-4;-19.92;-2.77;69.3;19.40;77215;2836.202;-1757.790;1;217;-50;-43.5;42.9;43.0;18;18.5;28.5;0.0;
15/02/2025 06:19:47;100;0;239.93;-4;-20.14;-2.68;71.8;19.40;77228;2836.200;-1757.792;1;217;-50;-43.5;42.9;43.0;18;18.5;28.6;0.0;
15/02/2025 06:20:07;100;0;241.21;-4;-20.25;-2.74;74.2;19.40;77225;2836.198;-1757.795;1;217;-50;-41.9;42.9;43.2;20;19.9;28.5;0.0;
15/02/2025 06:20:27;100;0;239.47;-4;-20.34;-1.87;76.7;19.40;77226;2836.196;-1757.798;1;216;-50;-43.5;42.9;43.0;20;20.3;28.5;0.0;
15/02/2025 06:20:47;100;0;237.65;-4;-20.35;-1.76;79.2;19.40;77237;2836.194;-1757.800;1;216;-50;-41.9;42.9;43.2;18;18.1;28.5;0.0;
15/02/2025 06:21:07;100;0;236.84;-4;-20.55;-3.35;81.8;19.50;77239;2836.192;-1757.803;1;216;-50;-41.9;42.9;43.2;18;17.6;28.5;0.0;
15/02/2025 06:21:27;100;0;236.16;-4;-20.18;-3.30;84.4;19.50;77239;2836.189;-1757.805;1;216;-50;-41.9;42.9;43.2;18;17.6;28.5;0.0;
15/02/2025 06:21:47;100;0;235.63;-4;-20.66;-3.36;86.9;19.50;77234;2836.187;-1757.808;1;216;-50;-41.9;42.9;43.2;18;17.6;28.5;0.0;
15/02/2025 06:22:07;100;0;235.99;-4;-20.44;-3.34;89.4;19.50;77242;2836.185;-1757.810;1;216;-50;-41.9;42.9;43.2;18;17.6;28.5;0.0;
15/02/2025 06:22:27;100;0;235.53;-4;-20.05;-3.22;91.9;19.50;77242;2836.182;-1757.813;1;216;-50;-41.9;42.9;43.2;18;17.6;28.5;0.0;
15/02/2025 06:22:47;100;0;235.30;-4;-20.16;-3.30;94.3;19.50;77251;2836.180;-1757.815;1;216;-50;-43.5;42.9;43.2;18;17.6;28.5;0.0;
15/02/2025 06:23:07;100;0;233.84;-4;-20.21;-3.32;96.8;19.50;77260;2836.178;-1757.817;1;216;-50;-41.9;42.9;43.2;16;15.8;28.5;0.0;
15/02/2025 06:23:27;100;0;232.84;-4;-19.88;-4.44;99.2;19.50;77258;2836.175;-1757.820;1;216;-50;-41.9;42.9;43.2;16;15.3;28.5;0.0;
15/02/2025 06:23:47;100;0;229.51;-4;-19.70;-4.58;101.8;19.50;77262;2836.173;-1757.822;1;216;-50;-41.9;42.9;43.2;16;15.3;28.5;0.0;
15/02/2025 06:24:07;100;0;226.37;-4;-19.72;-4.56;104.1;19.50;77270;2836.170;-1757.824;1;216;-50;-45.2;42.9;43.2;16;15.3;28.5;0.0;
15/02/2025 06:24:27;100;0;223.85;-4;-20.04;-4.59;106.4;19.50;77266;2836.168;-1757.826;1;216;-50;-41.9;42.9;43.0;16;15.3;28.5;0.0;
15/02/2025 06:24:47;100;0;221.58;-4;-19.95;-4.57;108.9;19.50;77273;2836.165;-1757.828;1;216;-50;-41.9;42.9;43.2;14;14.0;28.5;0.0;
15/02/2025 06:25:07;100;0;220.60;-4;-19.91;-5.35;111.3;19.50;77276;2836.162;-1757.829;1;216;-50;-41.9;42.9;43.2;14;13.5;28.5;0.0;
15/02/2025 06:25:27;100;0;219.74;-4;-20.02;-5.35;113.8;19.50;77282;2836.159;-1757.831;1;216;-50;-43.5;42.9;43.2;14;13.5;28.5;0.0;
15/02/2025 06:25:47;100;0;220.14;-4;-19.92;-5.41;116.2;19.50;77273;2836.156;-1757.833;1;216;-50;-45.2;42.9;43.0;14;14.0;28.5;0.0;
15/02/2025 06:26:07;100;0;220.70;-4;-19.77;-5.36;118.6;19.50;77276;2836.153;-1757.835;1;216;-50;-41.9;42.9;43.2;14;13.5;28.5;0.0;
15/02/2025 06:26:27;100;0;220.20;-4;-19.91;-5.41;121.0;19.50;77286;2836.150;-1757.836;1;216;-50;-41.9;42.9;43.2;14;14.0;28.6;0.0;
15/02/2025 06:26:47;100;0;220.40;-4;-19.78;-5.38;123.5;19.50;77292;2836.148;-1757.838;1;217;-50;-41.9;42.9;43.2;14;13.5;28.5;0.0;
15/02/2025 06:27:07;100;0;218.35;-4;-19.54;-5.35;125.8;19.50;77288;2836.145;-1757.840;1;217;-50;-43.5;42.9;43.2;10;9.9;28.5;0.0;
15/02/2025 06:27:27;100;0;218.38;-4;-19.63;-7.34;128.2;19.50;77282;2836.142;-1757.841;1;217;-50;-41.9;42.9;43.2;10;9.9;28.5;0.0;
15/02/2025 06:27:47;100;0;217.17;-4;-19.26;-7.42;130.5;19.50;77281;2836.139;-1757.843;1;217;-50;-41.9;42.9;43.2;10;9.5;28.6;0.0;
15/02/2025 06:28:07;100;0;216.06;-4;-18.50;-7.46;132.7;19.50;77263;2836.136;-1757.844;1;217;-50;-41.9;43.3;43.4;7;7.2;28.5;0.0;
15/02/2025 06:28:27;100;0;219.03;-4;-19.66;-8.97;134.7;19.50;77244;2836.134;-1757.846;1;217;-50;-41.9;43.3;43.4;9;9.0;28.5;0.0;
15/02/2025 06:28:47;100;0;220.67;-4;-19.83;-7.31;136.8;19.40;77222;2836.131;-1757.847;1;217;-50;-43.5;43.3;43.6;9;9.5;28.5;0.0;
15/02/2025 06:29:07;100;0;221.48;-4;-20.32;-7.46;138.9;19.50;77213;2836.129;-1757.849;1;217;-50;-41.9;43.3;43.6;12;12.2;28.5;0.0;
15/02/2025 06:29:27;100;0;220.75;-4;-20.56;-5.72;141.2;19.40;77189;2836.126;-1757.850;1;217;-50;-41.9;43.3;43.6;12;13.1;28.5;0.0;
15/02/2025 06:29:47;100;0;213.01;-4;-20.23;-5.75;143.2;19.40;77181;2836.123;-1757.851;1;217;-50;-41.9;43.3;43.7;0;-0.5;28.5;0.0;
15/02/2025 06:30:07;100;0;208.23;-4;-19.94;-12.55;145.4;19.40;77157;2836.120;-1757.852;1;217;-50;-43.5;43.3;43.6;-7;-7.2;28.5;0.0;
15/02/2025 06:30:27;100;0;208.86;-4;-19.70;-15.94;147.6;19.40;77151;2836.117;-1757.853;1;217;-50;-43.5;43.3;43.6;-7;-7.2;28.5;0.0;
15/02/2025 06:30:47;100;0;210.23;-4;-19.51;-15.91;149.6;19.30;77124;2836.115;-1757.854;1;217;-50;-41.9;43.3;43.4;-5;-5.0;28.5;0.0;
15/02/2025 06:31:07;100;0;212.04;-4;-19.64;-14.53;151.7;19.30;77122;2836.112;-1757.855;1;217;-50;-43.5;43.3;43.6;0;0.0;28.5;0.0;
15/02/2025 06:31:27;100;0;211.36;-4;-19.97;-11.94;153.7;19.30;77113;2836.109;-1757.856;1;217;-50;-41.9;43.3;43.6;-3;-3.2;28.5;0.0;
15/02/2025 06:31:47;100;0;215.41;-4;-19.26;-13.82;155.7;19.30;77094;2836.107;-1757.858;1;217;-70;-71.0;43.3;43.6;3;3.2;28.5;0.0;
15/02/2025 06:32:07;100;0;218.52;-4;-18.87;-10.27;157.7;19.30;77140;2836.104;-1757.859;1;217;-90;-91.9;43.6;43.6;8;8.1;28.5;0.0;
15/02/2025 06:32:27;100;0;223.77;-4;-19.15;-7.70;159.9;19.20;77171;2836.101;-1757.861;1;217;-90;-95.2;43.6;43.6;14;14.0;28.5;0.0;
15/02/2025 06:32:47;100;0;226.01;-4;-19.13;-4.69;162.3;19.20;77146;2836.099;-1757.863;1;217;-90;-93.5;43.6;43.6;14;14.4;28.5;0.0;
15/02/2025 06:33:07;100;0;226.70;-4;-19.24;-4.65;164.8;19.10;77131;2836.096;-1757.865;1;217;-90;-93.5;43.6;43.6;14;14.4;28.5;0.0;
15/02/2025 06:33:27;100;0;230.74;-4;-19.49;-4.62;167.3;19.10;77124;2836.093;-1757.867;1;217;-90;-95.2;43.6;43.7;14;14.4;28.5;0.0;
15/02/2025 06:33:47;100;0;229.02;-4;-19.33;-4.62;169.9;19.10;77101;2836.091;-1757.870;1;217;-90;-95.2;43.6;43.6;14;14.4;28.6;0.0;
15/02/2025 06:34:07;100;0;226.13;-4;-19.40;-4.60;172.5;19.00;77091;2836.088;-1757.872;1;217;-90;-93.5;43.6;43.6;14;14.4;28.6;0.0;
15/02/2025 06:34:27;100;0;221.95;-4;-19.20;-4.61;175.1;19.00;77070;2836.085;-1757.874;1;217;-90;-95.2;43.6;43.6;14;14.4;28.5;0.0;
15/02/2025 06:34:47;100;0;216.71;-4;-19.37;-4.62;177.7;19.00;77067;2836.081;-1757.876;1;217;-90;-95.2;43.6;43.6;10;9.9;28.5;0.0;
15/02/2025 06:35:07;100;0;218.24;-4;-19.24;-7.02;180.3;18.90;77037;2836.078;-1757.878;1;217;-90;-95.2;43.6;43.6;10;9.5;28.5;0.0;
15/02/2025 06:35:27;100;0;218.98;-4;-19.03;-7.03;182.8;18.90;77025;2836.075;-1757.880;1;217;-90;-95.2;43.6;43.6;10;9.5;28.6;0.0;
15/02/2025 06:35:47;100;0;220.54;-4;-19.17;-7.02;185.4;18.80;77024;2836.072;-1757.882;1;217;-90;-95.2;43.6;43.6;13;13.1;28.5;0.0;
15/02/2025 06:36:07;100;0;222.53;-4;-19.01;-5.15;187.9;18.80;77004;2836.069;-1757.884;1;217;-90;-95.2;43.6;43.6;13;13.5;28.5;0.0;
15/02/2025 06:36:27;100;0;223.09;-4;-19.30;-5.09;190.4;18.80;76993;2836.066;-1757.886;1;217;-90;-95.2;43.6;43.6;13;13.5;28.6;0.0;
15/02/2025 06:36:47;100;0;224.52;-4;-19.09;-5.13;193.0;18.70;76989;2836.063;-1757.888;1;217;-90;-95.2;43.6;43.6;13;13.5;28.5;0.0;
15/02/2025 06:37:07;100;0;227.75;-4;-18.84;-5.06;195.5;18.70;76982;2836.061;-1757.890;1;217;-90;-95.2;44.0;44.0;13;13.5;28.5;0.0;
15/02/2025 06:37:27;100;0;229.12;-4;-20.33;-5.10;198.1;18.70;76981;2836.058;-1757.893;1;217;-90;-95.2;44.0;44.2;13;13.5;28.5;0.0;
15/02/2025 06:37:47;100;0;228.56;-4;-20.59;-4.99;200.7;18.60;76963;2836.055;-1757.895;1;217;-90;-95.2;44.0;44.2;13;13.5;28.5;0.0;
15/02/2025 06:38:07;100;0;232.09;-4;-20.36;-4.98;203.5;18.60;76956;2836.053;-1757.898;1;217;-90;-95.2;44.0;44.2;13;13.5;28.5;0.0;
15/02/2025 06:38:27;100;0;235.58;-4;-20.24;-5.07;206.2;18.50;76935;2836.050;-1757.900;1;217;-90;-96.8;44.0;44.2;16;15.8;28.5;0.0;
15/02/2025 06:38:47;100;0;233.24;-4;-20.61;-3.61;209.0;18.50;76927;2836.048;-1757.903;1;217;-90;-96.8;44.0;44.2;16;16.2;28.5;0.0;
15/02/2025 06:39:07;100;0;228.87;-4;-20.20;-3.65;211.9;18.40;76906;2836.045;-1757.906;1;217;-90;-95.2;44.0;44.2;14;13.5;28.6;0.0;
15/02/2025 06:39:27;100;0;228.59;-4;-20.78;-5.34;214.6;18.40;76899;2836.042;-1757.908;1;217;-90;-95.2;44.0;44.3;14;13.1;28.6;0.0;
15/02/2025 06:39:47;100;0;227.90;-4;-21.19;-5.32;217.5;18.40;76884;2836.039;-1757.910;1;217;-90;-96.8;44.0;44.2;14;13.5;28.5;0.0;
15/02/2025 06:40:07;100;0;227.06;-4;-20.80;-5.22;220.6;18.30;76869;2836.036;-1757.913;1;217;-90;-96.8;44.0;44.3;14;13.1;28.5;0.0;
15/02/2025 06:40:27;100;0;229.57;-4;-20.64;-5.28;223.6;18.30;76863;2836.033;-1757.916;1;217;-90;-96.8;44.0;44.3;14;13.1;28.6;0.0;
15/02/2025 06:40:47;100;0;232.29;-4;-20.49;-5.28;226.6;18.20;76849;2836.030;-1757.919;1;217;-90;-96.8;44.0;44.2;14;13.1;28.5;0.0;
15/02/2025 06:41:07;100;0;230.16;-4;-20.34;-5.35;229.6;18.20;76829;2836.027;-1757.921;1;217;-90;-98.4;44.0;44.2;14;13.5;28.6;0.0;
15/02/2025 06:41:27;100;0;235.56;-4;-20.20;-5.24;232.5;18.10;76822;2836.025;-1757.924;1;217;-90;-96.8;44.0;44.2;16;15.8;28.5;0.0;
15/02/2025 06:41:47;100;0;237.35;-4;-20.17;-3.87;235.3;18.10;76810;2836.022;-1757.927;1;217;-90;-95.2;44.0;44.2;16;16.2;28.5;0.0;
15/02/2025 06:42:07;100;0;238.93;-4;-20.08;-3.78;238.1;18.00;76801;2836.020;-1757.930;1;217;-90;-96.8;44.0;44.3;18;18.1;28.6;0.0;
15/02/2025 06:42:27;100;0;239.19;-4;-20.47;-2.82;240.9;18.00;76789;2836.018;-1757.933;1;217;-90;-96.8;44.0;44.3;18;18.1;28.6;0.0;
15/02/2025 06:42:47;100;0;238.55;-4;-20.51;-2.90;243.6;18.00;76780;2836.015;-1757.936;1;217;-90;-95.2;44.0;44.2;18;18.1;28.5;0.0;
15/02/2025 06:43:07;100;0;237.95;-4;-20.57;-2.83;246.4;17.90;76775;2836.013;-1757.939;1;217;-90;-96.8;44.0;44.3;18;18.1;28.5;0.0;
15/02/2025 06:43:27;100;0;234.19;-4;-20.91;-2.68;249.2;17.90;76756;2836.011;-1757.941;1;217;-90;-95.2;44.0;44.3;15;14.9;28.5;0.0;
15/02/2025 06:43:47;100;0;232.28;-4;-20.93;-4.70;252.1;17.80;76751;2836.008;-1757.944;1;217;-90;-95.2;44.0;44.3;15;14.4;28.5;0.0;
15/02/2025 06:44:07;100;0;229.48;-4;-20.65;-4.66;254.9;17.80;76740;2836.005;-1757.947;1;217;-90;-96.8;44.0;44.3;15;14.4;28.5;0.0;
15/02/2025 06:44:27;100;0;227.51;-4;-20.67;-4.60;257.8;17.70;76736;2836.002;-1757.949;1;217;-90;-96.8;44.0;44.3;15;14.4;28.6;0.0;
15/02/2025 06:44:47;100;0;226.86;-4;-20.70;-4.69;260.6;17.70;76736;2835.999;-1757.951;1;217;-90;-96.8;44.0;44.2;15;14.4;28.5;0.0;
15/02/2025 06:45:07;100;0;226.41;-4;-20.40;-4.68;263.5;17.60;76726;2835.996;-1757.954;1;217;-90;-96.8;44.0;44.2;15;14.4;28.5;0.0;
15/02/2025 06:45:27;100;0;226.35;-4;-20.62;-4.61;266.4;17.60;76736;2835.993;-1757.956;1;217;-90;-96.8;44.0;44.2;15;14.4;28.5;0.0;
15/02/2025 06:45:47;100;0;223.82;-4;-20.39;-4.59;269.2;17.60;76719;2835.990;-1757.959;1;217;-90;-96.8;44.0;44.2;15;14.4;28.5;0.0;
15/02/2025 06:46:07;100;0;221.50;-4;-21.02;-4.57;272.1;17.50;76712;2835.987;-1757.961;1;217;-90;-96.8;44.0;44.3;15;14.9;28.5;0.0;
15/02/2025 06:46:27;100;0;217.68;-4;-20.61;-4.59;275.0;17.50;76705;2835.984;-1757.963;1;217;-90;-96.8;44.0;44.2;11;10.8;28.5;0.0;
15/02/2025 06:46:47;100;0;213.98;-4;-20.29;-5.96;277.8;17.50;76701;2835.980;-1757.965;1;217;-90;-96.8;44.0;44.3;7;7.2;28.5;0.0;
15/02/2025 06:47:08;100;0;213.30;-4;-20.50;-8.59;280.6;17.40;76687;2835.977;-1757.966;1;217;-90;-96.8;44.0;44.2;7;6.8;28.6;0.0;
15/02/2025 06:47:28;100;0;216.31;-4;-20.47;-8.56;283.5;17.40;76677;2835.973;-1757.968;1;217;-90;-95.2;44.0;44.3;11;11.3;28.5;0.0;
15/02/2025 06:47:48;100;0;219.82;-4;-20.48;-6.08;286.4;17.30;76659;2835.970;-1757.970;1;217;-90;-96.8;44.0;44.2;13;13.1;28.5;0.0;
15/02/2025 06:48:08;100;0;225.03;-4;-20.81;-5.01;289.3;17.30;76656;2835.967;-1757.973;1;217;-90;-96.8;44.0;44.3;13;13.5;28.6;0.0;
15/02/2025 06:48:28;100;0;229.82;-4;-19.82;-5.14;292.3;17.20;76641;2835.964;-1757.975;1;217;-90;-96.8;44.0;44.2;13;13.5;28.5;0.0;
15/02/2025 06:48:48;100;0;232.10;-4;-21.09;-5.11;295.1;17.20;76630;2835.962;-1757.978;1;217;-90;-96.8;44.0;44.2;15;14.9;28.5;0.0;
15/02/2025 06:49:08;100;0;233.75;-4;-20.95;-4.26;298.0;17.20;76627;2835.959;-1757.981;1;217;-90;-96.8;44.0;44.2;15;15.3;28.6;0.0;
15/02/2025 06:49:28;100;0;235.57;-4;-20.55;-4.22;301.0;17.10;76620;2835.956;-1757.984;1;217;-90;-95.2;44.0;44.3;15;15.3;28.5;0.0;
15/02/2025 06:49:48;100;0;238.23;-4;-20.71;-4.13;303.8;17.10;76617;2835.954;-1757.987;1;217;-90;-96.8;44.0;44.2;18;18.1;28.5;0.0;
15/02/2025 06:50:08;100;0;238.71;-4;-21.07;-2.70;306.7;17.00;76621;2835.952;-1757.990;1;217;-90;-95.2;44.0;44.2;18;18.5;28.5;0.0;
15/02/2025 06:50:28;100;0;240.68;-4;-20.69;-2.41;309.7;17.00;76616;2835.949;-1757.993;1;217;-90;-96.8;44.0;44.3;20;19.9;28.6;0.0;
15/02/2025 06:50:48;100;0;240.52;-4;-21.13;-1.76;312.5;17.00;76596;2835.947;-1757.996;1;217;-90;-96.8;44.0;44.2;20;20.3;28.5;0.0;
15/02/2025 06:51:08;100;0;239.45;-4;-21.02;-1.68;315.4;16.90;76596;2835.945;-1757.999;1;217;-90;-95.2;44.0;44.3;20;20.3;28.5;0.0;
15/02/2025 06:51:28;100;0;237.92;-4;-21.13;-1.69;318.4;16.90;76594;2835.942;-1758.002;1;217;-90;-96.8;44.0;44.3;18;18.1;28.5;0.0;
15/02/2025 06:51:48;100;0;232.77;-4;-20.85;-2.97;321.2;16.80;76586;2835.940;-1758.004;1;217;-90;-96.8;44.0;44.3;15;14.4;28.5;0.0;
15/02/2025 06:52:08;100;0;234.78;-4;-20.82;-4.71;324.0;16.80;76579;2835.937;-1758.007;1;217;-90;-96.8;44.0;44.3;15;14.4;28.6;0.0;
15/02/2025 06:52:28;100;0;236.10;-4;-20.69;-4.72;326.9;16.80;76575;2835.935;-1758.010;1;217;-90;-96.8;44.0;44.3;15;14.4;28.5;0.0;
15/02/2025 06:52:48;100;0;236.91;-4;-20.19;-4.76;329.6;16.70;76562;2835.933;-1758.013;1;217;-90;-96.8;44.0;44.2;17;17.1;28.5;0.0;
15/02/2025 06:53:08;100;0;233.89;-4;-20.35;-3.16;332.2;16.70;76555;2835.930;-1758.015;1;217;-90;-95.2;44.0;44.3;15;14.9;28.5;0.0;
15/02/2025 06:53:28;100;0;231.48;-4;-20.61;-4.60;334.9;16.70;76543;2835.928;-1758.017;1;217;-90;-96.8;44.0;44.3;15;14.4;28.6;0.0;
15/02/2025 06:53:48;100;0;228.93;-4;-20.54;-4.60;337.6;16.60;76545;2835.925;-1758.020;1;217;-90;-98.4;44.0;44.3;15;14.4;28.5;0.0;
15/02/2025 06:54:08;100;0;227.19;-4;-20.58;-4.60;340.4;16.60;76529;2835.922;-1758.022;1;217;-90;-96.8;44.0;44.3;15;14.4;28.5;0.0;
15/02/2025 06:54:28;100;0;224.32;-4;-20.83;-4.64;343.1;16.50;76521;2835.919;-1758.024;1;217;-90;-96.8;44.0;44.2;15;14.4;28.6;0.0;
15/02/2025 06:54:48;100;0;219.87;-4;-20.76;-4.65;345.9;16.50;76511;2835.916;-1758.026;1;217;-90;-96.8;44.0;44.2;13;13.1;28.5;0.0;
15/02/2025 06:55:08;100;0;219.42;-4;-20.69;-5.39;348.7;16.50;76513;2835.913;-1758.028;1;217;-90;-96.8;44.0;44.3;13;13.1;28.6;0.0;
15/02/2025 06:55:28;100;0;223.87;-4;-20.16;-5.37;351.4;16.40;76485;2835.910;-1758.030;1;217;-90;-96.8;44.0;44.2;13;13.1;28.5;0.0;
15/02/2025 06:55:48;100;0;225.75;-4;-20.39;-5.42;354.1;16.40;76481;2835.907;-1758.033;1;217;-90;-96.8;44.0;44.2;15;15.3;28.5;0.0;
15/02/2025 06:56:08;100;0;227.91;-4;-20.34;-3.90;356.7;16.40;76484;2835.904;-1758.035;1;217;-90;-96.8;44.0;44.3;15;15.3;28.5;0.0;
15/02/2025 06:56:28;100;0;229.87;-4;-20.09;-3.91;359.3;16.30;76474;2835.902;-1758.037;1;217;-90;-96.8;44.0;44.2;15;15.3;28.5;0.0;
15/02/2025 06:56:48;100;0;231.37;-4;-20.47;-3.92;361.9;16.30;76467;2835.899;-1758.040;1;217;-90;-96.8;44.0;44.3;15;15.3;28.5;0.0;
15/02/2025 06:57:08;100;0;233.98;-4;-20.31;-4.02;364.6;16.30;76463;2835.896;-1758.042;1;217;-90;-96.8;44.0;44.2;15;15.3;28.5;0.0;
15/02/2025 06:57:28;100;0;236.75;-4;-20.54;-3.99;367.2;16.20;76465;2835.894;-1758.045;1;217;-90;-96.8;44.0;44.3;15;15.3;28.5;0.0;
15/02/2025 06:57:48;100;0;238.66;-4;-20.86;-3.92;370.1;16.20;76449;2835.892;-1758.048;1;217;-90;-95.2;44.0;44.2;18;18.1;28.5;0.0;
15/02/2025 06:58:08;100;0;236.54;-4;-20.39;-2.73;372.8;16.20;76437;2835.890;-1758.051;1;217;-90;-96.8;44.0;44.3;18;18.5;28.5;0.0;
15/02/2025 06:58:28;100;0;230.27;-4;-20.51;-2.79;375.4;16.10;76417;2835.887;-1758.053;1;217;-90;-96.8;44.0;44.3;15;14.9;28.5;0.0;
15/02/2025 06:58:48;100;0;226.44;-4;-19.88;-4.32;378.0;16.10;76418;2835.884;-1758.055;1;217;-90;-96.8;44.0;44.3;15;14.9;28.5;0.0;
15/02/2025 06:59:08;100;0;223.24;-4;-20.15;-4.56;380.6;16.10;76409;2835.881;-1758.057;1;217;-90;-95.2;44.0;44.3;15;14.9;28.5;0.0;
15/02/2025 06:59:28;100;0;220.66;-4;-20.40;-4.58;383.2;16.00;76402;2835.878;-1758.059;1;217;-90;-96.8;44.0;44.2;13;13.1;28.5;0.0;
15/02/2025 06:59:48;100;0;218.98;-4;-20.24;-5.31;385.9;16.00;76390;2835.875;-1758.061;1;217;-90;-98.4;44.0;44.3;13;13.1;28.5;0.0;
15/02/2025 07:00:08;100;0;215.49;-4;-20.27;-5.53;388.5;15.90;76391;2835.872;-1758.063;1;217;-90;-96.8;44.0;44.2;9;8.6;28.5;0.0;
15/02/2025 07:00:28;100;0;214.26;-4;-20.00;-7.58;391.2;15.90;76377;2835.869;-1758.065;1;217;-90;-96.8;44.0;44.2;9;8.6;28.5;0.0;
15/02/2025 07:00:48;100;0;214.84;-4;-19.94;-7.59;393.9;15.90;76372;2835.865;-1758.066;1;217;-90;-96.8;44.0;44.2;9;8.6;28.5;0.0;
15/02/2025 07:01:08;100;0;214.33;-4;-19.98;-7.68;396.6;15.80;76373;2835.862;-1758.068;1;217;-90;-96.8;44.0;44.3;9;8.6;28.5;0.0;
15/02/2025 07:01:28;100;0;213.90;-4;-19.94;-7.59;399.3;15.80;76361;2835.859;-1758.070;1;217;-90;-96.8;44.0;44.3;7;6.8;28.6;0.0;
15/02/2025 07:01:48;100;0;214.55;-4;-19.78;-8.19;402.0;15.80;76359;2835.855;-1758.071;1;217;-90;-96.8;44.0;44.3;7;7.7;28.6;0.0;
15/02/2025 07:02:08;100;0;214.90;-4;-20.02;-8.17;404.7;15.70;76349;2835.852;-1758.073;1;217;-90;-96.8;44.0;44.3;7;7.7;28.5;0.0;
15/02/2025 07:02:28;100;0;214.19;-4;-19.88;-8.12;407.5;15.70;76356;2835.848;-1758.075;1;217;-90;-96.8;44.0;44.3;7;7.7;28.5;0.0;
15/02/2025 07:02:48;100;0;215.38;-4;-19.81;-8.18;410.2;15.70;76344;2835.845;-1758.077;1;217;-90;-96.8;44.0;44.3;9;9.5;28.5;0.0;
15/02/2025 07:03:08;100;0;215.78;-4;-20.18;-7.12;413.1;15.70;76344;2835.842;-1758.078;1;217;-90;-96.8;44.0;44.3;9;9.9;28.5;0.0;
15/02/2025 07:03:28;100;0;216.42;-4;-20.20;-6.94;416.0;15.60;76336;2835.838;-1758.080;1;217;-90;-95.2;44.0;44.3;11;10.8;28.5;0.0;
15/02/2025 07:03:48;100;0;216.28;-4;-20.33;-6.26;419.0;15.60;76332;2835.835;-1758.082;1;217;-90;-95.2;44.0;44.3;11;11.3;28.5;0.0;
15/02/2025 07:04:08;100;0;216.58;-4;-20.20;-6.28;422.0;15.60;76325;2835.831;-1758.085;1;217;-90;-96.8;44.0;44.3;11;11.3;28.5;0.0;
15/02/2025 07:04:28;100;0;214.52;-4;-20.03;-6.25;425.1;15.50;76313;2835.827;-1758.087;1;217;-90;-96.8;44.0;44.2;9;9.0;28.5;0.0;
15/02/2025 07:04:48;100;0;214.00;-4;-19.79;-7.46;428.0;15.50;76316;2835.824;-1758.088;1;218;-90;-95.2;44.0;44.3;7;7.2;28.5;0.0;
15/02/2025 07:05:08;100;0;214.28;-4;-19.79;-8.32;430.9;15.50;76312;2835.820;-1758.090;1;218;-90;-96.8;44.0;44.3;7;7.2;28.5;0.0;
15/02/2025 07:05:28;100;0;214.18;-4;-19.74;-8.30;433.9;15.40;76307;2835.816;-1758.092;1;218;-90;-96.8;44.0;44.3;7;7.2;28.5;0.0;
15/02/2025 07:05:48;100;0;214.77;-4;-19.99;-8.31;436.8;15.40;76304;2835.813;-1758.094;1;218;-90;-95.2;44.0;44.3;7;7.2;28.5;0.0;
15/02/2025 07:06:08;100;0;211.47;-4;-19.90;-8.27;439.9;15.40;76299;2835.809;-1758.096;1;218;-90;-95.2;44.0;44.2;3;3.2;28.5;0.0;
15/02/2025 07:06:28;100;0;209.03;-4;-19.54;-10.49;442.7;15.30;76281;2835.805;-1758.097;1;218;-90;-96.8;44.0;44.3;-1;-0.9;28.5;0.0;
15/02/2025 07:06:48;100;0;214.89;-4;-19.37;-12.40;445.6;15.30;76282;2835.802;-1758.099;1;218;-90;-96.8;44.0;44.2;8;8.1;28.5;0.0;
15/02/2025 07:07:08;100;0;221.05;-4;-19.95;-7.59;448.5;15.30;76278;2835.798;-1758.102;1;218;-90;-96.8;44.0;44.2;13;13.1;28.6;0.0;
15/02/2025 07:07:28;100;0;223.49;-4;-19.90;-4.84;451.4;15.20;76258;2835.795;-1758.104;1;218;-90;-96.8;44.0;44.3;13;14.0;28.5;0.0;
15/02/2025 07:07:48;100;0;223.26;-4;-19.82;-4.93;454.3;15.20;76273;2835.792;-1758.106;1;218;-90;-96.8;44.0;44.3;13;14.0;28.5;0.0;
15/02/2025 07:08:08;100;0;225.24;-4;-19.46;-4.90;457.0;15.20;76263;2835.789;-1758.109;1;218;-90;-96.8;44.0;44.2;13;13.5;28.5;0.0;
15/02/2025 07:08:28;100;0;229.38;-4;-18.82;-4.78;459.7;15.20;76250;2835.786;-1758.111;1;218;-90;-96.8;44.3;44.3;13;14.0;28.5;0.0;
15/02/2025 07:08:48;100;0;228.82;-4;-20.27;-4.95;462.4;15.10;76237;2835.783;-1758.114;1;218;-90;-96.8;44.3;44.3;13;14.0;28.5;0.0;
15/02/2025 07:09:08;100;0;231.26;-4;-20.04;-5.10;465.3;15.10;76248;2835.781;-1758.116;1;218;-90;-96.8;44.3;44.3;13;14.0;28.5;0.0;
15/02/2025 07:09:28;100;0;233.26;-4;-20.21;-4.95;468.0;15.10;76231;2835.778;-1758.119;1;218;-90;-96.8;44.3;44.3;13;14.0;28.6;0.0;
15/02/2025 07:09:48;100;0;234.04;-4;-19.90;-4.93;470.8;15.10;76236;2835.776;-1758.122;1;218;-90;-96.8;44.3;44.2;13;14.0;28.5;0.0;
15/02/2025 07:10:08;100;0;235.11;-4;-20.11;-4.94;473.6;15.00;76239;2835.773;-1758.125;1;218;-90;-96.8;44.3;44.3;15;14.9;28.5;0.0;
15/02/2025 07:10:28;100;0;238.31;-4;-20.18;-4.22;476.4;15.00;76238;2835.771;-1758.128;1;218;-90;-96.8;44.3;44.2;17;17.1;28.6;0.0;
15/02/2025 07:10:48;100;0;238.96;-4;-20.07;-3.03;479.2;15.00;76228;2835.768;-1758.131;1;218;-90;-96.8;44.3;44.3;17;17.1;28.5;0.0;
15/02/2025 07:11:08;100;0;237.41;-4;-20.25;-3.20;481.8;15.00;76215;2835.766;-1758.133;1;218;-90;-96.8;44.3;44.3;17;17.6;28.5;0.0;
15/02/2025 07:11:28;100;0;237.29;-4;-20.08;-3.27;484.6;14.90;76222;2835.764;-1758.136;1;218;-90;-96.8;44.3;44.2;17;17.6;28.5;0.0;
15/02/2025 07:11:48;100;0;240.05;-4;-19.77;-3.25;487.2;14.90;76218;2835.761;-1758.139;1;218;-90;-96.8;44.3;44.3;17;17.6;28.5;0.0;
15/02/2025 07:12:08;100;0;239.79;-4;-19.59;-3.02;490.0;14.90;76216;2835.759;-1758.142;1;218;-90;-96.8;44.3;44.3;17;17.6;28.6;0.0;
15/02/2025 07:12:28;100;0;241.92;-4;-20.33;-3.23;492.4;14.90;76212;2835.757;-1758.144;1;218;-90;-100.0;44.3;44.2;19;19.0;28.5;0.0;
15/02/2025 07:12:48;100;0;241.83;-4;-20.11;-2.31;495.1;14.80;76205;2835.755;-1758.147;1;218;-90;-98.4;44.3;44.3;19;19.4;28.5;0.0;
15/02/2025 07:13:08;100;0;240.64;-4;-20.13;-2.23;497.7;14.80;76209;2835.753;-1758.150;1;218;-90;-96.8;44.3;44.3;19;19.4;28.5;0.0;
15/02/2025 07:13:28;100;0;240.37;-4;-20.09;-2.21;500.3;14.80;76204;2835.751;-1758.153;1;217;-90;-96.8;44.3;44.3;19;19.4;28.5;0.0;
15/02/2025 07:13:48;100;0;240.04;-4;-20.20;-2.26;502.8;14.80;76211;2835.749;-1758.156;1;217;-90;-96.8;44.3;44.3;19;19.4;28.5;0.0;
15/02/2025 07:14:08;100;0;238.74;-4;-20.34;-2.20;505.4;14.70;76190;2835.747;-1758.158;1;217;-90;-96.8;44.3;44.3;17;17.1;28.5;0.0;
15/02/2025 07:14:28;100;0;239.48;-4;-20.24;-3.38;508.0;14.70;76191;2835.744;-1758.161;1;217;-90;-96.8;44.3;44.3;19;19.4;28.5;0.0;
15/02/2025 07:14:48;100;0;242.64;-4;-20.29;-2.02;510.7;14.70;76191;2835.742;-1758.164;1;217;-90;-96.8;44.3;44.3;23;23.0;28.5;0.0;
15/02/2025 07:15:08;100;0;240.13;-4;-20.35;-0.23;513.3;14.70;76186;2835.740;-1758.167;1;217;-90;-96.8;44.3;44.3;20;19.4;28.5;0.0;
15/02/2025 07:15:28;100;0;235.54;-4;-20.37;-2.10;515.9;14.70;76174;2835.738;-1758.169;1;217;-90;-96.8;44.3;44.3;15;14.9;28.5;0.0;
15/02/2025 07:15:48;100;0;233.29;-4;-20.39;-4.69;518.6;14.60;76166;2835.735;-1758.172;1;217;-90;-96.8;44.3;44.3;15;14.4;28.5;0.0;
15/02/2025 07:16:08;100;0;230.49;-4;-20.36;-4.58;521.4;14.60;76168;2835.732;-1758.175;1;217;-90;-96.8;44.3;44.3;15;14.4;28.5;0.0;
15/02/2025 07:16:28;100;0;232.19;-4;-19.94;-4.63;524.2;14.60;76141;2835.730;-1758.177;1;217;-90;-96.8;44.3;44.3;15;14.9;28.5;0.0;
15/02/2025 07:16:48;100;0;233.48;-4;-19.83;-4.65;526.9;14.60;76151;2835.727;-1758.180;1;217;-90;-100.0;44.3;44.3;15;14.4;28.5;0.0;
15/02/2025 07:17:08;100;0;234.47;-4;-19.86;-4.68;529.6;14.50;76139;2835.725;-1758.183;1;217;-90;-96.8;44.3;44.3;15;14.4;28.6;0.0;
15/02/2025 07:17:28;100;0;236.17;-4;-19.62;-4.66;532.4;14.50;76135;2835.722;-1758.185;1;217;-90;-96.8;44.3;44.3;15;14.4;28.5;0.0;
15/02/2025 07:17:48;100;0;237.06;-4;-19.53;-4.64;534.9;14.50;76124;2835.720;-1758.188;1;217;-90;-96.8;44.3;44.3;15;14.4;28.5;0.0;
15/02/2025 07:18:08;100;0;237.52;-4;-19.30;-4.65;537.5;14.50;76123;2835.718;-1758.191;1;217;-90;-100.0;44.3;44.3;17;17.1;28.5;0.0;
15/02/2025 07:18:28;100;0;239.76;-4;-19.68;-3.01;540.1;14.40;76119;2835.716;-1758.193;1;217;-90;-98.4;44.3;44.2;20;19.9;28.5;0.0;
15/02/2025 07:18:48;100;0;237.02;-4;-19.79;-1.62;542.7;14.40;76114;2835.713;-1758.196;1;217;-90;-96.8;44.3;44.2;16;15.8;28.5;0.0;
15/02/2025 07:19:08;100;0;233.59;-4;-19.83;-4.16;545.4;14.40;76110;2835.711;-1758.199;1;217;-90;-96.8;44.3;44.3;16;15.3;28.5;0.0;
15/02/2025 07:19:28;100;0;227.59;-4;-19.55;-4.22;548.0;14.40;76091;2835.708;-1758.201;1;217;-90;-96.8;44.3;44.3;16;15.3;28.5;0.0;
15/02/2025 07:19:48;100;0;225.01;-4;-19.80;-4.18;550.6;14.30;76096;2835.705;-1758.203;1;217;-90;-96.8;44.3;44.3;16;15.8;28.5;0.0;
15/02/2025 07:20:08;100;0;223.61;-4;-19.58;-4.16;553.3;14.30;76085;2835.702;-1758.205;1;217;-90;-96.8;44.3;44.2;14;14.0;28.5;0.0;
15/02/2025 07:20:28;100;0;221.53;-4;-19.65;-4.74;556.0;14.30;76079;2835.699;-1758.207;1;217;-90;-96.8;44.3;44.3;14;14.4;28.5;0.0;
15/02/2025 07:20:48;100;0;219.80;-4;-19.61;-4.76;558.8;14.30;76074;2835.696;-1758.210;1;217;-90;-96.8;44.3;44.3;14;14.4;28.6;0.0;
15/02/2025 07:21:08;100;0;215.57;-4;-19.55;-4.67;561.7;14.20;76069;2835.692;-1758.211;1;217;-90;-96.8;44.3;44.3;9;8.6;28.5;0.0;
15/02/2025 07:21:28;100;0;213.39;-4;-19.59;-7.24;564.4;14.20;76066;2835.689;-1758.213;1;217;-90;-98.4;44.3;44.3;6;5.9;28.6;0.0;
15/02/2025 07:21:48;100;0;211.24;-4;-19.42;-9.15;567.2;14.20;76055;2835.685;-1758.215;1;217;-90;-96.8;44.3;44.5;3;3.2;28.5;0.0;
15/02/2025 07:22:09;100;0;214.57;-4;-18.87;-10.54;569.9;14.20;76056;2835.682;-1758.217;1;217;-90;-96.8;44.7;44.9;8;8.1;28.5;0.0;
15/02/2025 07:22:29;100;0;221.42;-4;-20.02;-7.62;572.7;14.10;76049;2835.679;-1758.219;1;217;-90;-95.2;44.7;44.8;14;14.0;28.5;0.0;
15/02/2025 07:22:49;100;0;224.06;-4;-20.42;-4.71;575.4;14.10;76044;2835.676;-1758.221;1;217;-90;-96.8;44.7;44.9;14;14.4;28.5;0.0;
15/02/2025 07:23:09;100;0;228.03;-4;-20.46;-4.67;578.3;14.10;76040;2835.673;-1758.223;1;217;-90;-96.8;44.7;44.9;14;14.4;28.5;0.0;
15/02/2025 07:23:29;100;0;228.34;-4;-20.83;-4.72;581.1;14.10;76027;2835.670;-1758.226;1;217;-90;-96.8;44.7;44.9;14;14.4;28.5;0.0;
15/02/2025 07:23:49;100;0;227.58;-4;-20.68;-4.65;584.0;14.00;76010;2835.667;-1758.228;1;217;-90;-96.8;44.7;44.9;14;14.4;28.5;0.0;
15/02/2025 07:24:09;100;0;226.96;-4;-21.02;-4.80;586.8;14.00;76011;2835.664;-1758.231;1;217;-90;-96.8;44.7;44.9;14;14.4;28.5;0.0;
15/02/2025 07:24:29;100;0;228.59;-4;-20.78;-4.54;589.7;14.00;76011;2835.661;-1758.233;1;217;-90;-96.8;44.7;44.9;14;14.4;28.5;0.0;
15/02/2025 07:24:49;100;0;229.84;-4;-20.75;-4.66;592.6;14.00;76008;2835.659;-1758.236;1;217;-90;-96.8;44.7;44.9;14;14.4;28.5;0.0;
15/02/2025 07:25:09;100;0;231.50;-4;-20.71;-4.68;595.4;13.90;76004;2835.656;-1758.238;1;217;-90;-96.8;44.7;44.8;14;14.4;28.5;0.0;
15/02/2025 07:25:29;100;0;233.01;-4;-20.47;-4.71;598.1;13.90;76001;2835.653;-1758.241;1;217;-90;-96.8;44.7;44.9;14;14.4;28.5;0.0;
15/02/2025 07:25:49;100;0;234.59;-4;-20.78;-4.72;600.9;13.90;75982;2835.651;-1758.244;1;217;-90;-96.8;44.7;44.9;16;15.8;28.5;0.0;
15/02/2025 07:26:09;100;0;234.93;-4;-20.97;-3.73;603.6;13.90;75986;2835.648;-1758.246;1;217;-90;-95.2;44.7;44.9;16;16.2;28.5;0.0;
15/02/2025 07:26:29;100;0;233.03;-4;-21.13;-3.74;606.4;13.80;75982;2835.646;-1758.249;1;217;-90;-96.8;44.7;44.9;16;16.2;28.5;0.0;
15/02/2025 07:26:49;100;0;230.75;-4;-21.16;-3.66;609.3;13.80;75975;2835.643;-1758.252;1;217;-90;-98.4;44.7;44.9;16;16.2;28.5;0.0;
15/02/2025 07:27:09;100;0;228.07;-4;-20.55;-3.72;612.2;13.80;75967;2835.640;-1758.254;1;217;-90;-98.4;44.7;44.9;16;16.2;28.6;0.0;
15/02/2025 07:27:29;100;0;225.96;-4;-20.55;-3.73;614.9;13.80;75957;2835.637;-1758.256;1;217;-90;-96.8;44.7;44.9;16;16.7;28.5;0.0;
15/02/2025 07:27:49;100;0;222.25;-4;-20.23;-3.75;617.6;13.70;75950;2835.634;-1758.258;1;217;-90;-96.8;44.7;44.9;14;14.0;28.5;0.0;
15/02/2025 07:28:09;100;0;223.60;-4;-20.48;-5.24;620.2;13.70;75934;2835.631;-1758.260;1;217;-90;-96.8;44.7;44.9;14;13.5;28.5;0.0;
15/02/2025 07:28:29;100;0;225.51;-4;-20.42;-5.17;622.9;13.70;75930;2835.629;-1758.263;1;217;-90;-100.0;44.7;44.9;14;13.5;28.5;0.0;
15/02/2025 07:28:49;100;0;225.55;-4;-20.71;-5.18;625.7;13.70;75923;2835.626;-1758.265;1;217;-90;-96.8;44.7;44.9;14;13.5;28.5;0.0;
15/02/2025 07:29:09;100;0;224.60;-4;-20.44;-5.24;628.4;13.60;75916;2835.623;-1758.267;1;217;-90;-96.8;44.7;44.9;14;13.5;28.5;0.0;
15/02/2025 07:29:29;100;0;223.39;-4;-20.48;-5.14;631.2;13.60;75912;2835.620;-1758.270;1;217;-90;-96.8;44.7;44.9;14;13.5;28.5;0.0;
15/02/2025 07:29:49;100;0;221.75;-4;-20.33;-5.22;634.1;13.60;75905;2835.616;-1758.272;1;217;-90;-96.8;44.7;44.9;14;13.5;28.5;0.0;
15/02/2025 07:30:09;100;0;221.11;-4;-20.26;-5.19;636.9;13.60;75903;2835.613;-1758.274;1;217;-90;-95.2;44.7;44.9;14;13.5;28.5;0.0;
15/02/2025 07:30:29;100;0;218.40;-4;-20.44;-5.21;639.7;13.50;75890;2835.610;-1758.276;1;218;-90;-96.8;44.7;44.9;11;10.8;28.5;0.0;
15/02/2025 07:30:49;100;0;218.12;-4;-20.58;-6.79;642.6;13.50;75889;2835.607;-1758.278;1;218;-90;-96.8;44.7;44.9;11;10.4;28.5;0.0;
15/02/2025 07:31:09;100;0;218.83;-4;-20.33;-6.81;645.5;13.50;75877;2835.603;-1758.280;1;218;-90;-96.8;44.7;44.9;11;10.4;28.5;0.0;
15/02/2025 07:31:29;100;0;219.70;-4;-20.24;-6.81;648.4;13.40;75876;2835.600;-1758.282;1;218;-90;-96.8;44.7;44.9;11;10.4;28.5;0.0;
15/02/2025 07:31:49;100;0;219.48;-4;-20.03;-6.85;651.2;13.40;75881;2835.597;-1758.284;1;218;-90;-96.8;44.7;44.9;11;10.4;28.5;0.0;
15/02/2025 07:32:09;100;0;220.63;-4;-20.27;-6.84;654.1;13.40;75870;2835.593;-1758.287;1;218;-90;-96.8;44.7;44.9;13;13.1;28.5;0.0;
15/02/2025 07:32:29;100;0;220.54;-4;-20.26;-5.25;657.1;13.40;75866;2835.590;-1758.289;1;218;-90;-96.8;44.7;44.9;13;13.5;28.5;0.0;
15/02/2025 07:32:49;100;0;221.01;-4;-20.32;-5.20;660.0;13.40;75863;2835.587;-1758.291;1;218;-90;-96.8;44.7;44.9;13;13.5;28.5;0.0;
15/02/2025 07:33:09;100;0;221.21;-4;-20.38;-5.22;663.0;13.30;75860;2835.583;-1758.293;1;218;-90;-96.8;44.7;44.9;13;13.5;28.5;0.0;
15/02/2025 07:33:29;100;0;221.51;-4;-20.66;-5.16;666.0;13.30;75849;2835.580;-1758.296;1;218;-90;-96.8;44.7;44.9;13;13.5;28.5;0.0;
15/02/2025 07:33:49;100;0;222.43;-4;-20.51;-5.25;669.0;13.30;75837;2835.577;-1758.298;1;218;-90;-96.8;44.7;44.9;13;13.5;28.5;0.0;
15/02/2025 07:34:09;100;0;223.63;-4;-19.84;-5.23;672.2;13.30;75846;2835.573;-1758.301;1;218;-90;-95.2;44.7;44.9;13;13.5;28.6;0.0;
15/02/2025 07:34:29;100;0;223.67;-4;-20.31;-5.13;675.1;13.30;75841;2835.570;-1758.303;1;218;-90;-96.8;44.7;44.9;13;13.5;28.5;0.0;
15/02/2025 07:34:49;100;0;223.41;-4;-20.05;-5.29;678.1;13.20;75827;2835.567;-1758.306;1;218;-90;-100.0;44.7;44.9;13;13.5;28.5;0.0;
15/02/2025 07:35:09;100;0;223.13;-4;-20.37;-5.52;681.0;13.20;75828;2835.564;-1758.308;1;218;-90;-96.8;44.7;44.9;13;13.1;28.5;0.0;
15/02/2025 07:35:29;100;0;223.67;-4;-20.03;-5.03;683.9;13.20;75831;2835.560;-1758.310;1;218;-90;-96.8;44.7;44.9;13;13.5;28.6;0.0;
15/02/2025 07:35:49;100;0;224.37;-4;-20.07;-5.27;686.9;13.10;75816;2835.557;-1758.313;1;218;-90;-96.8;44.7;44.9;13;13.5;28.5;0.0;
15/02/2025 07:36:09;100;0;224.28;-4;-20.15;-5.29;689.8;13.10;75823;2835.554;-1758.315;1;218;-90;-96.8;44.7;44.9;13;13.5;28.5;0.0;
15/02/2025 07:36:29;100;0;226.02;-4;-20.16;-5.30;692.6;13.10;75807;2835.551;-1758.318;1;218;-90;-100.0;44.7;44.9;13;13.5;28.5;0.0;
15/02/2025 07:36:49;100;0;226.55;-4;-20.37;-5.19;695.4;13.10;75808;2835.548;-1758.320;1;218;-90;-96.8;44.7;44.9;13;13.5;28.5;0.0;
15/02/2025 07:37:09;100;0;230.60;-4;-20.24;-5.19;698.0;13.00;75807;2835.546;-1758.322;1;218;-90;-95.2;44.7;44.9;13;13.1;28.5;0.0;
15/02/2025 07:37:29;100;0;231.34;-4;-20.43;-5.35;700.8;13.00;75791;2835.543;-1758.325;1;218;-90;-96.8;44.7;44.9;13;13.5;28.5;0.0;
15/02/2025 07:37:49;100;0;234.83;-4;-20.21;-5.22;703.5;13.00;75795;2835.540;-1758.328;1;218;-90;-96.8;44.7;44.9;15;14.9;28.5;0.0;
15/02/2025 07:38:09;100;0;237.23;-4;-20.40;-4.21;706.3;13.00;75774;2835.538;-1758.331;1;218;-90;-96.8;44.7;44.9;15;15.3;28.5;0.0;
15/02/2025 07:38:29;100;0;238.20;-4;-20.17;-4.27;709.0;13.00;75769;2835.536;-1758.334;1;218;-90;-95.2;44.7;44.9;17;17.6;28.6;0.0;
15/02/2025 07:38:49;100;0;238.75;-4;-20.16;-3.04;711.7;12.90;75768;2835.533;-1758.336;1;218;-90;-96.8;44.7;44.9;17;18.1;28.5;0.0;
15/02/2025 07:39:09;100;0;237.31;-4;-20.41;-2.99;714.4;12.90;75764;2835.531;-1758.339;1;218;-90;-96.8;44.7;44.9;15;14.9;28.6;0.0;
15/02/2025 07:39:29;100;0;237.40;-4;-20.20;-4.76;717.1;12.90;75767;2835.529;-1758.342;1;218;-90;-96.8;44.7;44.9;15;14.4;28.5;0.0;
15/02/2025 07:39:49;100;0;235.51;-4;-20.62;-4.69;719.9;12.90;75761;2835.526;-1758.345;1;218;-90;-98.4;44.7;44.9;15;14.4;28.5;0.0;
15/02/2025 07:40:09;100;0;233.48;-4;-20.49;-4.74;722.8;12.80;75748;2835.523;-1758.347;1;218;-90;-96.8;44.7;44.9;15;14.4;28.5;0.0;
15/02/2025 07:40:29;100;0;229.11;-4;-20.48;-4.78;725.8;12.80;75736;2835.520;-1758.350;1;218;-90;-96.8;44.7;44.9;15;14.4;28.5;0.0;
15/02/2025 07:40:49;100;0;228.19;-4;-20.33;-4.69;728.8;12.80;75732;2835.517;-1758.353;1;218;-90;-96.8;44.7;44.9;15;14.4;28.5;0.0;
15/02/2025 07:41:09;100;0;227.79;-4;-20.33;-4.73;731.8;12.80;75728;2835.514;-1758.356;1;218;-90;-98.4;44.7;44.9;15;14.4;28.5;0.0;
15/02/2025 07:41:29;100;0;227.96;-4;-20.05;-4.78;734.9;12.70;75721;2835.511;-1758.359;1;218;-90;-96.8;44.7;44.9;15;14.4;28.5;0.0;
15/02/2025 07:41:49;100;0;228.73;-4;-20.45;-4.74;738.0;12.70;75711;2835.508;-1758.361;1;218;-90;-96.8;44.7;44.9;15;14.4;28.5;0.0;
15/02/2025 07:42:09;100;0;228.28;-4;-20.33;-4.77;741.0;12.70;75704;2835.505;-1758.364;1;218;-90;-96.8;44.7;44.9;15;14.4;28.6;0.0;
15/02/2025 07:42:29;100;0;228.24;-4;-20.16;-4.72;744.1;12.70;75711;2835.502;-1758.367;1;218;-90;-98.4;44.7;44.9;15;14.4;28.5;0.0;
15/02/2025 07:42:49;100;0;228.33;-4;-20.35;-4.76;747.1;12.60;75712;2835.499;-1758.370;1;218;-90;-95.2;44.7;44.9;15;14.4;28.5;0.0;
15/02/2025 07:43:09;100;0;228.16;-4;-20.41;-4.78;750.2;12.60;75708;2835.496;-1758.373;1;218;-90;-96.8;44.7;44.9;15;14.4;28.5;0.0;
15/02/2025 07:43:29;100;0;227.80;-4;-20.47;-4.77;753.2;12.60;75699;2835.493;-1758.375;1;218;-90;-95.2;44.7;44.9;15;14.4;28.5;0.0;
15/02/2025 07:43:49;100;0;228.43;-4;-20.20;-4.82;756.4;12.60;75690;2835.489;-1758.378;1;218;-90;-96.8;44.7;44.9;15;14.4;28.5;0.0;
15/02/2025 07:44:09;100;0;228.46;-4;-20.10;-4.80;759.6;12.60;75691;2835.486;-1758.381;1;218;-90;-96.8;44.7;44.8;15;14.4;28.5;0.0;
15/02/2025 07:44:29;100;0;227.62;-4;-20.22;-4.77;762.8;12.50;75686;2835.483;-1758.384;1;218;-90;-96.8;44.7;44.9;15;14.4;28.5;0.0;
15/02/2025 07:44:49;100;0;227.39;-4;-20.18;-4.72;766.0;12.50;75686;2835.480;-1758.387;1;218;-90;-96.8;44.7;44.9;15;14.4;28.5;0.0;
15/02/2025 07:45:09;100;0;227.37;-4;-20.14;-4.73;769.2;12.50;75666;2835.477;-1758.390;1;218;-90;-96.8;44.7;44.9;15;14.4;28.5;0.0;
15/02/2025 07:45:29;100;0;226.39;-4;-19.03;-4.90;772.3;12.50;75663;2835.473;-1758.393;1;218;-90;-95.2;44.7;44.9;15;14.4;28.6;0.0;
15/02/2025 07:45:49;100;0;226.50;-4;-20.03;-4.71;775.4;12.40;75666;2835.470;-1758.396;1;218;-90;-98.4;44.7;44.9;15;14.4;28.5;0.0;
15/02/2025 07:46:09;100;0;224.79;-4;-19.95;-4.83;778.5;12.40;75656;2835.467;-1758.398;1;218;-90;-96.8;44.7;44.9;15;14.4;28.6;0.0;
15/02/2025 07:46:29;100;0;224.81;-4;-19.86;-4.69;781.6;12.40;75649;2835.463;-1758.401;1;218;-90;-96.8;44.7;44.9;15;14.4;28.5;0.0;
15/02/2025 07:46:49;100;0;226.02;-4;-19.57;-4.77;784.7;12.40;75643;2835.460;-1758.404;1;218;-90;-96.8;44.7;44.9;15;14.4;28.5;0.0;
15/02/2025 07:47:09;100;0;224.83;-4;-20.15;-4.89;787.8;12.40;75649;2835.457;-1758.406;1;218;-90;-98.4;44.7;44.9;15;14.4;28.5;0.0;
15/02/2025 07:47:29;100;0;226.88;-4;-19.61;-4.68;790.8;12.30;75644;2835.454;-1758.409;1;218;-90;-96.8;44.7;44.9;15;14.4;28.5;0.0;
15/02/2025 07:47:49;100;0;229.22;-4;-20.38;-4.79;793.8;12.30;75639;2835.451;-1758.412;1;218;-90;-96.8;44.7;44.9;15;14.4;28.5;0.0;
15/02/2025 07:48:09;100;0;230.79;-4;-20.35;-4.83;796.9;12.30;75631;2835.448;-1758.415;1;218;-90;-96.8;44.7;44.9;15;14.4;28.5;0.0;
15/02/2025 07:48:29;100;0;232.64;-4;-20.02;-4.57;799.9;12.30;75629;2835.445;-1758.418;1;218;-90;-98.4;44.7;44.9;15;14.4;28.5;0.0;
15/02/2025 07:48:49;100;0;228.24;-4;-20.30;-4.75;802.9;12.30;75629;2835.442;-1758.420;1;218;-90;-96.8;44.7;44.9;15;14.4;28.5;0.0;
15/02/2025 07:49:09;100;0;227.12;-4;-20.17;-4.75;805.9;12.20;75627;2835.439;-1758.423;1;218;-90;-96.8;44.7;44.9;15;14.4;28.6;0.0;
15/02/2025 07:49:29;100;0;225.86;-4;-19.82;-4.69;808.8;12.20;75624;2835.436;-1758.425;1;218;-90;-96.8;44.7;44.9;15;14.9;28.5;0.0;
15/02/2025 07:49:49;100;0;225.96;-4;-20.05;-4.73;811.7;12.20;75609;2835.433;-1758.428;1;218;-90;-95.2;44.7;44.9;15;14.4;28.5;0.0;
15/02/2025 07:50:09;100;0;228.31;-4;-20.20;-4.79;814.5;12.20;75606;2835.430;-1758.431;1;218;-90;-96.8;44.7;44.9;15;14.4;28.5;0.0;
15/02/2025 07:50:29;100;0;227.52;-4;-19.50;-4.75;817.4;12.10;75594;2835.427;-1758.433;1;218;-90;-96.8;44.7;44.9;15;14.4;28.5;0.0;
15/02/2025 07:50:49;100;0;226.71;-4;-19.58;-4.80;820.1;12.10;75594;2835.424;-1758.435;1;218;-90;-96.8;44.7;44.9;15;14.4;28.5;0.0;
15/02/2025 07:51:09;100;0;228.31;-4;-19.63;-4.81;822.7;12.10;75587;2835.421;-1758.438;1;218;-90;-98.4;44.7;44.9;15;14.4;28.5;0.0;
15/02/2025 07:51:29;100;0;229.73;-4;-19.63;-4.76;825.3;12.10;75572;2835.418;-1758.440;1;218;-90;-96.8;44.7;44.9;15;14.4;28.6;0.0;
15/02/2025 07:51:49;100;0;230.54;-4;-19.66;-4.79;827.9;12.10;75575;2835.416;-1758.442;1;218;-90;-96.8;44.7;44.9;15;14.4;28.6;0.0;
15/02/2025 07:52:09;100;0;230.55;-4;-19.65;-4.66;830.6;12.00;75574;2835.413;-1758.445;1;218;-90;-96.8;44.7;44.9;15;14.4;28.5;0.0;
15/02/2025 07:52:29;100;0;230.89;-4;-19.53;-4.76;833.2;12.00;75562;2835.411;-1758.447;1;218;-90;-96.8;44.7;44.9;15;14.4;28.5;0.0;
15/02/2025 07:52:49;100;0;231.60;-4;-19.88;-4.79;835.6;12.00;75559;2835.408;-1758.450;1;218;-90;-96.8;44.7;44.9;15;14.4;28.5;0.0;
15/02/2025 07:53:09;100;0;231.65;-4;-19.54;-4.81;838.2;12.00;75560;2835.406;-1758.452;1;218;-90;-96.8;44.7;44.9;15;14.4;28.5;0.0;
15/02/2025 07:53:29;100;0;232.18;-4;-20.15;-4.78;840.9;11.90;75538;2835.403;-1758.455;1;218;-90;-96.8;44.7;44.9;15;14.4;28.5;0.0;
15/02/2025 07:53:49;100;0;234.80;-4;-19.74;-4.78;843.5;11.90;75541;2835.401;-1758.457;1;218;-90;-96.8;44.7;44.9;15;14.4;28.5;0.0;
15/02/2025 07:54:09;100;0;235.83;-4;-19.91;-4.78;846.0;11.90;75536;2835.398;-1758.460;1;218;-90;-96.8;44.7;44.9;15;14.4;28.5;0.0;
15/02/2025 07:54:29;100;0;237.10;-4;-19.60;-4.79;848.6;11.90;75538;2835.396;-1758.462;1;218;-90;-96.8;44.7;44.9;15;14.4;28.5;0.0;
15/02/2025 07:54:49;100;0;235.51;-4;-19.27;-4.76;851.1;11.90;75526;2835.394;-1758.465;1;217;-90;-96.8;44.7;44.9;15;14.4;28.6;0.0;
15/02/2025 07:55:09;100;0;233.52;-4;-20.13;-4.87;853.6;11.80;75531;2835.391;-1758.467;1;217;-90;-96.8;44.7;44.9;15;14.4;28.5;0.0;
15/02/2025 07:55:29;100;0;232.58;-4;-20.00;-4.72;856.1;11.80;75507;2835.389;-1758.470;1;217;-90;-96.8;44.7;44.9;15;14.4;28.6;0.0;
15/02/2025 07:55:49;100;0;231.74;-4;-19.85;-4.75;858.7;11.80;75516;2835.386;-1758.472;1;217;-90;-96.8;44.7;44.9;15;14.4;28.5;0.0;
15/02/2025 07:56:09;100;0;231.23;-4;-19.86;-4.82;861.3;11.80;75507;2835.384;-1758.475;1;217;-90;-96.8;44.7;44.9;15;14.4;28.5;0.0;
15/02/2025 07:56:29;100;0;231.19;-4;-19.59;-4.78;863.8;11.70;75503;2835.381;-1758.477;1;217;-90;-98.4;44.7;44.9;15;14.4;28.5;0.0;
15/02/2025 07:56:49;100;0;232.73;-4;-19.72;-4.72;866.2;11.70;75490;2835.379;-1758.479;1;217;-90;-96.8;44.7;44.9;15;14.4;28.6;0.0;
15/02/2025 07:57:09;100;0;235.38;-4;-19.03;-4.81;868.6;11.70;75491;2835.377;-1758.482;1;217;-90;-96.8;44.7;44.9;15;14.4;28.5;0.0;
15/02/2025 07:57:29;100;0;236.43;-4;-19.21;-4.63;870.8;11.70;75471;2835.375;-1758.484;1;217;-90;-96.8;44.7;44.9;15;14.4;28.5;0.0;
15/02/2025 07:57:50;100;0;238.20;-4;-19.92;-4.78;873.1;11.70;75475;2835.373;-1758.486;1;217;-90;-98.4;44.7;44.9;15;14.4;28.5;0.0;
15/02/2025 07:58:10;100;0;239.66;-4;-19.20;-4.78;875.3;11.60;75465;2835.371;-1758.488;1;217;-90;-95.2;44.7;44.9;17;17.1;28.5;0.0;
15/02/2025 07:58:30;100;0;238.94;-4;-18.75;-3.43;877.4;11.60;75469;2835.369;-1758.491;1;217;-90;-96.8;45.1;45.1;17;17.6;28.5;0.0;
15/02/2025 07:58:50;100;0;237.78;-4;-20.70;-3.27;879.4;11.60;75459;2835.367;-1758.493;1;217;-90;-95.2;45.1;45.4;15;14.9;28.5;0.0;
15/02/2025 07:59:10;100;0;237.10;-4;-21.15;-4.69;881.6;11.60;75464;2835.365;-1758.495;1;217;-90;-96.8;45.1;45.4;15;14.4;28.5;0.0;
15/02/2025 07:59:30;100;0;235.08;-4;-19.98;-4.68;883.8;11.50;75453;2835.363;-1758.497;1;217;-90;-96.8;45.1;45.2;15;14.4;28.5;0.0;
15/02/2025 07:59:50;100;0;236.89;-4;-21.63;-4.45;886.1;11.50;75440;2835.361;-1758.499;1;217;-90;-96.8;45.1;45.4;15;14.4;28.5;0.0;
15/02/2025 08:00:10;100;0;238.35;-4;-20.51;-4.74;888.3;11.50;75444;2835.359;-1758.501;1;217;-90;-95.2;45.1;45.4;15;14.9;28.5;0.0;
15/02/2025 08:00:30;100;0;238.75;-4;-20.76;-4.80;890.6;11.50;75436;2835.357;-1758.503;1;217;-90;-96.8;45.1;45.4;15;14.4;28.5;0.0;
15/02/2025 08:00:50;100;0;235.65;-4;-19.74;-4.56;892.9;11.50;75435;2835.355;-1758.505;1;217;-90;-100.0;45.1;45.4;15;14.9;28.6;0.0;
15/02/2025 08:01:10;100;0;235.96;-4;-20.69;-4.68;895.0;11.40;75428;2835.353;-1758.507;1;217;-90;-100.0;45.1;45.4;15;14.9;28.5;0.0;
15/02/2025 08:01:30;100;0;234.83;-4;-19.94;-4.62;897.2;11.40;75421;2835.351;-1758.509;1;217;-90;-96.8;45.1;45.4;15;14.9;28.5;0.0;
15/02/2025 08:01:50;100;0;237.42;-4;-20.24;-4.76;899.5;11.40;75418;2835.349;-1758.512;1;216;-90;-98.4;45.1;45.2;17;17.1;28.5;0.0;
15/02/2025 08:02:10;100;0;237.61;-4;-20.23;-3.11;901.8;11.40;75398;2835.347;-1758.514;1;216;-90;-95.2;45.1;45.4;17;17.6;28.5;0.0;
15/02/2025 08:02:30;100;0;235.31;-4;-20.43;-3.12;904.2;11.30;75409;2835.344;-1758.516;1;216;-90;-96.8;45.1;45.4;17;17.6;28.5;0.0;
15/02/2025 08:02:50;100;0;234.65;-4;-20.06;-3.38;906.5;11.30;75395;2835.342;-1758.518;1;216;-90;-96.8;45.1;45.4;17;17.6;28.5;0.0;
15/02/2025 08:03:10;100;0;233.17;-4;-20.56;-3.27;908.9;11.30;75385;2835.340;-1758.521;1;216;-90;-100.0;45.1;45.4;15;14.9;28.5;0.0;
15/02/2025 08:03:30;100;0;233.06;-4;-20.28;-4.63;911.2;11.30;75386;2835.338;-1758.523;1;216;-90;-96.8;45.1;45.4;15;14.4;28.5;0.0;
15/02/2025 08:03:50;100;0;230.78;-4;-20.14;-4.88;913.5;11.20;75382;2835.335;-1758.525;1;216;-90;-96.8;45.1;45.4;15;14.9;28.5;0.0;
15/02/2025 08:04:10;100;0;230.08;-4;-20.13;-4.71;915.8;11.20;75369;2835.333;-1758.527;1;216;-90;-95.2;45.1;45.4;15;14.9;28.5;0.0;
15/02/2025 08:04:30;100;0;233.24;-4;-19.90;-4.73;918.0;11.20;75381;2835.331;-1758.529;1;216;-90;-96.8;45.1;45.4;15;14.9;28.5;0.0;
15/02/2025 08:04:50;100;0;237.44;-4;-20.92;-4.70;920.3;11.20;75365;2835.329;-1758.531;1;216;-90;-96.8;45.1;45.4;18;18.1;28.5;0.0;
15/02/2025 08:05:10;100;0;238.20;-4;-20.75;-2.64;922.8;11.20;75350;2835.327;-1758.534;1;216;-90;-96.8;45.1;45.4;18;18.5;28.5;0.0;
15/02/2025 08:05:30;100;0;236.24;-4;-20.37;-2.66;925.3;11.10;75346;2835.324;-1758.536;1;216;-90;-95.2;45.1;45.2;18;18.5;28.5;0.0;
15/02/2025 08:05:50;100;0;235.22;-4;-20.27;-2.65;927.7;11.10;75335;2835.322;-1758.538;1;216;-90;-96.8;45.1;45.4;16;15.8;28.5;0.0;
15/02/2025 08:06:10;100;0;235.00;-4;-20.17;-4.05;929.9;11.10;75337;2835.320;-1758.541;1;216;-90;-96.8;45.1;45.2;16;15.8;28.5;0.0;
15/02/2025 08:06:30;100;0;233.05;-4;-20.30;-4.11;932.2;11.10;75324;2835.318;-1758.543;1;216;-90;-96.8;45.1;45.4;16;15.8;28.5;0.0;
15/02/2025 08:06:50;100;0;229.92;-4;-20.18;-4.05;934.3;11.00;75328;2835.316;-1758.544;1;216;-90;-96.8;45.1;45.4;16;15.8;28.5;0.0;
15/02/2025 08:07:10;100;0;228.28;-4;-20.34;-4.13;936.4;11.00;75313;2835.313;-1758.546;1;216;-90;-96.8;45.1;45.4;16;15.8;28.5;0.0;
15/02/2025 08:07:30;100;0;228.26;-4;-20.91;-4.06;938.6;11.00;75308;2835.311;-1758.548;1;216;-90;-96.8;45.1;45.2;16;15.8;28.5;0.0;
15/02/2025 08:07:50;100;0;224.15;-4;-20.68;-4.12;940.8;11.00;75301;2835.308;-1758.550;1;216;-90;-96.8;45.1;45.2;14;13.5;28.5;0.0;
15/02/2025 08:08:10;100;0;222.47;-4;-20.24;-4.81;943.2;11.00;75307;2835.306;-1758.551;1;216;-90;-96.8;45.1;45.4;14;14.4;28.5;0.0;
15/02/2025 08:08:30;100;0;220.59;-4;-20.04;-5.01;945.5;10.90;75300;2835.303;-1758.553;1;216;-90;-96.8;45.1;45.4;14;14.4;28.5;0.0;
15/02/2025 08:08:50;100;0;217.69;-4;-20.23;-4.81;947.9;10.90;75291;2835.300;-1758.555;1;216;-90;-96.8;45.1;45.4;11;10.8;28.5;0.0;
15/02/2025 08:09:10;100;0;219.57;-4;-20.24;-6.80;950.3;10.90;75289;2835.297;-1758.556;1;216;-90;-95.2;45.1;45.4;13;13.1;28.5;0.0;
15/02/2025 08:09:30;100;0;221.81;-4;-20.21;-5.15;952.7;10.90;75285;2835.295;-1758.558;1;216;-90;-96.8;45.1;45.4;13;13.5;28.5;0.0;
15/02/2025 08:09:50;100;0;221.41;-4;-20.33;-5.07;955.3;10.80;75280;2835.292;-1758.560;1;216;-90;-96.8;45.1;45.4;13;13.5;28.5;0.0;
15/02/2025 08:10:10;100;0;221.75;-4;-20.46;-5.15;957.8;10.80;75267;2835.289;-1758.562;1;216;-90;-96.8;45.1;45.4;13;13.5;28.6;0.0;
15/02/2025 08:10:30;100;0;221.21;-4;-20.19;-5.05;960.6;10.80;75273;2835.285;-1758.564;1;217;-90;-100.0;45.1;45.4;13;13.5;28.6;0.0;
15/02/2025 08:10:50;100;0;221.25;-4;-19.89;-5.16;963.2;10.80;75272;2835.282;-1758.566;1;217;-90;-96.8;45.1;45.4;13;13.5;28.5;0.0;
15/02/2025 08:11:10;100;0;222.28;-4;-20.25;-5.18;965.7;10.80;75267;2835.280;-1758.568;1;217;-90;-98.4;45.1;45.4;13;13.5;28.5;0.0;
15/02/2025 08:11:30;100;0;222.19;-4;-20.20;-5.13;968.3;10.80;75265;2835.277;-1758.570;1;217;-90;-96.8;45.1;45.2;13;13.5;28.5;0.0;
15/02/2025 08:11:50;100;0;222.98;-4;-20.17;-5.15;971.0;10.70;75257;2835.274;-1758.572;1;217;-90;-96.8;45.1;45.4;13;13.5;28.5;0.0;
15/02/2025 08:12:10;100;0;224.34;-4;-19.96;-5.22;973.7;10.70;75252;2835.271;-1758.575;1;217;-90;-96.8;45.1;45.2;15;14.9;28.6;0.0;
15/02/2025 08:12:30;100;0;225.86;-4;-19.92;-4.24;976.3;10.70;75257;2835.268;-1758.577;1;217;-90;-96.8;45.1;45.4;15;15.3;28.5;0.0;
15/02/2025 08:12:50;100;0;226.26;-4;-20.27;-4.24;979.1;10.60;75242;2835.265;-1758.579;1;217;-90;-95.2;45.1;45.4;15;15.3;28.5;0.0;
15/02/2025 08:13:10;100;0;224.76;-4;-20.09;-4.28;981.9;10.60;75251;2835.262;-1758.581;1;217;-90;-98.4;45.1;45.4;15;15.8;28.5;0.0;
15/02/2025 08:13:30;100;0;225.73;-4;-20.14;-4.14;984.5;10.60;75229;2835.259;-1758.584;1;217;-90;-95.2;45.1;45.4;15;15.3;28.5;0.0;
15/02/2025 08:13:50;100;0;225.65;-4;-20.37;-4.23;987.3;10.60;75238;2835.256;-1758.586;1;217;-90;-96.8;45.1;45.4;15;15.8;28.5;0.0;
15/02/2025 08:14:10;100;0;225.78;-4;-20.05;-4.27;990.3;10.60;75231;2835.253;-1758.589;1;217;-90;-96.8;45.1;45.4;15;15.3;28.5;0.0;
15/02/2025 08:14:30;100;0;226.03;-4;-19.84;-4.34;993.2;10.60;75232;2835.250;-1758.591;1;217;-90;-95.2;45.1;45.4;15;15.3;28.5;0.0;
15/02/2025 08:14:50;100;0;227.00;-4;-20.00;-4.29;995.9;10.50;75225;2835.247;-1758.594;1;217;-90;-96.8;45.1;45.4;15;15.3;28.5;0.0;
15/02/2025 08:15:10;100;0;228.25;-4;-19.90;-4.21;998.7;10.50;75223;2835.244;-1758.596;1;217;-90;-96.8;45.1;45.4;15;15.8;28.5;0.0;
15/02/2025 08:15:13;118;0;228.44;-4;-19.87;-4.19;999.1;10.50;75224;2835.244;-1758.596;1;217;310;-93.5;28.8;28.7;8;8.1;28.5;0.0;
15/02/2025 08:15:23;118;0;141.82;-4;-7.02;-8.90;1000.3;10.50;75205;2835.242;-1758.595;1;218;310;33.9;28.8;28.4;8;8.1;27.2;-1.0;
15/02/2025 08:15:33;118;0;114.13;-4;11.23;-8.56;1000.7;10.50;74941;2835.241;-1758.594;1;219;310;159.7;28.8;28.3;8;8.1;27.5;-1.0;
15/02/2025 08:15:43;118;0;108.27;-4;15.66;-8.70;1000.4;10.50;74678;2835.241;-1758.593;1;219;310;283.9;28.8;28.3;8;8.1;27.4;-1.0;
15/02/2025 08:15:53;118;0;110.98;-4;14.29;-8.57;1000.0;10.50;74433;2835.241;-1758.592;1;219;310;311.3;28.8;28.9;8;8.1;27.4;-1.0;
15/02/2025 08:16:03;118;0;223.04;-4;11.43;-8.40;999.3;10.50;74397;2835.240;-1758.593;1;219;310;311.3;28.8;29.0;8;8.1;28.5;-1.0;
15/02/2025 08:16:23;117;0;210.81;-4;8.06;-9.01;998.3;10.50;74398;2835.238;-1758.593;1;220;310;311.3;28.8;29.0;8;8.1;28.5;-1.0;
15/02/2025 08:16:43;117;0;199.51;-4;5.65;-9.12;997.0;10.60;74394;2835.235;-1758.594;1;220;310;311.3;24.5;24.2;70;69.9;28.5;-1.0;
15/02/2025 08:17:03;117;0;203.06;-4;18.26;22.69;995.8;10.60;74396;2835.233;-1758.594;1;221;310;312.9;24.0;23.9;70;70.4;28.5;-1.0;
15/02/2025 08:17:23;117;0;214.76;-4;23.35;24.62;993.6;10.50;74389;2835.231;-1758.595;1;221;310;311.3;25.0;25.2;52;51.9;28.5;-1.0;
15/02/2025 08:17:43;117;0;221.81;-4;23.56;14.85;990.9;10.50;74392;2835.228;-1758.597;1;221;310;312.9;26.0;26.2;37;37.0;28.5;-1.0;
15/02/2025 08:18:03;117;0;223.82;-4;20.41;6.99;988.3;10.50;74377;2835.225;-1758.599;1;221;310;312.9;26.0;26.4;34;33.8;28.5;-1.0;
15/02/2025 08:18:23;117;0;224.46;-4;18.92;4.92;986.0;10.50;74373;2835.222;-1758.601;1;222;310;312.9;25.7;25.8;34;33.4;28.5;-1.0;
15/02/2025 08:18:43;117;0;223.92;-4;19.69;5.08;983.9;10.50;74370;2835.220;-1758.602;1;222;310;312.9;25.7;25.5;37;37.0;28.5;-1.0;
15/02/2025 08:19:03;117;0;225.69;-4;20.19;6.88;981.8;10.50;74376;2835.218;-1758.604;1;222;310;312.9;25.7;25.3;35;35.2;28.5;-1.0;
15/02/2025 08:19:23;117;0;226.05;-4;20.37;6.06;979.5;10.40;74383;2835.215;-1758.606;1;222;310;312.9;25.7;25.5;35;35.6;28.5;-1.0;
15/02/2025 08:19:43;117;0;227.70;-4;20.40;5.98;977.2;10.40;74375;2835.213;-1758.608;1;222;310;312.9;25.7;25.3;35;35.6;28.5;-1.0;
15/02/2025 08:20:03;117;0;229.79;-4;20.48;6.08;975.0;10.40;74371;2835.210;-1758.610;1;223;310;311.3;25.7;25.3;33;32.9;28.5;-1.0;
15/02/2025 08:20:23;117;0;230.55;-4;20.13;4.64;972.6;10.40;74369;2835.208;-1758.612;1;223;310;312.9;25.7;25.3;33;32.9;28.5;-1.0;
15/02/2025 08:20:43;117;0;231.43;-4;20.29;4.70;970.4;10.40;74357;2835.206;-1758.614;1;223;310;312.9;25.7;25.3;33;32.5;28.5;-1.0;
15/02/2025 08:21:03;117;0;232.69;-4;20.11;4.57;968.1;10.30;74358;2835.203;-1758.616;1;223;310;312.9;25.7;25.3;33;32.5;28.5;-1.0;
15/02/2025 08:21:23;117;0;233.64;-4;20.64;4.66;965.8;10.30;74353;2835.201;-1758.618;1;223;310;312.9;25.7;25.3;33;32.5;28.5;-1.0;
15/02/2025 08:21:43;117;0;234.41;-4;20.32;4.77;963.4;10.30;74354;2835.199;-1758.620;1;223;310;311.3;25.7;25.3;33;32.9;28.5;-1.0;
15/02/2025 08:22:03;117;0;235.90;-4;20.33;4.58;961.0;10.30;74355;2835.197;-1758.623;1;223;310;311.3;25.7;25.3;33;32.5;28.5;-1.0;
15/02/2025 08:22:23;117;0;239.02;-4;20.18;4.57;958.4;10.30;74350;2835.194;-1758.625;1;223;310;312.9;25.7;25.3;33;32.9;28.5;-1.0;
15/02/2025 08:22:43;117;0;238.96;-4;20.02;4.86;956.0;10.30;74339;2835.192;-1758.628;1;223;310;312.9;25.7;25.3;33;32.9;28.5;-1.0;
15/02/2025 08:23:03;117;0;240.41;-4;20.67;4.58;953.6;10.30;74353;2835.190;-1758.630;1;223;310;311.3;25.7;25.3;33;32.9;28.5;-1.0;
15/02/2025 08:23:23;117;0;241.72;-4;20.20;4.64;950.9;10.30;74351;2835.188;-1758.633;1;222;310;312.9;25.7;25.3;30;29.8;28.5;-1.0;
15/02/2025 08:23:43;117;0;241.21;-4;20.03;3.01;948.4;10.20;74349;2835.186;-1758.636;1;222;310;311.3;25.7;25.3;30;29.3;28.5;-1.0;
15/02/2025 08:24:03;117;0;241.14;-4;20.09;3.03;945.9;10.20;74348;2835.184;-1758.639;1;222;310;312.9;25.7;25.3;30;29.3;28.5;-1.0;
15/02/2025 08:24:23;117;0;241.36;-4;20.06;2.93;943.3;10.20;74339;2835.182;-1758.641;1;222;310;312.9;25.7;25.3;30;29.8;28.5;-1.0;
15/02/2025 08:24:43;117;0;241.13;-4;20.01;2.92;940.7;10.20;74337;2835.180;-1758.644;1;221;310;312.9;25.7;25.3;30;29.3;28.5;-1.0;
15/02/2025 08:25:03;117;0;240.34;-4;19.85;2.93;938.1;10.20;74338;2835.178;-1758.647;1;221;310;312.9;25.7;25.3;30;29.3;28.5;-1.0;
15/02/2025 08:25:23;117;0;240.28;-4;19.93;2.97;935.6;10.20;74338;2835.176;-1758.649;1;221;310;311.3;25.7;25.3;30;29.3;28.5;-1.0;
15/02/2025 08:25:43;117;0;239.80;-4;20.10;3.05;933.1;10.20;74338;2835.174;-1758.652;1;220;310;311.3;25.7;25.2;30;29.8;28.5;-1.0;
15/02/2025 08:26:03;117;0;238.18;-4;19.92;2.86;930.5;10.20;74337;2835.172;-1758.655;1;220;310;312.9;25.7;25.3;30;29.8;28.5;-1.0;
15/02/2025 08:26:23;117;0;237.38;-4;20.07;2.92;928.2;10.20;74328;2835.169;-1758.657;1;220;310;312.9;25.7;25.3;30;29.3;28.5;-1.0;
15/02/2025 08:26:43;117;0;235.74;-4;20.00;3.13;925.7;10.10;74329;2835.167;-1758.659;1;220;310;309.7;25.7;25.3;30;29.8;28.5;-1.0;
15/02/2025 08:27:03;117;0;234.31;-4;19.66;2.98;923.4;10.10;74322;2835.165;-1758.662;1;220;310;312.9;25.7;25.3;30;29.8;28.5;-1.0;
15/02/2025 08:27:23;117;0;235.02;-4;19.98;2.85;921.0;10.10;74335;2835.163;-1758.664;1;219;310;312.9;25.7;25.5;30;29.3;28.5;-1.0;
15/02/2025 08:27:43;117;0;236.74;-4;20.03;2.94;918.4;10.10;74328;2835.160;-1758.667;1;219;310;311.3;25.7;25.3;30;29.3;28.5;-1.0;
15/02/2025 08:28:03;117;0;235.52;-4;19.97;3.02;916.1;10.10;74323;2835.158;-1758.669;1;219;310;311.3;25.7;25.3;30;29.3;28.5;-1.0;
15/02/2025 08:28:23;117;0;235.78;-4;19.81;2.88;913.6;10.10;74335;2835.156;-1758.671;1;219;310;312.9;25.7;25.3;30;29.8;28.6;-1.0;
15/02/2025 08:28:43;117;0;236.80;-4;20.28;2.91;911.3;10.10;74335;2835.154;-1758.674;1;218;310;312.9;25.7;25.3;30;29.3;28.5;-1.0;
15/02/2025 08:29:03;117;0;236.17;-4;19.95;2.83;908.8;10.10;74338;2835.152;-1758.676;1;218;310;312.9;25.7;25.3;30;29.3;28.5;-1.0;
15/02/2025 08:29:23;117;0;234.88;-4;20.03;3.44;906.4;10.10;74344;2835.149;-1758.679;1;217;310;312.9;25.7;25.3;30;29.8;28.5;-1.0;
15/02/2025 08:29:43;117;0;234.30;-4;19.47;3.00;903.9;10.10;74355;2835.147;-1758.681;1;217;310;312.9;25.7;25.3;30;29.3;28.5;-1.0;
15/02/2025 08:30:03;117;0;234.41;-4;19.71;2.88;901.6;10.10;74341;2835.145;-1758.683;1;216;310;312.9;25.7;25.3;30;29.3;28.5;-1.0;
15/02/2025 08:30:23;117;0;233.08;-4;19.51;2.95;899.3;10.10;74344;2835.142;-1758.685;1;216;310;312.9;25.7;25.3;30;29.3;28.5;-1.0;
15/02/2025 08:30:43;117;0;232.72;-4;19.99;2.95;897.1;10.10;74351;2835.140;-1758.687;1;216;310;311.3;25.7;25.3;30;29.3;28.5;-1.0;
15/02/2025 08:31:03;117;0;231.67;-4;20.04;2.92;894.5;10.10;74350;2835.138;-1758.690;1;215;310;312.9;25.7;25.3;30;29.3;28.5;-1.0;
15/02/2025 08:31:23;117;0;231.19;-4;19.52;2.87;892.0;10.10;74347;2835.135;-1758.692;1;214;310;312.9;25.7;25.5;30;29.3;28.5;-1.0;
15/02/2025 08:31:43;117;0;231.72;-4;19.93;2.91;889.5;10.10;74350;2835.133;-1758.695;1;213;310;312.9;25.7;25.3;30;29.3;28.5;-1.0;
15/02/2025 08:32:03;117;0;229.90;-4;20.12;2.95;886.9;10.10;74347;2835.130;-1758.697;1;212;310;312.9;25.7;25.5;30;29.3;28.5;-1.0;
15/02/2025 08:32:23;117;0;230.79;-4;19.34;2.80;884.7;10.10;74345;2835.128;-1758.699;1;210;310;312.9;25.7;25.3;30;29.3;28.5;-1.0;
15/02/2025 08:32:43;117;0;228.56;-4;19.29;2.74;882.4;10.10;74345;2835.125;-1758.701;1;207;310;312.9;25.7;25.3;28;28.0;28.5;-1.0;
15/02/2025 08:33:03;117;0;227.92;-4;19.72;2.19;880.3;10.10;74348;2835.123;-1758.703;1;201;310;312.9;25.7;25.3;24;23.5;28.5;-1.0;
15/02/2025 08:33:23;117;0;225.93;-4;19.03;-0.22;878.1;10.10;74349;2835.120;-1758.705;1;129;310;312.9;25.7;25.9;-70;-69.9;28.5;-1.0;
15/02/2025 08:33:43;117;0;210.29;-4;9.96;-47.55;876.0;10.10;74351;2835.117;-1758.706;1;31;310;314.5;22.7;22.1;70;69.9;28.6;-1.0;
15/02/2025 08:34:03;117;0;216.87;-4;24.80;24.57;874.3;10.10;74345;2835.115;-1758.707;1;26;330;333.9;24.2;24.2;70;70.4;28.5;-1.0;
15/02/2025 08:34:23;117;0;229.57;-4;24.99;25.31;871.3;10.10;74314;2835.113;-1758.709;1;30;330;333.9;25.6;25.6;70;70.4;28.5;-1.0;
15/02/2025 08:34:43;117;0;242.29;-4;21.27;25.04;868.4;10.10;74314;2835.111;-1758.712;1;36;330;333.9;25.6;25.8;70;70.4;28.5;-1.0;
15/02/2025 08:35:03;117;0;255.82;-4;20.15;24.96;865.8;10.10;74317;2835.109;-1758.715;1;42;330;333.9;25.6;25.8;70;70.4;28.5;-1.0;
15/02/2025 08:35:23;117;0;269.42;-4;19.81;24.89;863.4;10.10;74314;2835.109;-1758.718;1;47;330;335.5;25.6;25.8;70;70.4;28.5;-1.0;
15/02/2025 08:35:43;117;0;283.22;-4;19.66;24.96;861.1;10.10;74314;2835.109;-1758.721;1;53;330;333.9;25.6;25.9;70;70.4;28.5;-1.0;
15/02/2025 08:36:03;117;0;296.28;-4;19.66;24.98;858.7;10.00;74313;2835.110;-1758.723;1;59;330;333.9;25.6;25.8;70;69.9;28.5;-1.0;
15/02/2025 08:36:23;117;0;309.82;-4;19.60;25.01;856.5;10.10;74314;2835.111;-1758.725;1;65;330;333.9;25.6;25.8;70;70.4;28.5;-1.0;
15/02/2025 08:36:44;117;0;322.16;-4;19.77;24.93;854.1;10.10;74314;2835.113;-1758.727;1;71;330;333.9;25.6;26.1;70;70.4;28.6;-1.0;
15/02/2025 08:37:04;117;0;334.96;-4;19.76;24.78;851.8;10.10;74320;2835.115;-1758.728;1;77;330;332.3;25.6;25.8;70;70.4;28.5;-1.0;
15/02/2025 08:37:24;117;0;347.10;-4;19.95;25.00;849.5;10.00;74305;2835.118;-1758.728;1;84;330;333.9;25.6;25.8;70;70.4;28.5;-1.0;
