Timestamp;NavState;SecurityLevel;Heading;Declination;Pitch;Roll;Depth;Temperature;Pa;Lat;Lon;DeadReckoning;DesiredH;BallastCmd;BallastPos;LinCmd;LinPos;AngCmd;AngPos;Voltage;Altitude;
13/02/2025 05:33:46;119;0;294.93;-4;-51.23;-8.89;0.1;18.40;76194;2834.983;-1758.853;0;44;500;509.7;100.0;100.6;0;-0.5;28.8;-1.0;
13/02/2025 05:33:56;116;0;297.52;-4;-51.90;-16.49;0.1;18.50;76195;2834.983;-1758.853;0;44;500;508.1;100.0;100.7;0;-0.9;28.8;-1.0;
13/02/2025 05:34:24;116;0;327.43;-4;-58.70;-14.13;0.0;18.50;76200;2834.982;-1758.852;0;43;500;509.7;100.0;100.6;0;-0.5;28.8;-1.0;
13/02/2025 05:34:46;116;0;12.70;-4;-52.76;-16.75;0.1;18.60;76199;2834.983;-1758.853;0;43;500;509.7;100.0;100.6;0;-0.5;28.8;-1.0;
13/02/2025 05:35:06;116;0;46.02;-4;-55.69;-19.15;0.1;18.70;76209;2834.984;-1758.853;0;-9999;500;509.7;100.0;100.7;0;-0.5;28.8;-1.0;
13/02/2025 05:35:17;116;0;47.14;-4;-56.12;-14.19;-0.0;18.80;76225;2834.983;-1758.852;0;12;500;509.7;100.0;100.6;0;-0.5;28.8;-1.0;
13/02/2025 05:36:11;116;0;77.02;-4;-55.53;-11.25;0.1;19.00;76227;2834.983;-1758.852;0;12;500;509.7;100.0;100.6;0;-0.5;28.8;-1.0;
13/02/2025 05:36:31;116;0;79.78;-4;-50.01;-9.90;0.1;19.10;76240;2834.986;-1758.853;0;12;500;509.7;100.0;100.7;0;-0.5;28.8;-1.0;
13/02/2025 05:36:51;116;0;69.29;-4;-56.17;-19.26;0.1;19.30;76237;2834.984;-1758.852;0;12;500;508.1;100.0;100.6;0;-0.5;28.8;-1.0;
13/02/2025 05:37:53;116;0;66.33;-4;-57.10;-6.36;0.1;19.70;76263;2834.981;-1758.854;0;12;500;511.3;100.0;100.6;0;-0.5;28.8;-1.0;
13/02/2025 05:37:59;116;0;65.80;-4;-54.80;-12.67;0.1;19.70;76258;2834.981;-1758.854;0;12;500;509.7;100.0;100.7;0;-0.5;28.8;-1.0;
13/02/2025 05:38:19;116;0;81.06;-4;-50.46;-18.86;0.1;19.80;76269;2834.983;-1758.853;0;12;500;509.7;100.0;100.7;0;-0.5;28.8;-1.0;
13/02/2025 05:38:30;116;0;88.25;-4;-53.02;-16.42;0.1;19.90;76268;2834.983;-1758.853;0;12;500;508.1;100.0;100.6;0;-0.5;28.8;-1.0;
13/02/2025 05:38:51;110;0;102.83;-4;-54.79;-22.01;-0.1;20.00;76267;2834.983;-1758.853;0;12;-100;396.8;100.0;99.7;-9;-9.0;28.8;-1.0;
13/02/2025 05:39:01;110;0;116.50;-4;-55.20;-25.73;0.2;20.10;76625;2834.982;-1758.852;1;12;-100;243.5;100.0;99.7;-9;-9.5;28.8;-1.0;
13/02/2025 05:39:11;110;0;109.24;-4;-65.50;-7.56;0.6;20.10;76878;2834.982;-1758.852;1;11;-100;85.5;100.0;99.9;-9;-9.5;28.7;-1.0;
13/02/2025 05:39:21;110;0;109.23;-4;-66.13;-17.27;0.9;20.20;77197;2834.981;-1758.851;1;11;-100;-72.6;100.0;99.9;-9;-9.5;28.7;-1.0;
13/02/2025 05:39:31;110;0;108.29;-4;-66.22;-13.18;1.1;20.20;77553;2834.981;-1758.851;1;11;-100;-100.0;49.2;49.2;-9;-9.5;28.7;-1.0;
13/02/2025 05:39:41;110;0;108.60;-4;-53.99;-16.53;2.7;20.30;77577;2834.980;-1758.850;1;11;-100;-103.2;49.2;48.9;-9;-9.5;28.8;-1.0;
13/02/2025 05:40:01;100;0;120.38;-4;-32.02;-16.36;7.1;20.30;77583;2834.977;-1758.845;1;11;-100;-96.8;49.2;48.9;-9;-9.5;28.8;-1.0;
13/02/2025 05:40:21;100;0;127.87;-4;-29.59;-16.25;11.9;20.30;77579;2834.973;-1758.841;1;11;-100;-96.8;49.2;48.7;70;69.9;28.8;-1.0;
13/02/2025 05:40:41;100;0;118.58;-4;-33.52;23.66;16.4;20.30;77593;2834.971;-1758.837;1;11;-100;-96.8;48.2;48.2;70;69.9;28.8;0.0;
13/02/2025 05:41:01;100;0;109.40;-4;-34.99;23.17;21.2;20.30;77602;2834.968;-1758.832;1;11;-100;-98.4;46.7;46.7;70;69.9;28.8;0.0;
13/02/2025 05:41:21;100;0;95.52;-4;-31.09;23.53;26.7;20.30;77604;2834.967;-1758.827;1;11;-100;-96.8;46.7;46.5;70;69.9;28.8;0.0;
13/02/2025 05:41:41;100;0;82.48;-4;-29.12;23.49;31.5;20.30;77614;2834.966;-1758.821;1;11;-100;-96.8;46.7;46.4;70;70.4;28.8;0.0;
13/02/2025 05:42:01;100;0;71.30;-4;-28.80;23.49;35.8;20.30;77609;2834.967;-1758.816;1;11;-100;-98.4;47.0;47.0;70;70.4;28.8;0.0;
13/02/2025 05:42:21;100;0;61.03;-4;-29.96;23.60;40.1;20.30;77606;2834.968;-1758.812;1;10;-100;-96.8;47.0;47.1;70;70.4;28.8;0.0;
13/02/2025 05:42:41;100;0;51.50;-4;-30.10;23.44;44.5;20.30;77620;2834.969;-1758.808;1;10;-100;-98.4;47.0;47.3;70;70.4;28.8;0.0;
13/02/2025 05:43:01;100;0;40.92;-4;-30.28;23.53;48.9;20.30;77616;2834.971;-1758.804;1;10;-100;-98.4;47.0;47.1;60;60.0;28.8;0.0;
13/02/2025 05:43:21;100;0;27.72;-4;-29.55;18.00;53.3;20.30;77621;2834.973;-1758.801;1;10;-100;-98.4;47.0;47.1;40;39.7;28.8;0.0;
13/02/2025 05:43:41;100;0;16.68;-4;-28.73;7.77;57.6;20.30;77618;2834.976;-1758.799;1;10;-100;-98.4;47.4;47.7;23;23.0;28.8;0.0;
13/02/2025 05:44:01;100;0;10.06;-4;-28.78;-0.46;61.9;20.20;77617;2834.979;-1758.798;1;10;-100;-98.4;47.8;47.7;14;14.0;28.8;0.0;
13/02/2025 05:44:21;100;0;5.75;-4;-28.70;-4.89;66.2;20.30;77617;2834.982;-1758.797;1;10;-100;-98.4;48.2;48.5;11;10.8;28.8;0.0;
13/02/2025 05:44:41;100;0;6.12;-4;-29.63;-6.57;70.7;20.20;77615;2834.985;-1758.796;1;10;-100;-98.4;48.2;48.3;11;10.4;28.8;0.0;
13/02/2025 05:45:01;100;0;6.55;-4;-29.70;-6.59;75.2;20.20;77622;2834.988;-1758.795;1;10;-100;-98.4;48.2;48.5;11;10.4;28.8;0.0;
13/02/2025 05:45:21;100;0;8.33;-4;-29.74;-6.56;79.8;20.20;77625;2834.991;-1758.793;1;10;-100;-98.4;48.2;48.5;11;10.4;28.8;0.0;
13/02/2025 05:45:41;100;0;8.49;-4;-29.82;-6.56;84.4;20.20;77621;2834.994;-1758.792;1;10;-100;-96.8;48.2;48.5;11;10.4;28.8;0.0;
13/02/2025 05:46:01;100;0;7.68;-4;-29.84;-6.56;89.0;20.20;77624;2834.997;-1758.791;1;10;-100;-96.8;48.2;48.5;11;9.9;28.8;0.0;
13/02/2025 05:46:21;100;0;6.27;-4;-29.65;-6.58;93.5;20.20;77629;2835.000;-1758.790;1;10;-100;-98.4;48.2;48.5;11;10.4;28.8;0.0;
13/02/2025 05:46:41;100;0;5.88;-4;-29.70;-6.57;97.9;20.20;77638;2835.002;-1758.789;1;10;-100;-98.4;48.2;48.5;11;10.4;28.8;0.0;
13/02/2025 05:47:01;100;0;6.77;-4;-29.65;-6.57;102.3;20.20;77624;2835.005;-1758.788;1;10;-100;-96.8;48.2;48.5;11;9.9;28.8;0.0;
13/02/2025 05:47:21;100;0;2.69;-4;-29.20;-6.57;106.7;20.20;77633;2835.008;-1758.787;1;10;-100;-98.4;48.2;48.5;11;10.4;28.8;0.0;
13/02/2025 05:47:41;100;0;2.39;-4;-28.55;-6.61;110.9;20.20;77628;2835.011;-1758.786;1;10;-100;-98.4;48.6;48.6;11;9.9;28.8;0.0;
13/02/2025 05:48:01;100;0;4.11;-4;-32.43;-6.76;115.1;20.20;77622;2835.013;-1758.785;1;10;-100;-98.4;47.9;47.9;11;9.9;28.8;0.0;
13/02/2025 05:48:21;100;0;359.97;-4;-30.24;-6.51;120.1;20.20;77572;2835.017;-1758.784;1;10;-100;-98.4;47.9;47.7;11;9.9;28.8;0.0;
13/02/2025 05:48:41;100;0;3.52;-4;-28.72;-6.59;124.4;20.10;77533;2835.020;-1758.783;1;10;-100;-98.4;48.3;48.3;11;9.9;28.8;0.0;
13/02/2025 05:49:01;100;0;7.28;-4;-30.11;-6.55;128.7;20.10;77503;2835.022;-1758.782;1;10;-100;-96.8;48.3;48.6;11;9.9;28.8;0.0;
13/02/2025 05:49:21;100;0;10.26;-4;-30.50;-6.59;133.1;20.10;77479;2835.025;-1758.781;1;10;-100;-96.8;48.3;48.6;15;14.9;28.8;0.0;
13/02/2025 05:49:41;100;0;17.87;-4;-29.80;-3.85;137.4;20.00;77447;2835.028;-1758.779;1;10;-100;-96.8;48.3;48.6;25;25.3;28.8;0.0;
13/02/2025 05:50:01;100;0;8.67;-4;-30.03;1.00;141.6;20.00;77423;2835.030;-1758.778;1;10;-100;-98.4;48.3;48.6;13;13.1;28.8;0.0;
13/02/2025 05:50:21;100;0;4.29;-4;-29.44;-5.63;145.7;19.90;77401;2835.033;-1758.777;1;10;-100;-98.4;48.3;48.6;11;10.8;28.8;0.0;
13/02/2025 05:50:41;100;0;3.71;-4;-29.20;-6.38;150.0;19.90;77378;2835.036;-1758.776;1;10;-100;-98.4;48.3;48.6;11;10.8;28.8;0.0;
13/02/2025 05:51:01;100;0;1.69;-4;-29.03;-6.30;154.1;19.90;77385;2835.039;-1758.775;1;10;-100;-96.8;48.3;48.6;11;10.8;28.8;0.0;
13/02/2025 05:51:21;100;0;2.98;-4;-28.83;-6.26;158.0;19.80;77368;2835.041;-1758.774;1;10;-100;-96.8;48.6;48.6;11;10.8;28.8;0.0;
13/02/2025 05:51:41;100;0;3.35;-4;-28.78;-6.33;162.1;19.80;77362;2835.044;-1758.773;1;10;-100;-98.4;49.0;49.0;11;10.8;28.8;0.0;
13/02/2025 05:52:01;100;0;357.54;-4;-29.98;-6.47;166.1;19.70;77364;2835.047;-1758.773;1;10;-100;-98.4;49.0;49.2;11;10.8;28.8;0.0;
13/02/2025 05:52:21;100;0;353.90;-4;-30.27;-6.22;170.5;19.70;77337;2835.049;-1758.773;1;10;-100;-98.4;49.0;49.3;11;10.8;28.8;0.0;
13/02/2025 05:52:41;100;0;349.32;-4;-30.97;-6.45;174.8;19.70;77324;2835.052;-1758.773;1;10;-100;-96.8;49.0;49.2;8;8.1;28.8;0.0;
13/02/2025 05:53:01;100;0;348.02;-4;-31.41;-7.58;179.5;19.60;77306;2835.055;-1758.773;1;10;-100;-96.8;49.0;49.3;5;5.0;28.8;0.0;
13/02/2025 05:53:21;100;0;347.62;-4;-30.94;-9.26;184.3;19.60;77276;2835.058;-1758.774;1;10;-100;-96.8;49.0;49.2;5;4.5;28.8;0.0;
13/02/2025 05:53:41;100;0;348.28;-4;-30.61;-9.27;189.0;19.50;77260;2835.061;-1758.774;1;10;-100;-98.4;49.0;49.3;5;4.5;28.8;0.0;
13/02/2025 05:54:01;100;0;345.49;-4;-30.53;-9.31;193.6;19.50;77228;2835.063;-1758.774;1;10;-100;-96.8;49.0;49.2;2;1.8;28.8;0.0;
13/02/2025 05:54:21;100;0;347.90;-4;-30.06;-10.70;198.2;19.40;77212;2835.066;-1758.775;1;10;-100;-98.4;49.0;49.2;5;5.4;28.8;0.0;
13/02/2025 05:54:41;100;0;348.60;-4;-29.94;-8.80;202.6;19.40;77208;2835.069;-1758.775;1;10;-100;-98.4;49.0;49.3;7;7.2;28.8;0.0;
13/02/2025 05:55:01;100;0;348.12;-4;-29.97;-7.74;207.0;19.30;77178;2835.072;-1758.775;1;10;-100;-98.4;49.0;49.3;7;7.7;28.8;0.0;
13/02/2025 05:55:21;100;0;345.62;-4;-29.79;-7.81;211.3;19.30;77169;2835.075;-1758.776;1;10;-100;-98.4;49.0;49.3;3;3.2;28.8;0.0;
13/02/2025 05:55:41;100;0;346.44;-4;-29.79;-10.03;215.6;19.20;77168;2835.077;-1758.776;1;10;-100;-98.4;49.0;49.3;3;3.2;28.8;0.0;
13/02/2025 05:56:01;100;0;350.76;-4;-29.44;-10.08;219.9;19.10;77145;2835.080;-1758.776;1;10;-100;-96.8;49.0;49.2;8;8.1;28.8;0.0;
13/02/2025 05:56:21;100;0;352.79;-4;-30.04;-7.29;224.3;19.10;77133;2835.083;-1758.776;1;10;-100;-96.8;49.0;49.3;8;8.6;28.8;0.0;
13/02/2025 05:56:41;100;0;354.80;-4;-30.49;-7.26;228.7;19.00;77125;2835.086;-1758.776;1;10;-100;-98.4;49.0;49.2;10;10.4;28.8;0.0;
13/02/2025 05:57:01;100;0;353.04;-4;-30.66;-6.23;233.3;19.00;77094;2835.089;-1758.776;1;10;-100;-100.0;49.0;49.3;10;10.8;28.8;0.0;
13/02/2025 05:57:21;100;0;352.17;-4;-30.33;-6.21;237.7;18.90;77082;2835.091;-1758.776;1;10;-100;-98.4;49.0;49.3;10;10.8;28.8;0.0;
13/02/2025 05:57:41;100;0;351.46;-4;-30.52;-6.19;242.2;18.90;77071;2835.094;-1758.776;1;10;-100;-98.4;49.0;49.3;8;8.1;28.8;0.0;
13/02/2025 05:58:01;100;0;347.31;-4;-30.36;-7.79;246.6;18.80;77053;2835.097;-1758.776;1;10;-100;-98.4;49.0;49.2;5;5.0;28.8;0.0;
13/02/2025 05:58:21;100;0;346.37;-4;-30.16;-9.40;251.1;18.80;77045;2835.100;-1758.777;1;10;-100;-96.8;49.0;49.3;3;3.2;28.8;0.0;
13/02/2025 05:58:41;100;0;347.29;-4;-30.60;-10.09;255.7;18.70;77036;2835.103;-1758.777;1;10;-100;-98.4;49.0;49.2;5;5.0;28.8;0.0;
13/02/2025 05:59:01;100;0;346.36;-4;-30.73;-9.00;260.5;18.70;77025;2835.106;-1758.777;1;10;-100;-98.4;49.0;49.3;3;3.2;28.8;0.0;
13/02/2025 05:59:21;100;0;349.32;-4;-30.11;-10.22;265.3;18.60;77012;2835.109;-1758.778;1;10;-100;-96.8;49.0;49.2;6;5.9;28.8;0.0;
13/02/2025 05:59:41;100;0;353.37;-4;-30.02;-8.63;269.9;18.50;77009;2835.112;-1758.778;1;10;-100;-96.8;49.0;49.2;9;9.5;28.8;0.0;
13/02/2025 06:00:01;100;0;354.89;-4;-30.19;-6.68;274.6;18.50;76997;2835.115;-1758.777;1;10;-100;-98.4;49.0;49.2;9;9.5;28.8;0.0;
13/02/2025 06:00:21;100;0;355.63;-4;-30.22;-6.73;279.2;18.40;76983;2835.118;-1758.777;1;10;-100;-98.4;49.0;49.2;9;9.9;28.8;0.0;
13/02/2025 06:00:41;100;0;356.71;-4;-29.67;-6.75;283.7;18.40;76974;2835.121;-1758.777;1;10;-100;-98.4;49.0;49.2;9;9.9;28.8;0.0;
13/02/2025 06:01:01;100;0;353.82;-4;-29.96;-6.74;288.1;18.30;76956;2835.124;-1758.777;1;10;-100;-98.4;49.0;49.3;9;9.9;28.8;0.0;
13/02/2025 06:01:21;100;0;355.89;-4;-30.10;-6.70;292.5;18.30;76934;2835.127;-1758.776;1;10;-100;-96.8;49.0;49.3;9;9.9;28.8;0.0;
13/02/2025 06:01:41;100;0;358.88;-4;-29.63;-6.75;296.8;18.20;76924;2835.129;-1758.776;1;10;-100;-96.8;49.0;49.2;9;9.9;28.8;0.0;
13/02/2025 06:02:01;100;0;358.42;-4;-30.14;-6.75;301.1;18.20;76915;2835.132;-1758.775;1;10;-100;-96.8;49.0;49.3;9;9.9;28.7;0.0;
13/02/2025 06:02:21;100;0;359.66;-4;-29.93;-6.71;305.6;18.10;76910;2835.135;-1758.775;1;10;-100;-96.8;49.0;49.2;9;9.9;28.8;0.0;
13/02/2025 06:02:41;100;0;0.00;-4;-30.33;-6.72;309.9;18.10;76894;2835.138;-1758.774;1;10;-100;-96.8;49.0;49.3;9;9.5;28.8;0.0;
13/02/2025 06:03:01;100;0;359.75;-4;-30.44;-6.75;314.3;18.00;76887;2835.141;-1758.774;1;10;-100;-98.4;49.0;49.3;9;9.9;28.8;0.0;
13/02/2025 06:03:21;100;0;1.10;-4;-30.24;-6.66;318.8;18.00;76871;2835.144;-1758.773;1;10;-100;-96.8;49.0;49.3;9;9.9;28.8;0.0;
13/02/2025 06:03:41;100;0;359.86;-4;-30.29;-6.71;323.4;17.90;76855;2835.147;-1758.772;1;10;-100;-98.4;49.0;49.2;9;9.9;28.8;0.0;
13/02/2025 06:04:01;100;0;357.93;-4;-30.04;-6.69;327.8;17.80;76846;2835.150;-1758.772;1;10;-100;-96.8;49.0;49.3;9;9.9;28.8;0.0;
13/02/2025 06:04:21;100;0;353.13;-4;-29.94;-6.73;332.3;17.80;76829;2835.152;-1758.772;1;10;-100;-98.4;49.0;49.3;9;9.9;28.8;0.0;
13/02/2025 06:04:41;100;0;352.03;-4;-30.10;-6.74;336.6;17.70;76818;2835.155;-1758.772;1;10;-100;-98.4;49.0;49.3;9;9.9;28.8;0.0;
13/02/2025 06:05:01;100;0;351.24;-4;-29.67;-6.74;341.1;17.70;76814;2835.158;-1758.772;1;11;-100;-98.4;49.0;49.3;7;7.2;28.8;0.0;
13/02/2025 06:05:21;100;0;352.10;-4;-29.36;-8.20;345.4;17.60;76797;2835.161;-1758.772;1;11;-100;-98.4;49.0;49.2;7;6.8;28.8;0.0;
13/02/2025 06:05:41;100;0;356.15;-4;-30.06;-8.08;349.7;17.60;76801;2835.164;-1758.771;1;11;-100;-96.8;49.0;49.3;9;9.0;28.8;0.0;
13/02/2025 06:06:01;100;0;358.26;-4;-29.48;-6.87;354.0;17.50;76773;2835.167;-1758.771;1;11;-100;-98.4;49.0;49.2;9;9.5;28.8;0.0;
13/02/2025 06:06:21;100;0;3.49;-4;-29.74;-6.84;358.3;17.40;76750;2835.169;-1758.770;1;11;-100;-96.8;49.0;49.3;9;9.5;28.8;0.0;
13/02/2025 06:06:41;100;0;2.23;-4;-29.97;-6.77;362.7;17.40;76739;2835.172;-1758.769;1;11;-100;-98.4;49.0;49.3;9;9.9;28.8;0.0;
13/02/2025 06:07:01;100;0;358.72;-4;-29.67;-6.84;367.2;17.40;76729;2835.175;-1758.769;1;11;-100;-98.4;49.0;49.3;9;9.5;28.8;0.0;
13/02/2025 06:07:21;100;0;355.93;-4;-29.84;-6.87;371.5;17.30;76724;2835.178;-1758.768;1;11;-100;-100.0;49.0;49.2;9;9.5;28.8;0.0;
13/02/2025 06:07:41;100;0;354.83;-4;-29.63;-6.90;375.7;17.20;76718;2835.181;-1758.768;1;11;-100;-96.8;49.0;49.3;9;9.5;28.8;0.0;
13/02/2025 06:08:01;100;0;354.30;-4;-29.39;-6.85;380.1;17.20;76698;2835.184;-1758.768;1;11;-100;-98.4;49.0;49.2;9;9.5;28.8;0.0;
13/02/2025 06:08:21;100;0;359.05;-4;-30.16;-6.92;384.5;17.10;76684;2835.186;-1758.767;1;11;-100;-98.4;49.0;49.3;9;9.5;28.8;0.0;
13/02/2025 06:08:41;100;0;4.69;-4;-30.19;-6.74;389.2;17.10;76678;2835.190;-1758.766;1;11;-100;-98.4;49.0;49.2;9;9.5;28.8;0.0;
13/02/2025 06:09:01;100;0;8.58;-4;-30.63;-6.76;394.0;17.00;76663;2835.193;-1758.765;1;11;-100;-96.8;49.0;49.2;11;10.8;28.8;0.0;
13/02/2025 06:09:21;100;0;11.24;-4;-30.66;-6.02;398.8;17.00;76657;2835.196;-1758.764;1;10;-100;-98.4;49.0;49.3;14;14.0;28.8;0.0;
13/02/2025 06:09:41;100;0;13.82;-4;-30.28;-4.43;403.6;16.90;76638;2835.199;-1758.762;1;10;-100;-96.8;49.0;49.2;17;17.1;28.8;0.0;
13/02/2025 06:10:01;100;0;17.94;-4;-30.73;-2.78;408.4;16.90;76622;2835.202;-1758.760;1;10;-100;-98.4;49.0;49.3;23;23.0;28.8;0.0;
13/02/2025 06:10:21;100;0;17.80;-4;-31.02;-0.11;413.1;16.80;76627;2835.204;-1758.758;1;10;-100;-98.4;49.0;49.2;23;23.5;28.8;0.0;
13/02/2025 06:10:41;100;0;17.77;-4;-30.84;0.14;417.9;16.80;76610;2835.207;-1758.756;1;10;-100;-98.4;49.0;49.3;23;23.5;28.8;0.0;
13/02/2025 06:11:01;100;0;16.85;-4;-30.84;-0.03;422.7;16.70;76606;2835.210;-1758.754;1;10;-100;-98.4;49.0;49.2;21;21.2;28.8;0.0;
13/02/2025 06:11:22;100;0;18.76;-4;-30.98;-1.29;427.5;16.60;76584;2835.213;-1758.752;1;10;-100;-98.4;49.0;49.2;24;23.9;28.8;0.0;
13/02/2025 06:11:42;100;0;14.23;-4;-30.01;0.40;432.3;16.60;76576;2835.216;-1758.750;1;10;-100;-98.4;49.0;49.2;18;18.1;28.8;0.0;
13/02/2025 06:12:02;100;0;11.09;-4;-29.83;-2.91;436.8;16.50;76566;2835.219;-1758.748;1;10;-100;-101.6;49.0;49.3;14;14.0;28.8;0.0;
13/02/2025 06:12:22;100;0;8.26;-4;-29.75;-4.98;441.4;16.50;76564;2835.222;-1758.747;1;10;-100;-98.4;49.0;49.2;12;11.7;28.8;0.0;
13/02/2025 06:12:42;100;0;4.28;-4;-29.46;-6.07;446.0;16.50;76554;2835.225;-1758.746;1;10;-100;-96.8;49.0;49.3;10;9.5;28.8;0.0;
13/02/2025 06:13:02;100;0;0.33;-4;-29.46;-6.55;450.4;16.40;76541;2835.228;-1758.745;1;10;-100;-98.4;49.0;49.2;10;10.4;28.8;0.0;
13/02/2025 06:13:22;100;0;356.45;-4;-29.32;-6.73;454.9;16.30;76532;2835.231;-1758.745;1;10;-100;-96.8;49.0;49.2;10;10.4;28.8;0.0;
13/02/2025 06:13:42;100;0;353.08;-4;-29.62;-6.41;459.4;16.30;76533;2835.234;-1758.745;1;10;-100;-98.4;49.0;49.3;10;10.4;28.8;0.0;
13/02/2025 06:14:02;100;0;350.11;-4;-29.46;-6.56;463.9;16.30;76530;2835.237;-1758.745;1;10;-100;-98.4;49.0;49.2;7;7.2;28.8;0.0;
13/02/2025 06:14:22;100;0;350.53;-4;-29.36;-7.87;468.2;16.20;76529;2835.240;-1758.745;1;10;-100;-96.8;49.0;49.3;7;7.2;28.8;0.0;
13/02/2025 06:14:42;100;0;348.25;-4;-29.18;-8.26;472.5;16.20;76512;2835.243;-1758.745;1;10;-100;-98.4;49.0;49.2;5;5.0;28.8;0.0;
13/02/2025 06:15:02;100;0;349.30;-4;-28.65;-9.40;476.8;16.10;76497;2835.246;-1758.746;1;10;-100;-96.8;49.4;49.2;7;7.2;28.8;0.0;
13/02/2025 06:15:22;100;0;348.29;-4;-28.76;-7.85;481.1;16.10;76493;2835.249;-1758.746;1;10;-100;-96.8;49.8;50.1;5;5.0;28.8;0.0;
13/02/2025 06:15:42;100;0;346.75;-4;-30.79;-9.60;485.3;16.00;76479;2835.251;-1758.746;1;10;-100;-98.4;49.8;50.1;5;4.5;28.8;0.0;
13/02/2025 06:16:02;100;0;348.08;-4;-30.83;-9.53;489.8;16.00;76471;2835.254;-1758.747;1;10;-100;-98.4;49.8;50.1;5;4.5;28.8;0.0;
13/02/2025 06:16:22;100;0;352.33;-4;-31.09;-9.48;494.5;15.90;76454;2835.257;-1758.747;1;10;-100;-98.4;49.8;50.2;8;8.1;28.8;0.0;
13/02/2025 06:16:42;100;0;355.55;-4;-31.43;-7.29;499.1;15.90;76446;2835.260;-1758.746;1;10;-100;-96.8;49.8;50.1;8;8.6;28.8;0.0;
13/02/2025 06:16:44;118;0;355.92;-4;-31.48;-7.29;499.8;15.90;76456;2835.260;-1758.746;1;10;220;-93.5;20.4;20.5;8;8.6;28.8;0.0;
13/02/2025 06:16:54;118;0;43.45;-4;-18.50;-7.85;501.6;15.90;76429;2835.261;-1758.744;1;10;220;37.1;20.4;20.2;8;8.6;28.1;-1.0;
13/02/2025 06:17:05;118;0;37.41;-4;9.59;-7.89;502.3;15.90;76158;2835.262;-1758.743;1;10;220;164.5;20.4;19.9;8;8.6;28.1;-1.0;
13/02/2025 06:17:15;118;0;33.13;-4;26.18;-8.72;501.7;15.80;75879;2835.262;-1758.742;1;10;220;224.2;20.4;20.5;8;8.6;28.0;-1.0;
13/02/2025 06:17:25;118;0;358.12;-4;29.92;-8.45;500.4;15.80;75771;2835.262;-1758.742;1;10;220;224.2;20.4;20.6;8;8.6;28.8;-1.0;
13/02/2025 06:17:45;117;0;352.02;-4;30.76;-8.41;497.5;15.80;75764;2835.264;-1758.742;1;10;220;222.6;20.4;20.6;8;8.6;28.8;-1.0;
13/02/2025 06:18:05;117;0;344.45;-4;30.92;-8.41;494.3;15.70;75767;2835.265;-1758.742;1;10;220;222.6;20.4;20.6;30;29.8;28.8;-1.0;
13/02/2025 06:18:25;117;0;341.89;-4;32.57;3.19;491.2;15.70;75757;2835.267;-1758.742;1;10;220;222.6;21.2;21.4;33;33.4;28.8;-1.0;
13/02/2025 06:18:45;117;0;340.50;-4;31.91;5.06;488.0;15.60;75756;2835.268;-1758.743;1;10;220;224.2;21.2;21.5;35;35.2;28.8;-1.0;
13/02/2025 06:19:05;117;0;341.47;-4;31.71;6.05;485.0;15.60;75747;2835.269;-1758.743;1;10;220;222.6;21.2;21.5;35;35.6;28.8;-1.0;
13/02/2025 06:19:25;117;0;344.52;-4;32.26;6.12;481.6;15.60;75753;2835.271;-1758.743;1;10;220;222.6;21.9;22.2;32;32.0;28.8;-1.0;
13/02/2025 06:19:45;117;0;343.97;-4;30.84;4.11;478.5;15.50;75752;2835.273;-1758.743;1;10;220;222.6;21.9;22.1;32;31.6;28.8;-1.0;
13/02/2025 06:20:05;117;0;343.16;-4;30.51;4.16;475.4;15.50;75741;2835.274;-1758.744;1;10;220;224.2;21.9;22.2;32;31.6;28.8;-1.0;
13/02/2025 06:20:25;117;0;342.98;-4;30.36;4.24;472.2;15.50;75739;2835.276;-1758.744;1;10;220;222.6;21.9;22.2;34;33.8;28.8;-1.0;
13/02/2025 06:20:45;117;0;343.07;-4;30.59;5.37;469.2;15.40;75750;2835.277;-1758.744;1;10;220;222.6;21.9;22.2;34;34.3;28.8;-1.0;
13/02/2025 06:21:05;117;0;344.07;-4;30.76;5.15;466.0;15.40;75740;2835.279;-1758.744;1;10;220;222.6;21.9;22.2;32;31.6;28.8;-1.0;
13/02/2025 06:21:25;117;0;343.90;-4;30.66;4.69;463.0;15.40;75736;2835.280;-1758.744;1;10;220;222.6;21.9;22.2;32;32.9;28.7;-1.0;
13/02/2025 06:21:45;117;0;344.45;-4;30.38;4.60;460.1;15.30;75727;2835.282;-1758.745;1;10;220;224.2;21.9;22.2;32;32.9;28.8;-1.0;
13/02/2025 06:22:05;117;0;344.92;-4;30.23;4.51;457.0;15.30;75721;2835.283;-1758.745;1;10;220;224.2;21.9;22.2;32;32.9;28.8;-1.0;
13/02/2025 06:22:25;117;0;345.72;-4;30.03;4.66;454.0;15.20;75723;2835.285;-1758.745;1;11;220;222.6;21.9;22.1;32;32.9;28.8;-1.0;
13/02/2025 06:22:45;117;0;348.51;-4;30.31;4.61;451.0;15.20;75715;2835.286;-1758.745;1;11;220;222.6;21.9;22.2;30;29.8;28.8;-1.0;
13/02/2025 06:23:05;117;0;349.90;-4;30.03;2.62;448.0;15.20;75716;2835.288;-1758.745;1;11;220;222.6;21.9;22.2;30;29.3;28.8;-1.0;
13/02/2025 06:23:25;117;0;349.55;-4;29.97;2.69;445.0;15.20;75720;2835.289;-1758.745;1;11;220;222.6;21.9;22.1;30;29.3;28.8;-1.0;
13/02/2025 06:23:45;117;0;349.61;-4;29.86;2.78;442.1;15.20;75713;2835.291;-1758.745;1;11;220;224.2;21.9;22.2;30;29.3;28.8;-1.0;
13/02/2025 06:24:05;117;0;348.11;-4;30.12;2.73;439.1;15.10;75707;2835.292;-1758.745;1;11;220;224.2;21.9;22.1;30;29.3;28.8;-1.0;
13/02/2025 06:24:25;117;0;345.75;-4;30.17;2.71;436.2;15.10;75708;2835.294;-1758.745;1;11;220;222.6;21.9;22.2;32;32.0;28.8;-1.0;
13/02/2025 06:24:45;117;0;344.39;-4;30.28;4.54;433.2;15.10;75708;2835.295;-1758.745;1;11;220;224.2;21.9;22.2;32;32.5;28.8;-1.0;
13/02/2025 06:25:05;117;0;343.24;-4;30.44;4.41;430.2;15.10;75702;2835.297;-1758.745;1;11;220;224.2;21.9;22.1;34;34.3;28.8;-1.0;
13/02/2025 06:25:25;117;0;338.99;-4;29.48;5.92;427.2;15.00;75708;2835.298;-1758.746;1;11;220;224.2;21.9;22.1;39;38.8;28.8;-1.0;
13/02/2025 06:25:45;117;0;337.94;-4;30.23;7.89;424.5;15.00;75710;2835.300;-1758.746;1;11;220;222.6;21.9;22.2;39;39.3;28.8;-1.0;
13/02/2025 06:26:05;117;0;337.53;-4;30.40;7.66;421.7;15.00;75707;2835.301;-1758.747;1;11;220;222.6;21.9;22.2;39;39.3;28.8;-1.0;
13/02/2025 06:26:25;117;0;337.37;-4;30.27;7.82;418.9;15.00;75703;2835.302;-1758.747;1;11;220;224.2;21.9;22.2;39;38.8;28.8;-1.0;
13/02/2025 06:26:45;117;0;337.11;-4;30.18;8.10;416.1;15.00;75701;2835.304;-1758.747;1;11;220;222.6;21.9;22.2;41;41.1;28.8;-1.0;
13/02/2025 06:27:05;117;0;338.01;-4;30.62;9.29;413.3;15.00;75707;2835.305;-1758.748;1;11;220;224.2;21.9;22.1;38;37.9;28.8;-1.0;
13/02/2025 06:27:25;117;0;335.37;-4;30.15;7.30;410.5;14.90;75697;2835.306;-1758.748;1;11;220;222.6;21.9;22.1;44;44.2;28.7;-1.0;
13/02/2025 06:27:45;117;0;337.12;-4;30.54;11.04;407.8;14.90;75707;2835.307;-1758.749;1;11;220;222.6;21.9;22.1;39;38.8;28.8;-1.0;
13/02/2025 06:28:05;117;0;337.68;-4;30.25;7.53;405.0;14.90;75704;2835.308;-1758.749;1;11;220;224.2;21.9;22.1;39;38.4;28.8;-1.0;
13/02/2025 06:28:25;117;0;337.83;-4;30.12;7.51;402.3;14.90;75694;2835.309;-1758.750;1;11;220;222.6;21.9;22.1;39;38.4;28.8;-1.0;
13/02/2025 06:28:45;117;0;338.48;-4;30.07;7.49;399.6;14.90;75705;2835.311;-1758.750;1;11;220;222.6;21.9;22.2;39;38.4;28.8;-1.0;
13/02/2025 06:29:05;117;0;338.98;-4;30.14;7.46;397.0;14.90;75701;2835.312;-1758.750;1;11;220;222.6;21.9;22.2;36;34.7;28.8;-1.0;
13/02/2025 06:29:25;117;0;335.03;-4;30.07;6.28;394.4;14.90;75720;2835.313;-1758.751;1;11;220;222.6;21.9;22.2;43;42.9;28.8;-1.0;
13/02/2025 06:29:45;117;0;334.00;-4;30.97;10.44;391.7;14.80;75705;2835.314;-1758.751;1;11;220;222.6;21.9;22.2;45;45.1;28.8;-1.0;
13/02/2025 06:30:05;117;0;335.19;-4;30.92;11.61;388.9;14.80;75716;2835.315;-1758.752;1;11;220;222.6;21.9;22.1;43;42.4;28.8;-1.0;
13/02/2025 06:30:25;117;0;337.20;-4;30.72;9.37;386.0;14.80;75710;2835.316;-1758.752;1;11;220;224.2;21.9;22.1;41;41.1;28.8;-1.0;
13/02/2025 06:30:45;117;0;339.40;-4;30.57;8.79;383.1;14.80;75712;2835.318;-1758.753;1;11;220;224.2;21.9;22.1;38;37.5;28.8;-1.0;
13/02/2025 06:31:05;117;0;338.66;-4;30.64;6.92;380.3;14.80;75718;2835.319;-1758.753;1;11;220;224.2;21.9;22.2;38;37.5;28.8;-1.0;
13/02/2025 06:31:25;117;0;339.61;-4;30.33;6.97;377.5;14.80;75718;2835.320;-1758.753;1;11;220;222.6;21.9;22.1;38;37.5;28.8;-1.0;
13/02/2025 06:31:45;117;0;339.93;-4;29.97;6.92;374.7;14.80;75721;2835.321;-1758.754;1;11;220;221.0;21.9;22.2;38;37.5;28.8;-1.0;
13/02/2025 06:32:05;117;0;340.48;-4;29.99;6.90;372.1;14.80;75719;2835.322;-1758.754;1;11;220;222.6;21.9;22.2;34;33.8;28.8;-1.0;
13/02/2025 06:32:25;117;0;338.37;-4;30.21;6.33;369.5;14.80;75722;2835.324;-1758.754;1;11;220;222.6;21.9;22.1;38;37.9;28.8;-1.0;
13/02/2025 06:32:45;117;0;336.19;-4;30.80;7.55;366.9;14.80;75726;2835.325;-1758.755;1;11;220;222.6;21.9;22.2;40;40.2;28.8;-1.0;
13/02/2025 06:33:05;117;0;333.08;-4;30.72;8.67;364.1;14.80;75738;2835.326;-1758.755;1;11;220;224.2;21.9;22.1;47;46.9;28.8;-1.0;
13/02/2025 06:33:25;117;0;335.12;-4;31.02;12.57;361.3;14.80;75742;2835.327;-1758.756;1;11;220;222.6;21.9;22.2;43;42.9;28.8;-1.0;
13/02/2025 06:33:45;117;0;334.51;-4;30.96;9.82;358.5;14.80;75745;2835.328;-1758.756;1;11;220;222.6;21.9;22.2;43;42.4;28.8;-1.0;
13/02/2025 06:34:05;117;0;335.57;-4;30.21;9.71;355.7;14.80;75752;2835.329;-1758.757;1;11;220;224.2;21.9;22.1;43;42.4;28.8;-1.0;
13/02/2025 06:34:25;117;0;336.47;-4;30.41;9.74;353.0;14.80;75749;2835.330;-1758.757;1;11;220;222.6;21.9;22.2;41;41.1;28.8;-1.0;
13/02/2025 06:34:45;117;0;336.32;-4;30.66;8.66;350.3;14.80;75763;2835.331;-1758.758;1;11;220;222.6;21.9;22.1;41;40.6;28.8;-1.0;
13/02/2025 06:35:05;117;0;336.34;-4;30.82;8.78;347.7;14.80;75758;2835.332;-1758.758;1;11;220;222.6;21.9;22.2;41;40.6;28.8;-1.0;
13/02/2025 06:35:25;117;0;336.34;-4;30.67;8.88;344.9;14.80;75755;2835.334;-1758.759;1;11;220;222.6;21.9;22.2;41;40.6;28.8;-1.0;
13/02/2025 06:35:45;117;0;338.06;-4;30.59;8.80;342.1;14.80;75763;2835.335;-1758.759;1;11;220;222.6;21.9;22.2;39;38.8;28.8;-1.0;
13/02/2025 06:36:05;117;0;340.06;-4;30.34;7.39;339.3;14.80;75768;2835.336;-1758.759;1;11;220;224.2;21.9;22.2;39;38.4;28.8;-1.0;
13/02/2025 06:36:25;117;0;341.77;-4;29.69;7.30;336.5;14.80;75774;2835.337;-1758.760;1;11;220;222.6;21.9;22.2;36;36.1;28.8;-1.0;
13/02/2025 06:36:45;117;0;344.37;-4;29.77;6.15;333.7;14.80;75771;2835.339;-1758.760;1;11;220;224.2;21.9;22.1;33;31.1;28.8;-1.0;
13/02/2025 06:37:05;117;0;341.61;-4;29.98;5.21;330.9;14.80;75765;2835.340;-1758.760;1;11;220;224.2;21.9;22.1;35;35.2;28.8;-1.0;
13/02/2025 06:37:25;117;0;341.37;-4;29.72;6.15;328.2;14.80;75771;2835.341;-1758.760;1;11;220;224.2;21.9;22.2;35;35.6;28.7;-1.0;
13/02/2025 06:37:45;117;0;343.42;-4;30.01;6.17;325.5;14.80;75771;2835.343;-1758.761;1;11;220;222.6;21.9;22.2;35;35.6;28.8;-1.0;
13/02/2025 06:38:05;117;0;345.96;-4;30.06;6.15;322.6;14.80;75776;2835.344;-1758.761;1;11;220;224.2;21.9;22.1;32;32.0;28.8;-1.0;
13/02/2025 06:38:25;117;0;347.40;-4;29.60;3.64;319.8;14.80;75771;2835.345;-1758.761;1;11;220;224.2;21.9;22.1;32;31.6;28.8;-1.0;
13/02/2025 06:38:45;117;0;350.37;-4;29.75;3.73;317.0;14.80;75779;2835.347;-1758.760;1;11;220;224.2;21.9;22.1;32;31.6;28.8;-1.0;
13/02/2025 06:39:05;117;0;349.34;-4;29.78;3.61;314.1;14.80;75787;2835.348;-1758.760;1;11;220;224.2;21.9;22.1;32;31.1;28.8;-1.0;
13/02/2025 06:39:25;117;0;346.28;-4;30.03;3.71;311.2;14.80;75793;2835.350;-1758.760;1;11;220;222.6;21.9;22.1;32;31.6;28.8;-1.0;
13/02/2025 06:39:45;117;0;345.66;-4;30.03;3.76;308.2;14.80;75788;2835.351;-1758.761;1;11;220;222.6;21.9;22.2;32;31.6;28.8;-1.0;
13/02/2025 06:40:05;117;0;343.12;-4;29.76;3.65;305.1;14.80;75805;2835.353;-1758.761;1;11;220;224.2;21.9;22.2;37;37.5;28.8;-1.0;
13/02/2025 06:40:25;117;0;341.36;-4;29.99;7.20;302.2;14.80;75805;2835.354;-1758.761;1;11;220;225.8;21.9;22.2;37;37.9;28.8;-1.0;
13/02/2025 06:40:45;117;0;340.67;-4;30.06;7.16;299.2;14.80;75802;2835.356;-1758.762;1;11;220;222.6;21.9;22.2;39;38.8;28.8;-1.0;
13/02/2025 06:41:05;117;0;341.17;-4;30.11;7.98;296.3;14.80;75791;2835.357;-1758.762;1;11;220;224.2;21.9;22.2;39;39.3;28.8;-1.0;
13/02/2025 06:41:25;117;0;342.15;-4;30.01;7.97;293.5;14.90;75818;2835.358;-1758.762;1;11;220;222.6;21.9;22.2;36;35.6;28.8;-1.0;
13/02/2025 06:41:45;117;0;341.60;-4;29.89;5.92;290.6;14.90;75815;2835.360;-1758.762;1;11;220;222.6;21.9;22.2;38;37.9;28.8;-1.0;
13/02/2025 06:42:05;117;0;345.49;-4;29.82;7.61;287.8;14.90;75811;2835.361;-1758.762;1;11;220;224.2;21.9;22.1;33;31.1;28.8;-1.0;
13/02/2025 06:42:25;117;0;345.80;-4;29.75;5.62;285.0;14.90;75820;2835.363;-1758.763;1;11;220;224.2;21.9;22.2;33;34.7;28.8;-1.0;
13/02/2025 06:42:45;117;0;345.76;-4;29.61;5.55;282.5;14.90;75828;2835.364;-1758.763;1;11;220;224.2;21.9;22.1;33;34.7;28.8;-1.0;
13/02/2025 06:43:05;117;0;344.38;-4;29.93;5.54;279.9;14.90;75838;2835.365;-1758.763;1;11;220;224.2;21.9;22.2;33;34.7;28.8;-1.0;
13/02/2025 06:43:25;117;0;342.65;-4;29.95;5.51;277.2;14.90;75840;2835.366;-1758.763;1;11;220;222.6;21.9;22.1;33;34.7;28.8;-1.0;
13/02/2025 06:43:45;117;0;340.99;-4;29.97;5.56;274.6;14.90;75838;2835.367;-1758.763;1;12;220;225.8;21.9;22.2;36;36.1;28.8;-1.0;
13/02/2025 06:44:05;117;0;339.01;-4;30.11;6.57;271.8;14.90;75837;2835.369;-1758.763;1;12;220;224.2;21.9;22.2;40;40.2;28.8;-1.0;
13/02/2025 06:44:25;117;0;338.42;-4;30.12;8.74;269.2;15.00;75853;2835.370;-1758.764;1;12;220;224.2;21.9;22.2;40;40.6;28.8;-1.0;
13/02/2025 06:44:45;117;0;340.06;-4;29.94;8.60;266.5;15.00;75858;2835.371;-1758.764;1;12;220;224.2;21.9;22.2;40;40.6;28.8;-1.0;
13/02/2025 06:45:05;117;0;341.96;-4;30.04;8.77;263.8;15.00;75850;2835.372;-1758.764;1;12;220;224.2;21.9;22.2;36;35.6;28.8;-1.0;
13/02/2025 06:45:25;117;0;344.83;-4;29.81;5.90;261.2;15.00;75860;2835.373;-1758.764;1;12;220;222.6;21.9;22.1;33;21.2;28.8;-1.0;
13/02/2025 06:45:45;117;0;349.30;-4;29.45;4.93;258.4;15.00;75857;2835.375;-1758.764;1;12;220;224.2;21.9;22.2;33;34.3;28.8;-1.0;
13/02/2025 06:46:05;117;0;351.96;-4;29.88;5.17;255.7;15.00;75865;2835.376;-1758.764;1;12;220;224.2;21.9;22.2;31;31.1;28.8;-1.0;
13/02/2025 06:46:25;117;0;354.11;-4;29.76;4.60;252.9;15.00;75872;2835.378;-1758.764;1;12;220;224.2;21.9;22.2;31;32.9;28.8;-1.0;
13/02/2025 06:46:45;117;0;355.62;-4;29.46;4.49;250.1;15.00;75874;2835.379;-1758.763;1;12;220;224.2;21.9;22.2;31;32.9;28.8;-1.0;
13/02/2025 06:47:05;117;0;359.42;-4;29.43;4.45;247.4;15.10;75876;2835.381;-1758.763;1;12;220;224.2;21.9;22.1;31;32.9;28.8;-1.0;
13/02/2025 06:47:25;117;0;358.96;-4;29.56;4.58;244.6;15.10;75892;2835.382;-1758.762;1;12;220;224.2;21.9;22.1;31;32.9;28.8;-1.0;
13/02/2025 06:47:45;117;0;358.12;-4;29.50;4.47;241.9;15.10;75885;2835.383;-1758.762;1;12;220;224.2;21.9;22.2;31;32.9;28.8;-1.0;
13/02/2025 06:48:05;117;0;356.87;-4;29.58;4.55;239.1;15.10;75897;2835.385;-1758.761;1;12;220;224.2;21.9;22.1;31;32.9;28.8;-1.0;
13/02/2025 06:48:25;117;0;357.13;-4;29.65;4.61;236.2;15.10;75912;2835.386;-1758.761;1;12;220;224.2;21.9;22.1;31;32.9;28.8;-1.0;
13/02/2025 06:48:45;117;0;356.15;-4;29.32;4.56;233.5;15.10;75915;2835.388;-1758.760;1;12;220;224.2;21.9;22.2;31;32.9;28.8;-1.0;
13/02/2025 06:49:05;117;0;354.65;-4;29.35;4.55;230.9;15.10;75919;2835.389;-1758.760;1;12;220;224.2;21.9;22.1;31;32.9;28.8;-1.0;
13/02/2025 06:49:25;117;0;352.34;-4;29.38;4.57;228.2;15.20;75935;2835.390;-1758.760;1;12;220;222.6;21.9;22.2;31;32.9;28.8;-1.0;
13/02/2025 06:49:45;117;0;352.86;-4;29.57;4.59;225.6;15.20;75939;2835.392;-1758.759;1;12;220;224.2;21.9;22.2;31;32.9;28.8;-1.0;
13/02/2025 06:50:05;117;0;353.45;-4;29.67;4.53;223.1;15.20;75944;2835.393;-1758.759;1;12;220;224.2;21.9;22.2;31;32.9;28.8;-1.0;
13/02/2025 06:50:25;117;0;353.16;-4;29.63;4.61;220.4;15.20;75944;2835.394;-1758.759;1;12;220;224.2;21.9;22.2;31;32.9;28.8;-1.0;
13/02/2025 06:50:46;117;0;352.40;-4;29.57;4.60;217.7;15.20;75952;2835.396;-1758.758;1;12;220;224.2;21.9;22.2;31;32.9;28.8;-1.0;
13/02/2025 06:51:06;117;0;351.19;-4;29.87;4.53;215.1;15.20;75962;2835.397;-1758.758;1;12;220;224.2;21.9;22.2;31;32.9;28.8;-1.0;
13/02/2025 06:51:26;117;0;349.38;-4;29.78;4.53;212.4;15.30;75969;2835.398;-1758.758;1;12;220;224.2;21.9;22.2;31;32.9;28.8;-1.0;
13/02/2025 06:51:46;117;0;348.59;-4;29.60;4.52;209.7;15.30;75975;2835.399;-1758.758;1;12;220;224.2;21.9;22.2;31;32.9;28.8;-1.0;
13/02/2025 06:52:06;117;0;348.34;-4;29.71;4.48;207.0;15.30;75987;2835.401;-1758.758;1;12;220;224.2;21.9;22.1;31;32.9;28.8;-1.0;
13/02/2025 06:52:26;117;0;348.79;-4;29.72;4.53;204.3;15.30;75995;2835.402;-1758.758;1;12;220;222.6;21.9;22.1;31;32.9;28.8;-1.0;
13/02/2025 06:52:46;117;0;346.66;-4;29.14;4.58;201.6;15.30;76008;2835.403;-1758.758;1;12;220;224.2;21.9;22.2;33;32.9;28.8;-1.0;
13/02/2025 06:53:06;117;0;347.42;-4;29.27;4.52;199.0;15.40;76015;2835.405;-1758.758;1;12;220;224.2;21.9;22.1;33;32.9;28.8;-1.0;
13/02/2025 06:53:26;117;0;346.27;-4;29.55;4.52;196.3;15.40;76025;2835.406;-1758.758;1;12;220;225.8;21.9;22.1;33;32.9;28.8;-1.0;
13/02/2025 06:53:46;117;0;346.61;-4;29.14;4.52;193.5;15.40;76025;2835.408;-1758.758;1;12;220;224.2;21.9;22.2;33;32.9;28.8;-1.0;
13/02/2025 06:54:06;117;0;349.21;-4;29.12;4.55;191.0;15.40;76049;2835.409;-1758.758;1;12;220;224.2;21.9;22.1;33;32.9;28.7;-1.0;
13/02/2025 06:54:26;117;0;351.88;-4;29.14;4.56;188.4;15.50;76064;2835.410;-1758.757;1;12;220;224.2;21.9;22.1;31;31.1;28.8;-1.0;
13/02/2025 06:54:46;117;0;351.83;-4;29.03;3.18;185.8;15.50;76064;2835.411;-1758.757;1;12;220;224.2;21.9;22.2;31;30.7;28.8;-1.0;
13/02/2025 06:55:06;117;0;351.38;-4;28.99;3.23;183.2;15.50;76069;2835.413;-1758.757;1;12;220;224.2;21.6;21.5;31;30.7;28.8;-1.0;
13/02/2025 06:55:26;117;0;352.99;-4;29.96;3.17;180.6;15.50;76087;2835.414;-1758.757;1;12;220;224.2;21.6;21.4;31;30.7;28.8;-1.0;
13/02/2025 06:55:46;117;0;355.38;-4;30.37;3.11;177.7;15.60;76102;2835.415;-1758.756;1;12;220;225.8;21.6;21.4;31;30.7;28.8;-1.0;
13/02/2025 06:56:06;117;0;355.92;-4;30.37;3.23;174.9;15.60;76104;2835.417;-1758.756;1;12;220;225.8;21.6;21.4;31;30.7;28.8;-1.0;
13/02/2025 06:56:26;117;0;358.66;-4;30.38;3.11;171.9;15.60;76127;2835.419;-1758.755;1;12;220;224.2;21.6;21.4;31;30.7;28.8;-1.0;
13/02/2025 06:56:46;117;0;358.10;-4;30.55;3.15;168.8;15.70;76134;2835.420;-1758.755;1;12;220;224.2;21.6;21.4;31;30.7;28.8;-1.0;
13/02/2025 06:57:06;117;0;355.12;-4;30.47;3.23;165.8;15.70;76133;2835.422;-1758.754;1;12;220;224.2;21.6;21.4;31;30.7;28.8;-1.0;
13/02/2025 06:57:26;117;0;350.13;-4;30.71;3.34;162.9;15.70;76139;2835.423;-1758.754;1;12;220;224.2;21.6;21.4;31;30.7;28.8;-1.0;
13/02/2025 06:57:46;117;0;345.58;-4;30.38;3.06;159.7;15.70;76157;2835.425;-1758.755;1;12;220;225.8;21.6;21.4;35;35.2;28.8;-1.0;
13/02/2025 06:58:06;117;0;342.06;-4;31.41;5.69;156.6;15.80;76164;2835.426;-1758.755;1;12;220;225.8;21.6;21.4;38;37.9;28.8;-1.0;
13/02/2025 06:58:26;117;0;341.15;-4;31.16;7.83;153.4;15.80;76168;2835.428;-1758.755;1;12;220;225.8;21.6;21.4;40;40.2;28.8;-1.0;
13/02/2025 06:58:46;117;0;340.77;-4;30.58;8.34;150.4;15.80;76175;2835.429;-1758.756;1;12;220;225.8;21.6;21.4;40;40.2;28.8;-1.0;
13/02/2025 06:59:06;117;0;339.88;-4;31.25;8.66;147.5;15.90;76180;2835.431;-1758.756;1;12;220;224.2;21.6;21.4;40;40.2;28.8;-1.0;
13/02/2025 06:59:26;117;0;338.16;-4;31.47;8.29;144.6;15.90;76186;2835.432;-1758.756;1;12;220;224.2;21.6;21.4;42;42.0;28.8;-1.0;
13/02/2025 06:59:46;117;0;342.30;-4;32.17;9.81;141.6;15.90;76196;2835.433;-1758.757;1;12;220;224.2;22.2;22.5;38;37.5;28.8;-1.0;
13/02/2025 07:00:06;117;0;339.32;-4;29.26;6.87;138.5;16.00;76203;2835.435;-1758.757;1;12;220;224.2;22.2;22.5;43;42.9;28.8;-1.0;
13/02/2025 07:00:26;117;0;341.01;-4;28.36;10.02;135.8;16.00;76224;2835.436;-1758.757;1;12;220;224.2;21.7;21.5;39;38.4;28.8;-1.0;
13/02/2025 07:00:46;117;0;340.72;-4;29.58;7.02;133.3;16.00;76246;2835.437;-1758.758;1;12;220;224.2;21.7;21.5;37;36.6;28.8;-1.0;
13/02/2025 07:01:06;117;0;339.48;-4;29.66;6.43;130.9;16.10;76264;2835.438;-1758.758;1;12;220;224.2;21.7;21.5;37;36.6;28.8;-1.0;
13/02/2025 07:01:26;117;0;338.48;-4;29.81;6.54;128.5;16.10;76274;2835.439;-1758.758;1;12;220;224.2;21.7;21.6;37;36.6;28.8;-1.0;
13/02/2025 07:01:46;117;0;337.02;-4;29.94;6.45;126.1;16.10;76294;2835.440;-1758.758;1;12;220;224.2;21.7;21.5;39;39.3;28.8;-1.0;
13/02/2025 07:02:06;117;0;337.20;-4;30.39;8.07;123.8;16.20;76298;2835.441;-1758.759;1;12;220;225.8;21.7;21.5;39;39.7;28.8;-1.0;
13/02/2025 07:02:26;117;0;338.19;-4;30.50;8.07;121.3;16.20;76319;2835.442;-1758.759;1;12;220;225.8;21.7;21.5;39;39.7;28.8;-1.0;
13/02/2025 07:02:46;117;0;344.80;-4;30.35;8.27;118.8;16.20;76331;2835.443;-1758.759;1;12;220;225.8;21.7;21.5;33;32.0;28.8;-1.0;
13/02/2025 07:03:06;117;0;347.64;-4;29.31;5.11;116.3;16.30;76378;2835.444;-1758.759;1;12;220;225.8;21.7;21.5;33;34.3;28.8;-1.0;
13/02/2025 07:03:26;117;0;348.53;-4;29.73;5.15;114.0;16.40;76427;2835.445;-1758.759;1;12;220;222.6;21.7;21.5;33;33.8;28.8;-1.0;
13/02/2025 07:03:46;117;0;345.60;-4;30.00;5.21;111.7;16.40;76464;2835.446;-1758.759;1;12;220;224.2;21.7;21.5;33;33.8;28.8;-1.0;
13/02/2025 07:04:06;117;0;344.15;-4;30.02;5.18;109.2;16.50;76487;2835.447;-1758.759;1;12;220;225.8;21.7;21.6;33;34.3;28.8;-1.0;
13/02/2025 07:04:26;117;0;341.34;-4;30.07;5.13;106.8;16.50;76507;2835.448;-1758.759;1;12;220;225.8;21.7;21.6;36;36.1;28.8;-1.0;
13/02/2025 07:04:46;117;0;338.87;-4;30.19;6.54;104.2;16.60;76511;2835.449;-1758.759;1;12;220;225.8;21.7;21.5;39;38.8;28.8;-1.0;
13/02/2025 07:05:06;117;0;340.87;-4;30.18;8.08;101.6;16.60;76545;2835.451;-1758.760;1;12;220;227.4;21.7;21.5;37;36.6;28.8;-1.0;
13/02/2025 07:05:26;117;0;341.78;-4;29.89;6.38;99.2;16.70;76553;2835.452;-1758.760;1;12;220;225.8;21.7;21.5;37;36.6;28.8;-1.0;
13/02/2025 07:05:46;117;0;341.81;-4;29.93;6.40;96.6;16.70;76568;2835.453;-1758.760;1;12;220;225.8;21.7;21.5;37;36.6;28.8;-1.0;
13/02/2025 07:06:06;117;0;342.15;-4;29.99;6.40;93.9;16.80;76582;2835.454;-1758.760;1;12;220;225.8;21.7;21.5;37;36.1;28.8;-1.0;
13/02/2025 07:06:26;117;0;341.85;-4;30.15;6.35;91.4;16.90;76582;2835.455;-1758.760;1;12;220;225.8;21.7;21.5;37;36.6;28.8;-1.0;
13/02/2025 07:06:46;117;0;341.56;-4;29.94;6.33;88.8;16.90;76583;2835.456;-1758.760;1;12;220;225.8;21.7;21.5;37;36.1;28.8;-1.0;
13/02/2025 07:07:06;117;0;341.56;-4;30.04;6.39;86.2;17.00;76602;2835.457;-1758.761;1;12;220;225.8;21.7;21.5;37;36.1;28.8;-1.0;
13/02/2025 07:07:26;117;0;343.14;-4;29.89;6.37;83.5;17.00;76611;2835.459;-1758.761;1;12;220;224.2;21.7;21.5;37;36.6;28.8;-1.0;
13/02/2025 07:07:46;117;0;343.44;-4;29.99;6.37;81.0;17.10;76622;2835.460;-1758.761;1;12;220;225.8;21.7;21.5;35;33.8;28.8;-1.0;
13/02/2025 07:08:06;117;0;343.55;-4;29.95;5.44;78.3;17.10;76633;2835.461;-1758.761;1;12;220;225.8;21.7;21.6;35;34.3;28.8;-1.0;
13/02/2025 07:08:26;117;0;342.80;-4;29.96;5.38;75.8;17.20;76634;2835.462;-1758.761;1;12;220;225.8;21.7;21.6;35;34.3;28.8;-1.0;
13/02/2025 07:08:46;117;0;342.66;-4;29.75;5.36;73.1;17.20;76639;2835.463;-1758.761;1;12;220;225.8;21.7;21.5;35;34.3;28.7;-1.0;
13/02/2025 07:09:06;117;0;342.53;-4;29.69;5.35;70.6;17.30;76660;2835.464;-1758.761;1;12;220;224.2;21.7;21.5;35;34.7;28.8;-1.0;
13/02/2025 07:09:26;117;0;341.64;-4;29.90;5.35;68.0;17.30;76666;2835.465;-1758.762;1;12;220;225.8;21.7;21.5;35;34.3;28.8;-1.0;
13/02/2025 07:09:46;117;0;339.09;-4;30.06;5.42;65.4;17.40;76666;2835.467;-1758.762;1;12;220;225.8;21.7;21.5;40;40.6;28.8;-1.0;
13/02/2025 07:10:06;117;0;338.54;-4;30.48;8.97;62.8;17.40;76673;2835.468;-1758.762;1;12;220;225.8;21.7;21.5;40;41.1;28.8;-1.0;
13/02/2025 07:10:26;117;0;337.05;-4;30.64;8.91;60.1;17.50;76693;2835.469;-1758.763;1;12;220;225.8;21.7;21.5;43;43.3;28.8;-1.0;
13/02/2025 07:10:46;117;0;335.72;-4;30.41;10.48;57.3;17.50;76696;2835.470;-1758.763;1;12;220;225.8;21.7;21.5;47;46.9;28.8;-1.0;
13/02/2025 07:11:06;117;0;337.55;-4;30.70;12.47;54.6;17.60;76702;2835.471;-1758.764;1;12;220;224.2;21.7;21.5;44;44.2;28.8;-1.0;
13/02/2025 07:11:26;117;0;337.74;-4;30.41;10.42;51.9;17.60;76709;2835.472;-1758.764;1;12;220;225.8;21.7;21.6;44;43.8;28.8;-1.0;
13/02/2025 07:11:46;117;0;338.64;-4;30.47;10.46;49.2;17.60;76715;2835.474;-1758.764;1;12;220;225.8;21.7;21.5;42;42.0;28.8;-1.0;
13/02/2025 07:12:06;117;0;337.92;-4;30.43;9.02;46.4;17.70;76734;2835.475;-1758.765;1;12;220;225.8;21.7;21.5;42;41.5;28.8;-1.0;
13/02/2025 07:12:26;117;0;338.14;-4;30.73;9.04;43.7;17.70;76732;2835.476;-1758.765;1;12;220;224.2;21.7;21.5;42;41.5;28.8;-1.0;
13/02/2025 07:12:46;117;0;339.79;-4;30.54;9.19;40.9;17.80;76736;2835.477;-1758.766;1;12;220;225.8;21.7;21.5;42;41.5;28.8;-1.0;
13/02/2025 07:13:06;117;0;340.90;-4;30.42;9.21;38.1;17.80;76740;2835.478;-1758.766;1;12;220;225.8;21.7;21.5;42;41.5;28.7;-1.0;
13/02/2025 07:13:26;117;0;341.42;-4;30.67;9.04;35.2;17.90;76743;2835.480;-1758.766;1;12;220;225.8;21.7;21.5;39;38.8;28.8;-1.0;
13/02/2025 07:13:46;117;0;344.35;-4;30.41;7.39;32.3;17.90;76747;2835.481;-1758.766;1;12;220;225.8;21.7;21.5;37;36.6;28.8;-1.0;
13/02/2025 07:14:06;117;0;345.01;-4;29.94;6.31;29.3;17.90;76751;2835.483;-1758.766;1;12;220;225.8;21.7;21.5;37;36.1;28.8;-1.0;
13/02/2025 07:14:26;117;0;344.80;-4;29.91;6.26;26.5;18.00;76772;2835.484;-1758.767;1;12;220;225.8;21.7;21.5;37;36.1;28.8;-1.0;
13/02/2025 07:14:46;117;0;344.14;-4;30.05;6.29;23.7;18.00;76768;2835.485;-1758.767;1;12;220;225.8;21.7;21.5;37;36.1;28.8;-1.0;
13/02/2025 07:15:06;117;0;343.09;-4;30.24;6.35;20.8;18.10;76775;2835.487;-1758.767;1;12;220;225.8;21.7;21.6;37;36.1;28.8;-1.0;
13/02/2025 07:15:26;117;0;342.38;-4;29.13;6.45;18.0;18.10;76781;2835.488;-1758.767;1;12;220;224.2;21.7;21.5;39;38.8;28.8;-1.0;
13/02/2025 07:15:46;117;0;342.90;-4;30.07;8.23;15.2;18.10;76788;2835.490;-1758.767;1;13;220;224.2;21.7;21.6;39;39.3;28.8;-1.0;
13/02/2025 07:16:06;117;0;344.33;-4;29.90;7.99;12.5;18.20;76797;2835.491;-1758.767;1;13;220;225.8;21.7;21.5;36;36.1;28.8;-1.0;
13/02/2025 07:16:26;117;0;345.73;-4;30.17;5.36;10.0;18.20;76792;2835.492;-1758.767;1;13;220;225.8;21.7;21.5;34;32.0;28.8;-1.0;
13/02/2025 07:16:46;117;0;342.03;-4;30.44;5.55;7.4;18.30;76793;2835.493;-1758.768;1;13;220;225.8;21.7;21.5;39;38.8;28.8;-1.0;
13/02/2025 07:17:06;117;0;341.11;-4;29.52;7.75;4.6;18.30;76802;2835.494;-1758.768;1;13;220;225.8;21.7;21.5;41;41.5;28.8;-1.0;
13/02/2025 07:17:17;115;0;345.24;-4;31.51;10.10;3.1;18.30;76813;2835.495;-1758.768;1;13;500;233.9;100.0;65.1;0;-0.5;28.8;-1.0;
13/02/2025 07:17:27;115;0;350.01;-4;13.05;-13.10;1.9;18.30;76775;2835.496;-1758.768;1;13;500;351.6;100.0;100.0;0;-0.5;28.6;-1.0;
13/02/2025 07:17:37;115;0;333.63;-4;-59.38;-15.63;2.4;18.40;76519;2835.496;-1758.768;1;13;500;466.1;100.0;100.6;0;-0.5;28.6;-1.0;
13/02/2025 07:17:47;115;0;280.54;-4;-69.54;-8.46;2.1;18.40;76260;2835.496;-1758.768;1;13;500;506.5;100.0;100.7;0;-0.5;28.5;-1.0;
13/02/2025 07:17:57;115;0;303.67;-4;-28.97;-15.70;0.1;18.40;76198;2835.496;-1758.769;1;13;500;506.5;100.0;100.7;0;-0.5;28.8;-1.0;
13/02/2025 07:18:17;119;0;349.16;-4;-55.91;-8.78;0.3;18.50;76204;2835.496;-1758.769;1;13;500;509.7;100.0;100.7;0;-0.5;28.7;-1.0;
13/02/2025 07:18:27;119;0;28.95;-4;-51.56;-22.42;0.2;18.50;76205;2835.755;-1759.008;0;13;500;508.1;100.0;100.7;0;-0.5;28.8;-1.0;
