Timestamp;NavState;SecurityLevel;Heading;Declination;Pitch;Roll;Depth;Temperature;Pa;Lat;Lon;DeadReckoning;DesiredH;BallastCmd;BallastPos;LinCmd;LinPos;AngCmd;AngPos;Voltage;Altitude;
17/02/2025 06:40:38;119;0;92.81;-4;-57.62;-11.85;0.2;19.70;76597;2839.026;-1759.747;0;147;500;508.1;100.0;100.6;0;-0.9;28.2;-1.0;
17/02/2025 06:40:48;116;0;90.22;-4;-47.99;-15.29;0.4;19.70;76610;2839.029;-1759.748;0;147;500;508.1;100.0;100.6;0;-0.9;28.2;-1.0;
17/02/2025 06:41:11;116;0;97.10;-4;-53.87;-8.37;0.2;19.80;76606;2839.029;-1759.748;0;147;500;508.1;100.0;100.6;0;-0.9;28.2;-1.0;
17/02/2025 06:41:30;116;0;101.63;-4;-52.95;-9.71;0.4;19.80;76612;2839.030;-1759.748;0;147;500;508.1;100.0;100.6;0;-0.9;28.2;-1.0;
17/02/2025 06:41:50;116;0;92.83;-4;-46.47;-18.60;0.2;19.80;76619;2839.032;-1759.748;0;147;500;508.1;100.0;100.6;0;-0.9;28.2;-1.0;
17/02/2025 06:42:01;116;0;94.14;-4;-58.41;-25.13;0.3;19.80;76625;2839.033;-1759.748;0;147;500;508.1;100.0;100.6;0;-0.9;28.2;-1.0;
17/02/2025 06:43:04;116;0;96.64;-4;-49.12;-3.99;0.2;20.00;76638;2839.037;-1759.748;0;147;500;508.1;100.0;100.6;0;-0.9;28.2;-1.0;
17/02/2025 06:44:08;116;0;114.28;-4;-61.63;-34.77;0.3;20.10;76653;2839.042;-1759.749;0;148;500;506.5;100.0;100.6;0;-0.9;28.2;-1.0;
17/02/2025 06:45:10;116;0;112.05;-4;-50.10;-21.87;0.2;20.30;76666;2839.046;-1759.749;0;148;500;508.1;100.0;100.6;0;-0.9;28.2;-1.0;
17/02/2025 06:46:25;116;0;132.72;-4;-51.38;-14.02;0.2;20.60;76670;2839.051;-1759.749;0;148;500;508.1;100.0;100.6;0;-0.9;28.2;-1.0;
17/02/2025 06:46:45;110;0;118.75;-4;-48.70;-16.72;0.1;20.70;76681;2839.051;-1759.749;0;148;-50;396.8;100.0;99.7;-9;-9.0;28.2;-1.0;
17/02/2025 06:46:55;110;0;133.77;-4;-52.49;-14.51;0.3;20.70;77030;2839.051;-1759.749;1;148;-50;248.4;100.0;99.7;-9;-9.9;28.2;-1.0;
17/02/2025 06:47:05;110;0;132.37;-4;-58.59;-25.13;0.7;20.70;77261;2839.051;-1759.748;1;149;-50;91.9;100.0;99.7;-9;-9.5;28.2;-1.0;
17/02/2025 06:47:15;110;0;127.79;-4;-63.20;-8.25;0.9;20.80;77599;2839.052;-1759.748;1;149;-50;-50.0;100.0;99.7;-9;-9.5;28.2;-1.0;
17/02/2025 06:47:25;110;0;131.19;-4;-63.29;-13.24;1.2;20.80;77887;2839.052;-1759.748;1;149;-50;-50.0;47.3;47.3;-9;-9.5;28.2;-1.0;
17/02/2025 06:47:45;100;0;146.87;-4;-32.71;-15.71;4.2;20.90;77873;2839.050;-1759.746;1;149;-50;-50.0;47.3;47.0;-9;-9.5;28.2;-1.0;
17/02/2025 06:48:05;100;0;153.88;-4;-28.06;-16.31;7.9;21.00;77870;2839.048;-1759.744;1;149;-50;-46.8;47.9;48.2;13;13.1;28.2;-1.0;
17/02/2025 06:48:25;100;0;154.78;-4;-31.20;-5.52;11.3;21.00;77871;2839.046;-1759.743;1;149;-50;-46.8;47.9;48.2;13;13.5;28.2;-1.0;
17/02/2025 06:48:45;100;0;150.79;-4;-30.24;-5.14;14.8;21.00;77876;2839.044;-1759.741;1;149;-50;-46.8;47.9;48.2;11;10.8;28.2;0.0;
17/02/2025 06:49:05;100;0;149.13;-4;-32.48;-6.54;18.5;21.00;77875;2839.042;-1759.738;1;149;-50;-46.8;47.2;47.1;9;9.0;28.2;0.0;
17/02/2025 06:49:25;100;0;150.51;-4;-29.31;-7.29;22.3;21.10;77887;2839.040;-1759.736;1;149;-50;-46.8;47.2;46.8;12;12.2;28.2;0.0;
17/02/2025 06:49:45;100;0;148.35;-4;-28.00;-5.58;26.0;21.10;77890;2839.038;-1759.734;1;149;-50;-46.8;47.8;47.7;10;9.9;28.2;0.0;
17/02/2025 06:50:05;100;0;150.53;-4;-28.53;-6.95;29.7;21.10;77893;2839.036;-1759.732;1;149;-50;-45.2;48.2;48.2;10;9.9;28.2;0.0;
17/02/2025 06:50:25;100;0;154.26;-4;-30.66;-7.15;33.2;21.10;77871;2839.034;-1759.730;1;149;-50;-46.8;48.2;48.3;12;12.2;28.2;0.0;
17/02/2025 06:50:45;100;0;153.25;-4;-30.78;-5.29;37.1;21.10;77877;2839.031;-1759.728;1;149;-50;-48.4;48.2;48.3;12;12.6;28.2;0.0;
17/02/2025 06:51:05;100;0;148.12;-4;-30.62;-5.30;41.0;21.10;77868;2839.029;-1759.726;1;149;-50;-46.8;48.2;48.3;9;8.6;28.2;0.0;
17/02/2025 06:51:25;100;0;144.32;-4;-30.87;-7.52;44.8;21.10;77876;2839.027;-1759.723;1;149;-50;-46.8;48.2;48.3;5;5.0;28.2;0.0;
17/02/2025 06:51:45;100;0;144.64;-4;-30.63;-9.42;48.7;21.10;77877;2839.026;-1759.721;1;150;-50;-46.8;48.2;48.3;5;4.5;28.2;0.0;
17/02/2025 06:52:05;100;0;144.61;-4;-30.35;-9.50;52.6;21.10;77880;2839.023;-1759.718;1;150;-50;-46.8;48.2;48.3;5;4.5;28.2;0.0;
17/02/2025 06:52:25;100;0;148.00;-4;-30.45;-9.39;56.4;21.10;77870;2839.021;-1759.716;1;150;-50;-48.4;48.2;48.3;8;8.1;28.2;0.0;
17/02/2025 06:52:45;100;0;148.34;-4;-30.11;-7.42;60.2;21.10;77874;2839.019;-1759.714;1;150;-50;-46.8;48.2;48.3;8;8.1;28.2;0.0;
17/02/2025 06:53:05;100;0;148.71;-4;-30.27;-7.39;63.9;21.10;77874;2839.017;-1759.712;1;150;-50;-46.8;48.2;48.3;8;8.1;28.2;0.0;
17/02/2025 06:53:25;100;0;149.86;-4;-30.42;-7.39;67.6;21.00;77870;2839.015;-1759.710;1;150;-50;-46.8;48.2;48.3;10;9.9;28.3;0.0;
17/02/2025 06:53:45;100;0;150.43;-4;-30.53;-6.43;71.2;21.00;77872;2839.013;-1759.708;1;150;-50;-46.8;48.2;48.3;10;10.4;28.2;0.0;
17/02/2025 06:54:05;100;0;150.84;-4;-30.49;-6.30;74.9;21.00;77875;2839.011;-1759.705;1;150;-50;-46.8;48.2;48.3;10;10.8;28.2;0.0;
17/02/2025 06:54:25;100;0;149.83;-4;-30.57;-6.37;78.6;21.00;77875;2839.009;-1759.703;1;150;-50;-46.8;48.2;48.3;10;10.4;28.2;0.0;
17/02/2025 06:54:45;100;0;148.43;-4;-30.33;-6.38;82.3;21.00;77870;2839.007;-1759.701;1;150;-50;-46.8;48.2;48.5;8;8.1;28.2;0.0;
17/02/2025 06:55:05;100;0;145.43;-4;-29.78;-7.79;85.7;21.00;77864;2839.005;-1759.699;1;151;-50;-46.8;48.2;48.3;3;3.2;28.2;0.0;
17/02/2025 06:55:25;100;0;148.13;-4;-29.55;-10.24;88.9;21.00;77852;2839.003;-1759.697;1;151;-50;-46.8;48.2;48.3;5;5.0;28.2;0.0;
17/02/2025 06:55:45;100;0;154.86;-4;-29.53;-9.04;92.2;21.00;77846;2839.002;-1759.695;1;151;-50;-46.8;48.2;48.5;11;11.3;28.2;0.0;
17/02/2025 06:56:05;100;0;154.03;-4;-29.89;-5.84;95.3;20.90;77824;2839.000;-1759.694;1;151;-50;-46.8;48.2;48.3;11;11.7;28.2;0.0;
17/02/2025 06:56:25;100;0;154.66;-4;-30.04;-5.82;98.5;20.90;77806;2838.998;-1759.692;1;151;-50;-48.4;48.2;48.3;11;11.7;28.2;0.0;
17/02/2025 06:56:45;100;0;155.40;-4;-29.80;-5.79;101.8;20.90;77802;2838.996;-1759.690;1;151;-50;-48.4;48.2;48.3;11;11.7;28.2;0.0;
17/02/2025 06:57:05;100;0;159.06;-4;-30.24;-5.80;105.2;20.90;77777;2838.994;-1759.689;1;151;-50;-46.8;48.2;48.3;11;11.7;28.2;0.0;
17/02/2025 06:57:25;100;0;159.01;-4;-30.17;-5.89;108.7;20.90;77773;2838.992;-1759.687;1;151;-50;-46.8;48.2;48.3;11;11.7;28.2;0.0;
17/02/2025 06:57:45;100;0;150.00;-4;-29.15;-5.97;112.1;20.80;77746;2838.990;-1759.685;1;151;-50;-48.4;48.2;48.3;8;8.1;28.2;0.0;
17/02/2025 06:58:05;100;0;152.90;-4;-29.81;-7.62;115.5;20.80;77730;2838.988;-1759.684;1;151;-50;-46.8;48.2;48.3;10;10.4;28.2;0.0;
17/02/2025 06:58:25;100;0;156.16;-4;-30.49;-6.18;118.9;20.80;77709;2838.986;-1759.682;1;151;-50;-46.8;48.2;48.3;12;12.2;28.2;0.0;
17/02/2025 06:58:45;100;0;155.46;-4;-30.39;-5.34;122.7;20.70;77688;2838.984;-1759.680;1;151;-50;-46.8;48.2;48.3;12;12.6;28.2;0.0;
17/02/2025 06:59:05;100;0;149.85;-4;-29.88;-5.36;126.3;20.70;77670;2838.982;-1759.678;1;151;-50;-46.8;48.2;48.3;8;8.1;28.2;0.0;
17/02/2025 06:59:25;100;0;146.77;-4;-29.37;-7.84;129.8;20.60;77655;2838.980;-1759.676;1;151;-50;-46.8;48.2;48.3;4;3.6;28.2;0.0;
17/02/2025 06:59:45;100;0;143.94;-4;-29.28;-10.00;133.3;20.60;77645;2838.978;-1759.673;1;152;-50;-48.4;48.2;48.3;0;-0.5;28.2;0.0;
17/02/2025 07:00:05;100;0;149.98;-4;-29.02;-12.05;136.8;20.60;77635;2838.976;-1759.671;1;152;-50;-48.4;48.2;48.3;7;7.2;28.2;0.0;
17/02/2025 07:00:25;100;0;154.06;-4;-29.22;-7.71;140.3;20.50;77620;2838.974;-1759.669;1;152;-50;-46.8;48.2;48.3;10;9.9;28.2;0.0;
17/02/2025 07:00:45;100;0;149.65;-4;-29.60;-6.59;143.9;20.50;77602;2838.972;-1759.667;1;152;-50;-46.8;48.2;48.3;7;7.2;28.2;0.0;
17/02/2025 07:01:05;100;0;144.81;-4;-29.48;-8.34;147.4;20.40;77581;2838.970;-1759.665;1;152;-50;-46.8;48.2;48.3;0;0.0;28.2;0.0;
17/02/2025 07:01:25;100;0;145.35;-4;-28.92;-11.91;151.0;20.40;77572;2838.968;-1759.663;1;152;-50;-46.8;48.5;48.6;0;-0.5;28.2;0.0;
17/02/2025 07:01:45;100;0;146.38;-4;-29.97;-11.85;154.5;20.40;77554;2838.966;-1759.660;1;152;-50;-46.8;48.5;48.9;2;1.8;28.2;0.0;
17/02/2025 07:02:05;100;0;145.86;-4;-30.34;-10.58;158.1;20.30;77537;2838.964;-1759.658;1;153;-50;-46.8;48.5;48.9;0;0.0;28.2;0.0;
17/02/2025 07:02:26;100;0;147.37;-4;-30.39;-11.99;161.9;20.30;77523;2838.962;-1759.656;1;153;-50;-46.8;48.5;48.9;4;4.1;28.2;0.0;
17/02/2025 07:02:46;100;0;152.19;-4;-31.23;-9.60;165.9;20.20;77513;2838.960;-1759.654;1;153;-50;-48.4;48.5;48.9;9;9.0;28.2;0.0;
17/02/2025 07:03:06;100;0;154.80;-4;-31.30;-6.82;169.9;20.20;77502;2838.957;-1759.652;1;153;-50;-46.8;48.5;49.0;11;11.3;28.2;0.0;
17/02/2025 07:03:26;100;0;154.22;-4;-30.49;-5.68;174.1;20.10;77492;2838.955;-1759.650;1;153;-50;-46.8;48.5;49.0;11;12.2;28.2;0.0;
17/02/2025 07:03:46;100;0;151.37;-4;-30.23;-5.68;178.0;20.10;77475;2838.952;-1759.648;1;153;-50;-46.8;48.5;48.9;8;8.1;28.2;0.0;
17/02/2025 07:04:06;100;0;153.20;-4;-30.09;-7.73;181.8;20.00;77455;2838.950;-1759.646;1;153;-50;-48.4;48.5;48.9;10;9.9;28.2;0.0;
17/02/2025 07:04:26;100;0;149.03;-4;-29.73;-6.54;185.5;20.00;77451;2838.948;-1759.643;1;153;-50;-46.8;48.5;49.0;6;5.9;28.2;0.0;
17/02/2025 07:04:46;100;0;146.88;-4;-30.02;-9.06;189.2;19.90;77425;2838.946;-1759.641;1;153;-50;-46.8;48.5;48.9;3;3.2;28.3;0.0;
17/02/2025 07:05:06;100;0;148.07;-4;-29.90;-10.38;193.0;19.90;77413;2838.944;-1759.639;1;154;-50;-48.4;48.5;48.9;3;2.7;28.2;0.0;
17/02/2025 07:05:26;100;0;152.67;-4;-30.80;-10.36;196.8;19.80;77400;2838.942;-1759.637;1;154;-50;-46.8;48.5;48.9;8;8.1;28.2;0.0;
17/02/2025 07:05:37;118;0;152.30;-4;-30.82;-7.34;199.1;19.80;77393;2838.940;-1759.636;1;154;150;-40.3;22.0;21.9;10;10.8;28.2;0.0;
17/02/2025 07:05:47;118;0;133.81;-4;-16.86;-7.01;200.5;19.80;77367;2838.939;-1759.634;1;154;150;87.1;22.0;21.6;10;10.8;27.8;-1.0;
17/02/2025 07:05:57;118;0;130.40;-4;10.91;-6.82;201.3;19.80;77085;2838.939;-1759.633;1;154;150;153.2;22.0;22.1;10;10.8;27.8;-1.0;
17/02/2025 07:06:07;118;0;153.31;-4;23.30;-7.18;200.8;19.70;76958;2838.939;-1759.632;1;154;150;153.2;22.0;22.2;10;10.8;28.2;-1.0;
17/02/2025 07:06:27;117;0;150.61;-4;28.00;-7.18;199.1;19.70;76957;2838.938;-1759.631;1;154;150;154.8;22.0;22.2;10;10.8;28.2;-1.0;
17/02/2025 07:06:47;117;0;146.35;-4;28.16;-7.14;197.5;19.70;76948;2838.938;-1759.630;1;154;150;154.8;21.4;21.1;63;63.2;28.2;-1.0;
17/02/2025 07:07:07;117;0;145.93;-4;35.34;21.87;195.7;19.60;76940;2838.937;-1759.629;1;155;150;154.8;23.0;23.0;68;68.6;28.2;-1.0;
17/02/2025 07:07:27;117;0;149.13;-4;32.83;24.76;193.6;19.50;76937;2838.937;-1759.628;1;155;150;156.5;23.9;24.0;55;54.6;28.2;-1.0;
17/02/2025 07:07:47;117;0;152.73;-4;29.06;16.46;191.7;19.50;76937;2838.936;-1759.627;1;155;150;154.8;23.9;24.0;49;49.2;28.2;-1.0;
17/02/2025 07:08:07;117;0;155.90;-4;28.09;13.35;190.1;19.40;76934;2838.935;-1759.626;1;155;150;154.8;23.3;23.1;45;45.1;28.2;-1.0;
17/02/2025 07:08:27;117;0;158.31;-4;29.16;10.83;188.4;19.40;76921;2838.934;-1759.625;1;155;150;154.8;23.3;23.0;41;41.1;28.2;-1.0;
17/02/2025 07:08:47;117;0;161.33;-4;29.21;8.61;186.8;19.30;76921;2838.934;-1759.624;1;155;150;153.2;23.3;23.0;41;40.2;28.2;-1.0;
17/02/2025 07:09:07;117;0;163.98;-4;28.95;8.61;185.2;19.30;76921;2838.933;-1759.623;1;155;150;154.8;23.0;23.0;37;36.6;28.2;-1.0;
17/02/2025 07:09:27;117;0;165.13;-4;28.41;6.55;183.8;19.20;76923;2838.933;-1759.622;1;155;150;154.8;22.5;22.5;37;36.6;28.2;-1.0;
17/02/2025 07:09:47;117;0;164.99;-4;30.25;6.54;182.3;19.20;76921;2838.932;-1759.622;1;155;150;154.8;22.5;22.4;37;36.6;28.2;-1.0;
17/02/2025 07:10:07;117;0;165.08;-4;30.10;6.50;180.7;19.20;76924;2838.931;-1759.621;1;155;150;154.8;22.5;22.4;37;36.6;28.2;-1.0;
17/02/2025 07:10:27;117;0;168.21;-4;29.89;6.46;179.2;19.10;76919;2838.931;-1759.621;1;155;150;153.2;22.5;22.2;35;35.2;28.2;-1.0;
17/02/2025 07:10:47;117;0;170.18;-4;29.68;5.65;177.7;19.10;76921;2838.930;-1759.620;1;155;170;174.2;22.5;22.2;33;32.9;28.2;-1.0;
17/02/2025 07:11:07;117;0;167.97;-4;28.46;4.46;176.3;19.10;76884;2838.930;-1759.620;1;156;190;193.5;22.0;21.8;35;35.2;28.2;-1.0;
17/02/2025 07:11:27;117;0;167.57;-4;30.26;6.32;174.8;19.00;76837;2838.929;-1759.619;1;156;210;212.9;22.0;21.9;35;35.6;28.2;-1.0;
17/02/2025 07:11:47;117;0;167.31;-4;29.39;6.05;173.1;19.00;76797;2838.928;-1759.618;1;156;230;233.9;22.0;21.8;33;32.9;28.2;-1.0;
17/02/2025 07:12:07;117;0;162.88;-4;29.26;4.68;171.3;19.00;76758;2838.927;-1759.617;1;156;250;251.6;22.0;21.8;36;36.6;28.2;-1.0;
17/02/2025 07:12:27;117;0;158.94;-4;28.19;6.89;169.2;19.00;76716;2838.926;-1759.616;1;156;250;254.8;21.5;21.5;36;36.6;28.2;-1.0;
17/02/2025 07:12:47;117;0;159.34;-4;29.54;6.94;167.0;18.90;76711;2838.925;-1759.615;1;156;250;253.2;21.5;21.2;36;36.6;28.3;-1.0;
17/02/2025 07:13:07;117;0;162.43;-4;30.10;6.93;164.5;18.90;76717;2838.924;-1759.614;1;156;250;253.2;21.5;21.2;33;32.5;28.2;-1.0;
17/02/2025 07:13:27;117;0;163.59;-4;29.63;4.48;162.0;18.90;76716;2838.922;-1759.613;1;156;250;253.2;21.5;21.2;33;32.5;28.2;-1.0;
17/02/2025 07:13:47;117;0;163.70;-4;29.48;4.30;159.3;18.90;76728;2838.921;-1759.612;1;156;250;253.2;21.5;21.2;33;32.5;28.2;-1.0;
17/02/2025 07:14:07;117;0;166.88;-4;29.20;4.41;156.7;18.90;76735;2838.919;-1759.611;1;156;250;253.2;21.5;21.2;33;32.0;28.2;-1.0;
17/02/2025 07:14:27;117;0;170.98;-4;29.46;4.47;154.2;18.90;76730;2838.918;-1759.611;1;156;250;253.2;21.5;21.2;33;32.0;28.2;-1.0;
17/02/2025 07:14:47;117;0;171.57;-4;29.22;4.41;151.5;18.90;76747;2838.916;-1759.610;1;156;250;253.2;21.5;21.2;33;32.5;28.2;-1.0;
17/02/2025 07:15:07;117;0;168.83;-4;29.45;4.57;148.9;18.80;76746;2838.914;-1759.609;1;156;250;253.2;21.5;21.2;33;32.0;28.3;-1.0;
17/02/2025 07:15:27;117;0;164.45;-4;29.33;4.62;146.3;18.80;76767;2838.913;-1759.608;1;156;250;253.2;21.5;21.2;33;32.5;28.2;-1.0;
17/02/2025 07:15:47;117;0;161.19;-4;29.61;4.65;143.7;18.80;76758;2838.911;-1759.607;1;156;250;251.6;21.5;21.2;33;32.5;28.2;-1.0;
17/02/2025 07:16:07;117;0;155.63;-4;29.95;4.48;141.0;18.80;76771;2838.910;-1759.606;1;156;250;253.2;21.5;21.2;38;38.4;28.2;-1.0;
17/02/2025 07:16:27;117;0;159.30;-4;30.19;8.11;138.0;18.80;76771;2838.908;-1759.605;1;156;250;253.2;21.5;21.2;34;32.5;28.2;-1.0;
17/02/2025 07:16:47;117;0;158.93;-4;30.01;5.86;135.1;18.80;76779;2838.907;-1759.603;1;156;250;253.2;21.5;21.2;34;34.7;28.2;-1.0;
17/02/2025 07:17:07;117;0;159.44;-4;29.55;5.78;132.2;18.80;76789;2838.905;-1759.602;1;156;250;253.2;21.5;21.2;34;34.7;28.2;-1.0;
17/02/2025 07:17:27;117;0;161.76;-4;29.61;5.79;129.2;18.80;76793;2838.903;-1759.601;1;156;250;253.2;21.5;21.2;34;34.7;28.3;-1.0;
17/02/2025 07:17:47;117;0;160.45;-4;29.55;5.96;126.3;18.80;76793;2838.901;-1759.600;1;157;250;253.2;21.5;21.2;34;34.7;28.2;-1.0;
17/02/2025 07:18:07;117;0;159.43;-4;29.33;5.81;123.1;18.80;76807;2838.899;-1759.598;1;157;250;253.2;21.5;21.2;34;34.7;28.2;-1.0;
17/02/2025 07:18:27;117;0;161.98;-4;29.17;5.72;120.1;18.80;76822;2838.898;-1759.597;1;157;250;253.2;21.5;21.2;34;34.7;28.2;-1.0;
17/02/2025 07:18:47;117;0;163.80;-4;28.83;5.70;117.1;18.80;76835;2838.896;-1759.596;1;157;250;251.6;21.1;21.4;32;31.6;28.2;-1.0;
17/02/2025 07:19:07;117;0;159.53;-4;29.04;3.89;114.0;18.80;76848;2838.894;-1759.594;1;157;250;253.2;21.1;21.2;34;33.8;28.2;-1.0;
17/02/2025 07:19:27;117;0;158.29;-4;29.41;5.76;111.1;18.80;76868;2838.892;-1759.593;1;157;250;254.8;21.1;21.2;34;34.7;28.2;-1.0;
17/02/2025 07:19:47;117;0;158.92;-4;29.18;5.72;108.0;18.80;76890;2838.890;-1759.592;1;157;250;253.2;21.1;21.2;34;34.7;28.2;-1.0;
17/02/2025 07:20:07;117;0;162.21;-4;29.64;5.67;104.9;18.80;76895;2838.888;-1759.590;1;157;250;253.2;21.1;21.2;34;34.7;28.2;-1.0;
17/02/2025 07:20:27;117;0;162.35;-4;29.35;5.63;102.0;18.80;76921;2838.886;-1759.589;1;157;250;254.8;21.1;21.2;34;34.7;28.2;-1.0;
17/02/2025 07:20:47;117;0;158.53;-4;28.97;5.63;99.0;18.80;76934;2838.885;-1759.588;1;157;250;253.2;20.8;20.6;34;34.3;28.2;-1.0;
17/02/2025 07:21:07;117;0;155.88;-4;30.32;5.73;96.1;18.90;76944;2838.883;-1759.586;1;157;250;254.8;20.8;20.5;38;37.9;28.2;-1.0;
17/02/2025 07:21:27;117;0;150.17;-4;31.34;7.90;93.2;18.90;76950;2838.881;-1759.585;1;158;250;254.8;20.8;20.3;47;46.9;28.2;-1.0;
17/02/2025 07:21:47;117;0;154.05;-4;31.72;12.79;89.9;18.90;76980;2838.880;-1759.583;1;158;250;253.2;20.8;20.3;40;40.2;28.2;-1.0;
17/02/2025 07:22:07;117;0;154.08;-4;31.51;8.50;86.5;18.90;76999;2838.878;-1759.581;1;158;250;254.8;20.8;20.5;40;39.3;28.2;-1.0;
17/02/2025 07:22:27;117;0;154.66;-4;31.10;8.28;83.2;18.90;76998;2838.876;-1759.580;1;158;250;253.2;20.8;20.5;40;39.7;28.2;-1.0;
17/02/2025 07:22:47;117;0;154.96;-4;31.06;8.41;80.0;19.00;77009;2838.874;-1759.578;1;158;250;253.2;20.8;20.3;40;39.3;28.2;-1.0;
17/02/2025 07:23:07;117;0;153.94;-4;31.00;8.48;76.7;19.00;77017;2838.873;-1759.577;1;159;250;254.8;20.8;20.3;42;42.0;28.2;-1.0;
17/02/2025 07:23:27;117;0;153.74;-4;31.45;10.07;73.4;19.00;77025;2838.871;-1759.575;1;159;250;254.8;20.8;20.3;42;42.4;28.2;-1.0;
17/02/2025 07:23:47;117;0;154.84;-4;31.15;10.00;70.1;19.00;77038;2838.869;-1759.573;1;159;250;254.8;20.8;20.3;39;38.8;28.2;-1.0;
17/02/2025 07:24:07;117;0;154.42;-4;31.31;7.64;66.7;19.00;77043;2838.867;-1759.572;1;159;250;254.8;20.8;20.5;39;37.9;28.3;-1.0;
17/02/2025 07:24:27;117;0;152.87;-4;30.98;7.66;63.4;19.10;77052;2838.865;-1759.570;1;159;250;254.8;20.8;20.3;43;42.9;28.2;-1.0;
17/02/2025 07:24:47;117;0;152.54;-4;31.16;10.71;60.0;19.10;77041;2838.864;-1759.568;1;160;250;253.2;20.8;20.3;43;43.8;28.2;-1.0;
17/02/2025 07:25:07;117;0;152.84;-4;31.19;10.70;56.7;19.10;77047;2838.862;-1759.566;1;160;250;251.6;20.8;20.3;43;43.8;28.2;-1.0;
17/02/2025 07:25:27;117;0;153.94;-4;31.13;10.71;53.3;19.10;77063;2838.860;-1759.565;1;160;250;254.8;20.8;20.3;43;43.8;28.2;-1.0;
17/02/2025 07:25:47;117;0;155.43;-4;31.51;10.82;50.1;19.20;77065;2838.858;-1759.563;1;160;250;253.2;20.8;20.5;41;40.6;28.2;-1.0;
17/02/2025 07:26:07;117;0;157.34;-4;30.84;8.73;46.7;19.20;77060;2838.856;-1759.562;1;160;250;253.2;20.8;20.5;38;37.9;28.2;-1.0;
17/02/2025 07:26:27;117;0;159.63;-4;30.49;7.39;43.5;19.20;77070;2838.854;-1759.560;1;161;250;253.2;20.8;20.3;38;37.5;28.2;-1.0;
17/02/2025 07:26:47;117;0;162.29;-4;30.69;7.32;40.3;19.20;77077;2838.853;-1759.559;1;161;250;253.2;20.8;20.3;35;33.8;28.2;-1.0;
17/02/2025 07:27:07;117;0;164.46;-4;31.11;5.87;37.1;19.30;77087;2838.851;-1759.558;1;161;250;254.8;20.8;20.3;35;35.2;28.2;-1.0;
17/02/2025 07:27:27;117;0;164.57;-4;30.80;5.95;33.8;19.30;77086;2838.849;-1759.557;1;161;250;253.2;20.8;20.3;35;35.2;28.2;-1.0;
17/02/2025 07:27:47;117;0;164.22;-4;30.90;6.02;30.5;19.30;77088;2838.847;-1759.556;1;161;250;254.8;20.8;20.5;35;35.2;28.2;-1.0;
17/02/2025 07:28:07;117;0;162.85;-4;30.94;6.31;27.1;19.30;77096;2838.845;-1759.554;1;161;250;253.2;20.8;20.5;35;35.2;28.2;-1.0;
17/02/2025 07:28:27;117;0;159.93;-4;30.78;6.07;23.6;19.30;77096;2838.843;-1759.553;1;161;250;253.2;20.8;20.3;35;35.2;28.2;-1.0;
17/02/2025 07:28:47;117;0;157.45;-4;30.30;5.85;20.3;19.40;77113;2838.841;-1759.552;1;161;250;253.2;20.8;20.3;39;38.8;28.2;-1.0;
17/02/2025 07:29:07;117;0;158.05;-4;31.15;8.12;16.9;19.40;77112;2838.839;-1759.550;1;162;250;254.8;20.8;20.3;39;39.3;28.2;-1.0;
17/02/2025 07:29:27;117;0;155.35;-4;32.03;8.27;13.6;19.40;77118;2838.837;-1759.548;1;162;250;253.2;21.4;21.5;43;42.9;28.2;-1.0;
17/02/2025 07:29:47;117;0;156.69;-4;28.64;10.42;10.4;19.40;77123;2838.835;-1759.547;1;162;250;254.8;21.0;20.8;40;39.7;28.2;-1.0;
17/02/2025 07:30:07;117;0;159.01;-4;30.14;8.48;7.3;19.40;77122;2838.833;-1759.546;1;162;250;254.8;21.0;20.8;40;39.3;28.2;-1.0;
17/02/2025 07:30:27;117;0;161.70;-4;27.79;8.67;4.2;19.50;77126;2838.831;-1759.544;1;163;250;253.2;20.4;20.2;36;36.1;28.2;-1.0;
17/02/2025 07:30:34;115;0;160.42;-4;29.90;6.30;3.1;19.50;77135;2838.830;-1759.544;1;163;500;261.3;100.0;62.7;0;-0.5;28.2;-1.0;
17/02/2025 07:30:44;115;0;142.92;-4;14.98;-12.55;2.0;19.50;77110;2838.829;-1759.542;1;163;500;382.3;100.0;100.0;0;-0.5;28.0;-1.0;
17/02/2025 07:30:54;115;0;141.57;-4;-55.34;-13.05;2.6;19.50;76831;2838.829;-1759.542;1;163;500;490.3;100.0;100.6;0;-0.5;28.0;-1.0;
17/02/2025 07:31:04;115;0;119.38;-4;-73.52;0.50;2.4;19.50;76578;2838.830;-1759.542;1;163;500;508.1;100.0;100.7;0;-0.5;28.0;-1.0;
17/02/2025 07:31:14;115;0;132.69;-4;-25.19;-9.56;-0.1;19.60;76570;2838.828;-1759.539;1;164;500;508.1;100.0;100.6;0;-0.5;28.2;-1.0;
17/02/2025 07:31:34;119;0;101.36;-4;-52.20;-7.17;0.3;19.60;76571;2838.828;-1759.539;1;164;500;509.7;100.0;100.7;0;-0.5;28.2;-1.0;
17/02/2025 07:31:44;119;0;84.05;-4;-47.82;3.28;0.0;19.60;76581;2838.741;-1759.590;0;164;500;508.1;100.0;100.7;0;-0.5;28.2;-1.0;
