Timestamp;NavState;SecurityLevel;Heading;Declination;Pitch;Roll;Depth;Temperature;Pa;Lat;Lon;DeadReckoning;DesiredH;BallastCmd;BallastPos;LinCmd;LinPos;AngCmd;AngPos;Voltage;Altitude;
01/03/2025 21:27:07;119;0;166.08;-4;-54.72;-19.15;0.0;16.70;75609;2834.936;-1758.296;0;144;500;504.8;100.0;100.4;0;-0.5;25.4;-1.0;
01/03/2025 21:27:16;116;0;170.07;-4;-57.30;-24.22;0.1;16.70;75604;2834.939;-1758.297;0;144;500;504.8;100.0;100.4;0;-0.5;25.4;-1.0;
01/03/2025 21:27:46;116;0;157.53;-4;-56.94;-15.25;0.0;16.80;75607;2834.938;-1758.299;0;144;500;503.2;100.0;100.4;0;-0.5;25.4;-1.0;
01/03/2025 21:28:12;116;0;167.48;-4;-50.13;-8.82;0.1;16.90;75633;2834.940;-1758.300;0;144;500;504.8;100.0;100.4;0;-0.5;25.4;-1.0;
01/03/2025 21:28:32;116;0;159.85;-4;-52.70;-19.70;0.1;17.00;75631;2834.942;-1758.301;0;315;500;504.8;100.0;100.4;0;-0.5;25.3;-1.0;
01/03/2025 21:28:44;116;0;161.76;-4;-52.52;-7.80;0.2;17.00;75633;2834.943;-1758.302;0;315;500;506.5;100.0;100.4;0;-0.5;25.4;-1.0;
01/03/2025 21:29:46;116;0;159.90;-4;-49.55;-9.85;0.2;17.20;75660;2834.949;-1758.306;0;315;500;506.5;100.0;100.6;0;-0.5;25.4;-1.0;
01/03/2025 21:32:04;116;0;143.91;-4;-59.91;-9.29;0.3;17.80;75708;2834.963;-1758.318;0;315;500;506.5;100.0;100.4;0;-0.5;25.4;-1.0;
01/03/2025 21:33:42;116;0;164.43;-4;-55.24;-14.62;-0.0;18.30;75748;2834.973;-1758.327;0;315;500;506.5;100.0;100.6;0;-0.5;25.4;-1.0;
01/03/2025 21:34:02;110;0;170.94;-4;-54.14;-18.21;0.1;18.40;75747;2834.973;-1758.327;0;315;-110;383.9;100.0;100.6;-8;-8.1;25.4;-1.0;
01/03/2025 21:34:12;110;0;158.34;-4;-54.41;-10.21;0.4;18.40;76110;2834.972;-1758.327;1;315;-110;233.9;100.0;100.6;-8;-8.6;25.3;-1.0;
01/03/2025 21:34:22;110;0;178.90;-4;-73.26;-43.28;0.6;18.50;76359;2834.972;-1758.327;1;315;-110;83.9;100.0;100.4;-8;-8.1;25.3;-1.0;
01/03/2025 21:34:32;110;0;154.94;-4;-61.04;-11.78;0.8;18.50;76674;2834.972;-1758.327;1;315;-110;-72.6;100.0;100.4;-8;-8.1;25.3;-1.0;
01/03/2025 21:34:42;110;0;147.05;-4;-68.72;-14.73;1.2;18.50;77006;2834.972;-1758.327;1;315;-110;-109.7;42.4;53.9;-8;-8.6;25.3;-1.0;
01/03/2025 21:34:52;110;0;156.23;-4;-54.13;-17.28;2.4;18.60;77045;2834.972;-1758.327;1;315;-110;-109.7;42.4;42.4;-8;-8.1;25.4;-1.0;
01/03/2025 21:35:12;100;0;165.03;-4;-24.37;-15.50;5.9;18.70;77047;2834.968;-1758.327;1;315;-110;-106.5;42.4;42.1;-8;-8.1;25.4;-1.0;
01/03/2025 21:35:32;100;0;173.94;-4;-19.55;-15.28;8.9;18.70;77043;2834.965;-1758.327;1;315;-110;-103.2;42.4;41.8;-70;-69.9;25.4;-1.0;
01/03/2025 21:35:52;100;0;182.15;-4;-17.72;-44.93;11.5;18.80;77054;2834.961;-1758.327;1;315;-110;-101.6;43.1;43.0;-70;-70.4;25.4;-1.0;
01/03/2025 21:36:12;100;0;194.31;-4;-20.37;-44.97;14.2;18.80;77061;2834.958;-1758.329;1;315;-110;-101.6;43.1;43.3;-70;-69.9;25.4;0.0;
01/03/2025 21:36:32;100;0;206.78;-4;-20.45;-45.54;16.9;18.90;77073;2834.955;-1758.331;1;315;-110;-101.6;43.1;43.3;-70;-69.9;25.4;0.0;
01/03/2025 21:36:52;100;0;219.83;-4;-20.32;-45.35;19.7;19.00;77067;2834.952;-1758.334;1;315;-110;-101.6;43.1;43.3;-70;-69.9;25.4;0.0;
01/03/2025 21:37:12;100;0;230.31;-4;-20.20;-45.22;22.5;19.00;77072;2834.950;-1758.337;1;315;-110;-101.6;43.1;43.3;-70;-69.9;25.4;0.0;
01/03/2025 21:37:32;100;0;243.59;-4;-20.37;-45.66;25.4;19.00;77082;2834.949;-1758.342;1;315;-110;-101.6;43.1;43.3;-70;-69.9;25.4;0.0;
01/03/2025 21:37:52;100;0;254.95;-4;-20.34;-45.38;28.1;19.00;77083;2834.948;-1758.346;1;315;-110;-103.2;43.1;43.4;-60;-60.0;25.4;0.0;
01/03/2025 21:38:12;100;0;267.27;-4;-19.89;-40.13;30.8;19.10;77090;2834.948;-1758.350;1;315;-110;-101.6;43.1;43.3;-45;-44.7;25.4;0.0;
01/03/2025 21:38:32;100;0;279.06;-4;-19.82;-32.48;33.6;19.10;77096;2834.949;-1758.355;1;315;-110;-100.0;43.1;43.4;-31;-30.7;25.4;0.0;
01/03/2025 21:38:52;100;0;289.31;-4;-20.28;-25.72;36.2;19.10;77110;2834.950;-1758.359;1;315;-110;-101.6;43.1;43.4;-17;-17.1;25.4;0.0;
01/03/2025 21:39:12;100;0;298.74;-4;-20.41;-18.98;39.0;19.10;77115;2834.952;-1758.363;1;315;-110;-100.0;43.1;43.4;0;0.0;25.4;0.0;
01/03/2025 21:39:32;100;0;304.21;-4;-21.36;-11.25;41.7;19.00;77109;2834.954;-1758.366;1;315;-110;-100.0;43.1;43.0;8;8.1;25.4;0.0;
01/03/2025 21:39:52;100;0;306.13;-4;-21.15;-7.37;44.5;19.10;77113;2834.956;-1758.370;1;315;-110;-101.6;43.1;42.9;10;10.4;25.4;0.0;
01/03/2025 21:40:12;100;0;307.42;-4;-21.14;-6.17;47.1;19.00;77123;2834.958;-1758.373;1;315;-110;-101.6;43.1;42.9;10;10.8;25.4;0.0;
01/03/2025 21:40:32;100;0;307.78;-4;-21.31;-6.17;49.8;19.00;77113;2834.960;-1758.376;1;315;-110;-101.6;43.1;42.9;10;10.4;25.4;0.0;
01/03/2025 21:40:52;100;0;308.05;-4;-21.19;-6.19;52.5;19.00;77131;2834.963;-1758.380;1;315;-110;-101.6;43.1;42.9;12;12.2;25.4;0.0;
01/03/2025 21:41:12;100;0;308.44;-4;-21.01;-5.19;55.3;19.00;77125;2834.965;-1758.383;1;315;-110;-101.6;43.1;42.9;12;12.6;25.4;0.0;
01/03/2025 21:41:32;100;0;308.88;-4;-21.12;-5.19;57.9;19.00;77132;2834.967;-1758.387;1;315;-110;-101.6;43.1;42.9;12;12.6;25.4;0.0;
01/03/2025 21:41:52;100;0;308.65;-4;-21.10;-5.22;60.5;19.00;77140;2834.969;-1758.390;1;315;-110;-101.6;43.1;42.9;12;12.6;25.4;0.0;
01/03/2025 21:42:12;100;0;309.27;-4;-21.37;-5.23;62.9;19.00;77140;2834.971;-1758.393;1;315;-110;-101.6;43.1;42.9;12;12.6;25.4;0.0;
01/03/2025 21:42:32;100;0;309.85;-4;-21.22;-5.19;65.6;19.00;77151;2834.974;-1758.396;1;315;-110;-100.0;43.1;42.9;12;12.6;25.4;0.0;
01/03/2025 21:42:52;100;0;308.07;-4;-21.35;-5.21;68.2;19.00;77152;2834.976;-1758.400;1;315;-110;-101.6;43.1;42.9;12;12.6;25.4;0.0;
01/03/2025 21:43:12;100;0;312.18;-4;-20.56;-5.12;70.6;19.00;77154;2834.978;-1758.403;1;315;-110;-100.0;43.1;43.0;12;12.6;25.4;0.0;
01/03/2025 21:43:32;100;0;313.95;-4;-21.02;-5.37;72.9;19.00;77151;2834.980;-1758.405;1;315;-110;-101.6;43.1;42.9;14;14.0;25.4;0.0;
01/03/2025 21:43:52;100;0;316.08;-4;-20.25;-4.23;75.3;19.00;77132;2834.982;-1758.408;1;315;-110;-100.0;43.1;42.9;14;14.4;25.4;0.0;
01/03/2025 21:44:12;100;0;316.25;-4;-20.88;-4.44;77.6;19.00;77128;2834.985;-1758.411;1;315;-110;-101.6;43.1;42.9;14;14.4;25.4;0.0;
01/03/2025 21:44:32;100;0;316.42;-4;-21.55;-4.30;79.6;19.00;77108;2834.986;-1758.413;1;315;-110;-101.6;43.1;42.9;14;14.4;25.4;0.0;
01/03/2025 21:44:52;100;0;316.28;-4;-21.36;-4.25;82.0;19.00;77085;2834.989;-1758.416;1;315;-110;-101.6;43.1;42.9;14;14.4;25.4;0.0;
01/03/2025 21:45:12;100;0;314.24;-4;-21.74;-4.28;84.3;19.00;77082;2834.991;-1758.418;1;315;-110;-101.6;43.1;42.9;14;14.4;25.4;0.0;
01/03/2025 21:45:32;100;0;309.63;-4;-21.23;-4.33;86.6;19.00;77063;2834.993;-1758.421;1;315;-110;-101.6;43.1;42.9;12;12.2;25.4;0.0;
01/03/2025 21:45:52;100;0;306.88;-4;-21.36;-5.67;88.9;19.00;77042;2834.995;-1758.424;1;315;-110;-101.6;43.1;43.0;9;8.6;25.4;0.0;
01/03/2025 21:46:12;100;0;302.84;-4;-21.63;-7.41;91.3;18.90;77034;2834.996;-1758.427;1;315;-110;-101.6;43.1;42.9;5;5.0;25.4;0.0;
01/03/2025 21:46:32;100;0;303.81;-4;-20.61;-9.31;93.7;18.90;77026;2834.998;-1758.431;1;315;-110;-101.6;43.1;42.9;5;4.5;25.4;0.0;
01/03/2025 21:46:52;100;0;305.24;-4;-20.29;-9.41;96.1;18.90;77024;2835.000;-1758.434;1;315;-110;-101.6;43.1;42.9;8;8.1;25.4;0.0;
01/03/2025 21:47:12;100;0;307.86;-4;-21.41;-7.16;98.6;18.90;77004;2835.002;-1758.437;1;315;-110;-104.8;43.1;42.9;10;9.9;25.4;0.0;
01/03/2025 21:47:32;100;0;311.56;-4;-21.09;-6.24;101.2;18.90;76990;2835.004;-1758.440;1;315;-110;-101.6;43.1;42.9;13;13.1;25.4;0.0;
01/03/2025 21:47:52;100;0;310.60;-4;-21.20;-4.86;103.9;18.80;76982;2835.007;-1758.444;1;315;-110;-101.6;43.1;42.9;13;13.1;25.4;0.0;
01/03/2025 21:48:12;100;0;308.70;-4;-21.11;-4.88;106.6;18.80;76973;2835.009;-1758.447;1;315;-110;-101.6;43.1;42.9;11;10.8;25.4;0.0;
01/03/2025 21:48:32;100;0;305.48;-4;-20.54;-6.30;109.2;18.80;76967;2835.011;-1758.450;1;315;-110;-101.6;43.1;42.9;8;8.1;25.4;0.0;
01/03/2025 21:48:52;100;0;301.99;-4;-20.74;-7.85;111.6;18.80;76962;2835.013;-1758.454;1;315;-110;-101.6;43.1;42.9;3;2.7;25.4;0.0;
01/03/2025 21:49:12;100;0;298.21;-4;-20.45;-10.38;114.2;18.70;76946;2835.014;-1758.457;1;315;-110;-101.6;43.1;42.9;-3;-3.2;25.4;0.0;
01/03/2025 21:49:32;100;0;300.73;-4;-18.71;-13.08;117.1;18.70;76925;2835.017;-1758.462;1;315;-110;-101.6;43.4;43.4;3;3.2;25.4;0.0;
01/03/2025 21:49:52;100;0;302.49;-4;-20.51;-9.98;119.6;18.70;76917;2835.018;-1758.465;1;315;-110;-100.0;43.4;43.6;3;3.6;25.4;0.0;
01/03/2025 21:50:12;100;0;303.32;-4;-20.80;-9.92;122.2;18.60;76905;2835.020;-1758.468;1;315;-110;-100.0;43.4;43.6;5;5.0;25.4;0.0;
01/03/2025 21:50:32;100;0;307.59;-4;-21.15;-8.87;125.2;18.60;76900;2835.023;-1758.472;1;315;-110;-101.6;43.4;43.6;10;10.4;25.4;0.0;
01/03/2025 21:50:52;100;0;313.37;-4;-21.34;-6.23;128.2;18.60;76879;2835.025;-1758.476;1;315;-110;-101.6;43.4;43.6;13;13.1;25.4;0.0;
01/03/2025 21:51:12;100;0;319.07;-4;-21.38;-4.74;131.3;18.50;76873;2835.028;-1758.479;1;315;-110;-101.6;43.4;43.6;13;13.5;25.4;0.0;
01/03/2025 21:51:32;100;0;322.27;-4;-21.09;-4.77;134.4;18.50;76875;2835.032;-1758.482;1;315;-110;-101.6;43.4;43.6;13;13.5;25.4;0.0;
01/03/2025 21:51:52;100;0;321.36;-4;-21.23;-4.86;137.3;18.50;76854;2835.035;-1758.485;1;315;-110;-101.6;43.4;43.6;13;13.5;25.4;0.0;
01/03/2025 21:52:12;100;0;320.10;-4;-20.69;-4.81;140.5;18.40;76845;2835.038;-1758.488;1;315;-110;-101.6;43.4;43.6;13;13.5;25.4;0.0;
01/03/2025 21:52:32;100;0;318.23;-4;-22.22;-4.56;143.6;18.40;76837;2835.041;-1758.492;1;315;-110;-101.6;42.8;42.6;13;13.5;25.4;0.0;
01/03/2025 21:52:52;100;0;317.31;-4;-19.43;-5.00;146.6;18.40;76828;2835.044;-1758.495;1;315;-110;-100.0;42.8;42.4;13;13.5;25.4;0.0;
01/03/2025 21:53:12;100;0;317.84;-4;-19.99;-4.79;149.5;18.30;76834;2835.047;-1758.498;1;315;-110;-101.6;42.8;42.4;13;13.5;25.4;0.0;
01/03/2025 21:53:32;100;0;318.10;-4;-19.75;-4.88;152.6;18.30;76824;2835.050;-1758.502;1;315;-110;-101.6;42.8;42.4;13;13.5;25.4;0.0;
01/03/2025 21:53:52;100;0;315.83;-4;-19.11;-4.86;155.4;18.30;76813;2835.053;-1758.505;1;315;-110;-101.6;42.8;42.4;13;13.5;25.4;0.0;
01/03/2025 21:54:12;100;0;316.36;-4;-19.17;-5.00;158.2;18.20;76810;2835.055;-1758.508;1;315;-110;-100.0;42.8;42.4;13;13.5;25.4;0.0;
01/03/2025 21:54:32;100;0;315.28;-4;-19.15;-4.88;160.9;18.20;76802;2835.058;-1758.512;1;315;-110;-101.6;42.8;42.6;13;13.5;25.4;0.0;
01/03/2025 21:54:52;100;0;314.95;-4;-19.39;-4.93;163.7;18.20;76798;2835.061;-1758.515;1;315;-110;-101.6;42.8;42.4;13;13.1;25.4;0.0;
01/03/2025 21:55:12;100;0;316.51;-4;-19.61;-4.87;166.6;18.10;76799;2835.064;-1758.518;1;315;-110;-101.6;42.8;42.4;13;13.5;25.4;0.0;
01/03/2025 21:55:32;100;0;318.95;-4;-19.54;-4.82;169.6;18.10;76790;2835.067;-1758.522;1;315;-110;-101.6;42.8;42.4;13;13.5;25.4;0.0;
01/03/2025 21:55:52;100;0;320.53;-4;-19.47;-4.84;172.3;18.10;76773;2835.070;-1758.525;1;315;-110;-100.0;42.8;42.6;13;13.5;25.4;0.0;
01/03/2025 21:56:12;100;0;322.57;-4;-19.40;-4.81;175.3;18.00;76767;2835.073;-1758.528;1;315;-110;-101.6;42.8;42.4;13;13.5;25.4;0.0;
01/03/2025 21:56:32;100;0;324.11;-4;-19.33;-4.84;177.9;18.00;76764;2835.076;-1758.531;1;315;-110;-101.6;42.8;42.4;13;13.5;25.4;0.0;
01/03/2025 21:56:52;100;0;327.34;-4;-19.36;-4.78;180.6;18.00;76756;2835.079;-1758.533;1;315;-110;-104.8;42.8;42.6;17;17.1;25.4;0.0;
01/03/2025 21:57:12;100;0;328.49;-4;-19.53;-2.80;183.3;17.90;76761;2835.082;-1758.536;1;315;-110;-100.0;42.8;42.6;17;17.6;25.4;0.0;
01/03/2025 21:57:32;100;0;328.89;-4;-19.59;-2.77;186.1;17.90;76745;2835.086;-1758.538;1;315;-110;-101.6;42.8;42.4;17;17.6;25.4;0.0;
01/03/2025 21:57:52;100;0;331.24;-4;-19.64;-2.78;188.5;17.90;76741;2835.088;-1758.540;1;315;-110;-101.6;42.8;42.4;20;19.9;25.4;0.0;
01/03/2025 21:58:12;100;0;331.98;-4;-19.78;-1.41;191.2;17.80;76736;2835.092;-1758.543;1;315;-110;-101.6;42.8;42.4;22;22.1;25.4;0.0;
01/03/2025 21:58:32;100;0;329.52;-4;-19.84;-0.24;193.8;17.80;76738;2835.095;-1758.545;1;315;-110;-101.6;42.8;42.4;19;18.5;25.4;0.0;
01/03/2025 21:58:52;100;0;328.30;-4;-19.41;-2.56;196.5;17.80;76722;2835.098;-1758.547;1;315;-110;-101.6;42.8;42.6;19;18.5;25.4;0.0;
01/03/2025 21:59:12;100;0;326.18;-4;-19.30;-2.55;198.8;17.70;76713;2835.100;-1758.550;1;315;-110;-101.6;42.8;42.4;15;14.4;25.4;0.0;
01/03/2025 21:59:32;100;0;326.64;-4;-19.03;-4.51;201.2;17.70;76701;2835.103;-1758.552;1;315;-110;-101.6;42.8;42.4;15;14.4;25.4;0.0;
01/03/2025 21:59:52;100;0;327.10;-4;-19.19;-4.56;203.5;17.70;76688;2835.106;-1758.555;1;315;-110;-101.6;42.8;42.4;15;14.0;25.4;0.0;
01/03/2025 22:00:12;100;0;325.41;-4;-19.24;-4.50;205.8;17.60;76692;2835.109;-1758.557;1;315;-110;-101.6;42.8;42.4;15;14.0;25.4;0.0;
01/03/2025 22:00:32;100;0;323.84;-4;-19.35;-4.49;208.2;17.60;76686;2835.111;-1758.559;1;315;-110;-101.6;42.8;42.4;15;14.4;25.4;0.0;
01/03/2025 22:00:52;100;0;323.87;-4;-19.32;-4.55;210.3;17.60;76682;2835.114;-1758.562;1;315;-110;-101.6;42.8;42.4;15;14.0;25.4;0.0;
01/03/2025 22:01:12;100;0;323.26;-4;-19.32;-4.57;212.6;17.50;76677;2835.116;-1758.564;1;315;-110;-101.6;42.8;42.4;15;14.4;25.4;0.0;
01/03/2025 22:01:32;100;0;323.39;-4;-19.37;-4.51;214.7;17.50;76675;2835.119;-1758.567;1;315;-110;-104.8;42.8;42.4;15;14.4;25.4;0.0;
01/03/2025 22:01:52;100;0;323.65;-4;-19.37;-4.51;216.9;17.50;76664;2835.121;-1758.569;1;315;-110;-101.6;42.8;42.4;15;14.4;25.4;0.0;
01/03/2025 22:02:12;100;0;324.01;-4;-19.57;-4.55;219.2;17.40;76652;2835.124;-1758.571;1;315;-110;-101.6;42.8;42.4;15;14.0;25.4;0.0;
01/03/2025 22:02:32;100;0;325.75;-4;-19.40;-4.42;221.7;17.40;76658;2835.127;-1758.574;1;315;-110;-101.6;42.8;42.4;15;14.4;25.4;0.0;
01/03/2025 22:02:52;100;0;325.91;-4;-19.10;-4.50;223.8;17.40;76649;2835.129;-1758.576;1;315;-110;-101.6;42.8;42.4;15;14.4;25.4;0.0;
01/03/2025 22:03:12;100;0;325.20;-4;-18.97;-4.60;225.9;17.30;76631;2835.132;-1758.578;1;315;-110;-101.6;43.1;43.3;15;14.0;25.4;0.0;
01/03/2025 22:03:32;100;0;325.19;-4;-20.44;-4.53;228.2;17.30;76629;2835.134;-1758.581;1;315;-110;-100.0;43.1;43.4;15;14.4;25.4;0.0;
01/03/2025 22:03:52;100;0;324.42;-4;-20.52;-4.52;230.2;17.30;76617;2835.136;-1758.583;1;315;-110;-100.0;43.1;43.4;15;14.0;25.4;0.0;
01/03/2025 22:04:13;100;0;324.06;-4;-20.60;-4.47;232.5;17.20;76619;2835.139;-1758.585;1;315;-110;-101.6;43.1;43.4;15;14.0;25.4;0.0;
01/03/2025 22:04:33;100;0;323.74;-4;-20.70;-4.44;234.8;17.20;76615;2835.141;-1758.587;1;315;-110;-101.6;43.1;43.4;15;14.0;25.4;0.0;
01/03/2025 22:04:53;100;0;322.33;-4;-20.84;-4.51;237.1;17.20;76612;2835.144;-1758.590;1;315;-110;-100.0;43.1;43.4;15;14.0;25.4;0.0;
01/03/2025 22:05:13;100;0;321.19;-4;-21.06;-4.45;239.2;17.10;76585;2835.146;-1758.592;1;315;-110;-101.6;43.1;43.6;15;14.4;25.4;0.0;
01/03/2025 22:05:33;100;0;320.36;-4;-21.14;-4.38;241.5;17.10;76603;2835.148;-1758.594;1;315;-110;-101.6;43.1;43.6;15;14.0;25.4;0.0;
01/03/2025 22:05:53;100;0;318.42;-4;-20.96;-4.38;244.0;17.10;76596;2835.151;-1758.597;1;315;-110;-100.0;43.1;43.4;15;14.0;25.4;0.0;
01/03/2025 22:06:13;100;0;316.73;-4;-20.79;-4.47;246.2;17.00;76584;2835.153;-1758.600;1;315;-110;-101.6;43.1;43.4;15;14.0;25.4;0.0;
01/03/2025 22:06:33;100;0;313.68;-4;-20.72;-4.46;248.6;17.00;76574;2835.155;-1758.603;1;315;-110;-101.6;43.1;43.4;15;14.4;25.4;0.0;
01/03/2025 22:06:53;100;0;312.78;-4;-20.84;-4.46;250.5;17.00;76558;2835.157;-1758.605;1;315;-130;-132.3;43.1;43.4;13;13.1;25.4;0.0;
01/03/2025 22:07:13;100;0;313.73;-4;-20.17;-5.12;252.9;16.90;76633;2835.159;-1758.608;1;315;-130;-132.3;43.1;43.4;13;13.1;25.4;0.0;
01/03/2025 22:07:33;100;0;314.97;-4;-20.31;-5.05;255.4;16.90;76639;2835.162;-1758.611;1;315;-130;-132.3;43.1;43.4;13;13.1;25.4;0.0;
01/03/2025 22:07:53;100;0;314.35;-4;-20.35;-5.04;258.1;16.90;76627;2835.164;-1758.614;1;315;-130;-133.9;43.1;43.4;13;12.6;25.4;0.0;
01/03/2025 22:08:13;100;0;312.90;-4;-20.59;-5.01;260.8;16.90;76627;2835.166;-1758.617;1;315;-130;-133.9;43.1;43.6;13;12.6;25.4;0.0;
01/03/2025 22:08:33;100;0;311.63;-4;-20.47;-5.02;263.4;16.80;76617;2835.169;-1758.621;1;315;-130;-133.9;43.1;43.4;13;12.6;25.4;0.0;
01/03/2025 22:08:53;100;0;310.53;-4;-20.47;-5.08;266.2;16.80;76613;2835.171;-1758.624;1;315;-130;-133.9;43.1;43.4;13;12.6;25.4;0.0;
01/03/2025 22:09:13;100;0;308.00;-4;-19.96;-5.24;268.5;16.80;76603;2835.173;-1758.627;1;315;-130;-133.9;43.1;43.4;11;10.8;25.4;0.0;
01/03/2025 22:09:33;100;0;307.00;-4;-19.91;-6.06;271.2;16.70;76593;2835.176;-1758.631;1;315;-130;-132.3;43.1;43.6;11;10.4;25.4;0.0;
01/03/2025 22:09:53;100;0;304.99;-4;-20.04;-6.15;273.6;16.70;76589;2835.178;-1758.634;1;315;-130;-133.9;43.1;43.6;8;8.1;25.4;0.0;
01/03/2025 22:10:13;100;0;304.02;-4;-20.00;-7.28;276.3;16.70;76585;2835.180;-1758.638;1;315;-130;-133.9;43.1;43.6;8;8.1;25.4;0.0;
01/03/2025 22:10:33;100;0;307.05;-4;-19.77;-7.26;279.0;16.60;76576;2835.182;-1758.641;1;315;-130;-133.9;43.1;43.4;10;9.9;25.4;0.0;
01/03/2025 22:10:53;100;0;310.20;-4;-20.07;-6.12;281.4;16.60;76566;2835.184;-1758.644;1;315;-130;-132.3;43.1;43.4;13;13.1;25.4;0.0;
01/03/2025 22:11:13;100;0;312.43;-4;-20.28;-4.78;284.2;16.60;76556;2835.187;-1758.648;1;315;-130;-133.9;43.1;43.4;13;13.1;25.4;0.0;
01/03/2025 22:11:33;100;0;311.43;-4;-20.13;-4.78;287.0;16.50;76555;2835.189;-1758.651;1;315;-130;-133.9;43.1;43.4;13;13.1;25.4;0.0;
01/03/2025 22:11:53;100;0;309.95;-4;-19.87;-4.70;289.8;16.50;76553;2835.191;-1758.655;1;315;-130;-132.3;43.1;43.4;13;13.1;25.4;0.0;
01/03/2025 22:12:13;100;0;307.85;-4;-19.88;-4.75;292.3;16.50;76551;2835.194;-1758.658;1;315;-130;-132.3;43.1;43.6;10;9.9;25.4;0.0;
01/03/2025 22:12:33;100;0;308.77;-4;-19.67;-6.59;294.8;16.50;76542;2835.196;-1758.661;1;315;-130;-133.9;43.1;43.4;10;9.5;25.4;0.0;
01/03/2025 22:12:53;100;0;311.62;-4;-19.69;-6.54;297.6;16.40;76547;2835.198;-1758.665;1;315;-130;-132.3;43.1;43.4;13;13.1;25.4;0.0;
01/03/2025 22:13:13;100;0;310.23;-4;-20.00;-4.72;300.0;16.40;76526;2835.201;-1758.668;1;315;-130;-132.3;43.1;43.4;13;13.5;25.4;0.0;
01/03/2025 22:13:33;100;0;309.41;-4;-20.13;-4.74;302.7;16.40;76517;2835.203;-1758.671;1;315;-130;-133.9;43.1;43.4;11;10.8;25.4;0.0;
01/03/2025 22:13:53;100;0;309.47;-4;-19.64;-6.36;305.2;16.30;76514;2835.205;-1758.675;1;315;-130;-133.9;43.1;43.6;11;10.4;25.4;0.0;
01/03/2025 22:14:13;100;0;312.11;-4;-19.71;-6.09;307.8;16.30;76513;2835.207;-1758.678;1;315;-130;-132.3;43.1;43.6;13;13.1;25.4;0.0;
01/03/2025 22:14:33;100;0;312.94;-4;-19.92;-4.82;310.6;16.30;76522;2835.210;-1758.681;1;315;-130;-132.3;43.1;43.6;13;13.1;25.4;0.0;
01/03/2025 22:14:53;100;0;311.13;-4;-19.94;-4.87;313.1;16.30;76508;2835.212;-1758.684;1;315;-130;-132.3;43.1;43.4;13;13.1;25.4;0.0;
01/03/2025 22:15:13;100;0;310.52;-4;-20.03;-4.67;315.6;16.20;76499;2835.215;-1758.688;1;315;-130;-132.3;43.1;43.4;13;13.1;25.4;0.0;
01/03/2025 22:15:33;100;0;312.35;-4;-20.03;-4.60;318.5;16.20;76498;2835.217;-1758.691;1;315;-130;-133.9;43.1;43.4;13;13.5;25.4;0.0;
01/03/2025 22:15:53;100;0;313.68;-4;-20.19;-4.77;321.3;16.20;76508;2835.220;-1758.694;1;315;-130;-133.9;43.1;43.6;13;13.1;25.4;0.0;
01/03/2025 22:16:13;100;0;315.35;-4;-20.09;-4.78;323.9;16.10;76489;2835.222;-1758.698;1;315;-130;-133.9;43.1;43.4;13;13.1;25.4;0.0;
01/03/2025 22:16:33;100;0;318.71;-4;-19.79;-4.72;326.8;16.10;76477;2835.225;-1758.701;1;315;-130;-133.9;43.1;43.6;13;13.1;25.4;0.0;
01/03/2025 22:16:53;100;0;320.99;-4;-20.02;-4.75;329.5;16.10;76480;2835.228;-1758.704;1;315;-130;-133.9;43.1;43.4;13;13.1;25.4;0.0;
01/03/2025 22:17:13;100;0;322.64;-4;-19.82;-4.79;332.2;16.10;76477;2835.231;-1758.706;1;315;-130;-133.9;43.1;43.6;13;13.1;25.4;0.0;
01/03/2025 22:17:33;100;0;326.74;-4;-19.57;-4.82;335.1;16.00;76460;2835.234;-1758.709;1;315;-130;-132.3;43.1;43.4;16;15.8;25.4;0.0;
01/03/2025 22:17:53;100;0;331.02;-4;-19.51;-3.43;337.7;16.00;76457;2835.237;-1758.711;1;315;-130;-133.9;43.1;43.4;20;19.9;25.4;0.0;
01/03/2025 22:18:13;100;0;332.85;-4;-20.04;-1.76;340.3;16.00;76455;2835.240;-1758.714;1;315;-130;-132.3;43.1;43.4;22;22.1;25.4;0.0;
01/03/2025 22:18:33;100;0;333.16;-4;-20.23;-0.38;343.0;16.00;76450;2835.244;-1758.716;1;315;-130;-133.9;43.1;43.6;24;23.9;25.4;0.0;
01/03/2025 22:18:53;100;0;330.96;-4;-20.33;0.60;345.5;15.90;76447;2835.247;-1758.718;1;315;-130;-132.3;43.1;43.4;20;19.4;25.4;0.0;
01/03/2025 22:19:13;100;0;330.13;-4;-20.34;-1.81;348.2;15.90;76436;2835.250;-1758.720;1;315;-130;-133.9;43.1;43.6;20;19.4;25.4;0.0;
01/03/2025 22:19:33;100;0;330.62;-4;-20.85;-1.72;350.9;15.90;76422;2835.253;-1758.723;1;315;-130;-132.3;43.1;43.4;20;19.4;25.4;0.0;
01/03/2025 22:19:53;100;0;329.00;-4;-20.64;-1.72;353.6;15.80;76423;2835.256;-1758.725;1;315;-130;-132.3;43.1;43.4;18;18.1;25.4;0.0;
01/03/2025 22:20:13;100;0;330.03;-4;-20.03;-2.55;356.4;15.80;76413;2835.259;-1758.727;1;315;-130;-133.9;43.1;43.4;20;19.9;25.4;0.0;
01/03/2025 22:20:33;100;0;330.46;-4;-20.46;-1.33;359.0;15.80;76401;2835.262;-1758.730;1;315;-130;-133.9;43.1;43.6;20;20.3;25.4;0.0;
01/03/2025 22:20:53;100;0;326.47;-4;-20.73;-1.37;361.8;15.70;76388;2835.265;-1758.732;1;315;-130;-133.9;43.1;43.4;16;15.8;25.4;0.0;
01/03/2025 22:21:13;100;0;323.34;-4;-20.67;-3.56;364.8;15.70;76390;2835.268;-1758.735;1;315;-130;-133.9;43.1;43.4;16;15.8;25.4;0.0;
01/03/2025 22:21:33;100;0;320.04;-4;-20.36;-3.57;367.9;15.70;76388;2835.272;-1758.739;1;315;-130;-132.3;43.1;43.6;14;14.0;25.4;0.0;
01/03/2025 22:21:53;100;0;318.03;-4;-20.16;-4.59;370.5;15.70;76376;2835.274;-1758.742;1;315;-130;-133.9;43.1;43.4;14;14.0;25.4;0.0;
01/03/2025 22:22:13;100;0;316.56;-4;-20.09;-4.64;373.4;15.60;76369;2835.277;-1758.745;1;315;-130;-133.9;43.1;43.6;14;13.5;25.4;0.0;
01/03/2025 22:22:33;100;0;314.40;-4;-20.09;-4.59;376.3;15.60;76368;2835.280;-1758.748;1;315;-130;-133.9;43.1;43.4;14;13.5;25.4;0.0;
01/03/2025 22:22:53;100;0;311.82;-4;-20.19;-4.61;379.3;15.60;76355;2835.282;-1758.752;1;315;-130;-132.3;43.1;43.6;14;14.0;25.4;0.0;
01/03/2025 22:23:13;100;0;310.98;-4;-19.69;-4.65;382.2;15.50;76346;2835.285;-1758.756;1;315;-130;-132.3;43.1;43.4;14;14.0;25.4;0.0;
01/03/2025 22:23:33;100;0;309.86;-4;-19.72;-4.63;384.7;15.50;76341;2835.287;-1758.759;1;315;-130;-133.9;43.1;43.6;12;12.2;25.4;0.0;
01/03/2025 22:23:53;100;0;310.56;-4;-19.64;-5.33;387.5;15.50;76340;2835.290;-1758.762;1;315;-130;-133.9;43.1;43.4;12;12.2;25.4;0.0;
01/03/2025 22:24:13;100;0;310.29;-4;-19.67;-5.34;390.2;15.40;76327;2835.292;-1758.766;1;315;-130;-133.9;43.1;43.4;12;12.2;25.4;0.0;
01/03/2025 22:24:33;100;0;309.43;-4;-19.58;-5.33;393.2;15.40;76323;2835.295;-1758.770;1;315;-130;-133.9;43.1;43.4;12;12.2;25.4;0.0;
01/03/2025 22:24:53;100;0;309.75;-4;-19.44;-5.36;396.0;15.40;76322;2835.297;-1758.773;1;315;-130;-133.9;43.1;43.6;12;12.2;25.4;0.0;
01/03/2025 22:25:13;100;0;308.26;-4;-19.30;-5.37;398.7;15.40;76314;2835.300;-1758.777;1;315;-130;-135.5;43.1;43.6;12;12.2;25.4;0.0;
01/03/2025 22:25:33;100;0;310.14;-4;-19.43;-5.34;401.4;15.30;76300;2835.302;-1758.780;1;315;-130;-133.9;43.1;43.6;12;12.2;25.4;0.0;
01/03/2025 22:25:53;100;0;310.85;-4;-19.91;-5.36;404.2;15.30;76292;2835.305;-1758.784;1;315;-130;-133.9;43.1;43.6;12;12.2;25.4;0.0;
01/03/2025 22:26:13;100;0;314.91;-4;-19.43;-5.14;406.7;15.30;76283;2835.307;-1758.787;1;315;-130;-133.9;43.1;43.6;12;12.2;25.4;0.0;
01/03/2025 22:26:33;100;0;317.24;-4;-19.56;-5.44;409.1;15.20;76287;2835.310;-1758.790;1;315;-130;-133.9;43.1;43.6;12;12.2;25.4;0.0;
01/03/2025 22:26:53;100;0;319.40;-4;-19.49;-5.38;411.6;15.20;76281;2835.312;-1758.793;1;315;-130;-133.9;43.1;43.4;12;12.2;25.4;0.0;
01/03/2025 22:27:13;100;0;319.31;-4;-19.59;-5.37;414.2;15.20;76278;2835.315;-1758.795;1;315;-130;-132.3;43.1;43.6;12;12.2;25.4;0.0;
01/03/2025 22:27:33;100;0;319.35;-4;-19.78;-5.34;416.7;15.20;76268;2835.318;-1758.798;1;315;-130;-132.3;43.1;43.6;12;12.2;25.4;0.0;
01/03/2025 22:27:53;100;0;319.23;-4;-19.86;-5.29;419.6;15.10;76259;2835.320;-1758.801;1;315;-130;-133.9;43.1;43.4;12;12.2;25.4;0.0;
01/03/2025 22:28:13;100;0;319.94;-4;-19.88;-5.36;422.3;15.10;76254;2835.323;-1758.804;1;315;-130;-133.9;43.1;43.4;14;14.0;25.4;0.0;
01/03/2025 22:28:33;100;0;321.45;-4;-20.15;-4.08;425.0;15.10;76248;2835.326;-1758.807;1;315;-130;-132.3;43.1;43.4;14;14.4;25.4;0.0;
01/03/2025 22:28:53;100;0;323.30;-4;-19.65;-4.01;427.8;15.00;76237;2835.329;-1758.810;1;315;-130;-135.5;43.1;43.6;14;14.4;25.4;0.0;
01/03/2025 22:29:13;100;0;325.40;-4;-19.34;-4.14;430.5;15.00;76243;2835.332;-1758.813;1;315;-130;-132.3;43.1;43.4;14;14.4;25.4;0.0;
01/03/2025 22:29:33;100;0;328.45;-4;-19.50;-4.32;433.1;15.00;76231;2835.335;-1758.815;1;315;-130;-133.9;43.1;43.4;17;17.1;25.4;0.0;
01/03/2025 22:29:53;100;0;331.56;-4;-19.58;-2.78;435.9;15.00;76221;2835.339;-1758.818;1;315;-130;-133.9;43.1;43.6;22;22.1;25.4;0.0;
01/03/2025 22:30:13;100;0;333.33;-4;-19.43;-0.24;438.6;14.90;76225;2835.342;-1758.820;1;315;-130;-133.9;43.1;43.6;24;23.9;25.4;0.0;
01/03/2025 22:30:33;100;0;332.63;-4;-19.64;0.65;441.1;14.90;76215;2835.345;-1758.822;1;315;-130;-133.9;43.1;43.4;22;22.1;25.4;0.0;
01/03/2025 22:30:53;100;0;331.43;-4;-19.38;-0.26;444.0;14.90;76208;2835.349;-1758.825;1;315;-130;-133.9;43.1;43.6;22;21.7;25.4;0.0;
01/03/2025 22:31:13;100;0;331.54;-4;-20.77;-0.50;446.8;14.80;76207;2835.352;-1758.827;1;315;-130;-133.9;43.1;43.4;22;21.7;25.4;0.0;
01/03/2025 22:31:33;100;0;327.30;-4;-19.73;-0.49;449.8;14.80;76195;2835.355;-1758.830;1;315;-130;-133.9;43.1;43.6;17;17.1;25.4;0.0;
01/03/2025 22:31:53;100;0;329.97;-4;-19.32;-3.07;452.4;14.80;76202;2835.358;-1758.832;1;315;-130;-132.3;43.1;43.6;20;19.9;25.4;0.0;
01/03/2025 22:32:13;100;0;333.71;-4;-19.71;-1.40;455.1;14.80;76202;2835.361;-1758.834;1;315;-130;-135.5;43.1;43.4;24;23.9;25.4;0.0;
01/03/2025 22:32:33;100;0;329.60;-4;-19.81;0.69;458.1;14.70;76179;2835.365;-1758.837;1;315;-130;-133.9;43.1;43.6;20;19.9;25.4;0.0;
01/03/2025 22:32:53;100;0;325.70;-4;-20.11;-1.57;460.7;14.70;76163;2835.368;-1758.839;1;315;-130;-133.9;43.1;43.4;16;15.3;25.4;0.0;
01/03/2025 22:33:13;100;0;322.93;-4;-19.89;-3.88;463.5;14.70;76167;2835.371;-1758.842;1;315;-130;-133.9;43.1;43.6;16;15.3;25.4;0.0;
01/03/2025 22:33:33;100;0;320.10;-4;-19.73;-3.80;466.2;14.60;76154;2835.374;-1758.845;1;315;-130;-133.9;43.1;43.6;14;14.0;25.4;0.0;
01/03/2025 22:33:53;100;0;318.23;-4;-19.71;-4.62;469.0;14.60;76145;2835.377;-1758.848;1;315;-130;-132.3;43.1;43.6;14;13.5;25.4;0.0;
01/03/2025 22:34:13;100;0;315.20;-4;-20.20;-4.54;471.7;14.60;76149;2835.379;-1758.851;1;315;-130;-132.3;43.1;43.6;14;14.0;25.4;0.0;
01/03/2025 22:34:33;100;0;311.07;-4;-19.61;-4.58;474.6;14.60;76139;2835.382;-1758.855;1;315;-130;-132.3;43.1;43.4;14;13.5;25.4;0.0;
01/03/2025 22:34:53;100;0;309.65;-4;-19.48;-4.60;477.4;14.50;76134;2835.384;-1758.859;1;315;-130;-133.9;43.1;43.6;14;13.5;25.4;0.0;
01/03/2025 22:35:13;100;0;307.94;-4;-19.20;-4.61;480.1;14.50;76132;2835.387;-1758.862;1;315;-130;-133.9;43.1;43.6;12;10.8;25.4;0.0;
01/03/2025 22:35:33;100;0;308.14;-4;-18.94;-5.29;482.8;14.50;76114;2835.389;-1758.866;1;315;-130;-132.3;43.4;43.4;12;12.6;25.4;0.0;
01/03/2025 22:35:53;100;0;308.52;-4;-18.86;-5.34;485.3;14.50;76114;2835.391;-1758.869;1;315;-130;-132.3;43.7;43.9;12;12.2;25.4;0.0;
01/03/2025 22:36:13;100;0;309.00;-4;-19.95;-5.28;487.9;14.40;76110;2835.393;-1758.873;1;315;-130;-133.9;43.7;44.0;12;12.6;25.4;0.0;
01/03/2025 22:36:33;100;0;309.41;-4;-20.02;-5.24;490.6;14.40;76102;2835.396;-1758.876;1;315;-130;-133.9;43.7;44.0;12;12.2;25.4;0.0;
01/03/2025 22:36:53;100;0;310.74;-4;-19.79;-5.33;493.1;14.40;76094;2835.398;-1758.879;1;315;-130;-133.9;43.7;44.0;12;12.6;25.4;0.0;
01/03/2025 22:37:13;100;0;310.40;-4;-20.26;-5.32;495.7;14.30;76099;2835.400;-1758.883;1;315;-130;-133.9;43.7;44.0;12;12.6;25.4;0.0;
01/03/2025 22:37:33;100;0;308.93;-4;-20.28;-5.28;498.4;14.30;76094;2835.403;-1758.886;1;315;-130;-133.9;43.7;44.2;12;12.6;25.4;0.0;
01/03/2025 22:37:53;100;0;310.34;-4;-20.36;-5.30;501.2;14.30;76089;2835.405;-1758.890;1;315;-130;-133.9;43.7;44.0;12;12.2;25.4;0.0;
01/03/2025 22:38:13;100;0;311.59;-4;-20.06;-5.33;503.9;14.30;76088;2835.408;-1758.893;1;315;-130;-133.9;43.7;44.2;12;12.2;25.4;0.0;
01/03/2025 22:38:34;100;0;311.26;-4;-20.27;-5.33;506.7;14.20;76081;2835.410;-1758.897;1;315;-130;-133.9;43.7;44.0;12;12.6;25.4;0.0;
01/03/2025 22:38:54;100;0;313.00;-4;-20.13;-5.31;509.5;14.20;76068;2835.413;-1758.900;1;315;-130;-132.3;43.7;44.0;12;12.6;25.4;0.0;
01/03/2025 22:39:14;100;0;313.26;-4;-20.09;-5.30;512.3;14.20;76069;2835.415;-1758.903;1;315;-130;-133.9;43.7;44.0;12;12.6;25.4;0.0;
01/03/2025 22:39:34;100;0;313.39;-4;-19.88;-5.29;515.1;14.20;76068;2835.418;-1758.907;1;315;-130;-133.9;43.7;44.0;12;12.6;25.4;0.0;
01/03/2025 22:39:54;100;0;314.15;-4;-20.07;-5.21;517.9;14.10;76061;2835.421;-1758.910;1;315;-130;-133.9;43.7;44.2;12;12.6;25.4;0.0;
01/03/2025 22:40:14;100;0;315.20;-4;-20.33;-5.33;520.6;14.10;76056;2835.423;-1758.913;1;315;-130;-132.3;43.7;44.0;12;12.6;25.4;0.0;
01/03/2025 22:40:34;100;0;315.85;-4;-20.35;-5.26;523.5;14.10;76047;2835.426;-1758.917;1;315;-130;-133.9;43.7;44.0;12;12.6;25.4;0.0;
01/03/2025 22:40:54;100;0;315.15;-4;-20.46;-5.29;526.4;14.10;76053;2835.429;-1758.920;1;315;-130;-132.3;43.7;44.0;12;12.6;25.4;0.0;
01/03/2025 22:41:14;100;0;314.27;-4;-20.21;-5.22;529.3;14.10;76053;2835.432;-1758.923;1;315;-130;-135.5;43.7;44.0;12;12.6;25.4;0.0;
01/03/2025 22:41:34;100;0;313.35;-4;-20.30;-5.22;532.2;14.00;76040;2835.434;-1758.927;1;315;-130;-133.9;43.7;44.0;12;12.6;25.4;0.0;
01/03/2025 22:41:54;100;0;312.82;-4;-20.12;-5.15;535.3;14.00;76042;2835.437;-1758.931;1;315;-130;-132.3;43.7;44.0;12;12.2;25.4;0.0;
01/03/2025 22:42:14;100;0;305.69;-4;-20.17;-5.08;537.9;14.00;76036;2835.439;-1758.934;1;315;-130;-133.9;43.7;44.0;8;8.1;25.4;0.0;
01/03/2025 22:42:34;100;0;307.12;-4;-20.21;-7.70;540.9;13.90;76031;2835.442;-1758.938;1;315;-130;-133.9;43.7;44.0;10;9.9;25.4;0.0;
01/03/2025 22:42:54;100;0;308.63;-4;-19.17;-6.31;543.7;13.90;76022;2835.444;-1758.942;1;315;-130;-133.9;43.7;44.2;10;9.9;25.4;0.0;
01/03/2025 22:43:14;100;0;310.29;-4;-20.32;-6.32;546.5;13.90;76028;2835.447;-1758.945;1;315;-130;-133.9;43.7;44.0;12;12.2;25.4;0.0;
01/03/2025 22:43:34;100;0;310.37;-4;-20.09;-5.21;549.4;13.90;76021;2835.449;-1758.949;1;315;-130;-133.9;43.7;44.0;12;12.6;25.4;0.0;
01/03/2025 22:43:54;100;0;310.26;-4;-20.00;-5.14;552.2;13.80;76009;2835.452;-1758.953;1;315;-130;-137.1;43.7;44.0;12;12.6;25.4;0.0;
01/03/2025 22:44:14;100;0;305.69;-4;-20.07;-5.26;554.9;13.80;76014;2835.454;-1758.956;1;315;-130;-133.9;43.7;44.0;9;9.0;25.4;0.0;
01/03/2025 22:44:34;100;0;305.56;-4;-20.30;-7.24;557.6;13.80;76015;2835.456;-1758.960;1;315;-130;-132.3;43.7;44.0;9;8.6;25.4;0.0;
01/03/2025 22:44:54;100;0;307.45;-4;-19.56;-7.16;560.4;13.80;76001;2835.458;-1758.963;1;315;-130;-132.3;43.7;44.0;9;9.0;25.4;0.0;
01/03/2025 22:45:14;100;0;307.55;-4;-20.32;-7.06;563.1;13.80;76002;2835.461;-1758.967;1;315;-130;-132.3;43.7;44.0;9;8.6;25.4;0.0;
01/03/2025 22:45:34;100;0;309.21;-4;-20.03;-7.04;565.9;13.70;75992;2835.463;-1758.971;1;315;-130;-133.9;43.7;44.0;11;10.8;25.4;0.0;
01/03/2025 22:45:54;100;0;311.27;-4;-20.23;-5.67;568.8;13.70;75988;2835.466;-1758.974;1;315;-130;-133.9;43.7;44.0;11;11.3;25.4;0.0;
01/03/2025 22:46:14;100;0;315.59;-4;-19.86;-5.73;571.9;13.70;75979;2835.469;-1758.978;1;315;-130;-133.9;43.7;44.0;13;13.1;25.4;0.0;
01/03/2025 22:46:34;100;0;318.48;-4;-19.74;-4.72;574.6;13.70;75988;2835.471;-1758.981;1;315;-130;-132.3;43.7;44.0;13;13.1;25.4;0.0;
01/03/2025 22:46:54;100;0;319.77;-4;-20.46;-4.57;577.6;13.60;75983;2835.474;-1758.984;1;315;-130;-133.9;43.7;44.2;13;13.5;25.4;0.0;
01/03/2025 22:47:14;100;0;321.61;-4;-20.40;-4.68;580.5;13.60;75976;2835.478;-1758.987;1;315;-130;-133.9;43.7;44.0;13;13.5;25.4;0.0;
01/03/2025 22:47:34;100;0;323.66;-4;-19.71;-4.47;583.5;13.60;75975;2835.481;-1758.990;1;315;-130;-133.9;43.7;44.0;13;13.5;25.4;0.0;
01/03/2025 22:47:54;100;0;323.82;-4;-20.50;-4.58;586.3;13.60;75972;2835.484;-1758.993;1;315;-130;-133.9;43.7;44.0;13;13.5;25.4;0.0;
01/03/2025 22:48:14;100;0;327.56;-4;-20.03;-4.64;589.2;13.60;75971;2835.487;-1758.995;1;315;-130;-133.9;43.7;44.0;17;17.1;25.4;0.0;
01/03/2025 22:48:34;100;0;329.59;-4;-20.37;-2.81;592.3;13.50;75963;2835.491;-1758.998;1;315;-130;-133.9;43.7;44.0;19;19.0;25.4;0.0;
01/03/2025 22:48:54;100;0;330.51;-4;-20.44;-1.87;595.3;13.50;75964;2835.494;-1759.001;1;315;-130;-132.3;43.7;44.0;19;19.4;25.4;0.0;
01/03/2025 22:49:14;100;0;331.06;-4;-20.49;-1.85;598.3;13.50;75961;2835.498;-1759.003;1;315;-130;-132.3;43.7;44.0;21;21.2;25.4;0.0;
01/03/2025 22:49:34;100;0;330.74;-4;-20.27;-0.84;601.2;13.50;75947;2835.501;-1759.006;1;315;-130;-133.9;43.7;44.0;21;21.2;25.4;0.0;
01/03/2025 22:49:54;100;0;330.15;-4;-20.52;-0.82;604.3;13.50;75951;2835.504;-1759.008;1;315;-130;-132.3;43.7;44.0;21;21.2;25.4;0.0;
01/03/2025 22:50:14;100;0;329.20;-4;-20.79;-0.72;607.5;13.40;75946;2835.508;-1759.011;1;315;-130;-132.3;43.7;44.2;19;19.0;25.4;0.0;
01/03/2025 22:50:34;100;0;327.55;-4;-20.37;-2.07;610.5;13.40;75942;2835.511;-1759.014;1;315;-130;-133.9;43.7;44.0;17;17.1;25.4;0.0;
01/03/2025 22:50:54;100;0;325.46;-4;-20.26;-3.02;613.5;13.40;75942;2835.515;-1759.017;1;315;-130;-133.9;43.7;44.0;15;14.9;25.4;0.0;
01/03/2025 22:51:14;100;0;325.22;-4;-19.70;-4.25;616.5;13.40;75927;2835.518;-1759.020;1;315;-130;-133.9;43.7;44.2;15;14.4;25.4;0.0;
01/03/2025 22:51:34;100;0;324.26;-4;-19.78;-4.28;619.2;13.30;75915;2835.521;-1759.022;1;315;-130;-133.9;43.7;44.0;15;14.4;25.4;0.0;
01/03/2025 22:51:54;100;0;325.07;-4;-20.08;-4.28;622.1;13.30;75929;2835.524;-1759.025;1;315;-130;-133.9;43.7;44.0;15;14.4;25.4;0.0;
01/03/2025 22:52:14;100;0;324.93;-4;-20.43;-4.36;624.9;13.30;75910;2835.527;-1759.028;1;315;-130;-132.3;43.7;44.0;15;14.4;25.4;0.0;
01/03/2025 22:52:34;100;0;326.61;-4;-20.02;-4.29;627.6;13.30;75915;2835.530;-1759.030;1;315;-130;-133.9;43.7;44.0;15;14.4;25.4;0.0;
01/03/2025 22:52:54;100;0;325.21;-4;-19.82;-4.27;630.1;13.30;75923;2835.533;-1759.033;1;315;-130;-133.9;43.7;44.0;15;14.4;25.4;0.0;
01/03/2025 22:53:14;100;0;323.99;-4;-19.84;-4.26;632.6;13.30;75910;2835.536;-1759.036;1;315;-130;-132.3;43.7;44.0;15;14.4;25.4;0.0;
01/03/2025 22:53:34;100;0;321.10;-4;-19.93;-4.30;635.0;13.30;75916;2835.538;-1759.038;1;315;-130;-132.3;43.7;44.0;15;14.4;25.4;0.0;
01/03/2025 22:53:54;100;0;318.14;-4;-19.95;-4.31;637.4;13.20;75901;2835.541;-1759.041;1;315;-130;-132.3;43.7;44.0;15;14.4;25.4;0.0;
01/03/2025 22:54:14;100;0;314.53;-4;-20.01;-4.23;639.7;13.20;75897;2835.543;-1759.044;1;315;-130;-133.9;43.7;44.0;15;14.4;25.4;0.0;
01/03/2025 22:54:34;100;0;310.00;-4;-19.73;-4.29;641.9;13.20;75887;2835.545;-1759.047;1;315;-130;-133.9;43.7;44.0;12;12.2;25.4;0.0;
01/03/2025 22:54:54;100;0;310.77;-4;-19.73;-5.42;644.0;13.20;75889;2835.547;-1759.049;1;315;-130;-137.1;43.7;44.2;12;12.2;25.4;0.0;
01/03/2025 22:55:14;100;0;313.52;-4;-19.68;-5.34;646.2;13.10;75872;2835.549;-1759.052;1;315;-130;-133.9;43.7;44.2;12;12.2;25.4;0.0;
01/03/2025 22:55:34;100;0;316.30;-4;-19.71;-5.32;648.3;13.10;75868;2835.551;-1759.055;1;315;-130;-132.3;43.7;44.0;14;14.0;25.4;0.0;
01/03/2025 22:55:54;100;0;318.02;-4;-19.85;-4.26;650.5;13.10;75864;2835.553;-1759.057;1;315;-130;-133.9;43.7;44.0;14;14.4;25.4;0.0;
01/03/2025 22:56:14;100;0;320.03;-4;-19.66;-4.24;652.4;13.10;75859;2835.556;-1759.059;1;315;-150;-151.6;43.7;44.2;14;14.4;25.4;0.0;
01/03/2025 22:56:34;100;0;322.66;-4;-19.05;-4.26;654.5;13.00;75899;2835.558;-1759.062;1;315;-150;-153.2;43.7;44.2;14;14.4;25.4;0.0;
01/03/2025 22:56:54;100;0;323.78;-4;-19.66;-4.22;656.5;13.00;75897;2835.560;-1759.064;1;315;-150;-153.2;43.7;44.0;14;14.4;25.4;0.0;
01/03/2025 22:57:14;100;0;321.91;-4;-19.82;-4.26;658.5;13.00;75885;2835.562;-1759.066;1;315;-150;-153.2;43.7;44.0;14;14.4;25.4;0.0;
01/03/2025 22:57:34;100;0;320.63;-4;-19.65;-4.27;660.8;13.00;75887;2835.565;-1759.069;1;315;-150;-153.2;43.7;44.0;14;14.4;25.4;0.0;
01/03/2025 22:57:54;100;0;320.41;-4;-19.52;-4.22;662.9;13.00;75877;2835.567;-1759.071;1;315;-150;-153.2;43.7;44.0;14;14.4;25.4;0.0;
01/03/2025 22:58:14;100;0;320.14;-4;-19.50;-4.25;665.1;12.90;75867;2835.569;-1759.074;1;315;-150;-153.2;43.7;44.2;14;14.4;25.4;0.0;
01/03/2025 22:58:34;100;0;321.96;-4;-19.38;-4.21;667.2;12.90;75872;2835.572;-1759.076;1;315;-150;-151.6;43.7;44.0;14;14.4;25.4;0.0;
01/03/2025 22:58:54;100;0;322.64;-4;-19.44;-4.22;669.4;12.90;75865;2835.574;-1759.078;1;315;-150;-151.6;43.7;44.0;14;14.4;25.4;0.0;
01/03/2025 22:59:14;100;0;323.54;-4;-19.41;-4.22;671.6;12.90;75858;2835.577;-1759.081;1;315;-150;-151.6;43.7;44.2;14;14.4;25.4;0.0;
01/03/2025 22:59:34;100;0;324.70;-4;-19.42;-4.22;673.7;12.90;75848;2835.579;-1759.083;1;315;-150;-153.2;43.7;44.0;14;14.4;25.4;0.0;
01/03/2025 22:59:54;100;0;325.81;-4;-19.44;-4.26;675.9;12.80;75841;2835.582;-1759.085;1;315;-150;-153.2;43.7;44.0;14;14.4;25.4;0.0;
01/03/2025 23:00:14;100;0;327.27;-4;-19.55;-4.25;678.2;12.80;75843;2835.584;-1759.087;1;315;-150;-153.2;43.7;44.0;16;15.8;25.4;0.0;
01/03/2025 23:00:34;100;0;328.66;-4;-19.44;-3.44;680.5;12.80;75840;2835.587;-1759.090;1;315;-150;-153.2;43.7;44.0;18;18.1;25.4;0.0;
01/03/2025 23:00:54;100;0;327.85;-4;-19.79;-2.41;683.0;12.80;75822;2835.590;-1759.092;1;315;-150;-153.2;43.7;44.0;18;18.1;25.4;0.0;
01/03/2025 23:01:14;100;0;326.98;-4;-19.81;-2.33;685.4;12.80;75828;2835.593;-1759.094;1;315;-150;-153.2;43.7;44.0;16;15.8;25.4;0.0;
01/03/2025 23:01:34;100;0;327.59;-4;-19.72;-3.61;688.0;12.70;75821;2835.596;-1759.097;1;315;-150;-153.2;43.7;44.2;16;15.8;25.4;0.0;
01/03/2025 23:01:54;100;0;329.85;-4;-19.71;-3.54;690.7;12.70;75808;2835.599;-1759.099;1;315;-150;-153.2;43.7;44.0;20;19.9;25.4;0.0;
01/03/2025 23:02:14;100;0;327.70;-4;-19.91;-1.41;693.5;12.70;75801;2835.602;-1759.102;1;315;-150;-153.2;43.7;44.0;18;17.6;25.4;0.0;
01/03/2025 23:02:34;100;0;325.15;-4;-19.94;-2.65;696.2;12.70;75794;2835.605;-1759.104;1;315;-150;-151.6;43.7;44.0;16;15.3;25.4;0.0;
01/03/2025 23:02:54;100;0;323.30;-4;-19.89;-3.79;699.0;12.60;75781;2835.608;-1759.107;1;315;-150;-151.6;43.7;44.0;16;15.3;25.4;0.0;
01/03/2025 23:03:14;100;0;321.21;-4;-19.57;-3.93;701.9;12.60;75790;2835.611;-1759.110;1;315;-150;-153.2;43.7;44.0;14;14.0;25.4;0.0;
01/03/2025 23:03:34;100;0;318.24;-4;-19.53;-4.32;704.8;12.60;75772;2835.614;-1759.114;1;315;-150;-156.5;43.7;44.0;14;14.0;25.4;0.0;
01/03/2025 23:03:54;100;0;316.85;-4;-19.72;-4.44;707.7;12.60;75776;2835.617;-1759.117;1;315;-150;-153.2;43.7;44.0;14;14.0;25.4;0.0;
01/03/2025 23:04:14;100;0;315.25;-4;-19.85;-4.39;710.5;12.50;75760;2835.619;-1759.120;1;315;-150;-153.2;43.7;44.0;14;14.0;25.4;0.0;
01/03/2025 23:04:34;100;0;313.96;-4;-19.66;-4.41;713.5;12.50;75743;2835.622;-1759.124;1;315;-150;-153.2;43.7;44.0;14;14.0;25.4;0.0;
01/03/2025 23:04:54;100;0;314.33;-4;-19.35;-4.39;716.3;12.50;75747;2835.625;-1759.127;1;315;-150;-153.2;43.7;44.2;14;14.0;25.4;0.0;
01/03/2025 23:05:14;100;0;315.35;-4;-19.26;-4.48;719.0;12.50;75738;2835.628;-1759.130;1;315;-150;-153.2;43.7;44.0;14;14.0;25.4;0.0;
01/03/2025 23:05:34;100;0;316.65;-4;-19.26;-4.47;721.6;12.50;75719;2835.630;-1759.134;1;315;-150;-153.2;43.7;44.0;14;14.0;25.4;0.0;
01/03/2025 23:05:54;100;0;317.21;-4;-19.24;-4.45;724.5;12.40;75724;2835.633;-1759.137;1;315;-150;-151.6;43.7;44.2;14;14.0;25.4;0.0;
01/03/2025 23:06:14;100;0;318.61;-4;-19.15;-4.51;727.2;12.40;75709;2835.636;-1759.140;1;315;-150;-151.6;43.7;44.0;14;14.0;25.4;0.0;
01/03/2025 23:06:34;100;0;320.39;-4;-19.06;-4.48;729.8;12.40;75707;2835.639;-1759.143;1;315;-150;-153.2;43.7;44.0;14;14.0;25.4;0.0;
01/03/2025 23:06:54;100;0;321.97;-4;-19.11;-4.50;732.4;12.30;75705;2835.642;-1759.146;1;315;-150;-153.2;43.7;44.0;14;14.0;25.4;0.0;
01/03/2025 23:07:14;100;0;322.99;-4;-19.16;-4.48;735.1;12.30;75707;2835.645;-1759.149;1;315;-150;-151.6;43.7;44.0;14;14.0;25.4;0.0;
01/03/2025 23:07:34;100;0;325.32;-4;-18.97;-4.53;737.6;12.30;75702;2835.648;-1759.151;1;315;-150;-154.8;44.0;44.0;16;15.8;25.4;0.0;
01/03/2025 23:07:54;100;0;325.98;-4;-19.29;-3.28;740.2;12.30;75692;2835.651;-1759.154;1;315;-150;-151.6;44.0;44.0;16;16.2;25.4;0.0;
01/03/2025 23:08:14;100;0;327.93;-4;-19.22;-3.37;742.8;12.20;75685;2835.654;-1759.157;1;315;-150;-153.2;44.0;44.0;18;18.5;25.4;0.0;
01/03/2025 23:08:34;100;0;328.59;-4;-19.37;-1.98;745.4;12.20;75691;2835.657;-1759.159;1;315;-150;-153.2;44.0;44.0;18;18.5;25.4;0.0;
01/03/2025 23:08:54;100;0;329.95;-4;-19.41;-2.18;747.9;12.20;75685;2835.660;-1759.161;1;315;-150;-153.2;44.0;44.2;21;21.2;25.4;0.0;
01/03/2025 23:09:14;100;0;329.07;-4;-19.72;-0.77;750.5;12.20;75682;2835.663;-1759.164;1;315;-150;-151.6;44.0;44.0;19;19.0;25.4;0.0;
01/03/2025 23:09:34;100;0;328.53;-4;-19.44;-2.15;753.0;12.20;75681;2835.666;-1759.166;1;315;-150;-153.2;44.0;44.0;19;19.0;25.4;0.0;
01/03/2025 23:09:54;100;0;328.10;-4;-19.28;-2.16;755.6;12.10;75669;2835.669;-1759.169;1;315;-150;-153.2;44.0;44.2;19;19.0;25.4;0.0;
01/03/2025 23:10:14;100;0;328.64;-4;-19.30;-2.16;758.1;12.10;75675;2835.672;-1759.171;1;315;-150;-151.6;44.0;44.0;19;18.5;25.4;0.0;
01/03/2025 23:10:34;100;0;327.63;-4;-19.21;-2.24;760.7;12.10;75667;2835.675;-1759.173;1;315;-150;-153.2;44.0;44.2;17;17.1;25.4;0.0;
01/03/2025 23:10:54;100;0;327.40;-4;-18.68;-3.15;763.1;12.10;75669;2835.678;-1759.176;1;315;-150;-154.8;44.4;44.6;17;16.7;25.4;0.0;
01/03/2025 23:11:14;100;0;329.53;-4;-20.36;-3.12;765.8;12.10;75659;2835.681;-1759.178;1;315;-150;-153.2;44.4;44.8;19;19.0;25.4;0.0;
01/03/2025 23:11:34;100;0;332.07;-4;-20.85;-1.82;768.3;12.00;75659;2835.684;-1759.180;1;315;-150;-153.2;44.4;44.8;22;22.1;25.4;0.0;
01/03/2025 23:11:54;100;0;329.69;-4;-21.31;-0.10;771.2;12.00;75655;2835.687;-1759.183;1;315;-150;-153.2;44.4;44.8;22;22.6;25.4;0.0;
01/03/2025 23:12:14;100;0;325.74;-4;-21.16;-0.11;774.3;12.00;75650;2835.691;-1759.186;1;315;-150;-153.2;44.4;44.8;17;17.1;25.4;0.0;
01/03/2025 23:12:35;100;0;324.02;-4;-20.97;-3.09;777.5;12.00;75644;2835.694;-1759.189;1;315;-150;-153.2;44.4;44.8;17;17.1;25.4;0.0;
01/03/2025 23:12:55;100;0;324.70;-4;-21.09;-2.99;780.5;11.90;75638;2835.697;-1759.192;1;315;-150;-153.2;44.4;44.8;17;17.1;25.4;0.0;
01/03/2025 23:13:15;100;0;322.77;-4;-20.61;-3.04;783.6;11.90;75630;2835.700;-1759.195;1;315;-150;-151.6;44.4;44.8;17;16.7;25.4;0.0;
01/03/2025 23:13:35;100;0;319.58;-4;-20.80;-3.01;786.8;11.90;75625;2835.704;-1759.198;1;315;-150;-153.2;44.4;44.8;15;14.9;25.4;0.0;
01/03/2025 23:13:55;100;0;317.54;-4;-20.65;-3.97;789.7;11.90;75621;2835.706;-1759.201;1;315;-150;-153.2;44.4;44.8;15;14.9;25.4;0.0;
01/03/2025 23:14:15;100;0;317.47;-4;-20.59;-4.04;792.7;11.90;75628;2835.709;-1759.204;1;315;-150;-151.6;44.4;44.8;15;14.9;25.4;0.0;
01/03/2025 23:14:35;100;0;317.32;-4;-20.89;-3.95;795.4;11.80;75609;2835.712;-1759.207;1;315;-150;-153.2;44.4;44.8;15;14.9;25.4;0.0;
01/03/2025 23:14:55;100;0;316.05;-4;-20.89;-3.95;798.3;11.80;75613;2835.715;-1759.211;1;315;-150;-153.2;44.4;44.8;15;14.9;25.4;0.0;
01/03/2025 23:15:15;100;0;314.98;-4;-20.64;-3.88;801.2;11.80;75607;2835.717;-1759.214;1;315;-150;-153.2;44.4;44.8;15;14.9;25.4;0.0;
01/03/2025 23:15:35;100;0;314.00;-4;-20.94;-3.93;803.9;11.80;75604;2835.720;-1759.217;1;315;-150;-153.2;44.4;44.8;15;14.9;25.4;0.0;
01/03/2025 23:15:55;100;0;312.60;-4;-20.95;-3.96;806.6;11.80;75594;2835.722;-1759.220;1;315;-150;-153.2;44.4;44.8;15;14.9;25.4;0.0;
01/03/2025 23:16:15;100;0;309.83;-4;-20.91;-3.95;809.3;11.80;75594;2835.724;-1759.223;1;315;-150;-153.2;44.4;44.8;13;13.1;25.4;0.0;
01/03/2025 23:16:35;100;0;309.30;-4;-21.02;-4.86;812.1;11.70;75587;2835.727;-1759.227;1;315;-150;-153.2;44.4;44.8;13;13.1;25.4;0.0;
01/03/2025 23:16:55;100;0;308.10;-4;-21.68;-5.11;814.7;11.70;75580;2835.729;-1759.230;1;315;-150;-153.2;44.4;44.9;13;13.1;25.4;0.0;
01/03/2025 23:17:15;100;0;302.77;-4;-21.66;-4.82;817.3;11.70;75582;2835.731;-1759.234;1;315;-150;-153.2;44.4;44.9;6;5.9;25.4;0.0;
01/03/2025 23:17:35;100;0;300.36;-4;-20.76;-8.46;820.0;11.70;75585;2835.733;-1759.237;1;315;-150;-153.2;44.4;44.9;2;1.8;25.4;0.0;
01/03/2025 23:17:55;100;0;299.20;-4;-20.12;-10.57;822.7;11.70;75575;2835.734;-1759.241;1;315;-150;-153.2;44.4;44.9;2;1.4;25.4;0.0;
01/03/2025 23:18:15;100;0;299.92;-4;-19.78;-10.11;825.2;11.60;75564;2835.736;-1759.245;1;315;-150;-153.2;44.4;44.9;2;1.4;25.4;0.0;
01/03/2025 23:18:35;100;0;304.00;-4;-20.10;-10.53;827.8;11.60;75558;2835.738;-1759.248;1;315;-150;-153.2;44.4;44.8;7;7.2;25.4;0.0;
01/03/2025 23:18:55;100;0;303.36;-4;-20.35;-7.57;830.5;11.60;75550;2835.740;-1759.252;1;315;-150;-153.2;44.4;44.8;7;7.7;25.4;0.0;
01/03/2025 23:19:15;100;0;305.19;-4;-20.31;-7.65;833.1;11.60;75543;2835.742;-1759.255;1;315;-150;-153.2;44.4;44.8;10;9.9;25.4;0.0;
01/03/2025 23:19:35;100;0;304.06;-4;-19.94;-6.02;835.6;11.50;75546;2835.744;-1759.259;1;315;-150;-153.2;44.4;44.9;7;6.8;25.4;0.0;
01/03/2025 23:19:55;100;0;301.51;-4;-21.81;-7.91;838.3;11.50;75533;2835.746;-1759.262;1;315;-150;-153.2;44.4;44.8;3;3.2;25.4;0.0;
01/03/2025 23:20:15;100;0;306.56;-4;-20.15;-10.06;841.1;11.50;75519;2835.748;-1759.266;1;315;-150;-153.2;44.4;44.8;11;10.8;25.4;0.0;
01/03/2025 23:20:35;100;0;310.85;-4;-20.04;-5.69;843.8;11.50;75508;2835.751;-1759.270;1;315;-150;-153.2;44.4;44.8;14;14.0;25.4;0.0;
01/03/2025 23:20:55;100;0;311.90;-4;-20.56;-4.24;846.5;11.50;75509;2835.753;-1759.273;1;315;-150;-153.2;44.4;44.9;14;14.0;25.4;0.0;
01/03/2025 23:21:15;100;0;313.12;-4;-20.70;-4.27;848.9;11.40;75504;2835.755;-1759.276;1;315;-150;-153.2;44.4;44.8;14;14.4;25.4;0.0;
01/03/2025 23:21:35;100;0;315.24;-4;-20.59;-4.15;851.9;11.40;75501;2835.758;-1759.279;1;315;-150;-153.2;44.4;44.9;14;14.4;25.4;0.0;
01/03/2025 23:21:55;100;0;315.49;-4;-20.76;-4.20;854.7;11.40;75492;2835.761;-1759.282;1;315;-150;-153.2;44.4;44.8;14;14.4;25.4;0.0;
01/03/2025 23:22:15;100;0;315.97;-4;-20.37;-4.27;857.5;11.40;75489;2835.763;-1759.285;1;315;-150;-153.2;44.4;44.8;14;14.4;25.4;0.0;
01/03/2025 23:22:35;100;0;316.52;-4;-20.55;-4.24;860.3;11.30;75488;2835.766;-1759.289;1;315;-150;-153.2;44.4;44.8;14;14.4;25.4;0.0;
01/03/2025 23:22:55;100;0;317.42;-4;-20.50;-4.26;863.3;11.30;75475;2835.769;-1759.292;1;315;-150;-156.5;44.4;44.9;14;14.0;25.4;0.0;
01/03/2025 23:23:15;100;0;317.63;-4;-20.55;-4.21;866.2;11.30;75482;2835.772;-1759.295;1;315;-150;-153.2;44.4;44.8;14;14.4;25.4;0.0;
01/03/2025 23:23:35;100;0;317.45;-4;-20.78;-4.22;869.3;11.30;75488;2835.775;-1759.299;1;315;-150;-153.2;44.4;44.8;14;14.4;25.4;0.0;
01/03/2025 23:23:55;100;0;317.39;-4;-20.41;-4.20;872.3;11.30;75481;2835.778;-1759.302;1;315;-150;-153.2;44.4;44.8;14;14.4;25.4;0.0;
01/03/2025 23:24:15;100;0;313.96;-4;-20.66;-4.29;875.3;11.20;75469;2835.781;-1759.305;1;315;-150;-153.2;44.4;44.8;14;14.4;25.4;0.0;
01/03/2025 23:24:35;100;0;312.39;-4;-20.53;-4.27;878.5;11.20;75468;2835.783;-1759.309;1;315;-150;-153.2;44.4;44.8;14;14.0;25.4;0.0;
01/03/2025 23:24:55;100;0;313.13;-4;-20.42;-4.26;881.4;11.20;75463;2835.786;-1759.313;1;315;-150;-153.2;44.4;44.9;14;14.4;25.4;0.0;
01/03/2025 23:25:15;100;0;314.82;-4;-20.26;-4.30;884.6;11.20;75456;2835.789;-1759.316;1;315;-150;-153.2;44.4;44.8;14;14.4;25.4;0.0;
01/03/2025 23:25:35;100;0;316.19;-4;-20.09;-4.30;887.6;11.10;75439;2835.792;-1759.320;1;315;-150;-153.2;44.4;44.8;14;14.4;25.4;0.0;
01/03/2025 23:25:55;100;0;318.01;-4;-20.58;-4.19;890.7;11.10;75437;2835.795;-1759.323;1;315;-150;-151.6;44.4;44.9;14;14.4;25.4;0.0;
01/03/2025 23:26:15;100;0;318.42;-4;-20.27;-4.19;893.8;11.10;75437;2835.798;-1759.326;1;315;-150;-153.2;44.4;44.9;14;14.4;25.4;0.0;
01/03/2025 23:26:35;100;0;319.79;-4;-20.17;-4.21;896.9;11.10;75436;2835.801;-1759.330;1;315;-150;-151.6;44.4;44.8;14;14.4;25.4;0.0;
01/03/2025 23:26:55;100;0;320.09;-4;-20.11;-4.25;899.9;11.00;75424;2835.805;-1759.333;1;315;-150;-153.2;44.4;44.9;14;14.4;25.4;0.0;
01/03/2025 23:27:15;100;0;321.32;-4;-20.22;-4.19;902.8;11.00;75418;2835.808;-1759.336;1;315;-150;-153.2;44.4;44.8;14;14.4;25.4;0.0;
01/03/2025 23:27:35;100;0;321.62;-4;-20.60;-4.27;905.9;11.00;75419;2835.811;-1759.339;1;315;-150;-153.2;44.4;44.9;14;14.4;25.4;0.0;
01/03/2025 23:27:55;100;0;320.50;-4;-19.71;-4.39;908.9;11.00;75404;2835.814;-1759.342;1;315;-150;-153.2;44.4;44.8;14;14.4;25.4;0.0;
01/03/2025 23:28:15;100;0;320.44;-4;-19.99;-4.27;912.0;11.00;75415;2835.817;-1759.346;1;315;-150;-153.2;44.4;44.8;14;14.4;25.4;0.0;
01/03/2025 23:28:35;100;0;320.59;-4;-20.72;-4.28;914.9;10.90;75406;2835.820;-1759.349;1;315;-150;-153.2;44.4;44.8;14;14.4;25.4;0.0;
01/03/2025 23:28:55;100;0;319.65;-4;-20.47;-4.24;918.1;10.90;75404;2835.823;-1759.352;1;315;-150;-153.2;44.4;44.8;14;14.4;25.4;0.0;
01/03/2025 23:29:15;100;0;317.26;-4;-20.61;-4.19;921.2;10.90;75393;2835.826;-1759.356;1;315;-150;-151.6;44.4;44.8;14;14.4;25.4;0.0;
01/03/2025 23:29:35;100;0;315.11;-4;-21.14;-4.20;924.5;10.90;75401;2835.829;-1759.359;1;315;-150;-153.2;44.4;44.8;14;14.4;25.4;0.0;
01/03/2025 23:29:55;100;0;315.29;-4;-19.88;-4.24;927.8;10.90;75397;2835.832;-1759.363;1;315;-150;-151.6;44.4;44.8;14;14.4;25.4;0.0;
01/03/2025 23:30:15;100;0;315.15;-4;-19.76;-4.16;930.9;10.80;75393;2835.835;-1759.367;1;315;-150;-153.2;44.4;44.8;14;14.4;25.4;0.0;
01/03/2025 23:30:35;100;0;315.21;-4;-19.00;-4.27;933.6;10.80;75391;2835.838;-1759.370;1;315;-150;-153.2;44.7;44.8;14;14.4;25.4;0.0;
01/03/2025 23:30:55;100;0;315.32;-4;-19.69;-4.29;936.2;10.80;75382;2835.841;-1759.373;1;315;-150;-153.2;44.7;44.9;14;14.4;25.4;0.0;
01/03/2025 23:31:15;100;0;315.50;-4;-20.14;-4.27;938.7;10.80;75379;2835.843;-1759.376;1;315;-150;-153.2;44.7;44.9;14;14.4;25.4;0.0;
01/03/2025 23:31:35;100;0;315.22;-4;-20.28;-4.26;941.3;10.80;75382;2835.846;-1759.379;1;315;-150;-154.8;44.7;44.8;14;14.4;25.4;0.0;
01/03/2025 23:31:55;100;0;315.00;-4;-20.39;-4.30;943.9;10.70;75376;2835.848;-1759.382;1;315;-150;-153.2;44.7;44.8;14;14.4;25.4;0.0;
01/03/2025 23:32:15;100;0;314.51;-4;-20.49;-4.59;946.7;10.70;75376;2835.851;-1759.386;1;315;-150;-153.2;44.7;44.8;14;14.4;25.4;0.0;
01/03/2025 23:32:35;100;0;315.20;-4;-19.95;-4.17;949.4;10.70;75367;2835.853;-1759.389;1;315;-150;-153.2;44.7;44.8;14;14.4;25.4;0.0;
01/03/2025 23:32:55;100;0;316.69;-4;-20.21;-4.33;952.3;10.70;75370;2835.856;-1759.392;1;315;-150;-153.2;44.7;44.8;14;14.4;25.4;0.0;
01/03/2025 23:33:15;100;0;316.82;-4;-20.50;-4.27;955.0;10.70;75365;2835.859;-1759.395;1;315;-150;-153.2;44.7;44.8;14;14.4;25.4;0.0;
01/03/2025 23:33:35;100;0;316.46;-4;-20.03;-4.45;958.0;10.70;75369;2835.862;-1759.398;1;315;-150;-153.2;44.7;44.9;14;14.4;25.4;0.0;
01/03/2025 23:33:55;100;0;316.83;-4;-20.09;-4.19;960.8;10.60;75362;2835.865;-1759.402;1;315;-150;-153.2;44.7;44.9;14;14.4;25.4;0.0;
01/03/2025 23:34:15;100;0;317.12;-4;-20.35;-4.20;963.9;10.60;75352;2835.868;-1759.405;1;315;-150;-153.2;44.7;44.9;14;14.4;25.4;0.0;
01/03/2025 23:34:35;100;0;315.59;-4;-20.76;-4.33;966.8;10.60;75350;2835.870;-1759.408;1;315;-150;-151.6;44.7;44.9;14;14.4;25.4;0.0;
01/03/2025 23:34:55;100;0;313.21;-4;-20.34;-4.28;970.2;10.60;75353;2835.873;-1759.412;1;315;-150;-153.2;44.7;44.8;14;14.4;25.4;0.0;
01/03/2025 23:35:15;100;0;308.45;-4;-21.02;-4.00;973.6;10.60;75348;2835.876;-1759.417;1;315;-150;-153.2;44.7;44.8;12;11.7;25.4;0.0;
01/03/2025 23:35:35;100;0;304.67;-4;-20.56;-5.71;977.1;10.50;75342;2835.879;-1759.421;1;315;-150;-153.2;44.7;44.9;9;9.0;25.4;0.0;
01/03/2025 23:35:55;100;0;306.55;-4;-19.95;-7.02;980.4;10.50;75339;2835.882;-1759.425;1;315;-150;-153.2;44.7;44.8;11;10.8;25.4;0.0;
01/03/2025 23:36:15;100;0;305.32;-4;-19.93;-5.69;983.8;10.50;75324;2835.884;-1759.430;1;315;-150;-153.2;44.7;44.8;9;9.0;25.4;0.0;
01/03/2025 23:36:35;100;0;302.60;-4;-19.57;-7.17;987.2;10.50;75330;2835.887;-1759.434;1;315;-150;-153.2;44.7;44.9;6;5.9;25.4;0.0;
01/03/2025 23:36:55;100;0;303.16;-4;-19.94;-8.59;990.4;10.50;75334;2835.889;-1759.439;1;315;-150;-153.2;44.7;44.9;6;5.9;25.4;0.0;
01/03/2025 23:37:15;100;0;301.88;-4;-19.48;-8.46;993.9;10.40;75321;2835.892;-1759.444;1;315;-150;-153.2;44.7;44.9;6;5.9;25.4;0.0;
01/03/2025 23:37:35;100;0;305.24;-4;-19.29;-8.62;997.4;10.40;75317;2835.895;-1759.448;1;315;-150;-153.2;44.7;44.8;9;9.0;25.4;0.0;
01/03/2025 23:37:44;118;0;306.80;-4;-19.09;-6.87;999.0;10.40;75322;2835.896;-1759.450;1;315;450;-148.4;21.9;21.9;9;9.5;25.4;0.0;
01/03/2025 23:37:54;118;0;55.87;-4;-5.54;-7.59;1000.1;10.40;75305;2835.897;-1759.449;1;315;450;-24.2;21.9;21.6;9;9.5;23.9;-1.0;
01/03/2025 23:38:04;118;0;42.69;-4;21.51;-7.49;1000.4;10.40;75028;2835.897;-1759.449;1;315;450;101.6;21.9;21.9;9;9.0;23.8;-1.0;
01/03/2025 23:38:14;118;0;35.30;-4;30.01;-7.88;1000.0;10.40;74775;2835.898;-1759.449;1;315;450;224.2;21.9;22.1;9;9.5;23.9;-1.0;
01/03/2025 23:38:24;118;0;36.66;-4;28.87;-7.62;999.1;10.40;74529;2835.898;-1759.448;1;315;450;346.8;21.9;22.2;9;9.0;23.8;-1.0;
01/03/2025 23:38:34;118;0;40.28;-4;26.65;-6.99;997.9;10.40;74287;2835.899;-1759.448;1;315;450;450.0;21.9;22.1;9;9.5;23.8;-1.0;
01/03/2025 23:38:44;118;0;301.74;-4;23.89;-5.93;996.5;10.40;74063;2835.900;-1759.449;1;315;450;451.6;21.9;21.9;9;9.5;25.3;-1.0;
01/03/2025 23:38:54;118;0;297.63;-4;21.97;-6.44;995.0;10.40;74060;2835.901;-1759.451;1;315;450;451.6;21.9;22.1;9;9.5;25.3;-1.0;
01/03/2025 23:39:14;117;0;291.20;-4;20.01;-6.56;992.3;10.50;74065;2835.903;-1759.455;1;315;450;450.0;21.9;22.1;9;9.0;25.4;-1.0;
01/03/2025 23:39:34;117;0;283.44;-4;19.20;-6.47;989.6;10.50;74060;2835.904;-1759.460;1;315;450;453.2;21.9;22.1;70;69.9;25.4;-1.0;
01/03/2025 23:39:54;117;0;295.43;-4;20.07;25.25;986.8;10.60;74072;2835.905;-1759.464;1;315;450;450.0;21.9;21.9;49;48.7;25.3;-1.0;
01/03/2025 23:40:14;117;0;304.64;-4;22.37;13.91;983.8;10.60;74074;2835.907;-1759.468;1;315;450;451.6;22.6;22.8;35;35.2;25.4;-1.0;
01/03/2025 23:40:34;117;0;307.67;-4;21.62;6.77;980.8;10.60;74068;2835.910;-1759.472;1;315;450;451.6;22.6;22.8;32;32.0;25.4;-1.0;
01/03/2025 23:40:54;117;0;308.79;-4;20.96;5.21;977.7;10.60;74058;2835.912;-1759.475;1;315;450;451.6;22.6;23.0;32;32.0;25.4;-1.0;
01/03/2025 23:41:14;117;0;312.56;-4;19.70;4.86;974.6;10.60;74063;2835.915;-1759.479;1;315;450;451.6;22.6;22.8;30;29.8;25.4;-1.0;
01/03/2025 23:41:34;117;0;313.41;-4;20.22;3.47;971.7;10.60;74055;2835.918;-1759.483;1;315;450;451.6;22.6;22.8;30;29.3;25.4;-1.0;
01/03/2025 23:41:54;117;0;311.93;-4;19.99;3.71;968.6;10.60;74059;2835.921;-1759.486;1;315;450;451.6;22.6;22.8;30;29.3;25.4;-1.0;
01/03/2025 23:42:14;117;0;315.35;-4;19.63;3.85;966.0;10.60;74065;2835.923;-1759.489;1;315;450;451.6;22.6;22.8;30;29.3;25.4;-1.0;
01/03/2025 23:42:34;117;0;317.90;-4;20.72;4.34;963.2;10.50;74041;2835.926;-1759.492;1;315;450;451.6;22.6;22.8;30;29.3;25.4;-1.0;
01/03/2025 23:42:54;117;0;319.13;-4;19.48;3.42;960.2;10.50;74044;2835.929;-1759.496;1;315;450;450.0;22.6;22.8;30;29.3;25.4;-1.0;
01/03/2025 23:43:14;117;0;319.96;-4;19.64;3.80;957.4;10.50;74046;2835.932;-1759.499;1;315;450;451.6;22.6;23.0;30;29.3;25.4;-1.0;
01/03/2025 23:43:34;117;0;319.71;-4;19.68;3.80;954.6;10.50;74034;2835.935;-1759.502;1;315;450;451.6;22.6;22.8;30;29.3;25.4;-1.0;
01/03/2025 23:43:54;117;0;320.42;-4;19.82;3.96;951.9;10.40;74038;2835.938;-1759.505;1;315;450;451.6;22.6;22.8;30;29.3;25.4;-1.0;
01/03/2025 23:44:14;117;0;322.47;-4;19.41;3.78;949.3;10.40;74036;2835.941;-1759.508;1;315;450;451.6;22.6;23.0;30;29.3;25.4;-1.0;
01/03/2025 23:44:34;117;0;323.44;-4;19.56;3.82;946.6;10.40;74037;2835.944;-1759.510;1;315;450;451.6;22.6;22.8;30;29.3;25.4;-1.0;
01/03/2025 23:44:54;117;0;323.44;-4;19.79;3.66;943.9;10.40;74025;2835.946;-1759.513;1;315;450;451.6;22.6;22.8;30;29.3;25.4;-1.0;
01/03/2025 23:45:14;117;0;324.16;-4;19.61;3.74;941.1;10.40;74030;2835.949;-1759.516;1;315;450;451.6;22.6;22.8;28;28.0;25.4;-1.0;
01/03/2025 23:45:34;117;0;324.53;-4;19.42;2.74;938.5;10.40;74023;2835.952;-1759.519;1;315;450;453.2;22.6;22.8;28;27.5;25.4;-1.0;
01/03/2025 23:45:54;117;0;325.50;-4;19.63;2.67;935.9;10.40;74029;2835.955;-1759.521;1;315;450;451.6;22.6;22.8;28;27.5;25.4;-1.0;
01/03/2025 23:46:14;117;0;325.29;-4;19.80;2.82;933.3;10.30;74027;2835.958;-1759.524;1;315;450;450.0;22.6;22.8;28;27.5;25.4;-1.0;
01/03/2025 23:46:34;117;0;323.51;-4;19.39;2.80;930.6;10.30;74025;2835.961;-1759.527;1;315;450;451.6;22.6;22.8;28;27.5;25.4;-1.0;
01/03/2025 23:46:55;117;0;323.22;-4;19.43;2.82;927.9;10.30;74039;2835.964;-1759.530;1;315;450;451.6;22.6;22.8;28;27.5;25.4;-1.0;
01/03/2025 23:47:15;117;0;323.50;-4;19.59;3.05;925.2;10.30;74021;2835.967;-1759.532;1;315;450;451.6;22.6;22.8;28;27.5;25.4;-1.0;
01/03/2025 23:47:35;117;0;323.59;-4;19.83;3.13;922.2;10.30;74027;2835.971;-1759.535;1;315;450;451.6;22.6;23.0;28;27.5;25.4;-1.0;
01/03/2025 23:47:55;117;0;322.46;-4;20.11;2.84;919.3;10.30;74025;2835.974;-1759.538;1;315;450;451.6;22.6;23.0;28;27.5;25.4;-1.0;
01/03/2025 23:48:15;117;0;324.36;-4;19.84;2.71;916.2;10.30;74026;2835.977;-1759.541;1;315;450;451.6;22.6;22.8;28;27.5;25.4;-1.0;
01/03/2025 23:48:35;117;0;324.64;-4;19.56;2.80;913.0;10.30;74024;2835.980;-1759.544;1;315;450;451.6;22.6;23.0;28;27.5;25.4;-1.0;
01/03/2025 23:48:55;117;0;323.91;-4;19.10;2.77;909.8;10.30;74031;2835.984;-1759.548;1;315;450;450.0;22.6;22.8;28;27.5;25.4;-1.0;
01/03/2025 23:49:15;117;0;323.60;-4;19.04;2.92;906.9;10.30;74021;2835.987;-1759.551;1;315;450;451.6;22.6;23.0;28;27.5;25.4;-1.0;
01/03/2025 23:49:35;117;0;325.88;-4;19.03;2.61;904.1;10.20;74019;2835.991;-1759.554;1;315;450;451.6;22.6;22.8;28;27.5;25.4;-1.0;
01/03/2025 23:49:55;117;0;325.56;-4;19.29;2.71;901.3;10.20;74017;2835.994;-1759.556;1;315;450;453.2;22.6;22.8;28;27.5;25.4;-1.0;
01/03/2025 23:50:15;117;0;324.45;-4;19.42;2.65;898.6;10.20;74025;2835.997;-1759.559;1;315;450;453.2;22.6;22.8;28;27.5;25.4;-1.0;
01/03/2025 23:50:35;117;0;324.09;-4;19.43;2.65;895.7;10.20;74028;2836.000;-1759.562;1;315;450;450.0;22.6;22.8;28;27.5;25.4;-1.0;
01/03/2025 23:50:55;117;0;323.81;-4;19.53;2.80;892.8;10.20;74017;2836.003;-1759.565;1;315;450;453.2;22.6;22.8;28;27.5;25.4;-1.0;
01/03/2025 23:51:15;117;0;323.78;-4;19.54;2.82;889.8;10.20;74022;2836.007;-1759.568;1;315;450;451.6;22.6;22.8;28;27.5;25.4;-1.0;
01/03/2025 23:51:35;117;0;323.25;-4;19.47;2.78;886.5;10.20;74019;2836.010;-1759.571;1;315;450;451.6;22.6;23.0;28;27.5;25.4;-1.0;
01/03/2025 23:51:55;117;0;322.65;-4;19.47;2.70;883.6;10.20;74013;2836.013;-1759.574;1;315;450;451.6;22.6;22.8;28;27.5;25.4;-1.0;
01/03/2025 23:52:15;117;0;321.73;-4;19.86;2.70;880.4;10.20;74025;2836.017;-1759.578;1;315;450;451.6;22.6;22.8;28;27.5;25.4;-1.0;
01/03/2025 23:52:35;117;0;320.94;-4;19.75;2.51;877.0;10.20;74011;2836.020;-1759.581;1;315;450;454.8;22.6;22.8;28;27.5;25.4;-1.0;
01/03/2025 23:52:55;117;0;319.31;-4;19.10;2.58;873.6;10.20;74011;2836.024;-1759.585;1;315;450;451.6;22.6;23.0;28;27.5;25.4;-1.0;
01/03/2025 23:53:15;117;0;319.06;-4;19.47;2.61;870.2;10.20;74007;2836.027;-1759.589;1;315;450;451.6;22.6;22.8;28;27.5;25.4;-1.0;
01/03/2025 23:53:35;117;0;318.90;-4;19.64;3.04;866.9;10.20;74006;2836.031;-1759.592;1;315;450;451.6;22.6;22.8;28;27.5;25.4;-1.0;
01/03/2025 23:53:55;117;0;319.01;-4;19.44;2.77;863.4;10.20;74012;2836.034;-1759.596;1;315;450;453.2;22.6;23.0;28;27.5;25.4;-1.0;
01/03/2025 23:54:15;117;0;318.89;-4;19.36;2.64;860.0;10.10;74003;2836.038;-1759.600;1;315;450;453.2;22.6;23.0;28;27.5;25.4;-1.0;
01/03/2025 23:54:35;117;0;317.89;-4;19.06;2.80;856.4;10.10;73997;2836.042;-1759.604;1;315;450;453.2;22.6;23.0;28;27.5;25.3;-1.0;
01/03/2025 23:54:55;117;0;318.56;-4;19.02;2.90;853.0;10.10;73996;2836.045;-1759.608;1;315;450;451.6;22.6;22.8;28;27.5;25.4;-1.0;
01/03/2025 23:55:15;117;0;318.71;-4;19.03;2.79;849.7;10.10;73992;2836.049;-1759.612;1;315;450;451.6;22.6;22.8;28;27.5;25.4;-1.0;
01/03/2025 23:55:35;117;0;319.46;-4;19.32;2.72;846.3;10.10;73996;2836.052;-1759.615;1;315;450;453.2;22.6;22.8;28;27.5;25.4;-1.0;
01/03/2025 23:55:55;117;0;319.93;-4;19.22;2.75;843.0;10.10;73988;2836.056;-1759.619;1;315;450;453.2;22.6;22.8;28;27.5;25.4;-1.0;
01/03/2025 23:56:15;117;0;320.51;-4;19.25;2.74;839.6;10.10;73997;2836.059;-1759.623;1;315;450;453.2;22.6;22.8;28;27.5;25.4;-1.0;
01/03/2025 23:56:35;117;0;320.17;-4;19.00;2.71;836.6;10.10;73981;2836.063;-1759.626;1;315;450;453.2;22.3;22.4;28;27.5;25.4;-1.0;
01/03/2025 23:56:55;117;0;320.69;-4;19.12;2.54;833.4;10.10;73986;2836.066;-1759.630;1;315;450;453.2;22.3;22.4;28;27.5;25.4;-1.0;
01/03/2025 23:57:15;117;0;319.63;-4;19.99;2.65;830.2;10.10;73980;2836.069;-1759.633;1;315;450;453.2;22.3;22.5;28;27.5;25.4;-1.0;
01/03/2025 23:57:35;117;0;322.86;-4;19.19;2.97;826.9;10.10;73978;2836.073;-1759.637;1;315;450;453.2;22.3;22.4;28;27.5;25.4;-1.0;
01/03/2025 23:57:55;117;0;323.89;-4;20.10;2.52;824.0;10.10;73995;2836.076;-1759.639;1;315;450;453.2;22.3;22.4;28;27.5;25.4;-1.0;
01/03/2025 23:58:15;117;0;320.25;-4;21.46;3.44;820.7;10.10;73990;2836.080;-1759.643;1;315;450;453.2;22.3;22.4;28;27.5;25.4;-1.0;
01/03/2025 23:58:35;117;0;322.84;-4;18.73;2.30;817.4;10.10;73995;2836.083;-1759.646;1;315;450;453.2;22.0;21.9;28;27.5;25.4;-1.0;
01/03/2025 23:58:55;117;0;323.40;-4;20.81;2.80;814.4;10.10;73998;2836.086;-1759.649;1;315;450;453.2;22.0;21.9;28;27.5;25.4;-1.0;
01/03/2025 23:59:15;117;0;323.19;-4;20.69;2.59;811.1;10.10;73995;2836.090;-1759.652;1;315;450;451.6;22.0;21.9;28;27.5;25.4;-1.0;
01/03/2025 23:59:35;117;0;323.11;-4;20.53;2.56;807.8;10.10;74001;2836.093;-1759.656;1;315;450;453.2;22.0;21.9;28;27.5;25.4;-1.0;
01/03/2025 23:59:55;117;0;326.02;-4;21.04;2.99;804.4;10.10;74006;2836.097;-1759.659;1;315;450;453.2;22.0;21.8;26;25.7;25.4;-1.0;
02/03/2025 00:00:15;117;0;324.79;-4;21.62;2.21;801.0;10.10;74012;2836.100;-1759.662;1;315;450;453.2;22.0;21.8;26;25.7;25.4;-1.0;
