Timestamp;NavState;SecurityLevel;Heading;Declination;Pitch;Roll;Depth;Temperature;Pa;Lat;Lon;DeadReckoning;DesiredH;BallastCmd;BallastPos;LinCmd;LinPos;AngCmd;AngPos;Voltage;Altitude;
19/02/2025 08:44:29;119;0;267.08;-4;-52.38;-21.44;-0.1;17.80;75898;2837.204;-1800.408;0;293;500;504.8;100.0;100.7;0;-0.5;27.7;-1.0;
19/02/2025 08:44:39;116;0;292.83;-4;-52.09;-9.42;0.1;17.90;75896;2837.206;-1800.423;0;293;500;504.8;100.0;100.7;0;-0.5;27.7;-1.0;
19/02/2025 08:45:04;116;0;317.43;-4;-55.26;-23.04;-0.2;17.90;75904;2837.209;-1800.424;0;293;500;504.8;100.0;100.7;0;-0.5;27.7;-1.0;
19/02/2025 08:45:24;116;0;343.07;-4;-52.87;-13.34;0.0;18.00;75910;2837.207;-1800.423;0;-9999;500;504.8;100.0;100.7;0;-0.5;27.7;-1.0;
19/02/2025 08:45:44;116;0;17.18;-4;-60.60;-23.85;-0.3;18.00;75913;2837.208;-1800.424;0;293;500;504.8;100.0;100.7;0;-0.5;27.7;-1.0;
19/02/2025 08:46:04;116;0;16.12;-4;-48.44;-24.53;-0.4;18.00;75923;2837.209;-1800.424;0;293;500;504.8;100.0;100.7;0;-0.5;27.7;-1.0;
19/02/2025 08:46:24;116;0;12.31;-4;-50.01;-5.12;-0.3;18.10;75920;2837.210;-1800.424;0;293;500;504.8;100.0;100.7;0;-0.5;27.6;-1.0;
19/02/2025 08:46:45;116;0;56.99;-4;-50.98;-20.75;-0.3;18.10;75929;2837.212;-1800.425;0;293;500;503.2;100.0;100.7;0;-0.5;27.7;-1.0;
19/02/2025 08:47:05;116;0;47.42;-4;-58.35;5.47;-0.1;18.20;75941;2837.213;-1800.424;0;292;500;504.8;100.0;100.6;0;-0.5;27.7;-1.0;
19/02/2025 08:47:25;116;0;44.67;-4;-54.98;-9.11;-0.2;18.30;75945;2837.213;-1800.424;0;292;500;504.8;100.0;100.7;0;-0.5;27.7;-1.0;
19/02/2025 08:47:46;116;0;46.50;-4;-52.71;-9.42;-0.2;18.30;75945;2837.214;-1800.423;0;292;500;504.8;100.0;100.7;0;-0.5;27.7;-1.0;
19/02/2025 08:48:00;116;0;11.06;-4;-47.80;-3.46;-0.1;18.40;75958;2837.215;-1800.423;0;-9999;500;504.8;100.0;100.6;0;-0.5;27.7;-1.0;
19/02/2025 08:48:23;116;0;344.44;-4;-61.30;-11.84;-0.2;18.40;75957;2837.216;-1800.423;0;292;500;504.8;100.0;100.7;0;-0.5;27.7;-1.0;
19/02/2025 08:49:25;116;0;15.21;-4;-59.94;-14.27;-0.2;18.60;75977;2837.218;-1800.424;0;292;500;504.8;100.0;100.6;0;-0.5;27.7;-1.0;
19/02/2025 08:49:50;116;0;28.25;-4;-53.26;-14.32;-0.2;18.70;75975;2837.219;-1800.426;0;292;500;503.2;100.0;100.6;0;-0.5;27.6;-1.0;
19/02/2025 08:50:52;116;0;352.38;-4;-65.34;-13.92;-0.3;18.90;75997;2837.221;-1800.425;0;292;500;503.2;100.0;100.6;0;-0.5;27.7;-1.0;
19/02/2025 08:51:52;116;0;17.92;-4;-51.13;-5.50;-0.1;19.10;76014;2837.225;-1800.424;0;292;500;503.2;100.0;100.7;0;-0.9;27.7;-1.0;
19/02/2025 08:52:08;116;0;22.79;-4;-56.64;-21.87;-0.1;19.20;76020;2837.226;-1800.425;0;292;500;504.8;100.0;100.7;0;-0.5;27.7;-1.0;
19/02/2025 08:52:28;110;0;351.90;-4;-50.82;-14.98;-0.2;19.20;76024;2837.226;-1800.425;0;292;-50;393.5;100.0;99.7;-8;-8.1;27.7;-1.0;
19/02/2025 08:52:38;110;0;352.99;-4;-62.87;-7.68;0.0;19.30;76361;2837.226;-1800.425;1;292;-50;245.2;100.0;99.7;-8;-8.6;27.7;-1.0;
19/02/2025 08:52:48;110;0;341.31;-4;-56.93;-20.83;0.5;19.30;76608;2837.226;-1800.425;1;292;-50;82.3;100.0;99.7;-8;-8.6;27.7;-1.0;
19/02/2025 08:52:58;110;0;5.32;-4;-74.27;-24.63;0.8;19.40;76949;2837.226;-1800.425;1;292;-50;-51.6;100.0;99.7;-8;-8.6;27.7;-1.0;
19/02/2025 08:53:08;110;0;8.32;-4;-65.98;-6.41;1.2;19.40;77225;2837.226;-1800.425;1;292;-50;-51.6;42.0;42.0;-8;-8.6;27.7;-1.0;
19/02/2025 08:53:28;100;0;27.10;-4;-29.74;-16.05;4.9;19.50;77185;2837.229;-1800.423;1;291;-50;-48.4;42.0;41.7;-8;-8.6;27.7;-1.0;
19/02/2025 08:53:48;100;0;37.94;-4;-17.90;-15.78;8.1;19.50;77189;2837.232;-1800.419;1;291;-50;-45.2;42.6;42.9;70;69.9;27.8;-1.0;
19/02/2025 08:54:08;100;0;31.37;-4;-23.22;23.34;10.8;19.50;77208;2837.234;-1800.417;1;291;-50;-43.5;41.6;41.5;70;69.9;27.7;-1.0;
19/02/2025 08:54:28;100;0;21.36;-4;-20.31;23.38;13.8;19.50;77208;2837.238;-1800.416;1;291;-50;-45.2;41.6;41.4;70;69.9;27.7;0.0;
19/02/2025 08:54:48;100;0;10.54;-4;-20.23;23.28;16.6;19.50;77208;2837.241;-1800.415;1;291;-50;-45.2;41.6;41.4;70;69.9;27.7;0.0;
19/02/2025 08:55:08;100;0;358.77;-4;-21.05;23.49;19.7;19.50;77214;2837.244;-1800.415;1;290;-50;-45.2;41.6;41.4;70;69.9;27.7;0.0;
19/02/2025 08:55:28;100;0;342.78;-4;-19.55;23.60;22.4;19.50;77222;2837.248;-1800.416;1;290;-50;-43.5;41.6;41.4;70;69.9;27.7;0.0;
19/02/2025 08:55:48;100;0;331.28;-4;-16.50;23.52;25.1;19.50;77219;2837.251;-1800.417;1;290;-50;-45.2;42.7;43.2;60;60.0;27.8;0.0;
19/02/2025 08:56:08;100;0;319.60;-4;-21.76;17.71;27.3;19.50;77235;2837.252;-1800.419;1;290;-50;-45.2;42.7;43.2;42;41.5;27.7;0.0;
19/02/2025 08:56:28;100;0;309.71;-4;-21.76;8.91;30.0;19.50;77227;2837.254;-1800.422;1;290;-50;-43.5;42.7;43.2;25;24.8;27.7;0.0;
19/02/2025 08:56:48;100;0;298.64;-4;-20.25;0.34;32.7;19.50;77232;2837.256;-1800.425;1;290;-50;-45.2;42.7;43.2;14;14.0;27.7;0.0;
19/02/2025 08:57:08;100;0;297.81;-4;-19.61;-4.37;35.2;19.60;77233;2837.257;-1800.428;1;290;-50;-45.2;42.7;43.2;14;13.5;27.7;0.0;
19/02/2025 08:57:28;100;0;294.45;-4;-19.23;-5.20;37.8;19.60;77225;2837.258;-1800.432;1;290;-50;-46.8;42.7;43.2;14;13.5;27.7;0.0;
19/02/2025 08:57:48;100;0;292.18;-4;-19.21;-4.95;40.3;19.60;77236;2837.259;-1800.435;1;290;-50;-43.5;42.7;43.2;14;13.5;27.7;0.0;
19/02/2025 08:58:08;100;0;290.21;-4;-20.20;-5.11;42.9;19.60;77246;2837.260;-1800.438;1;290;-50;-45.2;42.7;43.2;14;13.5;27.7;0.0;
19/02/2025 08:58:28;100;0;289.74;-4;-20.10;-4.89;45.5;19.60;77252;2837.261;-1800.442;1;290;-50;-45.2;42.7;43.2;14;13.5;27.7;0.0;
19/02/2025 08:58:48;100;0;286.77;-4;-19.83;-5.02;48.1;19.60;77251;2837.262;-1800.445;1;290;-50;-43.5;42.7;43.2;14;13.5;27.7;0.0;
19/02/2025 08:59:08;100;0;286.81;-4;-19.55;-5.05;50.5;19.60;77259;2837.262;-1800.448;1;290;-50;-45.2;42.7;43.2;14;13.5;27.7;0.0;
19/02/2025 08:59:28;100;0;286.05;-4;-20.35;-5.04;53.1;19.60;77256;2837.263;-1800.452;1;290;-50;-46.8;42.7;43.2;14;13.5;27.7;0.0;
19/02/2025 08:59:48;100;0;286.46;-4;-19.91;-4.95;55.8;19.60;77248;2837.264;-1800.455;1;290;-50;-45.2;42.7;43.2;14;13.5;27.7;0.0;
19/02/2025 09:00:08;100;0;287.48;-4;-18.78;-4.93;58.4;19.60;77253;2837.265;-1800.459;1;290;-50;-45.2;43.0;43.0;14;13.5;27.7;0.0;
19/02/2025 09:00:29;100;0;287.01;-4;-20.40;-5.08;60.9;19.60;77261;2837.265;-1800.462;1;290;-50;-45.2;43.0;43.0;14;13.5;27.7;0.0;
19/02/2025 09:00:49;100;0;286.89;-4;-20.18;-5.10;63.4;19.60;77254;2837.266;-1800.465;1;290;-50;-43.5;43.0;43.0;14;13.5;27.7;0.0;
19/02/2025 09:01:09;100;0;287.10;-4;-19.47;-5.05;66.0;19.60;77261;2837.267;-1800.469;1;290;-50;-45.2;43.0;43.0;14;13.5;27.7;0.0;
19/02/2025 09:01:29;100;0;286.40;-4;-19.72;-5.08;68.6;19.60;77256;2837.267;-1800.472;1;290;-50;-43.5;43.0;42.9;14;13.5;27.7;0.0;
19/02/2025 09:01:49;100;0;285.68;-4;-19.57;-5.03;71.2;19.60;77261;2837.268;-1800.476;1;290;-50;-45.2;43.0;43.0;12;12.2;27.7;0.0;
19/02/2025 09:02:09;100;0;285.24;-4;-19.73;-5.90;73.7;19.60;77261;2837.269;-1800.479;1;290;-50;-45.2;43.0;43.0;12;11.7;27.7;0.0;
19/02/2025 09:02:29;100;0;286.24;-4;-19.80;-5.89;76.4;19.60;77261;2837.269;-1800.483;1;290;-50;-43.5;43.0;42.9;12;11.7;27.7;0.0;
19/02/2025 09:02:49;100;0;287.40;-4;-19.39;-5.89;79.0;19.60;77271;2837.270;-1800.486;1;290;-50;-45.2;43.0;43.0;12;11.7;27.8;0.0;
19/02/2025 09:03:09;100;0;288.00;-4;-19.40;-5.87;81.5;19.60;77272;2837.271;-1800.490;1;290;-50;-45.2;43.0;43.0;12;11.7;27.7;0.0;
19/02/2025 09:03:29;100;0;289.39;-4;-19.42;-5.90;84.1;19.60;77283;2837.272;-1800.493;1;290;-50;-45.2;43.0;43.0;12;11.7;27.7;0.0;
19/02/2025 09:03:49;100;0;290.98;-4;-19.71;-5.85;86.8;19.60;77283;2837.273;-1800.497;1;290;-50;-45.2;43.0;42.9;12;11.7;27.7;0.0;
19/02/2025 09:04:09;100;0;291.43;-4;-19.34;-5.84;89.3;19.60;77283;2837.274;-1800.500;1;290;-50;-45.2;43.0;42.9;12;12.2;27.8;0.0;
19/02/2025 09:04:29;100;0;291.31;-4;-19.69;-5.87;91.8;19.60;77286;2837.275;-1800.503;1;290;-50;-45.2;43.0;42.9;12;11.7;27.7;0.0;
19/02/2025 09:04:49;100;0;292.34;-4;-19.93;-5.93;94.4;19.60;77292;2837.276;-1800.507;1;290;-50;-45.2;43.0;43.0;12;11.7;27.8;0.0;
19/02/2025 09:05:09;100;0;292.54;-4;-19.35;-5.84;97.0;19.60;77295;2837.277;-1800.510;1;290;-50;-45.2;43.0;42.9;12;11.7;27.7;0.0;
19/02/2025 09:05:29;100;0;294.49;-4;-19.10;-5.93;99.5;19.60;77281;2837.278;-1800.513;1;290;-50;-45.2;43.0;42.9;12;11.7;27.7;0.0;
19/02/2025 09:05:49;100;0;297.45;-4;-19.15;-5.95;102.0;19.60;77301;2837.279;-1800.517;1;290;-50;-45.2;43.0;42.9;14;14.0;27.7;0.0;
19/02/2025 09:06:09;100;0;296.67;-4;-19.44;-4.45;104.4;19.60;77281;2837.281;-1800.520;1;290;-50;-45.2;43.0;42.9;14;14.4;27.7;0.0;
19/02/2025 09:06:29;100;0;296.62;-4;-19.39;-4.47;106.9;19.60;77285;2837.282;-1800.523;1;290;-50;-45.2;43.0;42.9;14;14.4;27.7;0.0;
19/02/2025 09:06:49;100;0;293.85;-4;-19.25;-4.50;109.3;19.60;77282;2837.283;-1800.526;1;290;-50;-45.2;43.0;42.9;14;14.4;27.8;0.0;
19/02/2025 09:07:09;100;0;291.63;-4;-19.57;-4.46;111.7;19.60;77288;2837.284;-1800.529;1;290;-50;-45.2;43.0;42.9;14;14.9;27.7;0.0;
19/02/2025 09:07:29;100;0;290.58;-4;-19.49;-4.46;114.2;19.60;77282;2837.285;-1800.532;1;290;-50;-45.2;43.0;43.0;14;14.4;27.7;0.0;
19/02/2025 09:07:49;100;0;287.99;-4;-19.57;-4.44;116.7;19.60;77267;2837.286;-1800.536;1;290;-50;-45.2;43.0;42.9;14;14.4;27.7;0.0;
19/02/2025 09:08:09;100;0;286.90;-4;-19.37;-4.44;119.1;19.60;77292;2837.286;-1800.539;1;290;-50;-45.2;43.0;43.0;14;14.4;27.7;0.0;
19/02/2025 09:08:29;100;0;289.31;-4;-19.06;-4.48;121.5;19.60;77287;2837.287;-1800.542;1;290;-50;-46.8;43.0;42.9;14;14.9;27.7;0.0;
19/02/2025 09:08:49;100;0;293.87;-4;-19.00;-4.49;123.8;19.50;77258;2837.288;-1800.545;1;290;-50;-43.5;43.3;43.3;14;14.4;27.7;0.0;
19/02/2025 09:09:09;100;0;300.78;-4;-19.84;-4.45;126.2;19.50;77238;2837.289;-1800.548;1;290;-50;-43.5;43.3;43.6;14;14.4;27.7;0.0;
19/02/2025 09:09:29;100;0;296.49;-4;-20.24;-4.41;128.5;19.50;77212;2837.291;-1800.551;1;290;-50;-45.2;43.3;43.6;14;14.4;27.8;0.0;
19/02/2025 09:09:49;100;0;287.32;-4;-20.22;-4.44;130.7;19.50;77174;2837.291;-1800.554;1;290;-50;-45.2;43.3;43.6;14;14.4;27.7;0.0;
19/02/2025 09:10:09;100;0;283.52;-4;-20.30;-4.50;133.1;19.50;77150;2837.292;-1800.557;1;290;-50;-45.2;43.3;43.6;11;10.8;27.7;0.0;
19/02/2025 09:10:29;100;0;281.58;-4;-20.16;-6.50;135.3;19.40;77140;2837.292;-1800.560;1;290;-50;-45.2;43.3;43.7;9;9.0;27.7;0.0;
19/02/2025 09:10:49;100;0;281.36;-4;-20.08;-7.38;137.6;19.40;77129;2837.292;-1800.563;1;290;-50;-46.8;43.3;43.6;9;9.0;27.7;0.0;
19/02/2025 09:11:09;100;0;280.81;-4;-19.75;-7.30;140.0;19.40;77125;2837.293;-1800.566;1;290;-50;-45.2;43.3;43.6;9;9.0;27.7;0.0;
19/02/2025 09:11:29;100;0;279.66;-4;-20.08;-7.34;142.2;19.40;77118;2837.293;-1800.569;1;290;-50;-45.2;43.3;43.6;7;7.2;27.7;0.0;
19/02/2025 09:11:49;100;0;281.04;-4;-20.11;-8.48;144.6;19.30;77098;2837.293;-1800.572;1;290;-50;-43.5;43.3;43.6;7;6.8;27.7;0.0;
19/02/2025 09:12:09;100;0;283.55;-4;-19.95;-8.42;146.9;19.30;77088;2837.294;-1800.575;1;291;-50;-46.8;43.3;43.6;10;9.9;27.7;0.0;
19/02/2025 09:12:29;100;0;285.43;-4;-20.59;-6.50;149.3;19.30;77086;2837.294;-1800.579;1;291;-50;-45.2;43.3;43.6;10;10.4;27.7;0.0;
19/02/2025 09:12:49;100;0;287.46;-4;-20.17;-6.39;151.8;19.20;77079;2837.295;-1800.582;1;291;-50;-45.2;43.3;43.6;12;12.2;27.7;0.0;
19/02/2025 09:13:09;100;0;290.19;-4;-20.29;-5.35;154.3;19.20;77069;2837.296;-1800.585;1;291;-50;-46.8;43.3;43.7;12;12.6;27.7;0.0;
19/02/2025 09:13:29;100;0;290.08;-4;-20.35;-5.46;156.9;19.20;77053;2837.297;-1800.588;1;291;-50;-45.2;43.3;43.6;12;12.6;27.7;0.0;
19/02/2025 09:13:49;100;0;288.76;-4;-20.29;-5.40;159.4;19.10;77046;2837.298;-1800.592;1;291;-50;-45.2;43.3;43.6;12;12.6;27.7;0.0;
19/02/2025 09:14:09;100;0;287.20;-4;-20.29;-5.41;162.0;19.10;77036;2837.298;-1800.595;1;291;-50;-45.2;43.3;43.6;12;12.6;27.7;0.0;
19/02/2025 09:14:29;100;0;287.47;-4;-19.76;-5.42;164.5;19.10;77015;2837.299;-1800.598;1;291;-50;-45.2;43.3;43.6;12;12.6;27.8;0.0;
19/02/2025 09:14:49;100;0;289.72;-4;-19.88;-5.41;166.9;19.10;77021;2837.300;-1800.602;1;291;-50;-43.5;43.3;43.6;12;12.6;27.8;0.0;
19/02/2025 09:15:09;100;0;287.61;-4;-20.00;-5.49;169.5;19.00;77001;2837.301;-1800.605;1;291;-50;-45.2;43.3;43.6;12;12.6;27.8;0.0;
19/02/2025 09:15:29;100;0;285.83;-4;-20.11;-5.43;172.0;19.00;76990;2837.301;-1800.608;1;291;-50;-45.2;43.3;43.6;12;12.6;27.7;0.0;
19/02/2025 09:15:49;100;0;284.99;-4;-20.20;-5.42;174.7;19.00;76986;2837.302;-1800.612;1;291;-50;-43.5;43.3;43.6;12;12.6;27.7;0.0;
19/02/2025 09:16:09;100;0;283.14;-4;-20.22;-5.44;177.4;18.90;76974;2837.303;-1800.616;1;291;-50;-45.2;43.3;43.6;9;9.0;27.7;0.0;
19/02/2025 09:16:29;100;0;278.04;-4;-19.42;-7.54;180.1;18.90;76969;2837.303;-1800.619;1;291;-50;-43.5;43.3;43.6;4;4.1;27.7;0.0;
19/02/2025 09:16:49;100;0;278.12;-4;-19.60;-9.98;182.7;18.80;76949;2837.303;-1800.623;1;291;-50;-45.2;43.3;43.6;4;3.6;27.7;0.0;
19/02/2025 09:17:09;100;0;277.94;-4;-19.59;-9.93;185.4;18.80;76939;2837.303;-1800.627;1;291;-50;-45.2;43.3;43.6;2;1.8;27.7;0.0;
19/02/2025 09:17:29;100;0;281.15;-4;-18.98;-11.11;188.1;18.80;76930;2837.304;-1800.630;1;291;-50;-45.2;43.7;43.6;7;7.7;27.7;0.0;
19/02/2025 09:17:49;100;0;284.07;-4;-19.15;-7.81;190.6;18.70;76917;2837.304;-1800.634;1;291;-50;-43.5;43.7;43.6;10;9.9;27.7;0.0;
19/02/2025 09:18:09;100;0;287.07;-4;-19.61;-6.51;193.2;18.70;76907;2837.305;-1800.637;1;291;-50;-45.2;43.7;43.6;10;10.4;27.7;0.0;
19/02/2025 09:18:29;100;0;290.62;-4;-19.54;-6.47;195.8;18.70;76900;2837.306;-1800.641;1;291;-50;-45.2;43.7;43.6;12;12.2;27.7;0.0;
19/02/2025 09:18:49;100;0;292.25;-4;-19.67;-5.45;198.5;18.60;76896;2837.307;-1800.644;1;291;-50;-43.5;43.7;43.6;12;12.6;27.7;0.0;
19/02/2025 09:19:09;100;0;291.42;-4;-19.74;-5.43;201.2;18.60;76887;2837.308;-1800.648;1;291;-50;-45.2;43.7;43.6;12;12.6;27.7;0.0;
19/02/2025 09:19:29;100;0;286.11;-4;-19.37;-5.49;203.9;18.50;76867;2837.309;-1800.651;1;291;-50;-46.8;43.7;43.6;12;12.6;27.7;0.0;
19/02/2025 09:19:49;100;0;287.22;-4;-19.28;-5.44;206.5;18.50;76849;2837.310;-1800.655;1;291;-50;-45.2;43.7;43.6;12;12.6;27.7;0.0;
19/02/2025 09:20:09;100;0;287.12;-4;-19.25;-5.47;209.0;18.50;76837;2837.310;-1800.658;1;291;-50;-45.2;43.7;43.6;12;12.6;27.7;0.0;
19/02/2025 09:20:29;100;0;285.12;-4;-19.14;-5.52;211.7;18.40;76822;2837.311;-1800.662;1;291;-50;-45.2;43.7;43.6;10;9.9;27.7;0.0;
19/02/2025 09:20:49;100;0;288.66;-4;-19.08;-7.09;214.2;18.40;76813;2837.312;-1800.666;1;291;-50;-43.5;43.7;43.6;12;12.6;27.7;0.0;
19/02/2025 09:21:09;100;0;292.44;-4;-19.29;-5.43;216.9;18.30;76806;2837.313;-1800.669;1;291;-50;-45.2;43.7;43.6;12;12.6;27.7;0.0;
19/02/2025 09:21:29;100;0;294.50;-4;-19.27;-5.22;219.6;18.30;76799;2837.314;-1800.673;1;291;-50;-43.5;43.7;43.6;12;12.6;27.7;0.0;
19/02/2025 09:21:49;100;0;295.88;-4;-19.31;-5.32;222.3;18.30;76784;2837.316;-1800.676;1;291;-50;-45.2;43.7;43.6;12;12.6;27.7;0.0;
19/02/2025 09:22:09;100;0;296.96;-4;-19.09;-5.37;225.0;18.20;76775;2837.317;-1800.680;1;291;-50;-45.2;43.7;43.6;12;12.6;27.7;0.0;
19/02/2025 09:22:29;100;0;298.72;-4;-19.20;-5.39;227.8;18.20;76774;2837.319;-1800.683;1;291;-50;-45.2;43.7;43.6;12;12.6;27.7;0.0;
19/02/2025 09:22:49;100;0;300.52;-4;-19.37;-5.28;230.5;18.10;76771;2837.320;-1800.686;1;291;-50;-43.5;43.7;43.6;12;12.6;27.7;0.0;
19/02/2025 09:23:09;100;0;301.81;-4;-19.23;-5.24;233.3;18.10;76761;2837.322;-1800.690;1;291;-50;-45.2;43.7;43.6;15;14.9;27.7;0.0;
19/02/2025 09:23:29;100;0;301.55;-4;-19.62;-4.03;236.0;18.10;76754;2837.324;-1800.693;1;291;-50;-45.2;43.7;43.6;15;15.3;27.7;0.0;
19/02/2025 09:23:49;100;0;297.82;-4;-19.82;-4.06;238.7;18.00;76736;2837.325;-1800.696;1;291;-50;-43.5;43.7;43.6;13;12.6;27.7;0.0;
19/02/2025 09:24:09;100;0;294.85;-4;-19.53;-5.53;241.5;18.00;76740;2837.326;-1800.700;1;291;-50;-45.2;43.7;43.6;13;12.2;27.8;0.0;
19/02/2025 09:24:29;100;0;291.57;-4;-19.57;-5.60;244.4;17.90;76734;2837.327;-1800.704;1;291;-50;-45.2;43.7;43.6;13;12.6;27.7;0.0;
19/02/2025 09:24:49;100;0;289.35;-4;-19.58;-5.61;247.2;17.90;76719;2837.328;-1800.707;1;291;-50;-45.2;43.7;43.6;13;12.6;27.7;0.0;
19/02/2025 09:25:09;100;0;287.06;-4;-19.83;-5.55;249.9;17.90;76709;2837.329;-1800.711;1;291;-50;-45.2;43.7;43.7;11;10.8;27.7;0.0;
19/02/2025 09:25:29;100;0;285.40;-4;-19.46;-6.53;252.7;17.80;76702;2837.330;-1800.715;1;291;-50;-45.2;43.7;43.7;11;9.9;27.7;0.0;
19/02/2025 09:25:49;100;0;284.57;-4;-19.51;-6.61;255.5;17.80;76699;2837.330;-1800.718;1;291;-50;-45.2;43.7;43.6;11;10.4;27.7;0.0;
19/02/2025 09:26:09;100;0;284.60;-4;-19.76;-6.59;258.1;17.70;76687;2837.331;-1800.722;1;291;-50;-43.5;43.7;43.6;11;10.4;27.7;0.0;
19/02/2025 09:26:29;100;0;283.46;-4;-19.60;-6.58;260.7;17.70;76680;2837.332;-1800.725;1;292;-50;-45.2;43.7;43.6;8;8.1;27.7;0.0;
19/02/2025 09:26:49;100;0;282.38;-4;-19.37;-7.86;263.2;17.70;76665;2837.332;-1800.729;1;292;-50;-43.5;43.7;43.6;8;7.7;27.7;0.0;
19/02/2025 09:27:09;100;0;281.50;-4;-19.42;-7.95;265.6;17.60;76669;2837.333;-1800.732;1;292;-50;-45.2;43.7;43.6;5;5.0;27.7;0.0;
19/02/2025 09:27:29;100;0;283.05;-4;-19.29;-9.56;268.1;17.60;76663;2837.333;-1800.736;1;292;-50;-45.2;43.7;43.6;7;7.2;27.7;0.0;
19/02/2025 09:27:49;100;0;284.97;-4;-19.57;-7.91;270.6;17.60;76642;2837.334;-1800.739;1;292;-50;-43.5;43.7;43.6;9;9.0;27.7;0.0;
19/02/2025 09:28:09;100;0;281.24;-4;-19.43;-6.95;273.0;17.50;76649;2837.334;-1800.743;1;292;-50;-43.5;43.7;43.6;5;5.0;27.7;0.0;
19/02/2025 09:28:29;100;0;281.92;-4;-19.17;-9.54;275.3;17.50;76639;2837.334;-1800.746;1;292;-50;-45.2;43.7;43.6;5;4.5;27.8;0.0;
19/02/2025 09:28:49;100;0;288.60;-4;-19.10;-9.52;277.7;17.50;76628;2837.335;-1800.749;1;292;-50;-45.2;43.7;43.6;11;10.8;27.7;0.0;
19/02/2025 09:29:09;100;0;291.52;-4;-18.82;-6.01;279.9;17.40;76616;2837.336;-1800.752;1;292;-50;-45.2;44.0;44.2;11;11.7;27.7;0.0;
19/02/2025 09:29:29;100;0;292.64;-4;-20.04;-6.00;282.2;17.40;76595;2837.337;-1800.755;1;292;-50;-45.2;44.0;44.3;11;11.3;27.7;0.0;
19/02/2025 09:29:49;100;0;294.25;-4;-20.62;-5.99;284.4;17.30;76591;2837.338;-1800.757;1;292;-50;-45.2;44.0;44.3;11;11.3;27.8;0.0;
19/02/2025 09:30:09;100;0;295.82;-4;-20.28;-6.05;286.7;17.30;76585;2837.339;-1800.760;1;292;-50;-45.2;44.0;44.3;11;11.3;27.7;0.0;
19/02/2025 09:30:29;100;0;297.23;-4;-20.71;-5.95;288.9;17.30;76564;2837.340;-1800.763;1;292;-50;-45.2;44.0;44.3;11;11.3;27.7;0.0;
19/02/2025 09:30:49;100;0;296.27;-4;-20.51;-5.98;291.3;17.20;76557;2837.341;-1800.766;1;292;-50;-45.2;44.0;44.3;11;11.3;27.7;0.0;
19/02/2025 09:31:09;100;0;295.54;-4;-20.65;-5.98;293.6;17.20;76549;2837.342;-1800.768;1;292;-50;-45.2;44.0;44.3;11;11.3;27.7;0.0;
19/02/2025 09:31:29;100;0;295.74;-4;-20.51;-5.99;296.0;17.10;76537;2837.343;-1800.771;1;292;-50;-43.5;44.0;44.3;11;11.3;27.7;0.0;
19/02/2025 09:31:49;100;0;294.51;-4;-20.64;-5.97;298.4;17.10;76526;2837.344;-1800.774;1;292;-50;-45.2;44.0;44.3;11;11.3;27.8;0.0;
19/02/2025 09:32:09;100;0;294.24;-4;-20.70;-5.97;300.8;17.00;76515;2837.345;-1800.777;1;292;-50;-45.2;44.0;44.3;11;11.3;27.7;0.0;
19/02/2025 09:32:29;100;0;294.14;-4;-20.65;-5.79;303.4;17.00;76509;2837.346;-1800.780;1;292;-50;-43.5;44.0;44.3;11;11.3;27.7;0.0;
19/02/2025 09:32:49;100;0;293.35;-4;-21.27;-6.00;305.9;17.00;76513;2837.347;-1800.783;1;292;-50;-45.2;44.0;44.3;11;11.7;27.7;0.0;
19/02/2025 09:33:09;100;0;294.27;-4;-20.99;-6.06;308.5;16.90;76509;2837.348;-1800.786;1;292;-50;-45.2;44.0;44.5;11;11.7;27.7;0.0;
19/02/2025 09:33:29;100;0;293.90;-4;-20.81;-5.99;311.2;16.90;76496;2837.349;-1800.790;1;292;-50;-45.2;44.0;44.3;11;11.3;27.7;0.0;
19/02/2025 09:33:49;100;0;296.87;-4;-21.02;-5.88;314.0;16.90;76493;2837.351;-1800.793;1;292;-50;-43.5;44.0;44.3;11;11.3;27.7;0.0;
19/02/2025 09:34:09;100;0;296.62;-4;-20.94;-5.99;316.8;16.80;76485;2837.352;-1800.796;1;292;-50;-48.4;44.0;44.3;11;11.3;27.7;0.0;
19/02/2025 09:34:29;100;0;296.94;-4;-20.45;-5.99;319.7;16.80;76474;2837.353;-1800.800;1;292;-50;-45.2;44.0;44.3;11;11.7;27.7;0.0;
19/02/2025 09:34:49;100;0;295.83;-4;-21.06;-6.01;322.4;16.70;76470;2837.355;-1800.803;1;292;-50;-45.2;44.0;44.5;11;11.7;27.7;0.0;
19/02/2025 09:35:10;100;0;297.30;-4;-20.96;-5.91;325.3;16.70;76460;2837.356;-1800.807;1;292;-50;-45.2;44.0;44.3;11;11.3;27.8;0.0;
19/02/2025 09:35:30;100;0;298.46;-4;-20.63;-5.93;328.3;16.70;76448;2837.358;-1800.810;1;292;-50;-43.5;44.0;44.3;11;11.3;27.7;0.0;
19/02/2025 09:35:50;100;0;297.09;-4;-20.44;-5.98;331.1;16.60;76441;2837.359;-1800.814;1;292;-50;-43.5;44.0;44.3;11;11.3;27.7;0.0;
19/02/2025 09:36:10;100;0;297.05;-4;-20.71;-5.97;334.0;16.60;76432;2837.360;-1800.817;1;292;-50;-45.2;44.0;44.3;11;11.3;27.7;0.0;
19/02/2025 09:36:30;100;0;298.89;-4;-20.70;-5.92;337.0;16.60;76430;2837.362;-1800.820;1;292;-50;-45.2;44.0;44.5;13;13.1;27.7;0.0;
19/02/2025 09:36:50;100;0;299.26;-4;-20.83;-4.93;340.0;16.50;76426;2837.363;-1800.824;1;292;-50;-45.2;44.0;44.5;13;13.5;27.7;0.0;
19/02/2025 09:37:10;100;0;300.74;-4;-20.56;-4.93;343.0;16.50;76419;2837.365;-1800.827;1;292;-50;-43.5;44.0;44.3;13;13.5;27.7;0.0;
19/02/2025 09:37:30;100;0;301.95;-4;-20.63;-4.99;346.0;16.50;76410;2837.367;-1800.831;1;292;-50;-45.2;44.0;44.3;13;13.5;27.7;0.0;
19/02/2025 09:37:50;100;0;300.96;-4;-20.70;-4.97;349.0;16.40;76395;2837.369;-1800.834;1;292;-50;-45.2;44.0;44.3;13;13.1;27.7;0.0;
19/02/2025 09:38:10;100;0;300.14;-4;-20.83;-4.96;352.0;16.40;76386;2837.370;-1800.838;1;292;-50;-45.2;44.0;44.3;13;13.5;27.7;0.0;
19/02/2025 09:38:30;100;0;298.77;-4;-20.87;-4.95;355.0;16.40;76390;2837.372;-1800.841;1;292;-50;-45.2;44.0;44.5;13;13.5;27.7;0.0;
19/02/2025 09:38:50;100;0;297.14;-4;-21.42;-4.96;358.2;16.30;76379;2837.373;-1800.845;1;292;-50;-45.2;44.0;44.5;13;13.5;27.7;0.0;
19/02/2025 09:39:10;100;0;292.88;-4;-20.74;-4.94;361.4;16.30;76379;2837.375;-1800.849;1;292;-50;-43.5;44.0;44.3;13;13.5;27.7;0.0;
19/02/2025 09:39:30;100;0;290.37;-4;-20.61;-4.91;364.6;16.20;76360;2837.376;-1800.853;1;292;-50;-45.2;44.0;44.3;13;13.5;27.7;0.0;
19/02/2025 09:39:50;100;0;283.72;-4;-20.58;-4.99;367.7;16.20;76361;2837.376;-1800.857;1;292;-50;-45.2;44.0;44.3;9;9.0;27.7;0.0;
19/02/2025 09:40:10;100;0;280.47;-4;-20.32;-7.28;370.7;16.20;76347;2837.377;-1800.861;1;292;-50;-45.2;44.0;44.5;5;5.0;27.7;0.0;
19/02/2025 09:40:30;100;0;280.26;-4;-20.08;-9.43;373.6;16.10;76347;2837.377;-1800.865;1;292;-50;-43.5;44.0;44.3;5;5.0;27.7;0.0;
19/02/2025 09:40:50;100;0;280.73;-4;-20.26;-9.41;376.6;16.10;76333;2837.378;-1800.869;1;292;-50;-43.5;44.0;44.5;5;4.5;27.7;0.0;
19/02/2025 09:41:10;100;0;282.34;-4;-20.28;-9.39;379.6;16.10;76321;2837.378;-1800.873;1;292;-50;-48.4;44.0;44.5;8;8.1;27.7;0.0;
19/02/2025 09:41:30;100;0;284.31;-4;-20.38;-7.51;382.6;16.00;76323;2837.379;-1800.877;1;292;-50;-46.8;44.0;44.5;8;8.1;27.7;0.0;
19/02/2025 09:41:50;100;0;287.53;-4;-20.43;-7.56;385.6;16.00;76313;2837.380;-1800.881;1;292;-50;-45.2;44.0;44.5;11;10.8;27.7;0.0;
19/02/2025 09:42:10;100;0;289.55;-4;-20.53;-5.96;388.6;16.00;76298;2837.381;-1800.885;1;292;-50;-45.2;44.0;44.5;11;11.3;27.7;0.0;
19/02/2025 09:42:30;100;0;290.84;-4;-20.57;-6.01;391.5;16.00;76309;2837.382;-1800.889;1;292;-50;-45.2;44.0;44.5;11;11.3;27.7;0.0;
19/02/2025 09:42:50;100;0;291.68;-4;-20.48;-5.97;394.6;15.90;76297;2837.383;-1800.893;1;292;-50;-46.8;44.0;44.5;11;11.3;27.7;0.0;
19/02/2025 09:43:10;100;0;292.17;-4;-20.67;-6.00;397.5;15.90;76302;2837.384;-1800.896;1;292;-50;-45.2;44.0;44.5;11;11.3;27.7;0.0;
19/02/2025 09:43:30;100;0;292.16;-4;-20.74;-5.96;400.5;15.80;76291;2837.386;-1800.900;1;292;-50;-45.2;44.0;44.3;11;11.3;27.7;0.0;
19/02/2025 09:43:50;100;0;295.84;-4;-20.62;-5.94;403.5;15.80;76286;2837.387;-1800.904;1;292;-50;-45.2;44.0;44.5;11;11.3;27.7;0.0;
19/02/2025 09:44:10;100;0;296.08;-4;-20.54;-6.01;406.5;15.80;76281;2837.388;-1800.907;1;292;-50;-45.2;44.0;44.5;11;11.3;27.7;0.0;
19/02/2025 09:44:30;100;0;294.62;-4;-20.64;-5.98;409.5;15.70;76283;2837.390;-1800.911;1;292;-50;-45.2;44.0;44.3;11;11.3;27.7;0.0;
19/02/2025 09:44:50;100;0;293.57;-4;-20.53;-6.02;412.5;15.70;76265;2837.391;-1800.915;1;292;-50;-43.5;44.0;44.5;11;11.3;27.7;0.0;
19/02/2025 09:45:10;100;0;292.99;-4;-20.55;-6.00;415.5;15.70;76263;2837.392;-1800.918;1;292;-50;-45.2;44.0;44.5;11;11.3;27.7;0.0;
19/02/2025 09:45:30;100;0;293.06;-4;-20.41;-6.01;418.4;15.60;76254;2837.393;-1800.922;1;292;-50;-45.2;44.0;44.5;11;11.3;27.7;0.0;
19/02/2025 09:45:50;100;0;294.02;-4;-20.20;-6.02;421.3;15.60;76250;2837.395;-1800.926;1;292;-50;-45.2;44.0;44.5;11;11.3;27.8;0.0;
19/02/2025 09:46:10;100;0;293.72;-4;-20.42;-6.04;424.1;15.60;76249;2837.396;-1800.929;1;292;-50;-45.2;44.0;44.5;11;11.3;27.7;0.0;
19/02/2025 09:46:30;100;0;296.25;-4;-20.35;-6.01;427.0;15.50;76236;2837.397;-1800.933;1;292;-50;-45.2;44.0;44.5;11;11.3;27.7;0.0;
19/02/2025 09:46:50;100;0;297.12;-4;-20.52;-6.01;429.9;15.50;76226;2837.399;-1800.936;1;292;-50;-43.5;44.0;44.5;11;11.3;27.7;0.0;
19/02/2025 09:47:10;100;0;299.33;-4;-20.75;-5.93;432.8;15.50;76219;2837.400;-1800.940;1;292;-50;-45.2;44.0;44.3;13;13.5;27.7;0.0;
19/02/2025 09:47:30;100;0;299.23;-4;-20.64;-4.71;435.7;15.50;76215;2837.402;-1800.943;1;292;-50;-45.2;44.0;44.3;13;14.0;27.7;0.0;
19/02/2025 09:47:50;100;0;298.21;-4;-20.53;-4.73;438.5;15.40;76213;2837.403;-1800.946;1;292;-50;-43.5;44.0;44.5;13;14.0;27.7;0.0;
19/02/2025 09:48:10;100;0;300.88;-4;-20.53;-4.76;441.3;15.40;76200;2837.405;-1800.949;1;292;-50;-45.2;44.0;44.5;13;14.0;27.7;0.0;
19/02/2025 09:48:30;100;0;302.94;-4;-20.72;-4.70;444.0;15.40;76190;2837.406;-1800.952;1;292;-50;-43.5;44.0;44.5;13;14.0;27.7;0.0;
19/02/2025 09:48:50;100;0;301.49;-4;-20.72;-4.75;446.8;15.30;76180;2837.408;-1800.956;1;292;-50;-45.2;44.0;44.5;13;14.0;27.7;0.0;
19/02/2025 09:49:10;100;0;300.98;-4;-20.81;-4.76;449.6;15.30;76183;2837.409;-1800.959;1;292;-50;-46.8;44.0;44.5;13;14.0;27.7;0.0;
19/02/2025 09:49:30;100;0;301.03;-4;-20.48;-4.70;452.4;15.30;76165;2837.411;-1800.962;1;292;-50;-45.2;44.0;44.5;13;14.0;27.7;0.0;
19/02/2025 09:49:50;100;0;302.24;-4;-20.41;-4.73;455.1;15.20;76164;2837.413;-1800.965;1;292;-50;-45.2;44.0;44.5;13;14.0;27.7;0.0;
19/02/2025 09:50:10;100;0;301.43;-4;-20.12;-4.78;457.7;15.20;76165;2837.414;-1800.968;1;292;-50;-45.2;44.0;44.5;13;14.0;27.7;0.0;
19/02/2025 09:50:30;100;0;299.10;-4;-20.07;-4.80;460.3;15.20;76152;2837.416;-1800.971;1;292;-50;-45.2;44.0;44.3;13;14.0;27.7;0.0;
19/02/2025 09:50:50;100;0;295.90;-4;-19.88;-4.82;462.8;15.10;76143;2837.417;-1800.975;1;292;-50;-45.2;44.0;44.5;13;14.0;27.7;0.0;
19/02/2025 09:51:10;100;0;295.46;-4;-20.40;-4.74;465.4;15.10;76141;2837.418;-1800.978;1;292;-50;-43.5;44.0;44.5;13;13.5;27.7;0.0;
19/02/2025 09:51:30;100;0;296.19;-4;-19.88;-4.65;467.9;15.10;76130;2837.419;-1800.981;1;292;-50;-45.2;44.0;44.5;13;14.0;27.7;0.0;
19/02/2025 09:51:50;100;0;292.93;-4;-20.06;-4.78;470.4;15.10;76129;2837.420;-1800.984;1;292;-50;-46.8;44.0;44.5;13;14.0;27.7;0.0;
19/02/2025 09:52:10;100;0;293.13;-4;-19.90;-4.75;472.7;15.00;76127;2837.421;-1800.987;1;292;-50;-43.5;44.0;44.5;13;14.0;27.7;0.0;
19/02/2025 09:52:30;100;0;296.87;-4;-20.52;-4.87;475.3;15.00;76120;2837.422;-1800.990;1;292;-50;-48.4;44.0;44.5;13;14.0;27.7;0.0;
19/02/2025 09:52:50;100;0;297.78;-4;-20.40;-4.82;477.7;15.00;76118;2837.423;-1800.993;1;292;-50;-45.2;44.0;44.5;13;13.5;27.7;0.0;
19/02/2025 09:53:10;100;0;298.21;-4;-20.50;-4.91;480.2;15.00;76109;2837.425;-1800.996;1;292;-50;-45.2;44.0;44.5;13;14.0;27.7;0.0;
19/02/2025 09:53:30;100;0;298.00;-4;-20.23;-4.76;482.8;14.90;76101;2837.426;-1800.999;1;292;-50;-45.2;44.0;44.5;13;14.0;27.7;0.0;
19/02/2025 09:53:50;100;0;297.32;-4;-20.49;-4.71;485.3;14.90;76098;2837.427;-1801.002;1;292;-50;-45.2;44.0;44.3;13;14.0;27.7;0.0;
19/02/2025 09:54:10;100;0;297.66;-4;-20.03;-4.89;487.7;14.90;76099;2837.428;-1801.005;1;292;-50;-45.2;44.0;44.5;13;14.0;27.7;0.0;
19/02/2025 09:54:30;100;0;298.15;-4;-19.91;-4.97;490.1;14.80;76089;2837.430;-1801.008;1;292;-50;-43.5;44.0;44.5;13;14.0;27.7;0.0;
19/02/2025 09:54:50;100;0;298.90;-4;-20.03;-4.81;492.5;14.80;76091;2837.431;-1801.011;1;291;-50;-43.5;44.0;44.5;13;14.0;27.7;0.0;
19/02/2025 09:55:10;100;0;297.29;-4;-20.13;-4.80;494.8;14.80;76086;2837.432;-1801.014;1;291;-50;-45.2;44.0;44.5;13;14.0;27.7;0.0;
19/02/2025 09:55:30;100;0;294.67;-4;-20.13;-4.85;497.1;14.80;76079;2837.433;-1801.016;1;291;-50;-45.2;44.0;44.5;13;14.0;27.7;0.0;
19/02/2025 09:55:50;100;0;291.74;-4;-20.06;-4.85;499.4;14.70;76067;2837.434;-1801.019;1;291;-50;-43.5;44.0;44.3;13;14.0;27.7;0.0;
19/02/2025 09:56:10;100;0;293.19;-4;-19.96;-4.79;501.7;14.70;76062;2837.435;-1801.022;1;291;-50;-46.8;44.0;44.5;13;14.0;27.7;0.0;
19/02/2025 09:56:30;100;0;294.93;-4;-19.99;-4.83;504.0;14.70;76058;2837.436;-1801.025;1;291;-50;-46.8;44.0;44.5;13;14.0;27.7;0.0;
19/02/2025 09:56:50;100;0;297.90;-4;-20.21;-4.82;506.4;14.60;76043;2837.437;-1801.028;1;291;-50;-43.5;44.0;44.3;13;14.0;27.8;0.0;
19/02/2025 09:57:10;100;0;296.41;-4;-20.32;-4.79;508.8;14.60;76046;2837.438;-1801.031;1;291;-50;-45.2;44.0;44.5;13;14.0;27.7;0.0;
19/02/2025 09:57:30;100;0;293.39;-4;-20.19;-4.80;511.3;14.60;76036;2837.439;-1801.034;1;291;-50;-43.5;44.0;44.5;13;14.0;27.7;0.0;
19/02/2025 09:57:50;100;0;292.46;-4;-19.97;-4.80;513.8;14.60;76024;2837.440;-1801.037;1;291;-50;-45.2;44.0;44.5;13;14.0;27.7;0.0;
19/02/2025 09:58:10;100;0;290.15;-4;-20.07;-4.80;516.2;14.50;76023;2837.441;-1801.040;1;292;-50;-45.2;44.0;44.5;13;14.0;27.7;0.0;
19/02/2025 09:58:30;100;0;288.03;-4;-20.36;-4.77;518.6;14.50;76018;2837.442;-1801.044;1;292;-50;-45.2;44.0;44.5;11;10.8;27.7;0.0;
19/02/2025 09:58:50;100;0;289.24;-4;-20.12;-6.41;521.1;14.50;76010;2837.443;-1801.047;1;292;-50;-43.5;44.0;44.3;11;10.4;27.7;0.0;
19/02/2025 09:59:10;100;0;290.36;-4;-20.06;-6.36;523.7;14.50;76001;2837.443;-1801.050;1;292;-50;-45.2;44.0;44.5;11;10.8;27.7;0.0;
19/02/2025 09:59:30;100;0;288.35;-4;-19.99;-6.46;526.2;14.40;75999;2837.444;-1801.053;1;292;-50;-43.5;44.0;44.5;11;10.4;27.7;0.0;
19/02/2025 09:59:50;100;0;288.80;-4;-19.70;-6.43;528.7;14.40;75993;2837.445;-1801.057;1;292;-50;-46.8;44.0;44.5;11;10.8;27.7;0.0;
19/02/2025 10:00:10;100;0;289.72;-4;-19.71;-6.49;531.1;14.40;75976;2837.446;-1801.060;1;292;-50;-45.2;44.0;44.5;11;10.8;27.7;0.0;
19/02/2025 10:00:30;100;0;290.07;-4;-19.80;-6.49;533.6;14.30;75964;2837.447;-1801.063;1;292;-50;-45.2;44.0;44.3;11;10.8;27.7;0.0;
19/02/2025 10:00:50;100;0;291.05;-4;-19.80;-6.47;536.1;14.30;75965;2837.448;-1801.066;1;292;-50;-43.5;44.0;44.5;11;10.4;27.7;0.0;
19/02/2025 10:01:10;100;0;291.22;-4;-19.81;-6.47;538.6;14.30;75961;2837.449;-1801.069;1;292;-50;-45.2;44.0;44.5;11;10.8;27.7;0.0;
19/02/2025 10:01:30;100;0;296.00;-4;-20.11;-6.45;541.1;14.30;75954;2837.450;-1801.073;1;292;-50;-45.2;44.0;44.5;11;10.8;27.7;0.0;
19/02/2025 10:01:50;100;0;296.14;-4;-19.78;-6.45;543.7;14.20;75942;2837.451;-1801.076;1;292;-50;-43.5;44.0;44.5;11;10.8;27.7;0.0;
19/02/2025 10:02:10;100;0;301.75;-4;-20.20;-6.73;546.3;14.20;75948;2837.452;-1801.079;1;292;-50;-45.2;44.0;44.3;13;13.5;27.8;0.0;
19/02/2025 10:02:30;100;0;307.38;-4;-19.44;-5.04;548.8;14.20;75936;2837.454;-1801.082;1;292;-50;-45.2;44.0;44.3;18;18.5;27.7;0.0;
19/02/2025 10:02:50;100;0;309.99;-4;-20.36;-2.52;551.4;14.20;75928;2837.456;-1801.084;1;292;-50;-45.2;44.0;44.5;21;21.2;27.7;0.0;
19/02/2025 10:03:10;100;0;312.42;-4;-20.01;-1.05;553.9;14.10;75924;2837.458;-1801.087;1;291;-50;-45.2;44.0;44.5;27;27.1;27.7;0.0;
19/02/2025 10:03:30;100;0;310.71;-4;-20.29;1.95;556.4;14.10;75911;2837.460;-1801.089;1;291;-50;-45.2;44.0;44.5;24;23.9;27.7;0.0;
19/02/2025 10:03:50;100;0;309.04;-4;-20.10;-0.09;558.9;14.10;75917;2837.462;-1801.092;1;291;-50;-43.5;44.0;44.5;21;21.2;27.7;0.0;
19/02/2025 10:04:10;100;0;308.16;-4;-20.27;-1.19;561.3;14.10;75908;2837.463;-1801.095;1;291;-50;-45.2;44.0;44.5;21;21.2;27.7;0.0;
19/02/2025 10:04:30;100;0;307.32;-4;-20.11;-1.21;563.8;14.00;75907;2837.465;-1801.097;1;290;-50;-43.5;44.0;44.5;21;21.2;27.7;0.0;
19/02/2025 10:04:50;100;0;307.13;-4;-20.29;-1.21;566.2;14.00;75900;2837.467;-1801.100;1;290;-50;-43.5;44.0;44.5;21;21.2;27.7;0.0;
19/02/2025 10:05:10;100;0;306.17;-4;-20.26;-1.18;568.8;14.00;75896;2837.469;-1801.103;1;290;-50;-45.2;44.0;44.5;19;19.0;27.7;0.0;
19/02/2025 10:05:30;100;0;305.87;-4;-19.86;-2.59;571.3;14.00;75893;2837.470;-1801.106;1;290;-50;-45.2;44.0;44.5;19;19.0;27.7;0.0;
19/02/2025 10:05:50;100;0;310.96;-4;-20.30;-2.51;573.9;13.90;75885;2837.472;-1801.108;1;290;-50;-45.2;44.0;44.5;26;26.2;27.7;0.0;
19/02/2025 10:06:10;100;0;311.65;-4;-20.25;1.57;576.4;13.90;75882;2837.474;-1801.111;1;289;-50;-43.5;44.0;44.5;29;28.9;27.7;0.0;
19/02/2025 10:06:30;100;0;307.47;-4;-20.47;2.94;578.9;13.90;75871;2837.476;-1801.113;1;289;-50;-45.2;44.0;44.5;22;22.1;27.7;0.0;
19/02/2025 10:06:50;100;0;300.71;-4;-20.13;-0.98;581.2;13.80;75861;2837.477;-1801.116;1;289;-50;-45.2;44.0;44.3;15;14.9;27.7;0.0;
19/02/2025 10:07:10;100;0;299.50;-4;-19.62;-4.68;583.7;13.80;75862;2837.478;-1801.119;1;289;-50;-45.2;44.0;44.5;15;14.4;27.7;0.0;
19/02/2025 10:07:30;100;0;297.15;-4;-19.73;-4.72;586.1;13.80;75863;2837.480;-1801.122;1;289;-50;-45.2;44.0;44.5;13;13.1;27.7;0.0;
19/02/2025 10:07:50;100;0;296.14;-4;-19.99;-5.45;588.6;13.80;75837;2837.481;-1801.125;1;289;-50;-46.8;44.0;44.5;13;12.6;27.7;0.0;
19/02/2025 10:08:10;100;0;295.32;-4;-20.06;-5.44;591.1;13.80;75840;2837.482;-1801.128;1;289;-50;-45.2;44.0;44.5;13;12.6;27.7;0.0;
19/02/2025 10:08:30;100;0;295.29;-4;-20.08;-5.42;593.5;13.70;75833;2837.483;-1801.131;1;289;-50;-45.2;44.0;44.5;13;12.6;27.7;0.0;
19/02/2025 10:08:50;100;0;294.75;-4;-19.65;-5.49;596.0;13.70;75818;2837.484;-1801.134;1;289;-50;-45.2;44.0;44.5;13;12.6;27.7;0.0;
19/02/2025 10:09:10;100;0;294.08;-4;-19.64;-5.50;598.4;13.70;75833;2837.485;-1801.137;1;288;-50;-43.5;44.0;44.3;13;12.6;27.7;0.0;
19/02/2025 10:09:30;100;0;292.93;-4;-19.70;-5.45;600.9;13.60;75815;2837.486;-1801.140;1;288;-50;-43.5;44.0;44.5;13;12.6;27.7;0.0;
19/02/2025 10:09:50;100;0;291.29;-4;-19.78;-5.53;603.3;13.60;75813;2837.487;-1801.144;1;288;-50;-43.5;44.0;44.5;13;12.6;27.7;0.0;
19/02/2025 10:10:10;100;0;290.70;-4;-19.56;-5.49;605.7;13.60;75817;2837.488;-1801.147;1;288;-50;-45.2;44.0;44.5;13;12.6;27.7;0.0;
19/02/2025 10:10:30;100;0;290.51;-4;-19.70;-5.46;608.0;13.60;75807;2837.489;-1801.150;1;289;-50;-45.2;44.0;44.5;13;12.6;27.7;0.0;
19/02/2025 10:10:50;100;0;289.83;-4;-19.67;-5.43;610.4;13.60;75814;2837.489;-1801.153;1;289;-50;-45.2;44.0;44.5;13;12.6;27.7;0.0;
19/02/2025 10:11:11;100;0;288.21;-4;-19.70;-5.50;612.8;13.50;75806;2837.490;-1801.156;1;289;-50;-45.2;44.0;44.5;13;12.6;27.7;0.0;
19/02/2025 10:11:31;100;0;285.49;-4;-19.69;-5.49;615.3;13.50;75800;2837.491;-1801.159;1;289;-50;-45.2;44.0;44.5;13;12.6;27.7;0.0;
19/02/2025 10:11:51;100;0;283.14;-4;-19.71;-5.46;617.6;13.50;75789;2837.491;-1801.162;1;289;-50;-45.2;44.0;44.5;11;10.8;27.7;0.0;
19/02/2025 10:12:11;100;0;281.89;-4;-19.63;-6.54;620.0;13.50;75796;2837.492;-1801.166;1;289;-50;-43.5;44.0;44.5;11;10.8;27.7;0.0;
19/02/2025 10:12:31;100;0;281.31;-4;-19.53;-6.56;622.5;13.40;75784;2837.492;-1801.169;1;289;-50;-43.5;44.0;44.3;9;9.0;27.7;0.0;
19/02/2025 10:12:51;100;0;280.58;-4;-19.32;-7.56;624.9;13.40;75784;2837.492;-1801.172;1;290;-50;-45.2;44.0;44.5;7;7.2;27.7;0.0;
19/02/2025 10:13:11;100;0;281.06;-4;-19.31;-8.26;627.2;13.40;75782;2837.493;-1801.175;1;290;-50;-45.2;44.0;44.3;7;7.2;27.7;0.0;
19/02/2025 10:13:31;100;0;281.31;-4;-19.24;-8.35;629.6;13.40;75775;2837.493;-1801.179;1;290;-50;-45.2;44.0;44.5;7;7.2;27.7;0.0;
19/02/2025 10:13:51;100;0;281.11;-4;-19.43;-8.32;631.9;13.40;75770;2837.493;-1801.182;1;290;-50;-45.2;44.0;44.5;7;7.2;27.7;0.0;
19/02/2025 10:14:11;100;0;280.54;-4;-19.14;-8.44;634.3;13.30;75771;2837.494;-1801.185;1;291;-50;-45.2;44.0;44.5;7;7.2;27.7;0.0;
19/02/2025 10:14:31;100;0;282.62;-4;-19.09;-8.33;636.7;13.30;75764;2837.494;-1801.189;1;291;-50;-45.2;44.0;44.5;7;7.2;27.7;0.0;
19/02/2025 10:14:51;100;0;287.41;-4;-19.39;-8.41;638.9;13.30;75765;2837.495;-1801.192;1;291;-50;-43.5;44.0;44.5;12;12.2;27.7;0.0;
19/02/2025 10:15:11;100;0;292.11;-4;-19.42;-5.50;641.3;13.30;75754;2837.496;-1801.195;1;291;-50;-45.2;44.0;44.5;12;12.6;27.7;0.0;
19/02/2025 10:15:31;100;0;296.00;-4;-19.34;-5.54;643.7;13.30;75748;2837.497;-1801.198;1;291;-50;-43.5;44.0;44.5;12;12.6;27.7;0.0;
19/02/2025 10:15:51;100;0;299.31;-4;-19.35;-5.55;646.0;13.20;75742;2837.498;-1801.201;1;291;-50;-45.2;44.0;44.5;12;12.6;27.8;0.0;
19/02/2025 10:16:11;100;0;302.50;-4;-19.46;-5.52;648.3;13.20;75745;2837.500;-1801.204;1;291;-50;-43.5;44.0;44.5;15;14.9;27.7;0.0;
19/02/2025 10:16:31;100;0;296.10;-4;-19.62;-4.15;650.6;13.20;75735;2837.501;-1801.206;1;290;-50;-43.5;44.0;44.3;13;12.6;27.7;0.0;
19/02/2025 10:16:51;100;0;294.52;-4;-19.40;-5.59;652.9;13.20;75718;2837.502;-1801.209;1;290;-50;-45.2;44.0;44.5;13;12.6;27.7;0.0;
19/02/2025 10:17:11;100;0;297.60;-4;-19.19;-5.53;655.2;13.10;75708;2837.503;-1801.212;1;290;-50;-43.5;44.0;44.5;13;12.6;27.7;0.0;
19/02/2025 10:17:31;100;0;300.75;-4;-19.51;-5.53;657.4;13.10;75709;2837.504;-1801.215;1;290;-50;-46.8;44.0;44.3;13;12.6;27.7;0.0;
19/02/2025 10:17:51;100;0;299.61;-4;-19.57;-5.52;659.6;13.10;75705;2837.505;-1801.217;1;290;-50;-45.2;44.0;44.5;13;12.6;27.7;0.0;
19/02/2025 10:18:11;100;0;299.17;-4;-19.58;-5.59;662.0;13.10;75697;2837.507;-1801.220;1;290;-50;-45.2;44.0;44.3;13;12.6;27.7;0.0;
19/02/2025 10:18:31;100;0;299.07;-4;-19.49;-5.50;664.2;13.00;75679;2837.508;-1801.223;1;290;-50;-43.5;44.0;44.5;13;12.6;27.7;0.0;
19/02/2025 10:18:51;100;0;300.36;-4;-19.25;-5.46;666.5;13.00;75674;2837.509;-1801.226;1;289;-50;-45.2;44.0;44.5;15;15.3;27.7;0.0;
19/02/2025 10:19:11;100;0;300.87;-4;-19.23;-4.05;668.7;13.00;75665;2837.510;-1801.229;1;289;-50;-45.2;44.0;44.3;15;15.8;27.7;0.0;
19/02/2025 10:19:31;100;0;303.22;-4;-19.42;-4.05;670.9;13.00;75663;2837.512;-1801.231;1;289;-50;-45.2;44.0;44.5;17;17.1;27.7;0.0;
19/02/2025 10:19:51;100;0;303.61;-4;-19.69;-3.14;673.1;12.90;75651;2837.513;-1801.234;1;289;-50;-45.2;44.0;44.3;17;17.6;27.7;0.0;
19/02/2025 10:20:11;100;0;301.60;-4;-19.66;-3.12;675.2;12.90;75648;2837.514;-1801.236;1;288;-50;-45.2;44.0;44.5;17;17.6;27.7;0.0;
19/02/2025 10:20:31;100;0;299.88;-4;-19.76;-3.03;677.4;12.90;75652;2837.516;-1801.239;1;288;-50;-45.2;44.0;44.5;15;14.9;27.7;0.0;
19/02/2025 10:20:51;100;0;298.50;-4;-19.51;-4.55;679.5;12.90;75641;2837.517;-1801.241;1;288;-50;-43.5;44.0;44.5;15;14.9;27.7;0.0;
19/02/2025 10:21:11;100;0;298.36;-4;-19.67;-4.53;681.7;12.90;75631;2837.518;-1801.244;1;288;-50;-45.2;44.0;44.5;15;14.9;27.7;0.0;
19/02/2025 10:21:31;100;0;296.07;-4;-19.74;-4.51;683.9;12.80;75632;2837.519;-1801.246;1;288;-50;-43.5;44.0;44.5;15;14.9;27.7;0.0;
19/02/2025 10:21:51;100;0;292.94;-4;-19.46;-4.52;686.0;12.80;75617;2837.520;-1801.249;1;287;-50;-43.5;44.0;44.5;13;13.1;27.7;0.0;
19/02/2025 10:22:11;100;0;290.99;-4;-19.54;-5.51;688.2;12.80;75619;2837.520;-1801.252;1;287;-50;-48.4;44.0;44.5;13;12.6;27.7;0.0;
19/02/2025 10:22:31;100;0;290.18;-4;-19.43;-5.49;690.3;12.80;75613;2837.521;-1801.255;1;287;-50;-43.5;44.0;44.5;13;12.6;27.7;0.0;
19/02/2025 10:22:51;100;0;288.51;-4;-19.39;-5.53;692.6;12.70;75608;2837.522;-1801.258;1;288;-50;-45.2;44.0;44.5;13;12.6;27.7;0.0;
19/02/2025 10:23:11;100;0;286.81;-4;-19.32;-5.49;694.7;12.70;75599;2837.522;-1801.261;1;288;-50;-45.2;44.0;44.3;13;12.6;27.7;0.0;
19/02/2025 10:23:31;100;0;284.81;-4;-19.37;-5.50;696.9;12.70;75592;2837.523;-1801.264;1;288;-50;-45.2;44.0;44.5;13;12.6;27.7;0.0;
19/02/2025 10:23:51;100;0;284.52;-4;-19.19;-5.50;698.9;12.70;75582;2837.523;-1801.267;1;288;-50;-45.2;44.0;44.5;13;12.6;27.7;0.0;
19/02/2025 10:24:11;100;0;285.43;-4;-19.18;-5.55;701.1;12.60;75583;2837.524;-1801.269;1;289;-50;-45.2;44.0;44.5;13;12.6;27.7;0.0;
19/02/2025 10:24:31;100;0;287.91;-4;-19.30;-5.52;703.2;12.60;75565;2837.524;-1801.272;1;289;-50;-43.5;44.0;44.5;13;12.6;27.7;0.0;
19/02/2025 10:24:51;100;0;288.86;-4;-19.24;-5.50;705.3;12.60;75566;2837.525;-1801.275;1;289;-50;-45.2;44.0;44.5;13;12.6;27.7;0.0;
19/02/2025 10:25:11;100;0;290.41;-4;-19.22;-5.49;707.4;12.60;75564;2837.526;-1801.278;1;289;-50;-43.5;44.0;44.5;13;12.6;27.7;0.0;
19/02/2025 10:25:31;100;0;291.62;-4;-19.15;-5.46;709.4;12.60;75559;2837.527;-1801.281;1;289;-50;-45.2;44.0;44.5;13;12.6;27.7;0.0;
19/02/2025 10:25:51;100;0;288.85;-4;-19.45;-5.59;711.5;12.50;75551;2837.527;-1801.283;1;289;-50;-45.2;44.0;44.5;13;12.6;27.7;0.0;
19/02/2025 10:26:11;100;0;285.83;-4;-19.21;-5.59;713.5;12.50;75537;2837.528;-1801.286;1;290;-50;-45.2;44.0;44.5;13;12.6;27.7;0.0;
19/02/2025 10:26:31;100;0;285.28;-4;-18.98;-5.57;715.7;12.50;75533;2837.528;-1801.289;1;290;-50;-45.2;44.3;44.3;11;10.8;27.7;0.0;
19/02/2025 10:26:51;100;0;287.42;-4;-19.03;-6.46;717.7;12.50;75528;2837.529;-1801.292;1;290;-70;-69.4;44.3;44.2;11;10.8;27.7;0.0;
19/02/2025 10:27:11;100;0;290.84;-4;-18.37;-6.43;719.8;12.40;75589;2837.530;-1801.295;1;291;-70;-72.6;44.8;45.1;13;13.5;27.7;0.0;
19/02/2025 10:27:31;100;0;292.06;-4;-19.83;-4.70;722.0;12.40;75592;2837.531;-1801.298;1;291;-70;-75.8;44.8;45.1;13;14.0;27.7;0.0;
19/02/2025 10:27:51;100;0;290.65;-4;-20.00;-4.80;724.4;12.40;75592;2837.531;-1801.301;1;291;-70;-77.4;44.8;45.1;13;14.0;27.7;0.0;
19/02/2025 10:28:11;100;0;291.23;-4;-19.98;-4.75;726.9;12.40;75590;2837.532;-1801.304;1;291;-70;-77.4;44.8;45.1;13;14.0;27.7;0.0;
19/02/2025 10:28:31;100;0;292.89;-4;-19.92;-4.73;729.3;12.30;75591;2837.533;-1801.307;1;291;-70;-75.8;44.8;45.1;13;14.0;27.7;0.0;
19/02/2025 10:28:51;100;0;293.70;-4;-20.02;-4.74;731.7;12.30;75589;2837.534;-1801.310;1;291;-70;-79.0;44.8;45.1;13;14.0;27.7;0.0;
19/02/2025 10:29:11;100;0;295.97;-4;-20.13;-4.71;734.1;12.30;75583;2837.535;-1801.313;1;291;-70;-77.4;44.8;45.1;13;14.0;27.7;0.0;
19/02/2025 10:29:31;100;0;297.50;-4;-19.33;-5.09;736.6;12.30;75575;2837.537;-1801.316;1;291;-70;-79.0;44.8;45.1;13;14.0;27.8;0.0;
19/02/2025 10:29:51;100;0;300.28;-4;-19.56;-4.81;739.1;12.20;75573;2837.538;-1801.319;1;290;-70;-79.0;44.8;45.1;13;14.0;27.7;0.0;
19/02/2025 10:30:11;100;0;299.40;-4;-20.37;-4.66;741.5;12.20;75559;2837.539;-1801.322;1;288;-70;-79.0;44.8;45.1;15;14.9;27.7;0.0;
19/02/2025 10:30:31;100;0;302.10;-4;-20.19;-4.22;744.0;12.20;75565;2837.541;-1801.325;1;285;-70;-79.0;44.8;45.1;20;19.9;27.7;0.0;
19/02/2025 10:30:51;100;0;302.07;-4;-20.31;-1.61;746.5;12.20;75555;2837.542;-1801.328;1;281;-70;-79.0;44.8;45.1;25;24.8;27.7;0.0;
19/02/2025 10:31:11;100;0;299.83;-4;-20.61;0.99;749.1;12.10;75548;2837.544;-1801.331;1;273;-70;-80.6;44.8;45.1;35;35.2;27.7;0.0;
19/02/2025 10:31:31;100;0;293.34;-4;-20.97;5.89;751.8;12.10;75549;2837.545;-1801.334;1;259;-70;-80.6;44.8;45.1;45;45.1;27.7;0.0;
19/02/2025 10:31:51;100;0;285.28;-4;-21.40;10.74;754.5;12.10;75553;2837.545;-1801.337;1;203;-70;-80.6;44.8;45.1;70;69.9;27.7;0.0;
19/02/2025 10:32:11;100;0;274.70;-4;-22.46;23.43;757.4;12.10;75554;2837.545;-1801.341;1;118;-70;-80.6;44.1;44.0;70;70.4;27.7;0.0;
19/02/2025 10:32:31;100;0;262.79;-4;-21.30;23.41;760.3;12.00;75551;2837.545;-1801.345;1;97;-70;-80.6;44.1;44.0;70;70.4;27.7;0.0;
19/02/2025 10:32:51;100;0;251.98;-4;-20.43;23.25;763.0;12.00;75548;2837.543;-1801.348;1;87;-70;-80.6;44.1;43.9;70;70.4;27.7;0.0;
19/02/2025 10:33:11;100;0;240.39;-4;-20.07;23.26;765.7;12.00;75543;2837.542;-1801.352;1;78;-70;-80.6;44.1;44.0;70;70.4;27.7;0.0;
19/02/2025 10:33:31;100;0;228.50;-4;-20.26;23.32;768.3;12.00;75529;2837.539;-1801.354;1;71;-70;-80.6;44.1;43.9;70;70.4;27.7;0.0;
19/02/2025 10:33:51;100;0;218.19;-4;-20.39;23.24;770.9;12.00;75541;2837.536;-1801.356;1;64;-70;-80.6;44.1;43.9;70;69.9;27.7;0.0;
19/02/2025 10:34:11;100;0;205.41;-4;-20.07;23.22;773.4;11.90;75520;2837.533;-1801.358;1;58;-70;-80.6;44.1;43.9;70;70.4;27.8;0.0;
19/02/2025 10:34:31;100;0;192.59;-4;-20.06;23.19;776.0;11.90;75518;2837.530;-1801.359;1;51;-70;-82.3;44.1;44.0;70;69.9;27.7;0.0;
19/02/2025 10:34:51;100;0;179.24;-4;-20.10;23.23;778.6;11.90;75514;2837.526;-1801.358;1;45;-70;-80.6;44.1;44.0;70;69.9;27.7;0.0;
19/02/2025 10:35:11;100;0;166.50;-4;-20.01;23.16;781.1;11.90;75509;2837.523;-1801.357;1;38;-70;-80.6;44.1;43.9;70;70.4;27.7;0.0;
19/02/2025 10:35:31;100;0;153.29;-4;-19.61;22.91;783.8;11.80;75501;2837.519;-1801.355;1;32;-70;-82.3;44.1;43.9;70;70.4;27.7;0.0;
19/02/2025 10:35:51;100;0;139.04;-4;-19.87;23.10;786.2;11.80;75484;2837.517;-1801.353;1;25;-70;-80.6;44.1;44.0;70;70.4;27.7;0.0;
19/02/2025 10:36:11;100;0;126.78;-4;-19.97;23.22;788.8;11.80;75484;2837.515;-1801.350;1;19;-70;-82.3;44.1;43.9;70;70.4;27.7;0.0;
19/02/2025 10:36:31;100;0;114.78;-4;-20.22;23.13;791.3;11.80;75460;2837.513;-1801.346;1;13;-70;-79.0;44.1;44.0;70;70.4;27.7;0.0;
19/02/2025 10:36:51;100;0;102.99;-4;-20.26;23.22;793.8;11.70;75462;2837.512;-1801.342;1;7;-70;-79.0;44.1;43.9;70;70.4;27.7;0.0;
19/02/2025 10:37:11;100;0;90.58;-4;-20.35;23.30;796.5;11.70;75453;2837.512;-1801.338;1;0;-70;-79.0;44.1;44.0;70;70.4;27.7;0.0;
19/02/2025 10:37:31;100;0;76.45;-4;-20.05;23.32;799.2;11.70;75445;2837.512;-1801.334;1;354;-70;-80.6;44.1;43.9;70;70.4;27.7;0.0;
19/02/2025 10:37:51;100;0;62.40;-4;-19.95;23.39;801.9;11.70;75444;2837.514;-1801.330;1;348;-70;-80.6;44.1;44.0;70;70.4;27.7;0.0;
19/02/2025 10:38:11;100;0;47.60;-4;-19.97;23.19;804.6;11.60;75437;2837.516;-1801.327;1;342;-70;-82.3;44.1;43.9;70;69.9;27.7;0.0;
19/02/2025 10:38:31;100;0;35.20;-4;-20.21;23.20;807.3;11.60;75438;2837.518;-1801.325;1;336;-70;-80.6;44.1;43.9;70;70.4;27.7;0.0;
19/02/2025 10:38:51;100;0;23.83;-4;-20.32;23.30;810.2;11.60;75435;2837.522;-1801.323;1;330;-70;-83.9;44.1;43.9;70;70.4;27.7;0.0;
19/02/2025 10:39:11;100;0;11.47;-4;-20.19;23.24;813.0;11.60;75432;2837.525;-1801.322;1;324;-70;-80.6;44.1;43.9;70;70.4;27.7;0.0;
19/02/2025 10:39:31;100;0;359.51;-4;-20.27;23.32;815.8;11.50;75421;2837.528;-1801.322;1;318;-70;-80.6;44.1;44.0;62;61.8;27.7;0.0;
19/02/2025 10:39:51;100;0;348.01;-4;-19.73;18.61;818.7;11.50;75436;2837.532;-1801.322;1;312;-70;-80.6;44.1;43.9;54;53.7;27.7;0.0;
19/02/2025 10:40:11;100;0;336.92;-4;-19.30;14.79;821.4;11.50;75419;2837.535;-1801.324;1;307;-70;-80.6;44.1;43.9;45;45.1;27.7;0.0;
19/02/2025 10:40:31;100;0;327.20;-4;-19.11;10.36;824.2;11.50;75411;2837.538;-1801.326;1;301;-70;-79.0;44.1;43.9;37;37.0;27.7;0.0;
19/02/2025 10:40:51;100;0;320.48;-4;-18.93;6.34;826.9;11.50;75405;2837.540;-1801.328;1;295;-70;-80.6;44.4;44.3;37;36.6;27.7;0.0;
19/02/2025 10:41:11;100;0;315.02;-4;-19.55;6.42;829.6;11.40;75402;2837.542;-1801.331;1;285;-70;-80.6;44.4;44.6;42;42.0;27.7;0.0;
19/02/2025 10:41:31;100;0;307.14;-4;-19.73;9.21;832.5;11.40;75405;2837.544;-1801.334;1;264;-70;-79.0;44.4;44.6;60;60.0;27.7;0.0;
19/02/2025 10:41:51;100;0;295.31;-4;-20.21;18.25;835.2;11.40;75386;2837.546;-1801.338;1;192;-70;-80.6;44.4;44.6;70;69.9;27.7;0.0;
19/02/2025 10:42:11;100;0;281.81;-4;-20.41;23.29;838.2;11.40;75390;2837.546;-1801.342;1;125;-70;-80.6;44.4;44.6;70;70.4;27.7;0.0;
19/02/2025 10:42:31;100;0;270.33;-4;-20.64;23.42;841.0;11.40;75390;2837.546;-1801.345;1;107;-70;-80.6;44.4;44.6;70;69.9;27.7;0.0;
19/02/2025 10:42:51;100;0;256.45;-4;-20.47;23.19;843.8;11.30;75372;2837.545;-1801.349;1;95;-70;-80.6;44.4;44.6;70;70.4;27.7;0.0;
19/02/2025 10:43:11;100;0;243.20;-4;-20.56;23.19;846.6;11.30;75363;2837.543;-1801.353;1;86;-70;-80.6;44.4;44.6;70;70.4;27.7;0.0;
19/02/2025 10:43:31;100;0;233.47;-4;-20.88;23.41;849.5;11.30;75374;2837.541;-1801.356;1;78;-70;-80.6;44.4;44.6;70;70.4;27.7;0.0;
19/02/2025 10:43:51;100;0;220.82;-4;-20.66;23.39;852.4;11.20;75359;2837.538;-1801.358;1;71;-70;-80.6;44.4;44.6;70;70.4;27.7;0.0;
19/02/2025 10:44:11;100;0;207.64;-4;-20.50;23.28;855.2;11.20;75357;2837.534;-1801.360;1;63;-70;-82.3;44.4;44.6;70;70.4;27.7;0.0;
19/02/2025 10:44:31;100;0;196.17;-4;-20.82;23.35;858.0;11.20;75356;2837.531;-1801.361;1;57;-70;-80.6;44.4;44.6;70;70.4;27.7;0.0;
19/02/2025 10:44:51;100;0;185.76;-4;-21.25;23.41;861.0;11.20;75363;2837.527;-1801.361;1;50;-70;-82.3;44.4;44.6;70;70.4;27.7;0.0;
19/02/2025 10:45:11;100;0;173.19;-4;-20.88;23.40;863.9;11.20;75363;2837.523;-1801.360;1;43;-70;-80.6;44.4;44.6;70;70.4;27.7;0.0;
19/02/2025 10:45:31;100;0;160.78;-4;-20.52;23.38;866.8;11.10;75352;2837.520;-1801.359;1;37;-70;-80.6;44.4;44.6;70;69.9;27.7;0.0;
19/02/2025 10:45:51;100;0;146.42;-4;-20.25;23.49;869.7;11.10;75344;2837.516;-1801.356;1;30;-70;-80.6;44.4;44.6;70;70.4;27.7;0.0;
19/02/2025 10:46:12;100;0;131.20;-4;-20.22;23.46;872.4;11.10;75342;2837.514;-1801.353;1;23;-70;-80.6;44.4;44.6;70;70.4;27.7;0.0;
19/02/2025 10:46:32;100;0;119.23;-4;-20.82;23.44;875.1;11.10;75335;2837.512;-1801.349;1;17;-70;-80.6;44.4;44.6;70;70.4;27.7;0.0;
19/02/2025 10:46:52;100;0;108.78;-4;-20.45;23.40;877.8;11.10;75333;2837.511;-1801.346;1;11;-70;-82.3;44.4;44.6;70;70.4;27.7;0.0;
19/02/2025 10:47:12;100;0;96.72;-4;-20.49;23.29;880.5;11.10;75330;2837.510;-1801.341;1;5;-70;-80.6;44.4;44.6;70;70.4;27.7;0.0;
19/02/2025 10:47:32;100;0;85.01;-4;-20.59;23.43;883.2;11.00;75318;2837.510;-1801.337;1;359;-70;-79.0;44.4;44.6;70;70.4;27.7;0.0;
19/02/2025 10:47:52;100;0;71.11;-4;-20.50;23.33;886.0;11.00;75314;2837.511;-1801.334;1;353;-70;-82.3;44.4;44.6;70;70.4;27.7;0.0;
19/02/2025 10:48:12;100;0;59.27;-4;-20.31;23.24;888.7;11.00;75323;2837.512;-1801.330;1;347;-70;-80.6;44.4;44.6;70;69.9;27.7;0.0;
19/02/2025 10:48:32;100;0;47.07;-4;-20.25;23.32;891.4;11.00;75309;2837.515;-1801.327;1;342;-70;-80.6;44.4;44.6;70;69.9;27.7;0.0;
19/02/2025 10:48:52;100;0;34.50;-4;-20.36;23.07;894.1;11.00;75313;2837.517;-1801.324;1;336;-70;-82.3;44.4;44.6;70;70.4;27.7;0.0;
19/02/2025 10:49:12;100;0;21.03;-4;-19.99;23.12;896.7;10.90;75309;2837.520;-1801.323;1;331;-70;-80.6;44.4;44.6;70;70.4;27.7;0.0;
19/02/2025 10:49:32;100;0;9.01;-4;-20.45;23.26;899.4;10.90;75302;2837.523;-1801.322;1;326;-70;-80.6;44.4;44.6;64;63.6;27.7;0.0;
19/02/2025 10:49:52;100;0;356.86;-4;-20.52;19.77;902.0;10.90;75300;2837.526;-1801.322;1;322;-70;-82.3;44.4;44.6;54;54.2;27.7;0.0;
19/02/2025 10:50:12;100;0;347.06;-4;-20.07;14.75;904.6;10.90;75298;2837.529;-1801.323;1;318;-70;-80.6;44.4;44.5;44;44.2;27.7;0.0;
19/02/2025 10:50:32;100;0;340.54;-4;-18.96;9.96;907.0;10.90;75296;2837.532;-1801.324;1;314;-70;-80.6;44.7;44.6;39;38.8;27.7;0.0;
19/02/2025 10:50:52;100;0;330.73;-4;-19.20;7.23;909.3;10.80;75286;2837.534;-1801.325;1;311;-70;-80.6;44.7;44.6;28;28.0;27.7;0.0;
19/02/2025 10:51:12;100;0;323.45;-4;-19.15;2.10;911.7;10.80;75284;2837.537;-1801.327;1;307;-70;-79.0;44.7;44.6;21;21.2;27.7;0.0;
19/02/2025 10:51:32;100;0;324.09;-4;-18.84;-1.35;914.0;10.80;75287;2837.539;-1801.329;1;303;-70;-80.6;45.0;45.5;28;28.0;27.7;0.0;
19/02/2025 10:51:52;100;0;322.61;-4;-20.52;2.38;916.5;10.80;75282;2837.541;-1801.331;1;294;-70;-80.6;45.0;45.4;40;40.2;27.7;0.0;
19/02/2025 10:52:12;100;0;316.48;-4;-21.10;8.28;919.1;10.80;75272;2837.543;-1801.333;1;279;-70;-79.0;45.0;45.4;52;51.9;27.7;0.0;
19/02/2025 10:52:32;100;0;307.92;-4;-21.41;14.10;921.8;10.80;75268;2837.545;-1801.336;1;234;-70;-80.6;45.0;45.4;70;69.9;27.7;0.0;
19/02/2025 10:52:52;100;0;295.98;-4;-22.25;23.08;924.6;10.70;75263;2837.546;-1801.339;1;153;-70;-80.6;44.4;44.3;70;69.9;27.7;0.0;
19/02/2025 10:53:12;100;0;282.79;-4;-21.23;23.18;927.3;10.70;75261;2837.547;-1801.343;1;124;-70;-80.6;44.4;44.2;70;69.9;27.7;0.0;
19/02/2025 10:53:32;100;0;269.85;-4;-20.36;23.17;929.9;10.70;75260;2837.547;-1801.347;1;109;-70;-80.6;44.4;44.0;70;69.9;27.7;0.0;
19/02/2025 10:53:52;100;0;258.48;-4;-20.38;23.18;932.5;10.70;75258;2837.546;-1801.350;1;99;-70;-82.3;44.4;44.2;70;69.9;27.7;0.0;
19/02/2025 10:54:12;100;0;245.30;-4;-19.73;23.07;935.1;10.70;75261;2837.544;-1801.353;1;91;-70;-83.9;44.4;44.0;70;69.9;27.7;0.0;
19/02/2025 10:54:32;100;0;232.26;-4;-19.64;23.01;937.6;10.70;75250;2837.542;-1801.356;1;83;-70;-82.3;44.4;44.2;70;69.9;27.7;0.0;
19/02/2025 10:54:52;100;0;221.04;-4;-20.33;23.22;940.0;10.60;75248;2837.539;-1801.358;1;75;-70;-80.6;44.4;44.0;70;69.9;27.7;0.0;
19/02/2025 10:55:12;100;0;204.79;-4;-19.95;22.85;942.5;10.60;75241;2837.536;-1801.359;1;68;-70;-80.6;44.4;44.0;70;69.9;27.7;0.0;
19/02/2025 10:55:32;100;0;192.19;-4;-19.85;22.95;944.8;10.60;75233;2837.533;-1801.360;1;61;-70;-82.3;44.4;44.0;70;69.9;27.7;0.0;
19/02/2025 10:55:52;100;0;179.27;-4;-19.92;22.76;947.1;10.60;75242;2837.530;-1801.360;1;54;-70;-82.3;44.4;44.2;70;69.9;27.7;0.0;
19/02/2025 10:56:12;100;0;166.90;-4;-20.02;22.94;949.3;10.60;75229;2837.527;-1801.359;1;47;-70;-80.6;44.4;44.2;70;69.9;27.8;0.0;
19/02/2025 10:56:32;100;0;157.63;-4;-20.20;22.97;951.5;10.60;75235;2837.524;-1801.357;1;41;-70;-80.6;44.4;44.0;70;69.9;27.7;0.0;
19/02/2025 10:56:52;100;0;148.26;-4;-20.66;23.02;953.7;10.50;75228;2837.522;-1801.356;1;35;-70;-80.6;44.4;44.0;70;69.9;27.7;0.0;
19/02/2025 10:57:12;100;0;141.35;-4;-20.89;23.18;956.1;10.50;75229;2837.519;-1801.353;1;28;-70;-80.6;44.4;44.2;70;69.9;27.7;0.0;
19/02/2025 10:57:32;100;0;130.46;-4;-21.22;23.07;958.4;10.50;75211;2837.517;-1801.351;1;22;-70;-80.6;44.4;44.2;70;69.9;27.7;0.0;
19/02/2025 10:57:52;100;0;121.92;-4;-20.66;23.15;960.7;10.50;75209;2837.515;-1801.348;1;16;-70;-80.6;44.4;44.0;70;69.9;27.7;0.0;
19/02/2025 10:58:12;100;0;112.08;-4;-20.45;23.21;963.2;10.50;75202;2837.514;-1801.344;1;10;-70;-80.6;44.4;44.2;70;69.9;27.7;0.0;
19/02/2025 10:58:32;100;0;102.99;-4;-20.37;22.64;965.7;10.40;75205;2837.513;-1801.340;1;4;-70;-82.3;44.4;44.0;70;69.9;27.7;0.0;
19/02/2025 10:58:52;100;0;92.39;-4;-20.05;23.17;968.0;10.40;75209;2837.513;-1801.337;1;358;-70;-80.6;44.4;44.0;70;69.9;27.7;0.0;
19/02/2025 10:59:12;100;0;80.78;-4;-19.75;23.12;970.2;10.40;75192;2837.513;-1801.333;1;353;-70;-80.6;44.4;44.0;70;69.9;27.7;0.0;
19/02/2025 10:59:32;100;0;70.44;-4;-20.48;23.03;972.3;10.40;75195;2837.513;-1801.330;1;348;-70;-82.3;44.4;44.0;70;69.9;27.7;0.0;
19/02/2025 10:59:52;100;0;58.38;-4;-20.44;23.02;974.4;10.40;75185;2837.515;-1801.328;1;343;-70;-80.6;44.4;44.2;70;69.9;27.7;0.0;
19/02/2025 11:00:12;100;0;48.20;-4;-20.00;23.03;976.6;10.40;75193;2837.516;-1801.325;1;338;-70;-80.6;44.4;44.0;70;69.9;27.7;0.0;
19/02/2025 11:00:32;100;0;37.43;-4;-20.43;23.11;978.7;10.30;75176;2837.518;-1801.323;1;333;-70;-80.6;44.4;44.2;70;69.9;27.7;0.0;
19/02/2025 11:00:52;100;0;25.43;-4;-19.89;23.02;981.0;10.30;75169;2837.521;-1801.321;1;328;-70;-83.9;44.4;44.0;70;69.9;27.7;0.0;
19/02/2025 11:01:12;100;0;13.86;-4;-20.38;23.04;983.1;10.30;75185;2837.523;-1801.320;1;324;-70;-80.6;44.4;44.2;70;69.9;27.7;0.0;
19/02/2025 11:01:32;100;0;1.86;-4;-20.26;23.15;985.2;10.30;75176;2837.525;-1801.320;1;320;-70;-80.6;44.4;44.0;63;63.2;27.7;0.0;
19/02/2025 11:01:52;100;0;351.32;-4;-19.60;19.39;987.5;10.30;75178;2837.528;-1801.320;1;316;-70;-80.6;44.4;44.0;53;52.8;27.7;0.0;
19/02/2025 11:02:12;100;0;340.68;-4;-18.91;14.17;989.6;10.20;75164;2837.531;-1801.321;1;313;-70;-80.6;44.7;44.8;41;41.1;27.7;0.0;
19/02/2025 11:02:32;100;0;331.45;-4;-19.14;8.19;991.7;10.20;75164;2837.533;-1801.323;1;310;-70;-82.3;44.7;44.8;31;31.1;27.7;0.0;
19/02/2025 11:02:52;100;0;327.01;-4;-19.09;3.56;993.7;10.20;75178;2837.535;-1801.324;1;307;-70;-80.6;44.7;44.8;27;27.1;27.7;0.0;
19/02/2025 11:03:12;100;0;322.69;-4;-19.27;1.34;995.9;10.20;75169;2837.537;-1801.326;1;304;-70;-80.6;44.7;44.8;25;24.8;27.7;0.0;
19/02/2025 11:03:32;100;0;320.03;-4;-19.13;0.45;998.0;10.20;75159;2837.539;-1801.328;1;300;-70;-82.3;44.7;44.8;27;27.1;27.7;0.0;
19/02/2025 11:03:41;118;0;319.04;-4;-18.55;2.02;999.0;10.20;75158;2837.540;-1801.329;1;298;310;-79.0;27.7;27.7;9;8.6;27.7;0.0;
19/02/2025 11:03:51;118;0;357.14;-4;-7.31;-7.87;999.8;10.20;75153;2837.541;-1801.329;1;291;310;46.8;27.7;27.4;9;9.0;26.4;-1.0;
19/02/2025 11:04:01;118;0;46.52;-4;12.31;-7.67;999.8;10.20;74889;2837.541;-1801.328;1;291;310;171.0;27.7;27.2;9;9.0;26.3;-1.0;
19/02/2025 11:04:11;118;0;40.07;-4;18.60;-8.12;999.3;10.20;74623;2837.541;-1801.328;1;288;310;296.8;27.7;27.7;9;9.0;26.3;-1.0;
19/02/2025 11:04:21;118;0;41.56;-4;16.32;-8.06;998.5;10.20;74380;2837.542;-1801.327;1;282;310;312.9;27.7;27.8;9;9.0;26.4;-1.0;
19/02/2025 11:04:31;118;0;319.55;-4;14.54;-7.73;997.5;10.20;74376;2837.543;-1801.328;1;277;310;312.9;27.7;27.8;9;9.0;27.7;-1.0;
19/02/2025 11:04:51;117;0;312.53;-4;14.55;-7.83;995.6;10.20;74366;2837.545;-1801.330;1;265;310;312.9;27.7;28.0;9;9.0;27.7;-1.0;
19/02/2025 11:05:11;117;0;305.81;-4;13.13;-7.88;993.6;10.30;74367;2837.546;-1801.333;1;245;310;311.3;25.7;25.2;-35;-35.2;27.7;-1.0;
19/02/2025 11:05:31;117;0;292.53;-4;14.34;-30.49;991.3;10.30;74356;2837.547;-1801.336;1;208;310;312.9;24.0;23.9;-66;-65.9;27.7;-1.0;
19/02/2025 11:05:51;117;0;280.23;-4;14.11;-45.15;989.1;10.30;74358;2837.548;-1801.340;1;157;310;311.3;22.2;22.1;-70;-69.9;27.7;-1.0;
19/02/2025 11:06:11;117;0;270.98;-4;18.94;-47.17;986.5;10.30;74354;2837.547;-1801.343;1;126;310;312.9;21.9;21.9;-70;-69.9;27.7;-1.0;
19/02/2025 11:06:31;117;0;260.68;-4;19.37;-47.11;983.6;10.30;74355;2837.547;-1801.348;1;107;310;312.9;21.9;21.9;-70;-69.9;27.7;-1.0;
19/02/2025 11:06:51;117;0;250.25;-4;19.22;-46.97;980.5;10.30;74346;2837.545;-1801.352;1;95;310;312.9;21.9;21.9;-70;-69.9;27.7;-1.0;
19/02/2025 11:07:11;117;0;238.79;-4;19.33;-47.32;977.6;10.30;74341;2837.543;-1801.355;1;85;310;312.9;21.9;21.9;-70;-69.9;27.7;-1.0;
19/02/2025 11:07:31;117;0;228.44;-4;19.24;-47.02;974.6;10.30;74345;2837.540;-1801.359;1;77;310;312.9;21.9;22.1;-70;-69.9;27.7;-1.0;
19/02/2025 11:07:51;117;0;218.31;-4;19.07;-47.21;971.6;10.30;74339;2837.537;-1801.361;1;70;310;312.9;21.9;21.9;-70;-69.9;27.7;-1.0;
19/02/2025 11:08:11;117;0;207.04;-4;19.01;-46.85;968.4;10.30;74342;2837.532;-1801.363;1;62;310;312.9;21.9;21.9;-70;-69.9;27.7;-1.0;
19/02/2025 11:08:31;117;0;198.13;-4;19.13;-46.82;965.4;10.30;74351;2837.528;-1801.364;1;56;310;312.9;21.9;21.9;-70;-69.9;27.7;-1.0;
19/02/2025 11:08:51;117;0;186.94;-4;19.40;-47.40;962.4;10.20;74330;2837.524;-1801.365;1;50;310;312.9;21.9;21.9;-70;-69.9;27.7;-1.0;
19/02/2025 11:09:11;117;0;177.11;-4;19.28;-47.14;959.2;10.20;74325;2837.520;-1801.364;1;44;310;309.7;21.9;22.1;-70;-69.9;27.7;-1.0;
19/02/2025 11:09:31;117;0;167.25;-4;19.04;-46.89;956.1;10.20;74325;2837.516;-1801.363;1;38;310;312.9;21.9;21.9;-70;-69.9;27.7;-1.0;
19/02/2025 11:09:51;117;0;153.61;-4;18.05;-46.79;953.0;10.20;74325;2837.511;-1801.361;1;31;310;312.9;21.3;21.2;-70;-69.9;27.7;-1.0;
19/02/2025 11:10:11;117;0;141.04;-4;20.06;-47.67;950.0;10.20;74321;2837.508;-1801.358;1;26;310;314.5;21.3;20.9;-70;-69.9;27.7;-1.0;
19/02/2025 11:10:31;117;0;128.95;-4;20.67;-47.74;946.8;10.20;74308;2837.506;-1801.354;1;20;310;312.9;21.3;21.1;-70;-69.9;27.7;-1.0;
19/02/2025 11:10:51;117;0;118.19;-4;20.58;-47.38;943.6;10.20;74316;2837.503;-1801.350;1;14;310;312.9;21.3;20.9;-70;-69.9;27.7;-1.0;
19/02/2025 11:11:11;117;0;107.32;-4;20.31;-47.28;940.5;10.20;74309;2837.502;-1801.345;1;9;310;314.5;21.3;21.1;-70;-69.9;27.7;-1.0;
19/02/2025 11:11:31;117;0;95.32;-4;20.00;-47.35;937.5;10.20;74314;2837.501;-1801.341;1;3;310;312.9;21.3;21.1;-70;-69.9;27.7;-1.0;
19/02/2025 11:11:51;117;0;85.03;-4;20.76;-47.21;934.4;10.20;74303;2837.502;-1801.336;1;358;310;312.9;21.3;20.9;-70;-69.9;27.7;-1.0;
19/02/2025 11:12:11;117;0;74.40;-4;20.67;-47.14;931.3;10.10;74308;2837.502;-1801.332;1;353;310;312.9;21.3;20.9;-70;-69.9;27.7;-1.0;
19/02/2025 11:12:31;117;0;64.08;-4;20.44;-47.36;928.4;10.10;74321;2837.504;-1801.328;1;348;310;312.9;21.3;20.9;-63;-63.2;27.7;-1.0;
19/02/2025 11:12:51;117;0;52.30;-4;20.81;-43.54;925.4;10.10;74301;2837.506;-1801.324;1;343;310;312.9;21.3;20.9;-54;-54.2;27.7;-1.0;
19/02/2025 11:13:11;117;0;39.55;-4;21.47;-38.74;922.4;10.10;74304;2837.508;-1801.321;1;338;310;312.9;21.3;21.1;-44;-44.2;27.7;-1.0;
19/02/2025 11:13:31;117;0;29.56;-4;22.94;-33.57;919.5;10.10;74299;2837.511;-1801.319;1;334;310;312.9;22.2;22.4;-37;-37.0;27.7;-1.0;
19/02/2025 11:13:51;117;0;18.55;-4;20.80;-29.86;916.7;10.10;74310;2837.514;-1801.318;1;330;310;312.9;22.2;22.4;-28;-28.0;27.7;-1.0;
19/02/2025 11:14:11;117;0;8.82;-4;22.06;-25.00;914.0;10.10;74297;2837.517;-1801.317;1;326;310;312.9;22.8;23.0;-21;-21.2;27.7;-1.0;
19/02/2025 11:14:31;117;0;358.92;-4;21.96;-21.85;911.4;10.10;74293;2837.520;-1801.317;1;323;310;314.5;22.8;23.0;-12;-12.2;27.7;-1.0;
19/02/2025 11:14:51;117;0;349.43;-4;22.61;-17.27;908.7;10.10;74298;2837.523;-1801.318;1;320;310;312.9;23.6;23.7;-2;-1.8;27.7;-1.0;
19/02/2025 11:15:11;117;0;341.66;-4;22.21;-12.45;906.0;10.00;74294;2837.525;-1801.319;1;317;310;314.5;24.3;24.4;7;7.2;27.7;-1.0;
19/02/2025 11:15:31;117;0;336.23;-4;21.76;-8.16;903.4;10.00;74289;2837.528;-1801.320;1;315;310;314.5;24.3;24.4;13;13.5;27.7;-1.0;
19/02/2025 11:15:51;117;0;332.15;-4;21.88;-4.89;900.7;10.00;74293;2837.531;-1801.321;1;312;310;311.3;24.3;24.4;15;14.9;27.7;-1.0;
19/02/2025 11:16:11;117;0;326.92;-4;22.14;-3.84;898.1;10.00;74303;2837.533;-1801.323;1;310;310;316.1;24.9;25.2;20;19.9;27.7;-1.0;
19/02/2025 11:16:31;117;0;323.82;-4;21.71;-1.54;895.5;10.00;74307;2837.535;-1801.325;1;307;310;312.9;24.9;25.2;22;22.1;27.7;-1.0;
19/02/2025 11:16:51;117;0;319.09;-4;21.30;-0.53;892.8;10.00;74284;2837.538;-1801.327;1;304;310;314.5;24.9;25.2;24;24.4;27.7;-1.0;
19/02/2025 11:17:11;117;0;315.17;-4;21.29;0.83;890.2;10.00;74297;2837.540;-1801.330;1;300;310;312.9;24.9;25.2;24;24.4;27.7;-1.0;
19/02/2025 11:17:31;117;0;313.49;-4;21.41;0.88;887.6;10.00;74290;2837.542;-1801.332;1;294;310;314.5;24.9;25.2;18;18.1;27.7;-1.0;
19/02/2025 11:17:51;117;0;309.57;-4;21.21;-2.94;885.0;10.00;74298;2837.543;-1801.335;1;280;310;312.9;24.9;25.2;4;3.6;27.7;-1.0;
19/02/2025 11:18:11;117;0;302.30;-4;19.77;-10.23;882.4;10.00;74293;2837.545;-1801.338;1;198;310;314.5;24.9;25.0;-70;-69.9;27.7;-1.0;
