Timestamp;NavState;SecurityLevel;Heading;Declination;Pitch;Roll;Depth;Temperature;Pa;Lat;Lon;DeadReckoning;DesiredH;BallastCmd;BallastPos;LinCmd;LinPos;AngCmd;AngPos;Voltage;Altitude;
21/02/2025 11:26:45;119;0;342.40;-4;-56.87;-11.84;0.2;17.40;75747;2836.779;-1758.295;0;348;500;509.7;100.0;100.6;0;-0.5;27.3;-1.0;
21/02/2025 11:26:55;116;0;319.82;-4;-60.57;-18.36;0.2;17.40;75750;2836.778;-1758.291;0;348;500;509.7;100.0;100.6;0;-0.9;27.3;-1.0;
21/02/2025 11:27:24;116;0;295.48;-4;-48.94;-7.28;0.0;17.50;75762;2836.784;-1758.294;0;347;500;509.7;100.0;100.6;0;-0.5;27.3;-1.0;
21/02/2025 11:27:46;116;0;298.74;-4;-55.52;-11.50;0.2;17.60;75772;2836.785;-1758.295;0;165;500;508.1;100.0;100.6;0;-0.9;27.3;-1.0;
21/02/2025 11:28:06;116;0;317.20;-4;-49.41;-18.49;0.3;17.70;75772;2836.788;-1758.296;0;165;500;509.7;100.0;100.6;0;-0.5;27.3;-1.0;
21/02/2025 11:28:26;116;0;311.44;-4;-51.82;-12.94;0.3;17.70;75783;2836.790;-1758.296;0;165;500;509.7;100.0;100.6;0;-0.5;27.3;-1.0;
21/02/2025 11:29:29;116;0;291.41;-4;-54.89;-11.36;0.3;17.90;75807;2836.801;-1758.299;0;165;500;509.7;100.0;100.6;0;-0.5;27.3;-1.0;
21/02/2025 11:30:44;116;0;302.39;-4;-55.80;-20.44;0.2;18.30;75843;2836.812;-1758.303;0;165;500;511.3;100.0;100.6;0;-0.5;27.3;-1.0;
21/02/2025 11:33:00;116;0;255.13;-4;-56.41;-13.10;0.2;18.70;75871;2836.832;-1758.310;0;165;500;509.7;100.0;100.7;0;-0.5;27.3;-1.0;
21/02/2025 11:33:21;116;0;268.50;-4;-50.74;-10.16;0.2;18.80;75881;2836.833;-1758.310;0;165;500;509.7;100.0;100.7;0;-0.5;27.3;-1.0;
21/02/2025 11:33:41;116;0;283.17;-4;-52.82;-18.30;0.1;18.80;75889;2836.836;-1758.311;0;165;500;509.7;100.0;100.7;0;-0.5;27.3;-1.0;
21/02/2025 11:33:52;116;0;287.75;-4;-48.28;-8.16;0.3;18.90;75899;2836.839;-1758.311;0;165;500;509.7;100.0;100.6;0;-0.5;27.3;-1.0;
21/02/2025 11:34:03;116;0;296.65;-4;-53.85;-16.33;0.1;18.90;75894;2836.840;-1758.312;0;165;500;509.7;100.0;100.6;0;-0.5;27.3;-1.0;
21/02/2025 11:34:23;110;0;293.92;-4;-54.69;-13.63;0.0;19.00;75900;2836.840;-1758.312;0;165;-70;395.2;100.0;100.6;-7;-7.2;27.3;-1.0;
21/02/2025 11:34:33;110;0;294.88;-4;-50.74;-11.43;0.2;19.00;76261;2836.840;-1758.312;1;165;-70;245.2;100.0;100.7;-7;-7.7;27.3;-1.0;
21/02/2025 11:34:43;110;0;305.35;-4;-57.17;-19.17;0.6;19.00;76489;2836.840;-1758.313;1;165;-70;82.3;100.0;100.6;-7;-7.7;27.3;-1.0;
21/02/2025 11:34:53;110;0;307.03;-4;-66.95;-20.61;1.2;19.00;76837;2836.841;-1758.313;1;165;-70;-67.7;100.0;100.6;-7;-7.2;27.3;-1.0;
21/02/2025 11:35:03;110;0;314.61;-4;-67.23;-22.93;1.5;19.00;77136;2836.841;-1758.313;1;165;-70;-67.7;43.6;43.6;-7;-7.2;27.3;-1.0;
21/02/2025 11:35:23;100;0;319.99;-4;-33.68;-15.52;5.0;19.10;77100;2836.843;-1758.315;1;165;-70;-66.1;43.6;43.4;-7;-7.2;27.3;-1.0;
21/02/2025 11:35:44;100;0;329.80;-4;-21.45;-15.08;8.7;19.10;77113;2836.847;-1758.318;1;165;-70;-62.9;43.6;43.3;70;69.9;27.3;-1.0;
21/02/2025 11:36:04;100;0;325.34;-4;-24.62;23.99;11.7;19.10;77125;2836.849;-1758.320;1;165;-70;-62.9;42.2;42.1;70;70.4;27.3;-1.0;
21/02/2025 11:36:24;100;0;311.84;-4;-22.19;23.65;14.7;19.10;77131;2836.852;-1758.324;1;165;-70;-62.9;41.5;41.5;70;70.4;27.3;0.0;
21/02/2025 11:36:44;100;0;301.58;-4;-19.50;24.02;17.5;19.10;77125;2836.853;-1758.327;1;165;-70;-62.9;41.5;41.4;70;70.4;27.3;0.0;
21/02/2025 11:37:04;100;0;288.18;-4;-19.66;23.88;20.2;19.10;77137;2836.854;-1758.331;1;165;-70;-62.9;41.5;41.4;70;69.9;27.3;0.0;
21/02/2025 11:37:24;100;0;276.88;-4;-18.90;24.07;22.7;19.10;77140;2836.855;-1758.335;1;165;-70;-62.9;41.9;41.8;70;70.4;27.3;0.0;
21/02/2025 11:37:44;100;0;264.80;-4;-19.13;23.65;25.4;19.10;77148;2836.854;-1758.340;1;165;-70;-62.9;41.9;41.8;70;70.4;27.3;0.0;
21/02/2025 11:38:04;100;0;253.02;-4;-19.24;24.03;28.1;19.10;77148;2836.853;-1758.344;1;165;-70;-62.9;41.9;41.8;70;69.9;27.3;0.0;
21/02/2025 11:38:24;100;0;244.10;-4;-18.73;23.69;30.7;19.20;77145;2836.852;-1758.347;1;165;-70;-62.9;42.2;42.3;70;70.4;27.3;0.0;
21/02/2025 11:38:44;100;0;231.64;-4;-19.82;23.54;33.3;19.20;77153;2836.850;-1758.351;1;165;-70;-62.9;42.2;42.4;70;70.4;27.3;0.0;
21/02/2025 11:39:04;100;0;219.19;-4;-20.09;23.82;36.0;19.20;77150;2836.847;-1758.353;1;165;-70;-61.3;42.2;42.4;70;70.4;27.3;0.0;
21/02/2025 11:39:24;100;0;205.04;-4;-19.53;23.82;38.8;19.20;77156;2836.844;-1758.355;1;165;-70;-62.9;42.2;42.6;66;65.9;27.3;0.0;
21/02/2025 11:39:44;100;0;194.49;-4;-20.11;21.00;41.5;19.20;77161;2836.840;-1758.357;1;165;-70;-66.1;42.2;42.4;52;51.9;27.3;0.0;
21/02/2025 11:40:04;100;0;183.15;-4;-19.56;14.04;44.2;19.20;77150;2836.837;-1758.357;1;165;-70;-62.9;42.2;42.4;33;32.9;27.3;0.0;
21/02/2025 11:40:24;100;0;176.99;-4;-19.02;4.68;46.9;19.20;77154;2836.833;-1758.357;1;165;-70;-62.9;42.2;42.4;24;23.5;27.3;0.0;
21/02/2025 11:40:44;100;0;173.01;-4;-19.07;-0.17;49.5;19.20;77165;2836.830;-1758.357;1;165;-70;-64.5;42.2;42.4;19;19.0;27.3;0.0;
21/02/2025 11:41:04;100;0;173.84;-4;-18.83;-2.44;52.1;19.20;77154;2836.826;-1758.357;1;165;-70;-62.9;42.6;42.6;19;18.5;27.3;0.0;
21/02/2025 11:41:24;100;0;172.49;-4;-19.31;-2.38;54.8;19.20;77164;2836.823;-1758.356;1;165;-70;-66.1;42.6;42.6;19;18.5;27.3;0.0;
21/02/2025 11:41:44;100;0;169.42;-4;-19.17;-2.42;57.6;19.20;77167;2836.819;-1758.356;1;165;-70;-62.9;42.6;42.7;16;15.8;27.3;0.0;
21/02/2025 11:42:04;100;0;169.63;-4;-19.45;-4.13;60.3;19.30;77175;2836.816;-1758.355;1;165;-70;-62.9;42.6;42.7;16;15.3;27.3;0.0;
21/02/2025 11:42:24;100;0;168.79;-4;-18.92;-4.14;63.0;19.30;77177;2836.812;-1758.355;1;165;-70;-62.9;42.9;43.0;16;15.3;27.3;0.0;
21/02/2025 11:42:44;100;0;169.17;-4;-20.08;-4.11;65.7;19.30;77177;2836.809;-1758.354;1;165;-70;-62.9;42.9;43.3;16;14.9;27.3;0.0;
21/02/2025 11:43:04;100;0;168.48;-4;-20.17;-4.12;68.4;19.30;77182;2836.805;-1758.354;1;165;-70;-62.9;42.9;43.3;16;15.3;27.3;0.0;
21/02/2025 11:43:24;100;0;168.82;-4;-20.11;-4.08;71.3;19.30;77182;2836.802;-1758.353;1;165;-70;-62.9;42.9;43.2;16;15.3;27.3;0.0;
21/02/2025 11:43:44;100;0;167.98;-4;-20.39;-3.97;74.2;19.30;77179;2836.798;-1758.352;1;165;-70;-62.9;42.9;43.2;16;14.9;27.3;0.0;
21/02/2025 11:44:04;100;0;164.31;-4;-20.51;-4.02;77.0;19.30;77173;2836.795;-1758.351;1;165;-70;-62.9;42.9;43.2;16;15.3;27.3;0.0;
21/02/2025 11:44:24;100;0;157.71;-4;-19.57;-4.12;80.0;19.30;77167;2836.791;-1758.350;1;165;-70;-62.9;42.9;43.2;16;15.3;27.3;0.0;
21/02/2025 11:44:44;100;0;158.29;-4;-19.30;-4.06;82.8;19.30;77156;2836.788;-1758.349;1;165;-70;-62.9;42.9;43.3;16;15.3;27.3;0.0;
21/02/2025 11:45:04;100;0;157.63;-4;-19.92;-4.10;85.5;19.30;77145;2836.784;-1758.347;1;165;-70;-62.9;42.9;43.3;16;15.3;27.3;0.0;
21/02/2025 11:45:24;100;0;156.15;-4;-19.83;-4.08;88.5;19.30;77139;2836.781;-1758.346;1;165;-70;-62.9;42.9;43.3;14;14.0;27.3;0.0;
21/02/2025 11:45:44;100;0;151.38;-4;-19.92;-4.86;91.2;19.30;77125;2836.778;-1758.344;1;165;-70;-64.5;42.9;43.3;11;10.8;27.3;0.0;
21/02/2025 11:46:04;100;0;150.47;-4;-19.71;-6.54;94.1;19.30;77129;2836.775;-1758.342;1;165;-70;-62.9;42.9;43.3;11;10.4;27.3;0.0;
21/02/2025 11:46:24;100;0;148.55;-4;-19.92;-6.59;97.0;19.30;77120;2836.771;-1758.340;1;165;-70;-62.9;42.9;43.3;8;8.1;27.3;0.0;
21/02/2025 11:46:44;100;0;146.08;-4;-19.25;-7.95;100.0;19.20;77116;2836.768;-1758.338;1;165;-70;-66.1;42.9;43.2;5;4.5;27.3;0.0;
21/02/2025 11:47:04;100;0;157.14;-4;-18.80;-9.53;102.7;19.20;77105;2836.765;-1758.337;1;165;-70;-62.9;43.3;43.3;14;14.0;27.3;0.0;
21/02/2025 11:47:24;100;0;161.15;-4;-19.89;-4.48;105.6;19.20;77094;2836.761;-1758.336;1;165;-70;-64.5;43.3;43.3;14;14.4;27.3;0.0;
21/02/2025 11:47:44;100;0;164.91;-4;-19.20;-4.30;108.4;19.20;77081;2836.758;-1758.335;1;165;-70;-61.3;43.3;43.2;14;14.4;27.3;0.0;
21/02/2025 11:48:04;100;0;167.20;-4;-19.84;-4.43;111.1;19.20;77078;2836.754;-1758.334;1;165;-70;-61.3;43.3;43.3;14;14.4;27.3;0.0;
21/02/2025 11:48:24;100;0;171.60;-4;-19.67;-4.26;113.9;19.20;77078;2836.751;-1758.334;1;165;-70;-64.5;43.3;43.3;18;18.1;27.3;0.0;
21/02/2025 11:48:44;100;0;171.72;-4;-20.11;-2.39;116.7;19.20;77068;2836.747;-1758.333;1;165;-70;-62.9;43.3;43.3;18;18.1;27.3;0.0;
21/02/2025 11:49:04;100;0;171.73;-4;-19.76;-2.41;119.6;19.10;77063;2836.743;-1758.333;1;165;-70;-62.9;43.3;43.3;18;18.5;27.3;0.0;
21/02/2025 11:49:24;100;0;173.04;-4;-20.13;-2.43;122.6;19.10;77050;2836.739;-1758.333;1;165;-70;-64.5;43.3;43.2;18;18.5;27.3;0.0;
21/02/2025 11:49:44;100;0;175.17;-4;-19.74;-2.41;125.4;19.10;77051;2836.736;-1758.332;1;165;-70;-62.9;43.3;43.4;21;21.2;27.3;0.0;
21/02/2025 11:50:04;100;0;174.09;-4;-20.00;-0.70;128.3;19.10;77049;2836.732;-1758.332;1;165;-70;-62.9;43.3;43.3;21;21.7;27.3;0.0;
21/02/2025 11:50:24;100;0;170.49;-4;-19.95;-0.84;131.2;19.10;77038;2836.728;-1758.332;1;165;-70;-62.9;43.3;43.3;17;17.1;27.3;0.0;
21/02/2025 11:50:44;100;0;164.53;-4;-19.85;-3.20;134.0;19.10;77033;2836.725;-1758.331;1;165;-70;-62.9;43.3;43.3;15;14.4;27.3;0.0;
21/02/2025 11:51:04;100;0;164.50;-4;-19.41;-4.58;136.8;19.00;77029;2836.721;-1758.330;1;165;-70;-64.5;43.3;43.3;15;14.0;27.3;0.0;
21/02/2025 11:51:24;100;0;165.27;-4;-18.84;-4.52;139.5;19.00;77012;2836.718;-1758.329;1;165;-70;-62.9;43.6;43.6;15;14.4;27.3;0.0;
21/02/2025 11:51:44;100;0;165.46;-4;-19.86;-4.62;141.9;19.00;76993;2836.715;-1758.328;1;165;-70;-62.9;43.6;43.9;15;14.0;27.3;0.0;
21/02/2025 11:52:04;100;0;166.06;-4;-20.29;-4.60;144.6;19.00;76986;2836.712;-1758.328;1;165;-70;-62.9;43.6;43.9;15;14.0;27.3;0.0;
21/02/2025 11:52:24;100;0;166.62;-4;-20.66;-4.51;147.1;18.90;76959;2836.708;-1758.327;1;165;-70;-64.5;43.6;43.9;15;14.0;27.3;0.0;
21/02/2025 11:52:44;100;0;167.56;-4;-20.78;-4.41;149.9;18.90;76968;2836.705;-1758.326;1;165;-70;-62.9;43.6;43.9;15;14.4;27.3;0.0;
21/02/2025 11:53:04;100;0;167.95;-4;-20.32;-4.45;152.7;18.90;76949;2836.702;-1758.326;1;165;-70;-62.9;43.6;43.9;15;14.0;27.3;0.0;
21/02/2025 11:53:24;100;0;162.90;-4;-20.74;-4.47;155.4;18.80;76926;2836.698;-1758.325;1;165;-70;-64.5;43.6;43.9;15;14.0;27.3;0.0;
21/02/2025 11:53:44;100;0;163.56;-4;-20.39;-4.49;158.1;18.80;76926;2836.695;-1758.324;1;165;-70;-62.9;43.6;43.9;15;14.4;27.3;0.0;
21/02/2025 11:54:04;100;0;163.50;-4;-20.61;-4.65;160.8;18.80;76913;2836.692;-1758.323;1;165;-70;-62.9;43.6;43.7;15;14.0;27.3;0.0;
21/02/2025 11:54:24;100;0;163.52;-4;-20.33;-4.53;163.6;18.80;76901;2836.688;-1758.322;1;165;-70;-62.9;43.6;43.9;15;14.4;27.3;0.0;
21/02/2025 11:54:44;100;0;163.56;-4;-20.57;-4.50;166.4;18.70;76903;2836.685;-1758.321;1;165;-70;-62.9;43.6;43.9;15;14.4;27.3;0.0;
21/02/2025 11:55:04;100;0;166.81;-4;-20.12;-4.50;169.1;18.70;76896;2836.682;-1758.321;1;165;-70;-62.9;43.6;43.9;15;14.0;27.3;0.0;
21/02/2025 11:55:24;100;0;167.93;-4;-20.17;-4.54;171.7;18.70;76883;2836.678;-1758.320;1;165;-70;-62.9;43.6;43.7;15;14.0;27.3;0.0;
21/02/2025 11:55:44;100;0;160.34;-4;-20.09;-4.56;174.3;18.60;76866;2836.675;-1758.319;1;165;-70;-62.9;43.6;43.9;15;14.4;27.3;0.0;
21/02/2025 11:56:04;100;0;155.87;-4;-20.38;-4.54;176.8;18.60;76864;2836.672;-1758.318;1;165;-70;-62.9;43.6;43.7;15;14.4;27.3;0.0;
21/02/2025 11:56:24;100;0;153.88;-4;-19.49;-4.52;179.4;18.60;76863;2836.669;-1758.316;1;165;-70;-66.1;43.6;43.9;15;14.0;27.3;0.0;
21/02/2025 11:56:44;100;0;153.38;-4;-20.24;-4.62;181.9;18.50;76850;2836.666;-1758.315;1;165;-70;-62.9;43.6;43.9;13;13.1;27.3;0.0;
21/02/2025 11:57:04;100;0;154.23;-4;-20.25;-5.34;184.6;18.50;76838;2836.663;-1758.313;1;165;-70;-62.9;43.6;43.9;13;12.6;27.3;0.0;
21/02/2025 11:57:24;100;0;152.95;-4;-20.35;-5.50;187.2;18.50;76837;2836.660;-1758.312;1;165;-70;-62.9;43.6;43.9;13;12.6;27.3;0.0;
21/02/2025 11:57:44;100;0;154.02;-4;-20.17;-5.27;189.9;18.40;76818;2836.657;-1758.310;1;165;-70;-62.9;43.6;43.9;13;12.6;27.3;0.0;
21/02/2025 11:58:04;100;0;155.37;-4;-20.24;-5.35;192.5;18.40;76813;2836.654;-1758.309;1;165;-70;-62.9;43.6;43.9;13;12.6;27.3;0.0;
21/02/2025 11:58:24;100;0;156.83;-4;-20.58;-5.34;195.1;18.40;76804;2836.651;-1758.308;1;165;-70;-62.9;43.6;43.9;15;14.9;27.3;0.0;
21/02/2025 11:58:44;100;0;157.65;-4;-20.73;-3.86;197.9;18.30;76789;2836.648;-1758.307;1;165;-70;-61.3;43.6;43.9;15;15.3;27.3;0.0;
21/02/2025 11:59:04;100;0;157.56;-4;-20.63;-3.92;200.5;18.30;76782;2836.645;-1758.305;1;165;-70;-62.9;43.6;43.9;15;15.3;27.3;0.0;
21/02/2025 11:59:24;100;0;155.24;-4;-20.84;-4.12;203.3;18.30;76770;2836.642;-1758.304;1;165;-70;-62.9;43.6;43.9;15;15.3;27.3;0.0;
21/02/2025 11:59:44;100;0;153.45;-4;-20.90;-3.86;206.0;18.20;76763;2836.639;-1758.302;1;165;-70;-62.9;43.6;43.9;13;12.6;27.3;0.0;
21/02/2025 12:00:04;100;0;153.33;-4;-20.46;-5.19;208.8;18.20;76762;2836.635;-1758.301;1;165;-70;-62.9;43.6;43.9;13;12.2;27.3;0.0;
21/02/2025 12:00:24;100;0;153.99;-4;-21.11;-5.49;211.5;18.20;76763;2836.632;-1758.299;1;165;-70;-62.9;43.6;43.9;13;12.2;27.3;0.0;
21/02/2025 12:00:44;100;0;154.71;-4;-19.87;-5.36;214.3;18.10;76750;2836.629;-1758.298;1;165;-70;-62.9;43.6;43.9;13;12.6;27.3;0.0;
21/02/2025 12:01:04;100;0;155.00;-4;-19.90;-5.41;216.9;18.10;76737;2836.626;-1758.297;1;165;-70;-62.9;43.6;43.9;13;12.2;27.3;0.0;
21/02/2025 12:01:24;100;0;156.38;-4;-20.32;-5.47;219.5;18.10;76727;2836.623;-1758.295;1;165;-70;-64.5;43.6;43.9;13;12.6;27.3;0.0;
21/02/2025 12:01:44;100;0;159.55;-4;-20.03;-5.48;222.0;18.00;76718;2836.620;-1758.294;1;165;-70;-62.9;43.6;43.9;15;15.3;27.3;0.0;
21/02/2025 12:02:04;100;0;160.41;-4;-20.69;-3.81;224.7;18.00;76705;2836.617;-1758.293;1;165;-70;-62.9;43.6;43.9;15;15.8;27.3;0.0;
21/02/2025 12:02:24;100;0;159.10;-4;-20.95;-3.73;227.5;18.00;76699;2836.614;-1758.292;1;165;-70;-62.9;43.6;43.9;15;15.8;27.3;0.0;
21/02/2025 12:02:44;100;0;159.38;-4;-21.05;-3.76;230.2;17.90;76689;2836.610;-1758.291;1;165;-70;-62.9;43.6;43.9;15;15.8;27.3;0.0;
21/02/2025 12:03:04;100;0;160.51;-4;-20.37;-3.79;233.1;17.90;76677;2836.607;-1758.290;1;165;-70;-62.9;43.6;43.9;15;15.3;27.3;0.0;
21/02/2025 12:03:24;100;0;162.67;-4;-19.36;-3.76;235.7;17.90;76667;2836.604;-1758.289;1;165;-70;-61.3;43.6;43.9;15;15.8;27.3;0.0;
21/02/2025 12:03:44;100;0;161.96;-4;-18.31;-3.68;238.3;17.80;76650;2836.600;-1758.288;1;165;-70;-62.9;44.1;44.2;15;15.3;27.3;0.0;
21/02/2025 12:04:04;100;0;164.22;-4;-20.89;-3.88;240.7;17.80;76645;2836.597;-1758.287;1;165;-70;-61.3;44.1;44.3;15;15.3;27.3;0.0;
21/02/2025 12:04:24;100;0;163.75;-4;-20.95;-3.83;243.6;17.70;76630;2836.594;-1758.286;1;165;-70;-64.5;44.1;44.3;15;15.8;27.3;0.0;
21/02/2025 12:04:44;100;0;164.31;-4;-20.96;-3.85;246.3;17.70;76628;2836.591;-1758.285;1;165;-70;-62.9;44.1;44.3;15;15.3;27.3;0.0;
21/02/2025 12:05:04;100;0;163.79;-4;-20.85;-3.79;249.0;17.60;76610;2836.587;-1758.284;1;165;-70;-62.9;44.1;44.3;15;15.3;27.3;0.0;
21/02/2025 12:05:24;100;0;163.23;-4;-21.02;-3.89;252.0;17.60;76606;2836.584;-1758.283;1;165;-70;-62.9;44.1;44.3;15;15.3;27.3;0.0;
21/02/2025 12:05:44;100;0;162.85;-4;-21.13;-3.65;254.8;17.60;76588;2836.580;-1758.282;1;165;-70;-62.9;44.1;44.5;15;15.8;27.3;0.0;
21/02/2025 12:06:04;100;0;162.96;-4;-20.90;-3.73;257.7;17.50;76590;2836.577;-1758.281;1;165;-70;-66.1;44.1;44.5;15;15.8;27.3;0.0;
21/02/2025 12:06:24;100;0;162.90;-4;-21.00;-3.84;260.7;17.50;76575;2836.573;-1758.280;1;165;-70;-62.9;44.1;44.3;15;15.8;27.3;0.0;
21/02/2025 12:06:44;100;0;168.84;-4;-21.53;-3.82;263.7;17.50;76566;2836.570;-1758.280;1;165;-70;-62.9;44.1;44.5;15;15.8;27.3;0.0;
21/02/2025 12:07:04;100;0;171.20;-4;-21.17;-3.98;266.8;17.40;76551;2836.566;-1758.279;1;165;-70;-62.9;44.1;44.3;17;17.1;27.3;0.0;
21/02/2025 12:07:24;100;0;175.64;-4;-21.67;-2.94;270.0;17.40;76550;2836.562;-1758.279;1;165;-70;-62.9;44.1;44.5;22;22.1;27.3;0.0;
21/02/2025 12:07:44;100;0;173.82;-4;-21.80;-0.25;273.3;17.30;76541;2836.558;-1758.279;1;165;-70;-64.5;44.1;44.5;20;19.9;27.3;0.0;
21/02/2025 12:08:04;100;0;170.56;-4;-21.80;-1.77;276.6;17.30;76530;2836.554;-1758.279;1;165;-70;-62.9;44.1;44.5;17;17.1;27.3;0.0;
21/02/2025 12:08:24;100;0;166.80;-4;-21.77;-3.13;279.9;17.30;76524;2836.551;-1758.278;1;165;-70;-62.9;44.1;44.6;15;14.4;27.3;0.0;
21/02/2025 12:08:44;100;0;164.42;-4;-21.46;-4.43;283.2;17.20;76523;2836.547;-1758.277;1;165;-70;-62.9;44.1;44.5;15;14.0;27.3;0.0;
21/02/2025 12:09:04;100;0;160.37;-4;-21.59;-4.40;286.4;17.20;76514;2836.543;-1758.275;1;165;-70;-64.5;44.1;44.5;15;14.0;27.3;0.0;
21/02/2025 12:09:24;100;0;161.27;-4;-21.23;-4.37;289.6;17.10;76493;2836.539;-1758.274;1;165;-70;-64.5;44.1;44.5;15;14.0;27.3;0.0;
21/02/2025 12:09:44;100;0;162.99;-4;-21.23;-4.58;292.7;17.10;76491;2836.536;-1758.273;1;165;-70;-62.9;44.1;44.5;15;14.4;27.3;0.0;
21/02/2025 12:10:04;100;0;164.25;-4;-21.60;-4.51;295.7;17.10;76479;2836.532;-1758.272;1;165;-70;-62.9;44.1;44.5;15;14.0;27.3;0.0;
21/02/2025 12:10:25;100;0;162.14;-4;-21.43;-4.47;299.1;17.00;76481;2836.528;-1758.271;1;165;-70;-62.9;44.1;44.5;15;14.0;27.3;0.0;
21/02/2025 12:10:45;100;0;159.25;-4;-21.68;-4.47;302.2;17.00;76471;2836.525;-1758.270;1;165;-70;-62.9;44.1;44.5;15;14.4;27.3;0.0;
21/02/2025 12:11:05;100;0;157.86;-4;-21.57;-4.48;305.5;16.90;76473;2836.521;-1758.268;1;165;-70;-62.9;44.1;44.5;15;14.0;27.3;0.0;
21/02/2025 12:11:25;100;0;155.77;-4;-21.62;-4.50;308.8;16.90;76464;2836.517;-1758.267;1;165;-70;-62.9;44.1;44.5;15;14.4;27.3;0.0;
21/02/2025 12:11:45;100;0;151.16;-4;-21.04;-4.50;312.1;16.90;76449;2836.514;-1758.265;1;165;-70;-62.9;44.1;44.5;11;10.8;27.3;0.0;
21/02/2025 12:12:05;100;0;153.15;-4;-20.74;-6.38;315.1;16.80;76445;2836.510;-1758.263;1;165;-70;-62.9;44.1;44.3;13;13.1;27.3;0.0;
21/02/2025 12:12:25;100;0;154.65;-4;-20.68;-4.83;318.0;16.80;76432;2836.507;-1758.261;1;165;-70;-62.9;44.1;44.5;13;13.5;27.3;0.0;
21/02/2025 12:12:45;100;0;153.88;-4;-21.23;-4.87;321.1;16.80;76421;2836.504;-1758.260;1;165;-70;-62.9;44.1;44.5;13;13.5;27.3;0.0;
21/02/2025 12:13:05;100;0;153.72;-4;-21.27;-4.78;324.2;16.70;76410;2836.500;-1758.258;1;165;-70;-62.9;44.1;44.5;13;13.5;27.3;0.0;
21/02/2025 12:13:25;100;0;152.75;-4;-21.72;-4.82;327.4;16.70;76398;2836.497;-1758.256;1;165;-70;-62.9;44.1;44.5;13;13.5;27.3;0.0;
21/02/2025 12:13:45;100;0;149.33;-4;-21.44;-4.83;330.7;16.60;76387;2836.493;-1758.254;1;165;-70;-64.5;44.1;44.5;9;9.0;27.3;0.0;
21/02/2025 12:14:05;100;0;149.16;-4;-20.56;-7.14;333.9;16.60;76383;2836.490;-1758.252;1;165;-70;-62.9;44.1;44.5;9;8.6;27.3;0.0;
21/02/2025 12:14:25;100;0;152.68;-4;-20.69;-7.33;336.8;16.60;76371;2836.487;-1758.250;1;165;-70;-62.9;44.1;44.5;12;12.2;27.3;0.0;
21/02/2025 12:14:45;100;0;152.60;-4;-20.89;-5.47;339.7;16.50;76360;2836.483;-1758.249;1;165;-70;-62.9;44.1;44.5;12;12.2;27.3;0.0;
21/02/2025 12:15:05;100;0;153.37;-4;-21.02;-5.43;342.7;16.50;76353;2836.480;-1758.247;1;165;-70;-62.9;44.1;44.5;12;12.2;27.3;0.0;
21/02/2025 12:15:25;100;0;153.40;-4;-21.11;-5.44;345.7;16.50;76352;2836.477;-1758.245;1;165;-70;-62.9;44.1;44.5;12;12.2;27.3;0.0;
21/02/2025 12:15:45;100;0;154.39;-4;-21.12;-5.41;348.6;16.40;76339;2836.474;-1758.244;1;165;-70;-62.9;44.1;44.5;12;12.2;27.3;0.0;
21/02/2025 12:16:05;100;0;154.86;-4;-21.08;-5.37;351.6;16.40;76325;2836.470;-1758.242;1;165;-70;-62.9;44.1;44.5;12;12.2;27.3;0.0;
21/02/2025 12:16:25;100;0;154.76;-4;-20.89;-5.46;354.5;16.30;76324;2836.467;-1758.241;1;165;-70;-62.9;44.1;44.5;12;12.2;27.3;0.0;
21/02/2025 12:16:45;100;0;155.43;-4;-20.85;-5.45;357.3;16.30;76323;2836.464;-1758.239;1;165;-70;-66.1;44.1;44.5;14;14.0;27.3;0.0;
21/02/2025 12:17:05;100;0;155.57;-4;-20.89;-4.48;360.1;16.30;76321;2836.461;-1758.238;1;165;-70;-62.9;44.1;44.5;14;14.4;27.3;0.0;
21/02/2025 12:17:25;100;0;158.20;-4;-20.95;-4.47;363.0;16.20;76299;2836.457;-1758.237;1;165;-70;-64.5;44.1;44.6;14;14.4;27.3;0.0;
21/02/2025 12:17:45;100;0;160.35;-4;-21.03;-4.47;365.8;16.20;76303;2836.454;-1758.236;1;165;-70;-62.9;44.1;44.5;14;14.0;27.3;0.0;
21/02/2025 12:18:05;100;0;161.25;-4;-21.39;-4.42;368.7;16.10;76287;2836.451;-1758.234;1;165;-70;-62.9;44.1;44.5;14;14.0;27.3;0.0;
21/02/2025 12:18:25;100;0;161.07;-4;-21.27;-4.43;371.6;16.10;76284;2836.447;-1758.233;1;165;-70;-64.5;44.1;44.5;14;14.0;27.3;0.0;
21/02/2025 12:18:45;100;0;160.47;-4;-21.77;-4.46;374.4;16.10;76267;2836.444;-1758.232;1;165;-70;-62.9;44.1;44.5;14;14.4;27.3;0.0;
21/02/2025 12:19:05;100;0;160.40;-4;-21.67;-4.30;377.5;16.00;76262;2836.441;-1758.231;1;165;-70;-62.9;44.1;44.5;14;14.0;27.3;0.0;
21/02/2025 12:19:25;100;0;159.29;-4;-21.21;-4.42;380.3;16.00;76261;2836.437;-1758.230;1;165;-70;-62.9;44.1;44.5;14;14.0;27.3;0.0;
21/02/2025 12:19:45;100;0;162.36;-4;-20.64;-4.37;383.1;16.00;76249;2836.434;-1758.229;1;165;-70;-62.9;44.1;44.5;14;14.0;27.3;0.0;
21/02/2025 12:20:05;100;0;165.63;-4;-20.80;-4.48;385.7;15.90;76251;2836.431;-1758.228;1;165;-70;-62.9;44.1;44.5;14;14.0;27.3;0.0;
21/02/2025 12:20:25;100;0;165.26;-4;-20.98;-4.51;388.3;15.90;76229;2836.428;-1758.228;1;165;-70;-62.9;44.1;44.5;14;14.0;27.3;0.0;
21/02/2025 12:20:45;100;0;163.90;-4;-20.97;-4.47;391.0;15.90;76231;2836.424;-1758.227;1;165;-70;-62.9;44.1;44.5;14;14.0;27.3;0.0;
21/02/2025 12:21:05;100;0;163.44;-4;-20.89;-4.46;393.7;15.80;76216;2836.421;-1758.226;1;165;-70;-62.9;44.1;44.5;14;14.0;27.3;0.0;
21/02/2025 12:21:25;100;0;162.96;-4;-20.97;-4.50;396.4;15.80;76212;2836.418;-1758.225;1;165;-70;-62.9;44.1;44.5;14;14.0;27.3;0.0;
21/02/2025 12:21:45;100;0;161.01;-4;-20.92;-4.51;399.2;15.70;76206;2836.415;-1758.224;1;165;-70;-62.9;44.1;44.5;14;14.0;27.3;0.0;
21/02/2025 12:22:05;100;0;159.56;-4;-20.90;-4.50;402.0;15.70;76201;2836.412;-1758.223;1;165;-70;-62.9;44.1;44.5;14;14.0;27.3;0.0;
21/02/2025 12:22:25;100;0;159.85;-4;-20.84;-4.52;404.7;15.70;76200;2836.408;-1758.222;1;165;-70;-62.9;44.1;44.5;14;14.4;27.3;0.0;
21/02/2025 12:22:45;100;0;160.65;-4;-20.69;-4.50;407.4;15.60;76193;2836.405;-1758.221;1;165;-70;-62.9;44.1;44.5;14;14.0;27.3;0.0;
21/02/2025 12:23:05;100;0;162.10;-4;-20.70;-4.58;410.1;15.60;76197;2836.402;-1758.220;1;165;-70;-62.9;44.1;44.5;14;14.4;27.3;0.0;
21/02/2025 12:23:25;100;0;163.51;-4;-20.72;-4.51;412.8;15.60;76186;2836.399;-1758.219;1;165;-70;-62.9;44.1;44.5;14;14.4;27.3;0.0;
21/02/2025 12:23:45;100;0;165.05;-4;-20.93;-4.70;415.5;15.50;76179;2836.396;-1758.218;1;165;-70;-64.5;44.1;44.3;14;14.0;27.3;0.0;
21/02/2025 12:24:05;100;0;166.90;-4;-20.74;-4.51;418.2;15.50;76173;2836.392;-1758.217;1;165;-70;-61.3;44.1;44.5;14;14.0;27.3;0.0;
21/02/2025 12:24:25;100;0;168.92;-4;-20.89;-4.46;420.9;15.50;76165;2836.389;-1758.217;1;165;-70;-62.9;44.1;44.5;16;15.8;27.3;0.0;
21/02/2025 12:24:45;100;0;170.94;-4;-20.80;-3.49;423.7;15.50;76169;2836.386;-1758.217;1;165;-70;-62.9;44.1;44.5;16;16.2;27.3;0.0;
21/02/2025 12:25:05;100;0;172.34;-4;-20.69;-3.47;426.4;15.40;76166;2836.382;-1758.216;1;165;-70;-62.9;44.1;44.5;18;18.1;27.3;0.0;
21/02/2025 12:25:25;100;0;171.16;-4;-21.05;-2.20;429.0;15.40;76153;2836.379;-1758.216;1;165;-70;-62.9;44.1;44.5;18;18.5;27.3;0.0;
21/02/2025 12:25:45;100;0;171.62;-4;-20.93;-2.24;431.8;15.40;76159;2836.376;-1758.216;1;165;-70;-62.9;44.1;44.5;18;18.5;27.3;0.0;
21/02/2025 12:26:05;100;0;171.34;-4;-21.23;-2.30;434.5;15.30;76151;2836.372;-1758.215;1;165;-70;-62.9;44.1;44.5;18;18.5;27.3;0.0;
21/02/2025 12:26:25;100;0;169.51;-4;-20.80;-2.39;437.1;15.30;76143;2836.369;-1758.215;1;165;-70;-62.9;44.1;44.5;16;15.8;27.3;0.0;
21/02/2025 12:26:45;100;0;167.57;-4;-20.83;-3.82;439.7;15.30;76145;2836.366;-1758.214;1;165;-70;-62.9;44.1;44.5;16;15.3;27.3;0.0;
21/02/2025 12:27:05;100;0;165.39;-4;-20.74;-3.75;442.2;15.20;76119;2836.363;-1758.214;1;165;-70;-62.9;44.1;44.5;16;15.8;27.3;0.0;
21/02/2025 12:27:25;100;0;160.35;-4;-20.95;-3.78;444.7;15.20;76124;2836.360;-1758.213;1;165;-70;-62.9;44.1;44.5;16;15.3;27.3;0.0;
21/02/2025 12:27:45;100;0;156.12;-4;-20.81;-3.80;447.3;15.20;76122;2836.357;-1758.211;1;165;-70;-62.9;44.1;44.5;14;14.0;27.3;0.0;
21/02/2025 12:28:05;100;0;154.79;-4;-21.11;-4.49;449.8;15.10;76118;2836.354;-1758.210;1;165;-70;-62.9;44.1;44.6;14;14.4;27.3;0.0;
21/02/2025 12:28:25;100;0;152.44;-4;-21.18;-4.53;452.4;15.10;76108;2836.351;-1758.209;1;165;-70;-62.9;44.1;44.5;12;12.2;27.3;0.0;
21/02/2025 12:28:45;100;0;151.80;-4;-21.05;-5.59;455.1;15.10;76096;2836.348;-1758.207;1;165;-70;-62.9;44.1;44.5;12;12.2;27.3;0.0;
21/02/2025 12:29:05;100;0;152.90;-4;-20.59;-5.56;457.8;15.10;76098;2836.345;-1758.206;1;165;-70;-62.9;44.1;44.5;12;12.2;27.3;0.0;
21/02/2025 12:29:25;100;0;153.80;-4;-20.56;-5.56;460.5;15.00;76095;2836.342;-1758.204;1;165;-70;-62.9;44.1;44.5;12;12.2;27.3;0.0;
21/02/2025 12:29:45;100;0;155.28;-4;-20.57;-5.62;463.1;15.00;76086;2836.339;-1758.203;1;165;-70;-62.9;44.1;44.5;12;12.2;27.3;0.0;
21/02/2025 12:30:05;100;0;157.17;-4;-20.57;-5.59;465.7;15.00;76079;2836.336;-1758.202;1;165;-70;-62.9;44.1;44.5;14;14.0;27.3;0.0;
21/02/2025 12:30:25;100;0;159.24;-4;-20.62;-4.27;468.3;15.00;76080;2836.333;-1758.201;1;165;-70;-62.9;44.1;44.5;14;14.4;27.3;0.0;
21/02/2025 12:30:45;100;0;160.14;-4;-20.97;-4.34;470.9;14.90;76076;2836.330;-1758.199;1;165;-70;-64.5;44.1;44.5;14;14.4;27.3;0.0;
21/02/2025 12:31:05;100;0;159.43;-4;-21.09;-4.37;473.6;14.90;76079;2836.327;-1758.198;1;165;-70;-62.9;44.1;44.5;14;14.4;27.3;0.0;
21/02/2025 12:31:25;100;0;157.16;-4;-21.16;-4.14;476.2;14.90;76070;2836.324;-1758.197;1;165;-70;-62.9;44.1;44.5;14;14.9;27.3;0.0;
21/02/2025 12:31:45;100;0;157.75;-4;-20.98;-4.21;478.9;14.90;76068;2836.321;-1758.196;1;165;-70;-62.9;44.1;44.5;14;14.4;27.3;0.0;
21/02/2025 12:32:05;100;0;156.44;-4;-20.53;-4.26;481.6;14.80;76069;2836.318;-1758.195;1;165;-70;-62.9;44.1;44.5;14;14.4;27.3;0.0;
21/02/2025 12:32:25;100;0;157.45;-4;-20.95;-4.14;484.1;14.80;76063;2836.315;-1758.194;1;165;-70;-62.9;44.1;44.5;14;14.4;27.3;0.0;
21/02/2025 12:32:45;100;0;153.33;-4;-20.89;-4.29;486.8;14.80;76067;2836.312;-1758.192;1;165;-70;-62.9;44.1;44.5;12;12.2;27.3;0.0;
21/02/2025 12:33:05;100;0;155.16;-4;-20.48;-5.67;489.5;14.70;76054;2836.309;-1758.191;1;165;-70;-62.9;44.1;44.5;12;12.2;27.3;0.0;
21/02/2025 12:33:25;100;0;157.27;-4;-20.49;-5.65;492.1;14.70;76049;2836.306;-1758.189;1;165;-70;-62.9;44.1;44.5;14;14.0;27.3;0.0;
21/02/2025 12:33:45;100;0;157.11;-4;-20.70;-4.41;494.8;14.70;76036;2836.303;-1758.188;1;165;-70;-62.9;44.1;44.3;14;14.4;27.3;0.0;
21/02/2025 12:34:05;100;0;155.68;-4;-20.64;-4.42;497.4;14.70;76051;2836.300;-1758.187;1;165;-70;-62.9;44.1;44.5;14;14.4;27.3;0.0;
21/02/2025 12:34:25;100;0;157.22;-4;-20.51;-4.40;500.0;14.60;76042;2836.297;-1758.186;1;165;-70;-62.9;44.1;44.5;14;14.4;27.3;0.0;
21/02/2025 12:34:45;100;0;158.95;-4;-20.34;-4.40;502.4;14.60;76040;2836.294;-1758.185;1;165;-70;-62.9;44.1;44.5;14;14.4;27.3;0.0;
21/02/2025 12:35:05;100;0;160.60;-4;-20.33;-4.37;504.8;14.60;76024;2836.291;-1758.184;1;165;-70;-62.9;44.1;44.5;14;14.4;27.3;0.0;
21/02/2025 12:35:25;100;0;162.51;-4;-20.47;-4.45;507.2;14.60;76026;2836.288;-1758.183;1;165;-70;-62.9;44.1;44.5;14;14.4;27.3;0.0;
21/02/2025 12:35:45;100;0;163.94;-4;-20.12;-4.41;509.5;14.60;76021;2836.285;-1758.182;1;165;-70;-62.9;44.1;44.5;14;14.4;27.3;0.0;
21/02/2025 12:36:05;100;0;164.55;-4;-20.38;-4.41;511.9;14.50;76009;2836.282;-1758.181;1;165;-70;-62.9;44.1;44.5;14;14.4;27.3;0.0;
21/02/2025 12:36:25;100;0;168.07;-4;-20.14;-4.42;514.0;14.50;76002;2836.280;-1758.181;1;165;-70;-62.9;44.1;44.5;14;14.4;27.3;0.0;
21/02/2025 12:36:45;100;0;168.06;-4;-20.57;-4.42;516.2;14.50;76003;2836.277;-1758.181;1;165;-70;-62.9;44.1;44.5;14;14.4;27.3;0.0;
21/02/2025 12:37:05;100;0;167.59;-4;-20.54;-4.36;518.6;14.50;75996;2836.274;-1758.180;1;165;-70;-66.1;44.1;44.5;14;14.4;27.3;0.0;
21/02/2025 12:37:25;100;0;169.25;-4;-20.59;-4.33;521.0;14.40;75982;2836.271;-1758.180;1;165;-70;-61.3;44.1;44.5;16;15.8;27.3;0.0;
21/02/2025 12:37:45;100;0;167.00;-4;-20.47;-3.34;523.4;14.40;75974;2836.268;-1758.179;1;165;-70;-62.9;44.1;44.5;16;16.2;27.3;0.0;
21/02/2025 12:38:05;100;0;166.37;-4;-20.85;-3.39;525.9;14.40;75967;2836.265;-1758.178;1;165;-70;-62.9;44.1;44.5;16;16.2;27.3;0.0;
21/02/2025 12:38:25;100;0;162.72;-4;-20.43;-3.43;528.3;14.40;75969;2836.262;-1758.178;1;165;-70;-62.9;44.1;44.5;14;14.0;27.3;0.0;
21/02/2025 12:38:45;100;0;162.53;-4;-20.65;-4.56;530.6;14.30;75966;2836.259;-1758.177;1;165;-70;-64.5;44.1;44.6;14;14.4;27.3;0.0;
21/02/2025 12:39:05;100;0;163.10;-4;-20.70;-4.50;533.0;14.30;75959;2836.257;-1758.176;1;165;-70;-62.9;44.1;44.5;14;14.0;27.3;0.0;
21/02/2025 12:39:25;100;0;163.47;-4;-20.50;-4.55;535.6;14.30;75956;2836.253;-1758.175;1;165;-70;-64.5;44.1;44.3;14;14.4;27.3;0.0;
21/02/2025 12:39:45;100;0;164.66;-4;-20.55;-4.55;538.2;14.30;75943;2836.250;-1758.175;1;165;-70;-62.9;44.1;44.5;14;14.0;27.3;0.0;
21/02/2025 12:40:05;100;0;164.54;-4;-20.55;-4.59;540.7;14.20;75952;2836.247;-1758.174;1;165;-70;-62.9;44.1;44.5;14;14.0;27.3;0.0;
21/02/2025 12:40:25;100;0;164.39;-4;-20.50;-4.59;543.3;14.20;75942;2836.244;-1758.173;1;165;-70;-62.9;44.1;44.6;14;14.0;27.3;0.0;
21/02/2025 12:40:45;100;0;165.67;-4;-20.36;-4.43;546.1;14.20;75941;2836.241;-1758.172;1;165;-70;-62.9;44.1;44.3;14;14.0;27.3;0.0;
21/02/2025 12:41:05;100;0;167.80;-4;-20.15;-4.59;548.6;14.20;75933;2836.237;-1758.172;1;165;-70;-62.9;44.1;44.5;14;14.0;27.3;0.0;
21/02/2025 12:41:25;100;0;168.55;-4;-20.30;-4.57;551.3;14.20;75928;2836.234;-1758.171;1;165;-70;-62.9;44.1;44.5;14;14.0;27.3;0.0;
21/02/2025 12:41:45;100;0;167.99;-4;-20.40;-4.60;553.9;14.10;75924;2836.231;-1758.171;1;165;-70;-61.3;44.1;44.5;14;14.4;27.3;0.0;
21/02/2025 12:42:05;100;0;168.85;-4;-20.25;-4.55;556.6;14.10;75926;2836.227;-1758.170;1;165;-70;-62.9;44.1;44.5;16;15.8;27.3;0.0;
21/02/2025 12:42:25;100;0;167.69;-4;-20.33;-3.31;559.2;14.10;75916;2836.224;-1758.169;1;165;-70;-61.3;44.1;44.5;16;16.7;27.3;0.0;
21/02/2025 12:42:45;100;0;168.59;-4;-20.74;-3.32;561.9;14.10;75924;2836.221;-1758.169;1;165;-70;-62.9;44.1;44.5;16;16.7;27.3;0.0;
21/02/2025 12:43:05;100;0;165.23;-4;-20.55;-3.37;564.6;14.00;75913;2836.218;-1758.168;1;165;-70;-62.9;44.1;44.5;16;16.7;27.3;0.0;
21/02/2025 12:43:25;100;0;162.56;-4;-20.65;-3.28;567.3;14.00;75906;2836.214;-1758.167;1;165;-70;-62.9;44.1;44.5;16;16.7;27.3;0.0;
21/02/2025 12:43:45;100;0;161.38;-4;-20.34;-3.28;570.1;14.00;75903;2836.211;-1758.166;1;165;-70;-62.9;44.1;44.5;16;16.7;27.3;0.0;
21/02/2025 12:44:05;100;0;160.27;-4;-19.98;-3.32;572.8;14.00;75907;2836.208;-1758.165;1;165;-70;-62.9;44.1;44.6;16;16.7;27.3;0.0;
21/02/2025 12:44:25;100;0;160.15;-4;-20.08;-3.33;575.3;14.00;75891;2836.205;-1758.164;1;165;-70;-62.9;44.1;44.5;16;16.7;27.3;0.0;
21/02/2025 12:44:45;100;0;157.93;-4;-20.21;-3.27;577.9;13.90;75890;2836.202;-1758.163;1;165;-70;-62.9;44.1;44.5;14;14.0;27.3;0.0;
21/02/2025 12:45:05;100;0;154.77;-4;-19.83;-4.66;580.5;13.90;75890;2836.198;-1758.161;1;165;-70;-62.9;44.1;44.5;14;14.0;27.3;0.0;
21/02/2025 12:45:26;100;0;153.69;-4;-20.45;-4.71;583.0;13.90;75881;2836.196;-1758.160;1;165;-70;-64.5;44.1;44.5;14;14.0;27.3;0.0;
21/02/2025 12:45:46;100;0;151.01;-4;-20.44;-4.71;585.6;13.90;75877;2836.193;-1758.158;1;165;-70;-62.9;44.1;44.5;11;10.8;27.3;0.0;
21/02/2025 12:46:06;100;0;150.44;-4;-20.02;-6.20;588.2;13.80;75870;2836.190;-1758.157;1;165;-70;-62.9;44.1;44.5;11;10.8;27.3;0.0;
21/02/2025 12:46:26;100;0;152.80;-4;-19.95;-6.27;590.6;13.80;75859;2836.187;-1758.155;1;165;-70;-64.5;44.1;44.5;13;13.5;27.3;0.0;
21/02/2025 12:46:46;100;0;155.53;-4;-20.17;-4.77;593.1;13.80;75863;2836.184;-1758.154;1;165;-70;-62.9;44.1;44.5;13;14.0;27.3;0.0;
21/02/2025 12:47:06;100;0;157.89;-4;-20.28;-4.72;595.7;13.80;75851;2836.181;-1758.153;1;165;-70;-62.9;44.1;44.5;13;14.0;27.3;0.0;
21/02/2025 12:47:26;100;0;157.84;-4;-19.97;-4.75;598.1;13.70;75858;2836.178;-1758.152;1;165;-70;-62.9;44.1;44.5;13;14.0;27.3;0.0;
21/02/2025 12:47:46;100;0;156.73;-4;-19.98;-4.82;600.7;13.70;75842;2836.175;-1758.151;1;165;-70;-62.9;44.1;44.5;13;14.0;27.3;0.0;
21/02/2025 12:48:06;100;0;155.76;-4;-20.21;-4.70;603.2;13.70;75843;2836.172;-1758.149;1;165;-70;-62.9;44.1;44.5;13;14.0;27.3;0.0;
21/02/2025 12:48:26;100;0;154.47;-4;-19.99;-4.77;605.7;13.70;75831;2836.169;-1758.148;1;165;-70;-62.9;44.1;44.5;13;14.0;27.3;0.0;
21/02/2025 12:48:46;100;0;155.46;-4;-20.01;-4.77;608.2;13.70;75828;2836.166;-1758.147;1;165;-70;-62.9;44.1;44.5;13;14.0;27.3;0.0;
21/02/2025 12:49:06;100;0;153.52;-4;-19.70;-4.78;610.7;13.60;75824;2836.163;-1758.145;1;165;-70;-62.9;44.1;44.5;13;14.0;27.3;0.0;
21/02/2025 12:49:26;100;0;155.73;-4;-20.05;-4.82;613.2;13.60;75817;2836.160;-1758.144;1;165;-70;-62.9;44.1;44.5;13;14.0;27.3;0.0;
21/02/2025 12:49:46;100;0;156.03;-4;-19.84;-4.76;615.8;13.60;75812;2836.157;-1758.143;1;165;-70;-62.9;44.1;44.3;13;14.0;27.3;0.0;
21/02/2025 12:50:06;100;0;157.86;-4;-19.68;-4.72;618.3;13.60;75802;2836.154;-1758.141;1;165;-70;-62.9;44.1;44.5;13;14.0;27.3;0.0;
21/02/2025 12:50:26;100;0;159.43;-4;-19.86;-4.75;620.8;13.50;75794;2836.151;-1758.140;1;165;-70;-62.9;44.1;44.5;13;14.0;27.3;0.0;
21/02/2025 12:50:46;100;0;161.26;-4;-19.73;-4.76;623.3;13.50;75787;2836.148;-1758.139;1;165;-70;-62.9;44.1;44.5;13;14.0;27.3;0.0;
21/02/2025 12:51:06;100;0;161.65;-4;-19.69;-4.82;625.8;13.50;75787;2836.145;-1758.139;1;165;-70;-62.9;44.1;44.5;13;14.0;27.3;0.0;
21/02/2025 12:51:26;100;0;161.89;-4;-19.69;-4.83;628.3;13.50;75775;2836.142;-1758.138;1;165;-70;-62.9;44.1;44.5;13;14.0;27.3;0.0;
21/02/2025 12:51:46;100;0;162.09;-4;-19.82;-4.74;630.8;13.50;75777;2836.139;-1758.137;1;165;-70;-62.9;44.1;44.5;13;14.0;27.3;0.0;
21/02/2025 12:52:06;100;0;160.56;-4;-20.00;-4.79;633.3;13.40;75773;2836.136;-1758.136;1;165;-70;-62.9;44.1;44.5;13;14.0;27.3;0.0;
21/02/2025 12:52:26;100;0;161.90;-4;-19.66;-4.77;635.8;13.40;75768;2836.133;-1758.135;1;165;-70;-64.5;44.1;44.5;13;14.0;27.3;0.0;
21/02/2025 12:52:46;100;0;161.13;-4;-19.55;-4.82;638.4;13.40;75764;2836.130;-1758.134;1;165;-70;-62.9;44.1;44.5;13;14.0;27.3;0.0;
21/02/2025 12:53:06;100;0;161.31;-4;-19.69;-4.77;640.9;13.30;75755;2836.127;-1758.133;1;165;-70;-64.5;44.1;44.5;13;14.0;27.3;0.0;
21/02/2025 12:53:26;100;0;162.05;-4;-19.71;-4.83;643.6;13.30;75763;2836.123;-1758.132;1;165;-70;-62.9;44.1;44.6;13;14.0;27.3;0.0;
21/02/2025 12:53:46;100;0;162.67;-4;-19.95;-4.83;646.0;13.30;75755;2836.120;-1758.131;1;165;-70;-62.9;44.1;44.5;13;14.0;27.3;0.0;
21/02/2025 12:54:06;100;0;162.87;-4;-19.36;-4.84;648.6;13.30;75757;2836.117;-1758.130;1;165;-70;-64.5;44.1;44.5;13;14.0;27.3;0.0;
21/02/2025 12:54:26;100;0;162.59;-4;-19.80;-4.68;651.0;13.30;75754;2836.114;-1758.129;1;165;-70;-62.9;44.1;44.5;13;14.0;27.3;0.0;
21/02/2025 12:54:46;100;0;161.08;-4;-18.90;-4.95;653.4;13.30;75753;2836.111;-1758.128;1;165;-70;-66.1;44.5;44.5;13;13.5;27.3;0.0;
21/02/2025 12:55:06;100;0;161.20;-4;-19.71;-4.65;655.8;13.20;75747;2836.108;-1758.127;1;165;-70;-62.9;44.5;44.3;13;14.0;27.3;0.0;
21/02/2025 12:55:26;100;0;164.09;-4;-19.86;-4.90;658.1;13.20;75735;2836.105;-1758.127;1;165;-70;-61.3;44.5;44.5;13;14.0;27.3;0.0;
21/02/2025 12:55:46;100;0;167.43;-4;-19.88;-4.82;660.5;13.20;75728;2836.102;-1758.126;1;165;-70;-62.9;44.5;44.3;15;14.9;27.3;0.0;
21/02/2025 12:56:06;100;0;170.12;-4;-19.97;-3.76;663.1;13.20;75717;2836.099;-1758.126;1;165;-70;-62.9;44.5;44.5;15;15.8;27.3;0.0;
21/02/2025 12:56:26;100;0;170.23;-4;-20.18;-3.94;665.7;13.10;75724;2836.096;-1758.125;1;165;-70;-64.5;44.5;44.5;15;15.8;27.3;0.0;
21/02/2025 12:56:46;100;0;169.45;-4;-20.32;-3.83;668.5;13.10;75714;2836.092;-1758.125;1;165;-70;-64.5;44.5;44.5;15;15.8;27.3;0.0;
21/02/2025 12:57:06;100;0;169.22;-4;-19.95;-3.84;671.3;13.10;75716;2836.089;-1758.124;1;165;-70;-62.9;44.5;44.5;15;15.8;27.3;0.0;
21/02/2025 12:57:26;100;0;168.18;-4;-20.02;-3.83;674.0;13.10;75711;2836.085;-1758.124;1;165;-70;-62.9;44.5;44.5;15;15.8;27.3;0.0;
21/02/2025 12:57:46;100;0;167.03;-4;-20.23;-3.80;676.8;13.10;75703;2836.082;-1758.123;1;165;-70;-62.9;44.5;44.5;15;15.8;27.3;0.0;
21/02/2025 12:58:06;100;0;165.96;-4;-19.99;-3.90;679.5;13.00;75691;2836.078;-1758.122;1;165;-70;-62.9;44.5;44.5;15;15.8;27.3;0.0;
21/02/2025 12:58:26;100;0;165.73;-4;-20.12;-3.79;682.4;13.00;75699;2836.075;-1758.121;1;165;-70;-62.9;44.5;44.5;15;15.8;27.3;0.0;
21/02/2025 12:58:46;100;0;166.80;-4;-19.27;-3.94;685.2;13.00;75694;2836.071;-1758.121;1;165;-70;-62.9;44.5;44.5;15;15.8;27.3;0.0;
21/02/2025 12:59:06;100;0;167.60;-4;-20.10;-3.99;687.9;13.00;75686;2836.068;-1758.120;1;165;-70;-62.9;44.5;44.3;15;15.8;27.3;0.0;
21/02/2025 12:59:26;100;0;166.44;-4;-19.68;-3.80;690.7;13.00;75679;2836.064;-1758.119;1;165;-70;-62.9;44.5;44.5;15;15.8;27.3;0.0;
21/02/2025 12:59:46;100;0;167.99;-4;-19.04;-3.69;693.5;12.90;75679;2836.060;-1758.119;1;165;-70;-62.9;44.5;44.5;15;15.8;27.3;0.0;
21/02/2025 13:00:06;100;0;169.62;-4;-19.79;-3.84;696.1;12.90;75683;2836.057;-1758.118;1;165;-70;-62.9;44.5;44.5;15;15.8;27.3;0.0;
21/02/2025 13:00:26;100;0;169.66;-4;-20.03;-3.81;698.8;12.90;75670;2836.054;-1758.118;1;165;-70;-62.9;44.5;44.5;15;15.8;27.3;0.0;
21/02/2025 13:00:29;118;0;169.31;-4;-20.08;-3.77;699.1;12.90;75667;2836.053;-1758.118;1;165;350;-56.5;24.5;24.6;7;6.8;27.3;0.0;
21/02/2025 13:00:39;118;0;129.50;-4;-6.27;-9.24;700.1;12.90;75656;2836.052;-1758.116;1;165;350;71.0;24.5;24.3;7;6.8;26.3;-1.0;
21/02/2025 13:00:49;118;0;118.29;-4;16.49;-8.83;700.4;12.90;75376;2836.052;-1758.116;1;165;350;196.8;24.5;24.0;7;6.8;26.4;-1.0;
21/02/2025 13:00:59;118;0;115.44;-4;24.35;-9.26;699.8;12.90;75121;2836.052;-1758.116;1;165;350;321.0;24.5;24.6;7;6.8;26.4;-1.0;
21/02/2025 13:01:09;118;0;114.30;-4;22.82;-8.86;698.8;12.90;74869;2836.051;-1758.115;1;165;350;351.6;24.5;24.6;7;6.8;26.4;-1.0;
21/02/2025 13:01:19;118;0;168.19;-4;20.80;-8.74;697.7;12.90;74825;2836.050;-1758.114;1;165;350;351.6;24.5;24.7;7;6.8;27.3;-1.0;
21/02/2025 13:01:39;117;0;164.18;-4;19.14;-8.48;695.5;12.90;74827;2836.047;-1758.114;1;165;350;351.6;24.5;24.7;7;6.8;27.3;-1.0;
21/02/2025 13:01:59;117;0;158.38;-4;18.87;-8.48;693.0;12.90;74821;2836.044;-1758.112;1;165;350;351.6;24.2;24.3;29;28.9;27.3;-1.0;
21/02/2025 13:02:19;117;0;158.35;-4;21.17;3.41;690.6;12.90;74826;2836.041;-1758.111;1;165;350;351.6;24.2;24.4;29;29.3;27.3;-1.0;
21/02/2025 13:02:39;117;0;157.86;-4;21.55;3.27;687.9;12.90;74817;2836.038;-1758.110;1;165;350;351.6;24.2;24.4;29;29.3;27.3;-1.0;
21/02/2025 13:02:59;117;0;157.07;-4;21.20;3.33;685.1;12.80;74810;2836.035;-1758.109;1;165;350;351.6;24.2;24.4;29;29.3;27.3;-1.0;
21/02/2025 13:03:19;117;0;157.16;-4;21.60;3.37;682.4;12.80;74810;2836.032;-1758.108;1;165;350;351.6;24.2;24.4;29;29.3;27.3;-1.0;
21/02/2025 13:03:39;117;0;157.93;-4;21.56;3.31;679.8;12.80;74800;2836.029;-1758.107;1;165;350;350.0;24.2;24.4;29;29.3;27.3;-1.0;
21/02/2025 13:03:59;117;0;158.33;-4;21.51;3.27;677.0;12.80;74812;2836.026;-1758.105;1;165;350;351.6;24.2;24.4;29;29.3;27.3;-1.0;
21/02/2025 13:04:19;117;0;158.56;-4;21.47;3.39;674.3;12.80;74812;2836.023;-1758.104;1;165;350;351.6;24.2;24.4;29;29.3;27.3;-1.0;
21/02/2025 13:04:39;117;0;158.78;-4;21.39;3.34;671.7;12.80;74805;2836.020;-1758.103;1;165;350;351.6;24.2;24.4;29;29.3;27.3;-1.0;
21/02/2025 13:04:59;117;0;159.27;-4;21.41;3.28;669.1;12.70;74792;2836.017;-1758.102;1;165;350;353.2;24.2;24.3;29;29.3;27.3;-1.0;
21/02/2025 13:05:19;117;0;160.08;-4;21.45;3.31;666.5;12.70;74804;2836.014;-1758.101;1;165;350;351.6;24.2;24.4;29;29.3;27.3;-1.0;
21/02/2025 13:05:39;117;0;160.51;-4;21.36;3.18;664.0;12.70;74794;2836.011;-1758.100;1;165;350;351.6;24.2;24.3;29;29.3;27.3;-1.0;
21/02/2025 13:05:59;117;0;161.19;-4;21.57;3.24;661.5;12.70;74784;2836.008;-1758.099;1;165;350;351.6;24.2;24.4;29;29.3;27.3;-1.0;
21/02/2025 13:06:19;117;0;162.27;-4;21.24;3.20;659.0;12.70;74787;2836.005;-1758.098;1;165;350;351.6;24.2;24.3;29;29.3;27.3;-1.0;
21/02/2025 13:06:39;117;0;162.10;-4;21.65;3.30;656.6;12.70;74789;2836.003;-1758.098;1;165;350;351.6;24.2;24.4;29;29.3;27.3;-1.0;
21/02/2025 13:06:59;117;0;162.09;-4;21.60;3.32;654.2;12.60;74787;2836.000;-1758.097;1;165;350;351.6;24.2;24.4;29;29.3;27.3;-1.0;
21/02/2025 13:07:19;117;0;161.16;-4;21.88;3.38;651.7;12.60;74786;2835.997;-1758.096;1;165;350;351.6;24.2;24.4;29;29.3;27.3;-1.0;
21/02/2025 13:07:39;117;0;160.30;-4;20.95;3.34;649.1;12.60;74783;2835.994;-1758.095;1;165;350;351.6;24.2;24.4;29;29.3;27.3;-1.0;
21/02/2025 13:07:59;117;0;159.57;-4;21.46;3.39;646.4;12.60;74777;2835.991;-1758.094;1;165;350;351.6;24.2;24.3;29;29.3;27.3;-1.0;
21/02/2025 13:08:19;117;0;160.62;-4;21.89;3.33;643.8;12.60;74787;2835.988;-1758.093;1;165;350;351.6;24.2;24.3;29;29.3;27.3;-1.0;
21/02/2025 13:08:39;117;0;162.01;-4;21.83;3.27;640.9;12.60;74777;2835.984;-1758.092;1;165;350;351.6;24.2;24.4;29;29.3;27.3;-1.0;
21/02/2025 13:08:59;117;0;162.24;-4;21.24;3.23;638.0;12.60;74782;2835.981;-1758.091;1;165;350;351.6;24.2;24.3;29;29.3;27.3;-1.0;
21/02/2025 13:09:19;117;0;162.99;-4;21.37;3.29;635.2;12.60;74780;2835.978;-1758.090;1;165;350;351.6;24.2;24.6;29;29.3;27.3;-1.0;
21/02/2025 13:09:39;117;0;163.77;-4;21.37;3.33;632.4;12.50;74777;2835.974;-1758.089;1;165;350;351.6;24.2;24.4;29;29.3;27.3;-1.0;
21/02/2025 13:09:59;117;0;164.45;-4;21.48;3.25;629.5;12.50;74776;2835.971;-1758.088;1;165;350;351.6;24.2;24.4;29;29.3;27.3;-1.0;
21/02/2025 13:10:19;117;0;165.38;-4;21.51;3.25;626.6;12.50;74775;2835.968;-1758.088;1;165;350;351.6;24.2;24.4;29;29.3;27.3;-1.0;
21/02/2025 13:10:39;117;0;166.01;-4;21.36;3.29;623.7;12.50;74775;2835.964;-1758.087;1;165;350;353.2;24.2;24.4;29;29.3;27.3;-1.0;
21/02/2025 13:10:59;117;0;166.50;-4;21.43;3.30;620.8;12.50;74775;2835.961;-1758.086;1;165;350;351.6;24.2;24.3;29;29.3;27.3;-1.0;
21/02/2025 13:11:19;117;0;167.53;-4;21.31;3.37;617.9;12.50;74773;2835.957;-1758.085;1;165;350;351.6;24.2;24.4;29;29.3;27.3;-1.0;
21/02/2025 13:11:39;117;0;167.84;-4;21.41;3.35;614.9;12.50;74764;2835.953;-1758.085;1;165;350;351.6;24.2;24.4;29;29.3;27.3;-1.0;
21/02/2025 13:11:59;117;0;167.62;-4;21.55;3.34;611.9;12.50;74767;2835.950;-1758.084;1;165;350;351.6;24.2;24.4;29;29.3;27.3;-1.0;
21/02/2025 13:12:19;117;0;166.41;-4;21.31;3.29;608.9;12.50;74769;2835.946;-1758.083;1;165;350;353.2;24.2;24.4;29;29.3;27.3;-1.0;
21/02/2025 13:12:39;117;0;166.72;-4;21.25;3.27;605.8;12.50;74769;2835.943;-1758.082;1;165;350;351.6;24.2;24.6;29;29.3;27.3;-1.0;
21/02/2025 13:12:59;117;0;165.79;-4;21.10;3.31;602.8;12.50;74778;2835.939;-1758.082;1;165;350;351.6;24.2;24.3;29;29.3;27.3;-1.0;
21/02/2025 13:13:19;117;0;165.14;-4;21.15;3.30;599.8;12.40;74776;2835.935;-1758.081;1;165;350;351.6;24.2;24.4;29;29.3;27.3;-1.0;
21/02/2025 13:13:39;117;0;165.44;-4;21.16;3.26;596.8;12.50;74780;2835.932;-1758.080;1;165;350;350.0;24.2;24.4;29;29.3;27.3;-1.0;
21/02/2025 13:13:59;117;0;165.90;-4;21.25;3.24;593.9;12.40;74789;2835.928;-1758.079;1;165;350;351.6;24.2;24.3;29;29.3;27.3;-1.0;
21/02/2025 13:14:19;117;0;167.69;-4;21.07;3.25;590.9;12.40;74790;2835.925;-1758.078;1;165;350;351.6;24.2;24.4;29;29.3;27.3;-1.0;
21/02/2025 13:14:39;117;0;168.51;-4;21.38;3.27;588.0;12.40;74794;2835.921;-1758.078;1;165;350;351.6;24.2;24.4;29;29.3;27.3;-1.0;
21/02/2025 13:14:59;117;0;168.45;-4;21.22;3.27;585.0;12.40;74790;2835.917;-1758.077;1;165;350;350.0;24.2;24.4;29;29.3;27.3;-1.0;
21/02/2025 13:15:19;117;0;168.87;-4;21.16;3.34;582.0;12.40;74782;2835.914;-1758.077;1;165;350;351.6;24.2;24.3;27;27.1;27.3;-1.0;
21/02/2025 13:15:39;117;0;168.26;-4;20.95;2.11;579.0;12.40;74790;2835.910;-1758.076;1;165;350;351.6;24.2;24.4;27;27.1;27.3;-1.0;
21/02/2025 13:15:59;117;0;169.04;-4;21.10;1.90;576.1;12.40;74794;2835.907;-1758.076;1;165;350;351.6;24.2;24.3;27;27.1;27.3;-1.0;
21/02/2025 13:16:19;117;0;171.10;-4;21.34;2.10;573.3;12.40;74782;2835.903;-1758.075;1;165;350;351.6;24.2;24.3;27;27.1;27.3;-1.0;
21/02/2025 13:16:39;117;0;170.60;-4;21.08;2.11;570.3;12.40;74792;2835.899;-1758.075;1;165;350;351.6;24.2;24.3;27;27.1;27.3;-1.0;
21/02/2025 13:16:59;117;0;169.88;-4;20.98;2.06;567.4;12.40;74803;2835.896;-1758.074;1;165;350;351.6;24.2;24.4;27;27.1;27.3;-1.0;
21/02/2025 13:17:19;117;0;170.18;-4;20.97;2.09;564.4;12.40;74801;2835.892;-1758.074;1;165;350;351.6;24.2;24.3;27;27.1;27.3;-1.0;
21/02/2025 13:17:39;117;0;170.83;-4;20.86;2.11;561.4;12.40;74801;2835.889;-1758.073;1;165;350;351.6;24.2;24.3;27;27.1;27.3;-1.0;
21/02/2025 13:17:59;117;0;171.58;-4;20.95;2.09;558.4;12.40;74804;2835.885;-1758.073;1;165;350;351.6;24.2;24.4;27;27.1;27.3;-1.0;
21/02/2025 13:18:19;117;0;171.50;-4;20.82;2.08;555.4;12.40;74799;2835.881;-1758.072;1;165;350;351.6;24.2;24.4;27;27.1;27.3;-1.0;
21/02/2025 13:18:39;117;0;171.08;-4;20.84;2.09;552.5;12.40;74811;2835.878;-1758.072;1;165;350;351.6;24.2;24.4;27;27.1;27.3;-1.0;
21/02/2025 13:18:59;117;0;170.35;-4;20.78;2.08;549.6;12.40;74801;2835.874;-1758.072;1;165;350;351.6;24.2;24.4;27;27.1;27.3;-1.0;
21/02/2025 13:19:19;117;0;169.36;-4;20.75;2.08;546.7;12.40;74811;2835.871;-1758.071;1;165;350;351.6;24.2;24.4;27;27.1;27.3;-1.0;
21/02/2025 13:19:39;117;0;168.73;-4;20.79;2.03;543.9;12.40;74809;2835.867;-1758.070;1;165;350;350.0;24.2;24.4;27;27.1;27.3;-1.0;
21/02/2025 13:19:59;117;0;170.02;-4;20.96;2.05;541.0;12.40;74814;2835.863;-1758.070;1;165;350;351.6;24.2;24.4;27;27.1;27.3;-1.0;
21/02/2025 13:20:19;117;0;171.27;-4;21.12;2.09;538.1;12.50;74817;2835.860;-1758.070;1;165;350;351.6;24.2;24.3;27;27.1;27.3;-1.0;
21/02/2025 13:20:39;117;0;171.29;-4;20.97;2.01;535.2;12.50;74811;2835.856;-1758.069;1;165;350;351.6;24.2;24.3;25;24.8;27.3;-1.0;
21/02/2025 13:20:59;117;0;169.85;-4;20.40;0.92;532.4;12.50;74822;2835.853;-1758.069;1;165;350;351.6;24.2;24.4;25;24.4;27.3;-1.0;
21/02/2025 13:21:19;117;0;169.11;-4;20.73;0.70;529.6;12.50;74825;2835.849;-1758.068;1;165;350;351.6;24.2;24.3;27;27.1;27.3;-1.0;
21/02/2025 13:21:39;117;0;168.93;-4;20.62;2.10;526.7;12.50;74830;2835.846;-1758.068;1;165;350;350.0;24.2;24.3;27;27.1;27.3;-1.0;
21/02/2025 13:21:59;117;0;169.39;-4;21.23;2.29;523.9;12.50;74828;2835.842;-1758.067;1;165;350;351.6;24.2;24.4;27;27.1;27.3;-1.0;
21/02/2025 13:22:19;117;0;170.11;-4;21.27;2.21;521.1;12.50;74828;2835.839;-1758.067;1;165;350;353.2;24.2;24.4;27;27.1;27.3;-1.0;
21/02/2025 13:22:39;117;0;168.94;-4;20.87;2.21;518.1;12.50;74832;2835.835;-1758.066;1;165;350;351.6;24.2;24.3;27;27.1;27.3;-1.0;
21/02/2025 13:22:59;117;0;168.55;-4;20.79;2.32;515.2;12.50;74828;2835.832;-1758.065;1;165;350;351.6;24.2;24.3;27;27.1;27.3;-1.0;
21/02/2025 13:23:19;117;0;168.81;-4;20.79;2.22;512.3;12.50;74840;2835.828;-1758.065;1;165;350;351.6;24.2;24.4;27;27.1;27.3;-1.0;
21/02/2025 13:23:39;117;0;168.60;-4;20.73;2.22;509.4;12.50;74834;2835.825;-1758.064;1;165;350;351.6;24.2;24.4;27;27.1;27.3;-1.0;
21/02/2025 13:23:59;117;0;167.22;-4;20.65;2.27;506.6;12.50;74839;2835.821;-1758.064;1;165;350;351.6;24.2;24.4;27;27.1;27.3;-1.0;
21/02/2025 13:24:19;117;0;164.78;-4;20.54;2.32;503.8;12.50;74846;2835.818;-1758.063;1;165;350;351.6;24.2;24.4;27;27.1;27.3;-1.0;
21/02/2025 13:24:39;117;0;163.38;-4;20.81;2.24;501.0;12.50;74845;2835.815;-1758.062;1;165;350;350.0;24.2;24.3;27;27.5;27.3;-1.0;
21/02/2025 13:25:00;117;0;162.22;-4;20.83;2.27;498.4;12.50;74857;2835.812;-1758.061;1;165;350;351.6;24.2;24.3;27;27.1;27.3;-1.0;
21/02/2025 13:25:20;117;0;161.49;-4;20.87;2.23;495.6;12.60;74848;2835.808;-1758.060;1;165;350;348.4;24.2;24.4;27;27.1;27.3;-1.0;
21/02/2025 13:25:40;117;0;161.59;-4;20.87;2.24;492.9;12.50;74851;2835.805;-1758.059;1;165;350;350.0;24.2;24.4;27;27.1;27.3;-1.0;
21/02/2025 13:26:00;117;0;161.62;-4;20.72;2.18;490.1;12.60;74872;2835.802;-1758.058;1;165;350;351.6;24.2;24.3;27;27.1;27.3;-1.0;
21/02/2025 13:26:20;117;0;161.90;-4;20.79;2.19;487.4;12.60;74864;2835.799;-1758.057;1;165;350;351.6;24.2;24.3;27;27.1;27.3;-1.0;
21/02/2025 13:26:40;117;0;161.45;-4;20.61;2.20;484.6;12.60;74866;2835.795;-1758.056;1;165;350;351.6;24.2;24.4;27;27.1;27.3;-1.0;
21/02/2025 13:27:00;117;0;160.49;-4;20.44;2.21;482.1;12.60;74864;2835.792;-1758.055;1;165;350;350.0;24.2;24.4;27;27.5;27.3;-1.0;
21/02/2025 13:27:20;117;0;158.74;-4;20.54;2.22;479.5;12.60;74882;2835.789;-1758.054;1;165;350;351.6;24.2;24.4;27;27.1;27.3;-1.0;
21/02/2025 13:27:40;117;0;157.76;-4;20.63;2.23;476.9;12.60;74893;2835.786;-1758.053;1;165;350;351.6;24.2;24.4;27;27.1;27.3;-1.0;
21/02/2025 13:28:00;117;0;157.55;-4;20.74;2.21;474.4;12.60;74878;2835.783;-1758.052;1;165;350;351.6;24.2;24.4;27;27.1;27.3;-1.0;
21/02/2025 13:28:20;117;0;157.66;-4;20.65;2.26;471.8;12.60;74881;2835.780;-1758.050;1;165;350;351.6;24.2;24.4;27;27.5;27.3;-1.0;
21/02/2025 13:28:40;117;0;158.74;-4;20.24;2.11;469.3;12.60;74870;2835.777;-1758.049;1;165;350;350.0;24.2;24.4;27;27.1;27.3;-1.0;
21/02/2025 13:29:00;117;0;159.50;-4;20.79;2.05;466.9;12.60;74885;2835.775;-1758.048;1;165;350;351.6;24.2;24.4;27;27.1;27.3;-1.0;
21/02/2025 13:29:20;117;0;160.72;-4;21.13;2.17;464.3;12.70;74888;2835.772;-1758.047;1;165;350;351.6;24.2;24.4;27;27.1;27.3;-1.0;
21/02/2025 13:29:40;117;0;160.34;-4;20.43;2.36;461.7;12.70;74882;2835.768;-1758.046;1;165;350;351.6;24.2;24.4;27;27.1;27.3;-1.0;
21/02/2025 13:30:00;117;0;161.23;-4;20.33;2.48;459.3;12.70;74890;2835.765;-1758.045;1;165;350;351.6;24.2;24.4;27;27.1;27.3;-1.0;
21/02/2025 13:30:20;117;0;160.30;-4;20.72;2.26;456.8;12.70;74887;2835.763;-1758.044;1;165;350;351.6;24.2;24.4;27;27.1;27.3;-1.0;
21/02/2025 13:30:40;117;0;161.69;-4;20.87;2.25;454.3;12.70;74886;2835.760;-1758.044;1;165;350;351.6;24.2;24.4;27;27.5;27.3;-1.0;
21/02/2025 13:31:00;117;0;161.93;-4;20.67;2.15;451.9;12.70;74882;2835.757;-1758.043;1;165;350;351.6;24.2;24.4;27;27.1;27.3;-1.0;
21/02/2025 13:31:20;117;0;162.86;-4;20.69;2.42;449.5;12.70;74893;2835.754;-1758.042;1;165;350;353.2;24.2;24.4;27;27.5;27.3;-1.0;
21/02/2025 13:31:40;117;0;161.81;-4;20.73;2.27;447.1;12.70;74893;2835.751;-1758.041;1;165;350;351.6;24.2;24.4;27;27.1;27.3;-1.0;
21/02/2025 13:32:00;117;0;159.20;-4;20.46;2.26;444.7;12.70;74890;2835.748;-1758.040;1;165;350;351.6;24.2;24.4;27;27.5;27.3;-1.0;
21/02/2025 13:32:20;117;0;157.16;-4;20.49;2.27;442.3;12.70;74905;2835.745;-1758.039;1;165;350;351.6;24.2;24.4;27;27.1;27.3;-1.0;
21/02/2025 13:32:40;117;0;156.01;-4;20.64;2.21;440.0;12.70;74908;2835.743;-1758.038;1;165;350;351.6;24.2;24.4;27;27.5;27.3;-1.0;
21/02/2025 13:33:00;117;0;154.41;-4;20.59;2.30;437.7;12.70;74911;2835.740;-1758.037;1;165;350;353.2;24.2;24.3;29;28.9;27.3;-1.0;
21/02/2025 13:33:20;117;0;154.58;-4;21.12;3.14;435.3;12.70;74905;2835.737;-1758.036;1;165;350;351.6;24.2;24.4;29;28.9;27.3;-1.0;
21/02/2025 13:33:40;117;0;152.93;-4;20.43;3.13;433.0;12.80;74912;2835.735;-1758.034;1;165;350;351.6;24.2;24.4;29;28.9;27.3;-1.0;
21/02/2025 13:34:00;117;0;152.11;-4;20.66;3.22;430.7;12.80;74917;2835.732;-1758.033;1;165;350;351.6;24.2;24.4;29;28.9;27.3;-1.0;
21/02/2025 13:34:20;117;0;151.81;-4;20.52;3.53;428.4;12.80;74916;2835.730;-1758.032;1;165;350;351.6;24.2;24.4;29;29.3;27.3;-1.0;
21/02/2025 13:34:40;117;0;151.65;-4;20.51;3.16;426.1;12.80;74923;2835.727;-1758.030;1;165;350;351.6;24.2;24.4;31;31.1;27.3;-1.0;
21/02/2025 13:35:00;117;0;152.45;-4;20.63;4.48;423.8;12.80;74926;2835.725;-1758.029;1;165;350;353.2;24.2;24.4;31;31.6;27.3;-1.0;
21/02/2025 13:35:20;117;0;152.71;-4;20.79;4.43;421.5;12.80;74923;2835.722;-1758.028;1;165;350;351.6;24.2;24.3;31;31.6;27.3;-1.0;
21/02/2025 13:35:40;117;0;154.30;-4;20.81;4.47;419.3;12.80;74923;2835.720;-1758.027;1;165;350;353.2;24.2;24.3;29;28.9;27.3;-1.0;
21/02/2025 13:36:00;117;0;154.61;-4;20.64;2.81;416.9;12.80;74930;2835.717;-1758.025;1;165;350;351.6;24.2;24.4;29;28.4;27.3;-1.0;
21/02/2025 13:36:20;117;0;153.28;-4;20.43;2.90;414.5;12.90;74937;2835.714;-1758.024;1;165;350;351.6;24.2;24.4;29;28.4;27.3;-1.0;
21/02/2025 13:36:40;117;0;153.44;-4;20.61;2.80;412.3;12.90;74940;2835.712;-1758.023;1;165;350;350.0;24.2;24.4;29;28.4;27.3;-1.0;
21/02/2025 13:37:00;117;0;154.20;-4;20.67;2.86;409.9;12.90;74940;2835.709;-1758.022;1;165;350;353.2;24.2;24.3;29;28.4;27.3;-1.0;
21/02/2025 13:37:20;117;0;154.84;-4;20.70;2.84;407.6;12.90;74947;2835.706;-1758.020;1;165;350;351.6;24.2;24.3;29;28.4;27.3;-1.0;
21/02/2025 13:37:40;117;0;155.93;-4;20.56;2.80;405.2;12.90;74952;2835.704;-1758.019;1;165;350;351.6;24.2;24.4;29;28.4;27.3;-1.0;
21/02/2025 13:38:00;117;0;156.07;-4;20.33;2.77;402.8;12.90;74968;2835.701;-1758.018;1;165;350;351.6;24.2;24.3;29;28.4;27.3;-1.0;
21/02/2025 13:38:20;117;0;155.11;-4;20.57;2.85;400.4;12.90;74954;2835.698;-1758.017;1;165;350;353.2;24.2;24.4;29;28.4;27.3;-1.0;
21/02/2025 13:38:40;117;0;154.54;-4;20.54;2.83;398.0;12.90;74964;2835.695;-1758.016;1;165;350;351.6;24.2;24.3;29;28.4;27.3;-1.0;
21/02/2025 13:39:00;117;0;154.51;-4;20.62;2.84;395.6;13.00;74974;2835.693;-1758.014;1;165;350;351.6;24.2;24.3;29;28.4;27.3;-1.0;
21/02/2025 13:39:20;117;0;153.66;-4;20.62;2.88;393.2;13.00;74973;2835.690;-1758.013;1;165;350;350.0;24.2;24.4;29;28.4;27.3;-1.0;
21/02/2025 13:39:40;117;0;152.66;-4;20.57;2.90;390.7;13.00;74970;2835.687;-1758.012;1;165;350;353.2;24.2;24.4;29;28.4;27.3;-1.0;
21/02/2025 13:40:00;117;0;152.27;-4;20.45;2.85;388.2;13.00;74986;2835.684;-1758.010;1;165;350;353.2;24.2;24.4;31;31.1;27.3;-1.0;
21/02/2025 13:40:20;117;0;153.12;-4;20.65;4.45;385.7;13.00;74985;2835.682;-1758.009;1;165;350;353.2;24.2;24.4;31;31.6;27.3;-1.0;
21/02/2025 13:40:40;117;0;153.14;-4;20.76;4.51;383.0;13.00;74987;2835.679;-1758.007;1;165;350;351.6;24.2;24.4;31;31.6;27.3;-1.0;
21/02/2025 13:41:00;117;0;153.41;-4;20.69;4.49;380.4;13.00;74984;2835.676;-1758.006;1;165;350;351.6;24.2;24.4;31;31.6;27.3;-1.0;
21/02/2025 13:41:20;117;0;153.41;-4;20.77;4.44;377.8;13.00;74985;2835.673;-1758.005;1;165;350;353.2;24.2;24.4;31;31.6;27.3;-1.0;
21/02/2025 13:41:40;117;0;152.76;-4;20.58;4.52;375.1;13.00;74985;2835.670;-1758.003;1;165;350;350.0;24.2;24.4;31;31.6;27.3;-1.0;
21/02/2025 13:42:00;117;0;152.53;-4;20.71;4.47;372.4;13.10;74990;2835.667;-1758.002;1;165;350;351.6;24.2;24.3;31;31.6;27.3;-1.0;
21/02/2025 13:42:20;117;0;152.69;-4;20.54;4.46;369.8;13.10;74995;2835.664;-1758.000;1;165;350;353.2;24.2;24.4;31;31.6;27.3;-1.0;
21/02/2025 13:42:40;117;0;154.14;-4;20.86;4.48;367.2;13.10;74995;2835.661;-1757.999;1;165;350;353.2;24.2;24.4;31;31.6;27.3;-1.0;
21/02/2025 13:43:00;117;0;155.14;-4;20.85;4.50;364.4;13.10;75006;2835.658;-1757.997;1;165;350;351.6;24.2;24.3;31;31.6;27.3;-1.0;
21/02/2025 13:43:20;117;0;157.52;-4;20.93;4.52;361.7;13.10;75015;2835.655;-1757.996;1;165;350;351.6;24.2;24.3;29;28.9;27.3;-1.0;
21/02/2025 13:43:40;117;0;158.80;-4;20.60;2.88;358.9;13.10;75015;2835.652;-1757.995;1;165;350;351.6;24.2;24.4;29;28.9;27.3;-1.0;
21/02/2025 13:44:00;117;0;159.88;-4;20.56;2.81;356.1;13.10;75014;2835.648;-1757.994;1;165;350;353.2;24.2;24.3;29;28.4;27.3;-1.0;
21/02/2025 13:44:20;117;0;160.35;-4;20.55;2.79;353.2;13.20;75014;2835.645;-1757.993;1;165;350;351.6;24.2;24.3;29;28.4;27.3;-1.0;
21/02/2025 13:44:40;117;0;160.77;-4;20.47;2.83;350.3;13.20;75012;2835.642;-1757.991;1;165;350;351.6;24.2;24.3;29;28.4;27.3;-1.0;
21/02/2025 13:45:00;117;0;161.75;-4;20.45;2.80;347.4;13.20;75017;2835.638;-1757.990;1;165;350;353.2;24.2;24.4;29;28.4;27.3;-1.0;
21/02/2025 13:45:20;117;0;161.46;-4;20.40;2.81;344.6;13.20;75029;2835.634;-1757.989;1;165;350;353.2;24.2;24.4;29;28.4;27.3;-1.0;
21/02/2025 13:45:40;117;0;161.06;-4;20.40;2.84;341.7;13.20;75028;2835.631;-1757.988;1;165;350;353.2;24.2;24.4;29;28.4;27.3;-1.0;
21/02/2025 13:46:00;117;0;161.37;-4;20.53;2.89;338.7;13.20;75025;2835.627;-1757.987;1;165;350;351.6;24.2;24.4;29;28.4;27.3;-1.0;
21/02/2025 13:46:20;117;0;161.55;-4;20.56;2.85;335.8;13.30;75035;2835.624;-1757.986;1;165;350;351.6;24.2;24.4;29;28.4;27.3;-1.0;
21/02/2025 13:46:40;117;0;161.91;-4;20.57;2.81;332.8;13.30;75037;2835.620;-1757.985;1;165;350;353.2;24.2;24.3;29;28.4;27.3;-1.0;
21/02/2025 13:47:00;117;0;163.14;-4;20.52;2.76;329.9;13.30;75042;2835.617;-1757.984;1;165;350;348.4;24.2;24.3;29;28.4;27.3;-1.0;
21/02/2025 13:47:20;117;0;162.92;-4;20.30;2.82;326.8;13.30;75047;2835.613;-1757.983;1;165;350;351.6;24.2;24.4;29;28.4;27.3;-1.0;
21/02/2025 13:47:40;117;0;163.29;-4;20.18;2.78;323.9;13.30;75046;2835.610;-1757.982;1;165;350;351.6;24.2;24.3;29;28.4;27.3;-1.0;
21/02/2025 13:48:00;117;0;163.11;-4;20.40;2.89;321.0;13.30;75048;2835.606;-1757.981;1;165;350;353.2;24.2;24.3;29;28.4;27.3;-1.0;
21/02/2025 13:48:20;117;0;162.68;-4;19.94;2.85;318.1;13.30;75053;2835.603;-1757.980;1;165;350;353.2;24.2;24.4;29;28.4;27.3;-1.0;
21/02/2025 13:48:40;117;0;161.95;-4;19.96;2.77;315.3;13.30;75056;2835.599;-1757.979;1;165;350;354.8;24.2;24.4;29;28.4;27.3;-1.0;
21/02/2025 13:49:00;117;0;160.44;-4;20.26;2.90;312.5;13.40;75057;2835.596;-1757.978;1;165;350;351.6;24.2;24.3;29;28.4;27.3;-1.0;
21/02/2025 13:49:20;117;0;159.83;-4;20.20;2.87;309.8;13.40;75062;2835.592;-1757.976;1;165;350;353.2;24.2;24.3;29;28.4;27.3;-1.0;
21/02/2025 13:49:40;117;0;159.11;-4;20.31;2.87;307.0;13.40;75064;2835.589;-1757.975;1;165;350;351.6;24.2;24.4;29;28.4;27.3;-1.0;
21/02/2025 13:50:00;117;0;158.62;-4;20.04;2.98;304.3;13.40;75074;2835.586;-1757.974;1;165;350;353.2;24.2;24.3;29;28.4;27.3;-1.0;
21/02/2025 13:50:20;117;0;159.95;-4;20.12;2.80;301.5;13.40;75076;2835.582;-1757.973;1;165;350;353.2;24.2;24.4;29;28.4;27.3;-1.0;
21/02/2025 13:50:40;117;0;160.56;-4;20.06;2.88;298.8;13.50;75087;2835.579;-1757.972;1;165;350;351.6;24.2;24.4;29;28.9;27.3;-1.0;
21/02/2025 13:51:00;117;0;160.04;-4;20.28;2.83;296.3;13.50;75092;2835.576;-1757.971;1;165;350;353.2;24.2;24.3;29;28.4;27.3;-1.0;
21/02/2025 13:51:20;117;0;160.30;-4;20.15;2.77;293.8;13.50;75102;2835.573;-1757.970;1;165;350;353.2;24.2;24.3;29;28.4;27.3;-1.0;
21/02/2025 13:51:40;117;0;160.36;-4;20.15;2.88;291.2;13.50;75101;2835.570;-1757.969;1;165;350;351.6;24.2;24.4;29;28.4;27.3;-1.0;
21/02/2025 13:52:00;117;0;161.22;-4;20.36;2.77;288.8;13.50;75111;2835.567;-1757.968;1;165;350;353.2;24.2;24.3;29;28.4;27.3;-1.0;
21/02/2025 13:52:20;117;0;161.50;-4;20.39;2.80;286.3;13.50;75105;2835.564;-1757.967;1;165;350;353.2;24.2;24.4;29;28.4;27.3;-1.0;
21/02/2025 13:52:40;117;0;162.12;-4;20.30;2.84;283.9;13.50;75112;2835.561;-1757.966;1;165;350;351.6;24.2;24.4;29;28.4;27.3;-1.0;
21/02/2025 13:53:00;117;0;162.60;-4;20.30;2.83;281.4;13.60;75120;2835.558;-1757.965;1;165;350;353.2;24.2;24.4;29;28.4;27.3;-1.0;
21/02/2025 13:53:20;117;0;163.23;-4;20.20;2.83;279.0;13.60;75117;2835.555;-1757.964;1;165;350;351.6;24.2;24.3;29;28.4;27.3;-1.0;
21/02/2025 13:53:40;117;0;163.39;-4;20.09;2.87;276.6;13.60;75126;2835.552;-1757.963;1;165;350;351.6;24.2;24.4;29;28.9;27.3;-1.0;
21/02/2025 13:54:00;117;0;163.09;-4;20.07;2.79;274.2;13.60;75136;2835.549;-1757.963;1;165;350;353.2;24.2;24.4;29;28.4;27.3;-1.0;
21/02/2025 13:54:20;117;0;163.81;-4;20.12;2.84;271.9;13.60;75133;2835.546;-1757.962;1;165;350;350.0;24.2;24.3;29;28.9;27.3;-1.0;
21/02/2025 13:54:40;117;0;165.83;-4;20.24;2.77;269.7;13.70;75145;2835.543;-1757.961;1;165;350;353.2;24.2;24.3;29;28.4;27.3;-1.0;
21/02/2025 13:55:00;117;0;167.07;-4;20.31;2.78;267.5;13.70;75142;2835.541;-1757.961;1;165;350;353.2;24.2;24.4;29;28.4;27.3;-1.0;
21/02/2025 13:55:20;117;0;167.29;-4;20.17;2.90;265.3;13.70;75152;2835.538;-1757.960;1;165;350;351.6;24.2;24.3;29;28.4;27.3;-1.0;
21/02/2025 13:55:40;117;0;167.33;-4;20.20;2.73;263.2;13.70;75151;2835.535;-1757.960;1;165;350;353.2;24.2;24.3;29;28.4;27.3;-1.0;
21/02/2025 13:56:00;117;0;167.55;-4;20.04;2.85;261.1;13.80;75160;2835.533;-1757.959;1;165;350;353.2;24.2;24.4;29;28.9;27.3;-1.0;
21/02/2025 13:56:20;117;0;165.13;-4;20.55;2.80;259.1;13.80;75160;2835.530;-1757.959;1;165;350;351.6;24.2;24.3;29;28.9;27.3;-1.0;
21/02/2025 13:56:40;117;0;163.53;-4;20.12;2.92;256.8;13.80;75166;2835.527;-1757.958;1;165;350;351.6;24.2;24.3;29;28.4;27.3;-1.0;
21/02/2025 13:57:00;117;0;163.76;-4;20.24;2.77;254.6;13.80;75173;2835.525;-1757.958;1;165;350;351.6;24.2;24.3;29;28.4;27.3;-1.0;
21/02/2025 13:57:20;117;0;164.10;-4;20.23;2.82;252.4;13.80;75170;2835.522;-1757.957;1;165;350;353.2;24.2;24.4;29;28.4;27.3;-1.0;
21/02/2025 13:57:40;117;0;162.39;-4;20.61;2.84;250.1;13.80;75175;2835.519;-1757.956;1;165;350;351.6;24.2;24.4;29;28.4;27.3;-1.0;
21/02/2025 13:58:00;117;0;159.37;-4;19.72;2.81;247.9;13.90;75180;2835.516;-1757.955;1;165;350;353.2;24.2;24.4;29;28.4;27.3;-1.0;
21/02/2025 13:58:20;117;0;157.98;-4;19.81;2.84;245.8;13.90;75188;2835.514;-1757.954;1;165;350;353.2;24.2;24.3;29;28.4;27.3;-1.0;
21/02/2025 13:58:40;117;0;157.70;-4;19.96;2.85;243.6;13.90;75198;2835.511;-1757.953;1;165;350;353.2;24.2;24.3;29;28.4;27.3;-1.0;
21/02/2025 13:59:00;117;0;157.36;-4;19.93;2.83;241.5;13.90;75207;2835.509;-1757.952;1;165;350;353.2;24.2;24.4;29;28.4;27.3;-1.0;
21/02/2025 13:59:20;117;0;155.74;-4;19.95;2.84;239.4;13.90;75217;2835.506;-1757.951;1;165;350;353.2;24.2;24.4;29;28.4;27.3;-1.0;
21/02/2025 13:59:40;117;0;154.58;-4;19.78;2.81;237.2;13.90;75220;2835.504;-1757.950;1;165;350;353.2;24.2;24.4;29;28.4;27.3;-1.0;
21/02/2025 14:00:00;117;0;153.65;-4;19.98;2.86;235.3;14.00;75223;2835.502;-1757.949;1;165;370;372.6;24.2;24.4;29;28.4;27.3;-1.0;
21/02/2025 14:00:20;117;0;150.54;-4;19.45;2.88;233.2;14.00;75187;2835.499;-1757.948;1;165;370;374.2;24.2;24.4;32;32.0;27.3;-1.0;
21/02/2025 14:00:40;117;0;150.15;-4;19.48;5.06;231.2;14.00;75187;2835.497;-1757.946;1;165;370;372.6;24.2;24.4;32;32.5;27.3;-1.0;
21/02/2025 14:01:00;117;0;150.10;-4;19.50;5.06;229.2;14.00;75189;2835.495;-1757.945;1;165;390;393.5;24.2;24.3;32;32.5;27.3;-1.0;
21/02/2025 14:01:20;117;0;153.41;-4;19.18;5.09;227.2;14.10;75159;2835.492;-1757.944;1;165;390;393.5;24.2;24.3;30;29.8;27.3;-1.0;
21/02/2025 14:01:41;117;0;154.25;-4;19.00;3.38;225.2;14.10;75166;2835.490;-1757.943;1;165;390;391.9;24.2;24.4;30;29.3;27.3;-1.0;
