Timestamp;NavState;SecurityLevel;Heading;Declination;Pitch;Roll;Depth;Temperature;Pa;Lat;Lon;DeadReckoning;DesiredH;BallastCmd;BallastPos;LinCmd;LinPos;AngCmd;AngPos;Voltage;Altitude;
19/02/2025 19:15:45;119;0;120.25;-4;-56.69;-14.67;0.0;19.20;76207;2838.677;-1759.454;0;281;500;509.7;100.0;100.6;0;-0.5;27.7;-1.0;
19/02/2025 19:15:55;116;0;132.57;-4;-44.90;-14.39;-0.1;19.30;76203;2838.676;-1759.453;0;279;500;509.7;100.0;100.7;0;-0.5;27.6;-1.0;
19/02/2025 19:16:18;116;0;135.34;-4;-52.11;-15.28;0.0;19.30;76215;2838.675;-1759.454;0;280;500;508.1;100.0;100.7;0;-0.5;27.7;-1.0;
19/02/2025 19:16:37;116;0;129.00;-4;-54.14;-12.27;0.0;19.40;76229;2838.675;-1759.454;0;-9999;500;509.7;100.0;100.6;0;-0.5;27.6;-1.0;
19/02/2025 19:16:57;116;0;115.63;-4;-44.60;-10.22;0.2;19.40;76222;2838.674;-1759.454;0;236;500;509.7;100.0;100.7;0;-0.5;27.6;-1.0;
19/02/2025 19:17:08;116;0;119.87;-4;-45.95;-13.58;-0.0;19.40;76225;2838.672;-1759.453;0;236;500;509.7;100.0;100.7;0;-0.5;27.7;-1.0;
19/02/2025 19:17:52;116;0;119.80;-4;-54.56;-18.25;-0.1;19.50;76234;2838.671;-1759.453;0;236;500;511.3;100.0;100.7;0;-0.5;27.7;-1.0;
19/02/2025 19:18:54;116;0;116.16;-4;-42.34;-17.14;-0.0;19.60;76248;2838.668;-1759.455;0;236;500;509.7;100.0;100.6;0;-0.5;27.6;-1.0;
19/02/2025 19:20:17;116;0;135.47;-4;-51.62;-14.90;0.0;19.90;76272;2838.663;-1759.454;0;236;500;509.7;100.0;100.6;0;-0.5;27.7;-1.0;
19/02/2025 19:20:38;116;0;119.39;-4;-48.71;-11.71;0.1;19.90;76261;2838.663;-1759.454;0;236;500;509.7;100.0;100.7;0;-0.5;27.7;-1.0;
19/02/2025 19:21:03;116;0;127.31;-4;-60.41;-16.61;-0.1;20.00;76263;2838.662;-1759.456;0;236;500;509.7;100.0;100.7;0;-0.5;27.6;-1.0;
19/02/2025 19:21:14;116;0;123.52;-4;-47.52;-4.37;-0.1;20.00;76279;2838.662;-1759.455;0;236;500;511.3;100.0;100.7;0;-0.5;27.7;-1.0;
19/02/2025 19:21:34;110;0;123.24;-4;-54.06;-10.72;-0.1;20.10;76277;2838.662;-1759.455;0;236;-50;393.5;100.0;99.9;-11;-10.8;27.7;-1.0;
19/02/2025 19:21:44;110;0;133.63;-4;-55.67;-21.65;0.4;20.10;76634;2838.662;-1759.455;1;236;-50;238.7;100.0;100.0;-11;-11.3;27.6;-1.0;
19/02/2025 19:21:54;110;0;136.76;-4;-58.71;-19.26;0.7;20.10;76891;2838.662;-1759.455;1;236;-50;79.0;100.0;99.9;-11;-11.3;27.6;-1.0;
19/02/2025 19:22:04;110;0;145.45;-4;-78.19;6.22;0.8;20.10;77222;2838.662;-1759.455;1;236;-50;-46.8;100.0;99.9;-11;-11.3;27.6;-1.0;
19/02/2025 19:22:14;110;0;169.63;-4;-76.81;-25.68;1.4;20.20;77470;2838.662;-1759.455;1;236;-50;-46.8;50.0;49.9;-11;-11.3;27.6;-1.0;
19/02/2025 19:22:34;100;0;154.02;-4;-36.59;-17.32;5.1;20.20;77448;2838.660;-1759.454;1;236;-50;-45.2;50.0;49.5;-11;-11.3;27.7;-1.0;
19/02/2025 19:22:54;100;0;161.12;-4;-34.30;-17.14;9.2;20.30;77452;2838.657;-1759.453;1;236;-50;-43.5;45.7;45.4;-70;-69.9;27.6;-1.0;
19/02/2025 19:23:14;100;0;168.81;-4;-25.82;-43.70;13.4;20.30;77451;2838.653;-1759.452;1;236;-50;-40.3;44.0;44.0;-67;-66.8;27.6;-1.0;
19/02/2025 19:23:34;100;0;180.79;-4;-22.56;-43.12;16.8;20.30;77463;2838.649;-1759.452;1;236;-50;-40.3;43.2;42.9;-53;-52.8;27.6;0.0;
19/02/2025 19:23:54;100;0;189.96;-4;-19.66;-36.50;19.8;20.30;77468;2838.645;-1759.453;1;236;-50;-38.7;43.2;42.9;-42;-41.5;27.6;0.0;
19/02/2025 19:24:14;100;0;201.87;-4;-18.83;-30.83;22.5;20.30;77465;2838.642;-1759.454;1;236;-50;-38.7;43.5;43.7;-25;-24.8;27.6;0.0;
19/02/2025 19:24:34;100;0;211.44;-4;-20.43;-22.77;25.1;20.40;77461;2838.639;-1759.456;1;236;-50;-38.7;43.5;43.9;-9;-9.0;27.6;0.0;
19/02/2025 19:24:54;100;0;219.78;-4;-21.39;-15.44;27.8;20.40;77456;2838.637;-1759.458;1;236;-50;-38.7;43.5;44.0;4;4.1;27.7;0.0;
19/02/2025 19:25:14;100;0;225.86;-4;-21.68;-9.37;30.5;20.40;77467;2838.635;-1759.461;1;236;-50;-37.1;43.5;44.0;10;10.4;27.6;0.0;
19/02/2025 19:25:34;100;0;229.56;-4;-21.50;-6.07;33.3;20.30;77462;2838.633;-1759.464;1;237;-50;-38.7;43.5;44.0;10;10.4;27.7;0.0;
19/02/2025 19:25:54;100;0;229.16;-4;-22.35;-6.37;36.0;20.40;77465;2838.631;-1759.467;1;237;-50;-38.7;42.8;42.9;10;10.4;27.6;0.0;
19/02/2025 19:26:14;100;0;230.15;-4;-20.20;-6.37;38.6;20.40;77474;2838.629;-1759.470;1;237;-50;-38.7;42.8;42.7;12;12.2;27.7;0.0;
19/02/2025 19:26:34;100;0;230.90;-4;-19.53;-5.17;41.1;20.30;77465;2838.627;-1759.473;1;237;-50;-38.7;42.8;42.7;12;12.6;27.6;0.0;
19/02/2025 19:26:54;100;0;230.63;-4;-19.88;-5.33;43.5;20.30;77474;2838.625;-1759.475;1;237;-50;-38.7;42.8;42.7;12;12.6;27.7;0.0;
19/02/2025 19:27:14;100;0;230.20;-4;-20.03;-5.33;46.0;20.30;77471;2838.623;-1759.478;1;237;-50;-40.3;42.8;42.7;12;12.6;27.6;0.0;
19/02/2025 19:27:34;100;0;230.46;-4;-20.00;-5.25;48.4;20.30;77474;2838.621;-1759.481;1;237;-50;-38.7;42.8;42.7;12;12.6;27.6;0.0;
19/02/2025 19:27:54;100;0;228.92;-4;-20.07;-5.21;50.8;20.30;77474;2838.619;-1759.484;1;237;-50;-38.7;42.8;42.7;12;12.6;27.6;0.0;
19/02/2025 19:28:14;100;0;227.39;-4;-20.25;-5.37;53.3;20.30;77483;2838.617;-1759.486;1;237;-50;-38.7;42.8;42.7;10;9.5;27.7;0.0;
19/02/2025 19:28:34;100;0;226.91;-4;-19.63;-7.05;55.7;20.30;77481;2838.615;-1759.489;1;237;-50;-38.7;42.8;42.7;10;9.5;27.7;0.0;
19/02/2025 19:28:54;100;0;224.99;-4;-19.80;-7.13;58.1;20.30;77486;2838.613;-1759.491;1;237;-50;-38.7;42.8;42.7;10;9.0;27.6;0.0;
19/02/2025 19:29:15;100;0;226.17;-4;-19.64;-7.13;60.5;20.30;77491;2838.611;-1759.494;1;237;-50;-38.7;42.8;42.6;10;9.0;27.6;0.0;
19/02/2025 19:29:35;100;0;225.96;-4;-19.55;-7.17;62.8;20.30;77486;2838.609;-1759.496;1;237;-50;-38.7;42.8;42.7;10;9.0;27.7;0.0;
19/02/2025 19:29:55;100;0;227.91;-4;-18.84;-7.06;65.0;20.30;77487;2838.607;-1759.499;1;237;-50;-40.3;43.2;43.2;10;9.0;27.6;0.0;
19/02/2025 19:30:15;100;0;228.52;-4;-19.96;-7.14;67.3;20.30;77478;2838.605;-1759.501;1;237;-50;-38.7;43.2;43.3;10;9.0;27.6;0.0;
19/02/2025 19:30:35;100;0;229.46;-4;-20.27;-7.11;69.6;20.30;77478;2838.604;-1759.504;1;237;-50;-37.1;43.2;43.3;10;9.0;27.6;0.0;
19/02/2025 19:30:55;100;0;229.16;-4;-20.11;-7.10;72.0;20.30;77467;2838.602;-1759.507;1;237;-50;-38.7;43.2;43.3;10;9.0;27.7;0.0;
19/02/2025 19:31:15;100;0;233.97;-4;-19.94;-7.07;74.3;20.30;77465;2838.600;-1759.510;1;237;-50;-37.1;43.2;43.3;12;12.2;27.6;0.0;
19/02/2025 19:31:35;100;0;234.83;-4;-20.37;-5.41;76.6;20.30;77457;2838.598;-1759.512;1;237;-50;-38.7;43.2;43.3;12;12.6;27.6;0.0;
19/02/2025 19:31:55;100;0;235.64;-4;-20.20;-5.31;79.0;20.30;77460;2838.597;-1759.515;1;237;-50;-40.3;43.2;43.4;12;12.2;27.7;0.0;
19/02/2025 19:32:15;100;0;236.44;-4;-20.27;-5.38;81.3;20.30;77466;2838.595;-1759.518;1;237;-50;-38.7;43.2;43.3;12;12.2;27.7;0.0;
19/02/2025 19:32:35;100;0;239.37;-4;-20.20;-5.33;83.7;20.30;77461;2838.594;-1759.521;1;237;-50;-38.7;43.2;43.3;12;12.6;27.7;0.0;
19/02/2025 19:32:55;100;0;240.54;-4;-20.38;-5.41;85.9;20.20;77441;2838.593;-1759.524;1;237;-50;-40.3;43.2;43.4;12;12.6;27.7;0.0;
19/02/2025 19:33:15;100;0;241.06;-4;-19.80;-5.42;88.2;20.20;77436;2838.591;-1759.527;1;237;-50;-38.7;43.2;43.4;12;12.6;27.6;0.0;
19/02/2025 19:33:35;100;0;242.57;-4;-19.84;-5.53;90.4;20.20;77443;2838.590;-1759.530;1;237;-50;-37.1;43.2;43.4;12;12.6;27.6;0.0;
19/02/2025 19:33:55;100;0;244.97;-4;-19.91;-5.51;92.6;20.20;77446;2838.589;-1759.533;1;237;-50;-38.7;43.2;43.4;15;14.9;27.6;0.0;
19/02/2025 19:34:15;100;0;248.38;-4;-20.25;-4.13;94.9;20.20;77421;2838.588;-1759.536;1;237;-50;-40.3;43.2;43.3;18;18.1;27.6;0.0;
19/02/2025 19:34:35;100;0;253.66;-4;-20.25;-2.47;97.2;20.20;77415;2838.587;-1759.539;1;237;-50;-38.7;43.2;43.3;26;26.2;27.6;0.0;
19/02/2025 19:34:55;100;0;252.24;-4;-20.90;1.70;99.7;20.20;77408;2838.586;-1759.542;1;237;-50;-37.1;43.2;43.4;24;23.9;27.7;0.0;
19/02/2025 19:35:15;100;0;249.24;-4;-20.54;-0.04;102.1;20.20;77405;2838.585;-1759.546;1;237;-50;-38.7;43.2;43.4;20;19.9;27.6;0.0;
19/02/2025 19:35:35;100;0;250.37;-4;-19.98;-2.01;104.5;20.10;77394;2838.585;-1759.549;1;236;-50;-38.7;43.2;43.3;23;23.0;27.7;0.0;
19/02/2025 19:35:55;100;0;249.76;-4;-20.39;-0.01;106.8;20.10;77374;2838.584;-1759.552;1;236;-50;-38.7;43.2;43.3;23;23.5;27.6;0.0;
19/02/2025 19:36:15;100;0;246.04;-4;-20.66;-0.01;109.3;20.10;77369;2838.582;-1759.555;1;236;-50;-38.7;43.2;43.3;17;17.1;27.7;0.0;
19/02/2025 19:36:35;100;0;242.32;-4;-20.58;-3.37;111.7;20.10;77362;2838.581;-1759.558;1;236;-50;-38.7;43.2;43.3;14;13.5;27.6;0.0;
19/02/2025 19:36:55;100;0;239.27;-4;-20.46;-4.98;114.2;20.10;77357;2838.580;-1759.561;1;236;-50;-38.7;43.2;43.3;14;13.5;27.6;0.0;
19/02/2025 19:37:15;100;0;234.88;-4;-19.66;-5.11;116.6;20.00;77353;2838.578;-1759.564;1;236;-50;-38.7;43.2;43.3;12;12.2;27.6;0.0;
19/02/2025 19:37:35;100;0;231.49;-4;-19.77;-5.87;119.0;20.00;77346;2838.576;-1759.567;1;236;-50;-40.3;43.2;43.4;12;11.7;27.7;0.0;
19/02/2025 19:37:55;100;0;226.64;-4;-20.32;-5.96;121.3;20.00;77320;2838.574;-1759.570;1;236;-50;-38.7;43.2;43.4;12;11.7;27.6;0.0;
19/02/2025 19:38:15;100;0;228.37;-4;-20.11;-5.85;123.8;19.90;77307;2838.572;-1759.572;1;236;-50;-38.7;43.2;43.3;12;11.7;27.6;0.0;
19/02/2025 19:38:35;100;0;228.01;-4;-20.04;-5.81;126.1;19.90;77299;2838.570;-1759.575;1;236;-50;-41.9;43.2;43.3;12;11.7;27.6;0.0;
19/02/2025 19:38:55;100;0;224.44;-4;-20.09;-5.80;128.5;19.90;77295;2838.568;-1759.577;1;236;-50;-38.7;43.2;43.3;9;9.0;27.6;0.0;
19/02/2025 19:39:15;100;0;218.97;-4;-19.84;-7.30;130.7;19.90;77285;2838.566;-1759.579;1;236;-50;-38.7;43.2;43.3;3;3.2;27.7;0.0;
19/02/2025 19:39:35;100;0;220.13;-4;-19.13;-10.37;133.0;19.80;77265;2838.564;-1759.582;1;237;-50;-38.7;43.2;43.3;3;2.7;27.6;0.0;
19/02/2025 19:39:55;100;0;220.51;-4;-18.89;-10.31;135.1;19.80;77242;2838.562;-1759.584;1;237;-50;-38.7;43.5;43.7;3;2.7;27.6;0.0;
19/02/2025 19:40:15;100;0;220.49;-4;-19.99;-10.36;137.3;19.80;77228;2838.560;-1759.586;1;237;-50;-38.7;43.5;44.0;3;3.2;27.6;0.0;
19/02/2025 19:40:35;100;0;219.77;-4;-20.13;-10.42;139.5;19.70;77219;2838.558;-1759.588;1;237;-50;-37.1;43.5;43.9;3;2.7;27.6;0.0;
19/02/2025 19:40:55;100;0;222.09;-4;-20.27;-10.29;141.8;19.70;77203;2838.556;-1759.590;1;237;-50;-38.7;43.5;44.0;6;5.9;27.6;0.0;
19/02/2025 19:41:15;100;0;220.67;-4;-20.41;-8.67;144.1;19.70;77193;2838.554;-1759.592;1;237;-50;-38.7;43.5;43.9;4;4.1;27.6;0.0;
19/02/2025 19:41:35;100;0;222.57;-4;-20.37;-9.89;146.5;19.70;77194;2838.552;-1759.595;1;237;-50;-38.7;43.5;44.0;6;5.9;27.7;0.0;
19/02/2025 19:41:55;100;0;225.58;-4;-20.49;-8.38;148.8;19.60;77176;2838.550;-1759.597;1;237;-50;-40.3;43.5;44.0;9;9.0;27.6;0.0;
19/02/2025 19:42:15;100;0;227.08;-4;-20.86;-6.89;151.4;19.60;77169;2838.547;-1759.600;1;237;-50;-38.7;43.5;44.0;9;9.5;27.7;0.0;
19/02/2025 19:42:35;100;0;228.44;-4;-20.33;-6.80;153.8;19.50;77149;2838.546;-1759.602;1;237;-50;-38.7;43.5;43.9;11;10.8;27.6;0.0;
19/02/2025 19:42:55;100;0;228.25;-4;-20.14;-6.16;156.1;19.50;77128;2838.544;-1759.605;1;237;-50;-38.7;43.5;44.0;11;10.8;27.7;0.0;
19/02/2025 19:43:15;100;0;229.97;-4;-20.42;-6.16;158.4;19.50;77129;2838.542;-1759.608;1;237;-50;-40.3;43.5;44.0;11;11.3;27.6;0.0;
19/02/2025 19:43:35;100;0;232.52;-4;-20.57;-6.13;160.8;19.40;77110;2838.540;-1759.610;1;237;-50;-38.7;43.5;44.0;11;10.8;27.6;0.0;
19/02/2025 19:43:55;100;0;233.83;-4;-20.37;-6.08;163.1;19.40;77097;2838.539;-1759.613;1;237;-50;-40.3;43.5;43.9;11;10.8;27.6;0.0;
19/02/2025 19:44:15;100;0;235.86;-4;-20.35;-6.14;165.6;19.40;77090;2838.537;-1759.616;1;237;-50;-38.7;43.5;44.0;11;11.3;27.6;0.0;
19/02/2025 19:44:35;100;0;239.07;-4;-20.20;-6.10;168.0;19.30;77070;2838.535;-1759.619;1;237;-50;-41.9;43.5;44.0;11;11.3;27.6;0.0;
19/02/2025 19:44:55;100;0;238.29;-4;-20.21;-6.15;170.3;19.30;77069;2838.534;-1759.622;1;237;-50;-38.7;43.5;44.0;11;11.3;27.6;0.0;
19/02/2025 19:45:15;100;0;237.17;-4;-19.98;-6.04;172.8;19.20;77060;2838.532;-1759.625;1;237;-50;-38.7;43.5;43.9;11;11.3;27.7;0.0;
19/02/2025 19:45:35;100;0;236.04;-4;-20.88;-6.10;175.1;19.20;77041;2838.531;-1759.628;1;237;-50;-40.3;43.5;44.0;11;10.8;27.6;0.0;
19/02/2025 19:45:55;100;0;234.64;-4;-21.19;-6.09;177.7;19.10;77040;2838.529;-1759.631;1;237;-50;-38.7;43.5;44.0;11;10.8;27.7;0.0;
19/02/2025 19:46:15;100;0;233.33;-4;-20.45;-6.09;180.2;19.10;77045;2838.527;-1759.634;1;237;-50;-38.7;43.5;44.0;11;11.3;27.6;0.0;
19/02/2025 19:46:35;100;0;233.76;-4;-20.53;-6.15;182.7;19.10;77024;2838.526;-1759.637;1;237;-50;-38.7;43.5;44.0;11;10.8;27.7;0.0;
19/02/2025 19:46:55;100;0;233.91;-4;-20.51;-6.29;185.2;19.00;77018;2838.524;-1759.639;1;237;-50;-38.7;43.5;44.0;11;10.8;27.6;0.0;
19/02/2025 19:47:15;100;0;238.40;-4;-20.33;-6.08;187.7;19.00;77001;2838.522;-1759.643;1;237;-50;-38.7;43.5;44.0;11;11.3;27.6;0.0;
19/02/2025 19:47:35;100;0;238.04;-4;-20.36;-6.18;190.1;19.00;77003;2838.521;-1759.646;1;237;-50;-38.7;43.5;44.0;11;11.3;27.6;0.0;
19/02/2025 19:47:55;100;0;235.87;-4;-20.52;-6.10;192.3;18.90;76990;2838.519;-1759.648;1;237;-50;-38.7;43.5;43.9;11;10.8;27.6;0.0;
19/02/2025 19:48:15;100;0;235.27;-4;-20.18;-6.11;194.6;18.90;76984;2838.518;-1759.651;1;237;-50;-40.3;43.5;44.0;11;11.3;27.6;0.0;
19/02/2025 19:48:35;100;0;232.29;-4;-19.79;-6.27;196.7;18.90;76976;2838.516;-1759.653;1;237;-50;-38.7;43.5;44.0;11;11.3;27.6;0.0;
19/02/2025 19:48:55;100;0;231.53;-4;-20.33;-6.17;198.7;18.80;76962;2838.515;-1759.656;1;237;-70;-72.6;43.5;43.9;11;11.3;27.6;0.0;
19/02/2025 19:49:15;100;0;226.72;-4;-20.04;-5.99;201.0;18.80;77025;2838.513;-1759.658;1;237;-70;-72.6;43.5;44.0;11;11.3;27.6;0.0;
19/02/2025 19:49:35;100;0;225.63;-4;-20.31;-5.96;203.5;18.70;77016;2838.511;-1759.661;1;237;-70;-75.8;43.5;43.9;9;9.0;27.7;0.0;
19/02/2025 19:49:55;100;0;221.83;-4;-20.20;-7.07;205.9;18.70;77014;2838.508;-1759.663;1;237;-70;-74.2;43.5;44.0;5;5.0;27.6;0.0;
19/02/2025 19:50:15;100;0;223.69;-4;-19.88;-9.04;208.5;18.70;77012;2838.506;-1759.666;1;237;-70;-74.2;43.5;44.0;7;7.2;27.6;0.0;
19/02/2025 19:50:35;100;0;221.29;-4;-20.49;-7.99;211.2;18.60;76998;2838.504;-1759.668;1;237;-70;-74.2;43.5;43.9;4;4.1;27.6;0.0;
19/02/2025 19:50:55;100;0;221.28;-4;-19.91;-9.62;213.7;18.60;76993;2838.501;-1759.671;1;237;-70;-74.2;43.5;44.0;4;3.6;27.6;0.0;
19/02/2025 19:51:15;100;0;223.33;-4;-19.56;-9.69;216.2;18.50;76990;2838.499;-1759.673;1;237;-70;-74.2;43.5;44.0;7;7.2;27.6;0.0;
19/02/2025 19:51:35;100;0;225.78;-4;-20.03;-7.75;218.6;18.50;76975;2838.497;-1759.676;1;237;-70;-75.8;43.5;43.9;9;9.0;27.6;0.0;
19/02/2025 19:51:55;100;0;227.28;-4;-20.10;-6.69;221.2;18.50;76965;2838.495;-1759.679;1;237;-70;-75.8;43.5;44.0;9;9.5;27.7;0.0;
19/02/2025 19:52:15;100;0;228.30;-4;-19.66;-6.69;223.8;18.40;76952;2838.493;-1759.681;1;237;-70;-74.2;43.5;44.0;9;9.5;27.6;0.0;
19/02/2025 19:52:35;100;0;232.27;-4;-19.52;-6.72;226.2;18.40;76935;2838.491;-1759.684;1;237;-70;-75.8;43.5;44.0;11;10.8;27.6;0.0;
19/02/2025 19:52:55;100;0;233.85;-4;-20.06;-5.83;228.6;18.40;76944;2838.489;-1759.687;1;237;-70;-74.2;43.5;43.9;11;11.3;27.6;0.0;
19/02/2025 19:53:15;100;0;233.69;-4;-20.14;-5.82;231.0;18.30;76932;2838.488;-1759.690;1;237;-70;-74.2;43.5;44.0;11;11.3;27.6;0.0;
19/02/2025 19:53:35;100;0;235.46;-4;-20.04;-5.79;233.6;18.30;76928;2838.486;-1759.693;1;237;-70;-75.8;43.5;44.0;11;11.3;27.7;0.0;
19/02/2025 19:53:55;100;0;238.08;-4;-19.50;-5.83;236.1;18.20;76914;2838.484;-1759.696;1;237;-70;-75.8;43.5;44.0;11;11.3;27.6;0.0;
19/02/2025 19:54:15;100;0;240.50;-4;-19.86;-5.76;238.6;18.20;76911;2838.483;-1759.700;1;237;-70;-75.8;43.5;44.0;11;11.3;27.6;0.0;
19/02/2025 19:54:35;100;0;242.19;-4;-19.81;-5.75;241.2;18.10;76898;2838.481;-1759.703;1;237;-70;-75.8;43.5;44.0;11;11.3;27.7;0.0;
19/02/2025 19:54:55;100;0;244.30;-4;-19.64;-5.74;243.7;18.10;76905;2838.480;-1759.706;1;237;-70;-74.2;43.5;44.0;14;14.0;27.6;0.0;
19/02/2025 19:55:15;100;0;245.81;-4;-20.21;-4.21;246.3;18.10;76895;2838.479;-1759.710;1;237;-70;-75.8;43.5;44.0;14;14.4;27.6;0.0;
19/02/2025 19:55:35;100;0;245.86;-4;-20.24;-4.20;248.9;18.00;76897;2838.478;-1759.713;1;237;-70;-75.8;43.5;44.0;14;14.4;27.6;0.0;
19/02/2025 19:55:55;100;0;243.01;-4;-20.53;-4.20;251.6;18.00;76881;2838.476;-1759.717;1;237;-70;-75.8;43.5;44.0;14;14.9;27.6;0.0;
19/02/2025 19:56:15;100;0;238.60;-4;-20.79;-4.03;254.5;18.00;76860;2838.474;-1759.720;1;237;-70;-75.8;43.5;43.9;11;10.4;27.6;0.0;
19/02/2025 19:56:35;100;0;235.75;-4;-20.33;-6.21;257.5;17.90;76836;2838.472;-1759.724;1;237;-70;-75.8;43.5;44.0;11;10.8;27.6;0.0;
19/02/2025 19:56:55;100;0;236.83;-4;-19.64;-6.26;260.3;17.90;76826;2838.470;-1759.727;1;237;-70;-75.8;43.5;44.0;11;10.4;27.6;0.0;
19/02/2025 19:57:15;100;0;236.31;-4;-19.79;-6.32;262.9;17.80;76803;2838.469;-1759.730;1;237;-70;-75.8;43.5;44.0;11;10.8;27.6;0.0;
19/02/2025 19:57:35;100;0;235.96;-4;-19.94;-6.28;265.6;17.80;76789;2838.467;-1759.734;1;237;-70;-75.8;43.5;44.0;11;10.8;27.6;0.0;
19/02/2025 19:57:55;100;0;234.10;-4;-20.32;-6.20;268.3;17.80;76801;2838.465;-1759.737;1;237;-70;-75.8;43.5;44.0;11;10.4;27.6;0.0;
19/02/2025 19:58:15;100;0;233.20;-4;-19.93;-6.23;271.0;17.70;76781;2838.463;-1759.740;1;237;-70;-75.8;43.5;44.0;11;10.8;27.6;0.0;
19/02/2025 19:58:35;100;0;231.38;-4;-19.73;-6.30;273.7;17.70;76772;2838.461;-1759.743;1;237;-70;-75.8;43.5;44.0;11;10.8;27.6;0.0;
19/02/2025 19:58:55;100;0;231.90;-4;-19.62;-6.24;276.2;17.60;76759;2838.459;-1759.746;1;237;-70;-74.2;43.5;44.0;11;10.4;27.6;0.0;
19/02/2025 19:59:15;100;0;236.59;-4;-19.65;-6.28;278.7;17.60;76758;2838.457;-1759.749;1;237;-70;-75.8;43.5;44.0;11;10.4;27.7;0.0;
19/02/2025 19:59:35;100;0;237.57;-4;-19.63;-6.25;281.3;17.60;76731;2838.456;-1759.752;1;237;-70;-74.2;43.5;43.9;11;10.8;27.6;0.0;
19/02/2025 19:59:55;100;0;238.56;-4;-19.36;-6.26;283.9;17.50;76728;2838.454;-1759.756;1;237;-70;-75.8;43.5;43.9;11;10.4;27.6;0.0;
19/02/2025 20:00:15;100;0;239.66;-4;-19.73;-6.28;286.4;17.50;76716;2838.453;-1759.759;1;237;-70;-74.2;43.5;44.0;11;10.4;27.6;0.0;
19/02/2025 20:00:35;100;0;239.08;-4;-19.90;-6.20;288.9;17.40;76698;2838.451;-1759.762;1;237;-70;-75.8;43.5;44.0;11;10.8;27.7;0.0;
19/02/2025 20:00:55;100;0;238.48;-4;-19.88;-6.21;291.4;17.40;76702;2838.449;-1759.765;1;237;-70;-75.8;43.5;43.9;11;10.8;27.6;0.0;
19/02/2025 20:01:15;100;0;238.35;-4;-19.72;-6.22;294.0;17.30;76693;2838.448;-1759.768;1;237;-70;-75.8;43.5;43.9;11;10.8;27.6;0.0;
19/02/2025 20:01:35;100;0;238.59;-4;-19.50;-6.24;296.5;17.30;76691;2838.446;-1759.772;1;237;-70;-74.2;43.5;43.9;11;10.8;27.7;0.0;
19/02/2025 20:01:55;100;0;239.53;-4;-19.54;-6.20;299.0;17.30;76682;2838.445;-1759.775;1;237;-70;-75.8;43.5;44.0;11;10.8;27.6;0.0;
19/02/2025 20:02:15;100;0;240.49;-4;-19.80;-6.26;301.5;17.20;76673;2838.443;-1759.778;1;237;-70;-75.8;43.5;43.9;11;10.4;27.7;0.0;
19/02/2025 20:02:35;100;0;240.69;-4;-19.94;-6.24;304.0;17.20;76677;2838.442;-1759.781;1;237;-70;-74.2;43.5;43.9;11;10.8;27.7;0.0;
19/02/2025 20:02:55;100;0;239.22;-4;-20.44;-6.21;306.7;17.10;76657;2838.440;-1759.785;1;237;-70;-74.2;43.5;43.9;11;10.8;27.7;0.0;
19/02/2025 20:03:15;100;0;240.00;-4;-19.98;-6.18;309.4;17.10;76642;2838.438;-1759.788;1;237;-70;-74.2;43.5;44.0;11;10.8;27.6;0.0;
19/02/2025 20:03:35;100;0;240.72;-4;-19.82;-6.19;312.0;17.10;76641;2838.437;-1759.791;1;237;-70;-75.8;43.5;43.9;11;10.8;27.6;0.0;
19/02/2025 20:03:56;100;0;242.66;-4;-19.85;-6.24;314.7;17.00;76648;2838.435;-1759.795;1;237;-70;-75.8;43.5;44.0;13;13.1;27.6;0.0;
19/02/2025 20:04:16;100;0;245.59;-4;-19.68;-4.51;317.4;17.00;76630;2838.434;-1759.798;1;237;-70;-75.8;43.5;44.0;15;14.9;27.6;0.0;
19/02/2025 20:04:36;100;0;247.52;-4;-19.92;-3.88;320.0;17.00;76619;2838.433;-1759.802;1;237;-70;-75.8;43.5;44.0;17;17.1;27.6;0.0;
19/02/2025 20:04:56;100;0;247.36;-4;-20.13;-2.93;322.7;16.90;76618;2838.432;-1759.806;1;237;-70;-75.8;43.5;44.0;17;17.1;27.6;0.0;
19/02/2025 20:05:16;100;0;247.67;-4;-19.96;-2.87;325.4;16.90;76606;2838.431;-1759.809;1;237;-70;-75.8;43.5;44.2;17;17.1;27.6;0.0;
19/02/2025 20:05:36;100;0;247.74;-4;-20.13;-2.95;327.9;16.90;76599;2838.429;-1759.813;1;237;-70;-75.8;43.5;43.9;17;17.1;27.6;0.0;
19/02/2025 20:05:56;100;0;245.97;-4;-20.47;-2.89;330.8;16.80;76592;2838.428;-1759.817;1;237;-70;-75.8;43.5;44.0;17;17.1;27.6;0.0;
19/02/2025 20:06:16;100;0;245.27;-4;-20.02;-2.89;333.8;16.80;76586;2838.427;-1759.821;1;236;-70;-75.8;43.5;44.0;15;14.9;27.6;0.0;
19/02/2025 20:06:36;100;0;243.06;-4;-19.92;-4.41;336.6;16.80;76576;2838.425;-1759.824;1;236;-70;-75.8;43.5;44.0;15;14.4;27.7;0.0;
19/02/2025 20:06:56;100;0;241.55;-4;-19.89;-4.42;339.5;16.70;76566;2838.423;-1759.828;1;236;-70;-74.2;43.5;43.9;13;13.1;27.7;0.0;
19/02/2025 20:07:16;100;0;240.37;-4;-20.10;-5.17;342.4;16.70;76557;2838.422;-1759.832;1;236;-70;-74.2;43.5;44.0;13;12.6;27.6;0.0;
19/02/2025 20:07:36;100;0;239.41;-4;-19.85;-5.21;345.4;16.60;76547;2838.420;-1759.835;1;236;-70;-75.8;43.5;44.0;13;12.6;27.6;0.0;
19/02/2025 20:07:56;100;0;238.54;-4;-19.69;-5.07;348.2;16.60;76543;2838.418;-1759.839;1;236;-70;-75.8;43.5;44.0;13;12.6;27.6;0.0;
19/02/2025 20:08:16;100;0;235.93;-4;-19.47;-5.27;351.1;16.60;76542;2838.416;-1759.843;1;236;-70;-75.8;43.5;44.0;13;12.6;27.6;0.0;
19/02/2025 20:08:36;100;0;234.41;-4;-19.46;-5.24;354.1;16.50;76524;2838.414;-1759.846;1;236;-70;-75.8;43.5;43.9;13;12.6;27.6;0.0;
19/02/2025 20:08:56;100;0;237.03;-4;-19.86;-5.14;357.0;16.50;76507;2838.412;-1759.850;1;236;-70;-74.2;43.5;44.0;13;12.6;27.6;0.0;
19/02/2025 20:09:16;100;0;236.44;-4;-19.97;-5.17;360.1;16.50;76513;2838.410;-1759.854;1;236;-70;-75.8;43.5;44.0;13;12.6;27.6;0.0;
19/02/2025 20:09:36;100;0;237.64;-4;-19.48;-5.17;363.2;16.40;76500;2838.408;-1759.858;1;236;-70;-75.8;43.5;44.0;13;12.6;27.6;0.0;
19/02/2025 20:09:56;100;0;238.52;-4;-19.33;-5.15;366.3;16.40;76486;2838.406;-1759.862;1;236;-70;-74.2;43.5;44.0;13;12.6;27.6;0.0;
19/02/2025 20:10:16;100;0;238.22;-4;-19.33;-5.26;369.2;16.40;76479;2838.404;-1759.865;1;236;-70;-74.2;43.5;43.9;13;12.6;27.6;0.0;
19/02/2025 20:10:36;100;0;236.51;-4;-19.91;-5.20;372.1;16.30;76466;2838.402;-1759.869;1;236;-70;-75.8;43.5;44.0;13;12.6;27.6;0.0;
19/02/2025 20:10:56;100;0;236.61;-4;-19.51;-5.14;375.2;16.30;76463;2838.400;-1759.873;1;236;-70;-75.8;43.5;44.0;13;12.6;27.6;0.0;
19/02/2025 20:11:16;100;0;238.39;-4;-19.36;-5.19;378.2;16.20;76455;2838.398;-1759.877;1;236;-70;-75.8;43.5;43.9;13;12.6;27.6;0.0;
19/02/2025 20:11:36;100;0;239.74;-4;-19.16;-5.25;381.2;16.20;76457;2838.396;-1759.881;1;236;-70;-75.8;43.5;44.0;13;12.6;27.6;0.0;
19/02/2025 20:11:56;100;0;241.22;-4;-19.50;-5.18;384.1;16.20;76441;2838.394;-1759.885;1;236;-70;-75.8;43.5;44.0;13;13.1;27.6;0.0;
19/02/2025 20:12:16;100;0;242.86;-4;-19.18;-5.21;387.0;16.10;76435;2838.392;-1759.888;1;236;-70;-74.2;43.5;44.0;13;12.6;27.6;0.0;
19/02/2025 20:12:36;100;0;245.16;-4;-19.29;-5.12;389.8;16.10;76421;2838.391;-1759.892;1;236;-70;-75.8;43.5;44.0;15;14.9;27.6;0.0;
19/02/2025 20:12:56;100;0;244.55;-4;-19.49;-3.85;392.7;16.10;76416;2838.389;-1759.896;1;236;-70;-75.8;43.5;44.0;15;15.3;27.7;0.0;
19/02/2025 20:13:16;100;0;242.14;-4;-19.35;-3.93;395.6;16.00;76418;2838.388;-1759.900;1;236;-70;-75.8;43.5;44.0;13;13.1;27.6;0.0;
19/02/2025 20:13:36;100;0;238.28;-4;-19.10;-5.04;398.4;16.00;76408;2838.386;-1759.904;1;236;-70;-75.8;43.5;44.0;13;13.1;27.6;0.0;
19/02/2025 20:13:56;100;0;240.79;-4;-19.37;-5.02;401.1;16.00;76404;2838.384;-1759.907;1;236;-70;-75.8;43.5;44.0;13;13.1;27.6;0.0;
19/02/2025 20:14:16;100;0;240.35;-4;-18.99;-5.07;403.9;16.00;76377;2838.382;-1759.911;1;236;-70;-75.8;43.8;43.9;13;13.1;27.6;0.0;
19/02/2025 20:14:36;100;0;238.62;-4;-19.25;-5.06;406.5;15.90;76366;2838.381;-1759.914;1;236;-70;-75.8;43.8;43.9;13;13.1;27.6;0.0;
19/02/2025 20:14:56;100;0;236.60;-4;-19.58;-4.98;409.3;15.90;76368;2838.379;-1759.918;1;236;-70;-74.2;43.8;44.0;13;13.1;27.6;0.0;
19/02/2025 20:15:16;100;0;234.44;-4;-19.23;-5.00;412.2;15.80;76356;2838.377;-1759.921;1;236;-70;-75.8;43.8;43.9;13;13.1;27.6;0.0;
19/02/2025 20:15:36;100;0;233.43;-4;-19.34;-4.94;415.1;15.80;76347;2838.375;-1759.925;1;236;-70;-75.8;43.8;43.9;13;13.1;27.6;0.0;
19/02/2025 20:15:56;100;0;232.17;-4;-19.39;-5.10;417.9;15.80;76342;2838.372;-1759.928;1;236;-70;-75.8;43.8;43.9;13;13.1;27.6;0.0;
19/02/2025 20:16:16;100;0;231.52;-4;-19.63;-5.02;421.0;15.70;76333;2838.370;-1759.932;1;236;-70;-75.8;43.8;43.9;13;13.1;27.7;0.0;
19/02/2025 20:16:36;100;0;230.24;-4;-19.42;-5.04;424.0;15.70;76326;2838.368;-1759.936;1;236;-70;-74.2;43.8;43.9;13;13.1;27.6;0.0;
19/02/2025 20:16:56;100;0;229.07;-4;-19.25;-5.06;427.1;15.60;76319;2838.365;-1759.939;1;236;-70;-75.8;43.8;43.9;13;13.1;27.6;0.0;
19/02/2025 20:17:16;100;0;230.32;-4;-18.99;-5.12;430.0;15.60;76324;2838.363;-1759.942;1;236;-70;-74.2;44.1;44.3;13;13.1;27.6;0.0;
19/02/2025 20:17:36;100;0;232.77;-4;-20.19;-5.09;433.0;15.60;76309;2838.360;-1759.946;1;236;-70;-75.8;44.1;44.6;13;13.1;27.6;0.0;
19/02/2025 20:17:56;100;0;234.25;-4;-20.41;-4.99;436.3;15.60;76302;2838.358;-1759.950;1;236;-70;-74.2;44.1;44.6;13;13.1;27.6;0.0;
19/02/2025 20:18:16;100;0;235.50;-4;-20.30;-5.02;439.5;15.50;76290;2838.356;-1759.954;1;236;-70;-75.8;44.1;44.6;13;13.1;27.6;0.0;
19/02/2025 20:18:36;100;0;235.93;-4;-20.36;-5.01;442.8;15.50;76288;2838.354;-1759.958;1;236;-70;-75.8;44.1;44.6;13;13.1;27.6;0.0;
19/02/2025 20:18:56;100;0;236.38;-4;-20.47;-5.01;446.1;15.50;76291;2838.351;-1759.962;1;236;-70;-75.8;44.1;44.6;13;13.1;27.6;0.0;
19/02/2025 20:19:16;100;0;236.97;-4;-20.11;-4.99;449.5;15.40;76274;2838.349;-1759.966;1;236;-70;-74.2;44.1;44.6;13;13.1;27.6;0.0;
19/02/2025 20:19:36;100;0;237.79;-4;-20.59;-5.08;452.6;15.40;76265;2838.347;-1759.970;1;236;-70;-75.8;44.1;44.6;13;13.1;27.6;0.0;
19/02/2025 20:19:56;100;0;239.63;-4;-19.58;-5.03;455.9;15.40;76271;2838.345;-1759.974;1;236;-70;-75.8;44.1;44.6;13;13.1;27.6;0.0;
19/02/2025 20:20:16;100;0;239.32;-4;-20.26;-5.10;459.0;15.30;76254;2838.343;-1759.978;1;236;-70;-75.8;44.1;44.5;13;13.1;27.6;0.0;
19/02/2025 20:20:36;100;0;239.47;-4;-20.39;-5.01;462.3;15.30;76251;2838.341;-1759.982;1;236;-70;-75.8;44.1;44.6;13;13.1;27.6;0.0;
19/02/2025 20:20:56;100;0;239.07;-4;-20.17;-5.04;465.5;15.30;76254;2838.339;-1759.986;1;236;-70;-75.8;44.1;44.5;13;13.1;27.6;0.0;
19/02/2025 20:21:16;100;0;238.64;-4;-20.14;-4.99;468.8;15.20;76235;2838.337;-1759.990;1;236;-70;-75.8;44.1;44.6;13;13.1;27.6;0.0;
19/02/2025 20:21:36;100;0;238.35;-4;-20.14;-4.99;472.0;15.20;76230;2838.335;-1759.994;1;236;-70;-75.8;44.1;44.6;13;13.1;27.6;0.0;
19/02/2025 20:21:56;100;0;237.89;-4;-20.45;-4.94;475.1;15.20;76234;2838.333;-1759.998;1;236;-70;-74.2;44.1;44.6;13;13.1;27.6;0.0;
19/02/2025 20:22:16;100;0;236.88;-4;-20.26;-4.96;478.3;15.20;76227;2838.331;-1800.002;1;236;-70;-74.2;44.1;44.6;13;13.1;27.7;0.0;
19/02/2025 20:22:36;100;0;236.99;-4;-20.20;-4.98;481.3;15.10;76221;2838.329;-1800.006;1;236;-70;-75.8;44.1;44.6;13;13.1;27.6;0.0;
19/02/2025 20:22:56;100;0;236.01;-4;-20.32;-5.05;484.3;15.10;76200;2838.327;-1800.009;1;236;-70;-75.8;44.1;44.5;13;13.1;27.6;0.0;
19/02/2025 20:23:16;100;0;234.36;-4;-20.14;-5.01;487.3;15.10;76190;2838.325;-1800.013;1;236;-70;-75.8;44.1;44.5;13;13.1;27.6;0.0;
19/02/2025 20:23:36;100;0;235.14;-4;-20.12;-5.01;490.2;15.00;76187;2838.323;-1800.016;1;236;-70;-74.2;44.1;44.6;13;13.1;27.6;0.0;
19/02/2025 20:23:56;100;0;235.57;-4;-20.18;-4.98;493.0;15.00;76182;2838.321;-1800.020;1;236;-70;-75.8;44.1;44.6;13;13.1;27.6;0.0;
19/02/2025 20:24:16;100;0;232.70;-4;-20.13;-5.05;495.9;15.00;76178;2838.319;-1800.023;1;236;-70;-75.8;44.1;44.6;13;13.1;27.6;0.0;
19/02/2025 20:24:36;100;0;229.70;-4;-20.09;-5.12;498.7;14.90;76165;2838.316;-1800.026;1;236;-70;-75.8;44.1;44.6;13;13.1;27.6;0.0;
19/02/2025 20:24:56;100;0;228.26;-4;-19.88;-5.05;501.4;14.90;76147;2838.314;-1800.029;1;236;-70;-75.8;44.1;44.6;13;13.1;27.7;0.0;
19/02/2025 20:25:16;100;0;227.53;-4;-19.83;-5.11;504.1;14.90;76146;2838.312;-1800.032;1;236;-70;-75.8;44.1;44.5;11;10.8;27.6;0.0;
19/02/2025 20:25:36;100;0;228.60;-4;-19.77;-6.14;506.8;14.80;76135;2838.310;-1800.035;1;236;-70;-75.8;44.1;44.6;11;10.8;27.6;0.0;
19/02/2025 20:25:56;100;0;228.93;-4;-20.07;-6.11;509.5;14.80;76143;2838.308;-1800.038;1;236;-70;-75.8;44.1;44.6;11;10.8;27.6;0.0;
19/02/2025 20:26:16;100;0;227.80;-4;-20.33;-6.07;512.2;14.80;76121;2838.305;-1800.041;1;236;-70;-75.8;44.1;44.6;11;10.8;27.7;0.0;
19/02/2025 20:26:36;100;0;225.77;-4;-20.40;-6.07;515.2;14.70;76117;2838.303;-1800.044;1;236;-70;-75.8;44.1;44.6;11;10.8;27.6;0.0;
19/02/2025 20:26:56;100;0;224.38;-4;-20.11;-6.11;518.2;14.70;76112;2838.300;-1800.047;1;236;-70;-77.4;44.1;44.6;9;9.0;27.6;0.0;
19/02/2025 20:27:16;100;0;224.53;-4;-19.94;-6.56;521.2;14.70;76105;2838.298;-1800.050;1;236;-70;-75.8;44.1;44.6;9;9.9;27.6;0.0;
19/02/2025 20:27:36;100;0;224.03;-4;-20.08;-6.60;524.2;14.70;76110;2838.295;-1800.053;1;236;-70;-75.8;44.1;44.6;9;9.9;27.6;0.0;
19/02/2025 20:27:56;100;0;224.06;-4;-19.93;-6.53;527.2;14.60;76092;2838.292;-1800.056;1;236;-70;-75.8;44.1;44.6;9;9.9;27.6;0.0;
19/02/2025 20:28:16;100;0;224.74;-4;-19.90;-6.55;530.3;14.60;76095;2838.290;-1800.060;1;236;-70;-74.2;44.1;44.6;9;9.9;27.6;0.0;
19/02/2025 20:28:36;100;0;225.16;-4;-19.88;-6.50;533.5;14.60;76080;2838.287;-1800.063;1;236;-70;-75.8;44.1;44.6;9;9.9;27.7;0.0;
19/02/2025 20:28:56;100;0;225.40;-4;-20.22;-6.62;536.7;14.50;76076;2838.284;-1800.066;1;236;-70;-75.8;44.1;44.6;9;9.9;27.6;0.0;
19/02/2025 20:29:16;100;0;227.73;-4;-20.05;-6.49;539.9;14.50;76081;2838.281;-1800.070;1;236;-70;-75.8;44.1;44.6;11;11.3;27.6;0.0;
19/02/2025 20:29:36;100;0;226.38;-4;-20.17;-5.54;543.3;14.50;76068;2838.278;-1800.073;1;237;-70;-75.8;44.1;44.6;9;9.0;27.6;0.0;
19/02/2025 20:29:56;100;0;228.57;-4;-20.10;-7.04;546.8;14.40;76064;2838.276;-1800.077;1;237;-70;-74.2;44.1;44.6;11;11.3;27.6;0.0;
19/02/2025 20:30:16;100;0;228.65;-4;-19.97;-5.56;550.3;14.40;76063;2838.273;-1800.081;1;237;-70;-74.2;44.1;44.6;11;11.7;27.6;0.0;
19/02/2025 20:30:36;100;0;232.71;-4;-19.18;-6.10;553.7;14.40;76066;2838.270;-1800.085;1;237;-70;-74.2;44.1;44.6;11;11.7;27.6;0.0;
19/02/2025 20:30:56;100;0;237.39;-4;-20.01;-5.65;557.1;14.40;76049;2838.268;-1800.089;1;237;-70;-75.8;44.1;44.6;11;11.7;27.6;0.0;
19/02/2025 20:31:16;100;0;239.23;-4;-19.85;-5.68;560.5;14.30;76041;2838.266;-1800.094;1;237;-70;-75.8;44.1;44.6;11;11.7;27.6;0.0;
19/02/2025 20:31:36;100;0;240.98;-4;-19.84;-5.69;563.8;14.30;76040;2838.264;-1800.098;1;237;-70;-75.8;44.1;44.6;11;11.7;27.7;0.0;
19/02/2025 20:31:56;100;0;241.54;-4;-19.71;-5.69;567.1;14.30;76028;2838.262;-1800.102;1;237;-70;-75.8;44.1;44.6;13;13.1;27.6;0.0;
19/02/2025 20:32:16;100;0;241.00;-4;-20.11;-4.72;570.4;14.30;76023;2838.260;-1800.106;1;236;-70;-74.2;44.1;44.6;13;13.1;27.6;0.0;
19/02/2025 20:32:36;100;0;241.47;-4;-20.15;-4.69;573.6;14.20;76017;2838.258;-1800.111;1;236;-70;-75.8;44.1;44.6;13;13.5;27.6;0.0;
19/02/2025 20:32:56;100;0;243.17;-4;-20.06;-4.69;576.8;14.20;76010;2838.256;-1800.115;1;236;-70;-75.8;44.1;44.8;13;13.1;27.6;0.0;
19/02/2025 20:33:16;100;0;242.91;-4;-20.16;-4.85;580.1;14.20;76013;2838.255;-1800.119;1;236;-70;-79.0;44.1;44.6;13;13.1;27.6;0.0;
19/02/2025 20:33:36;100;0;244.36;-4;-20.00;-4.68;583.1;14.10;76001;2838.253;-1800.123;1;236;-70;-79.0;44.1;44.6;15;15.3;27.6;0.0;
19/02/2025 20:33:56;100;0;243.07;-4;-19.94;-3.80;586.1;14.10;75994;2838.251;-1800.127;1;236;-70;-79.0;44.1;44.6;15;15.8;27.6;0.0;
19/02/2025 20:34:16;100;0;241.66;-4;-19.98;-3.78;589.2;14.10;75993;2838.250;-1800.131;1;236;-70;-75.8;44.1;44.6;13;13.1;27.6;0.0;
19/02/2025 20:34:36;100;0;241.08;-4;-19.73;-5.25;592.2;14.10;75981;2838.248;-1800.135;1;236;-70;-74.2;44.1;44.6;13;12.6;27.7;0.0;
19/02/2025 20:34:56;100;0;242.33;-4;-20.28;-5.18;595.0;14.00;75975;2838.246;-1800.139;1;236;-70;-74.2;44.1;44.6;13;12.6;27.6;0.0;
19/02/2025 20:35:16;100;0;244.60;-4;-19.76;-5.11;598.0;14.00;75976;2838.245;-1800.142;1;236;-70;-75.8;44.1;44.6;15;14.9;27.6;0.0;
19/02/2025 20:35:36;100;0;243.10;-4;-19.83;-3.85;601.0;14.00;75971;2838.243;-1800.146;1;236;-70;-74.2;44.1;44.6;15;15.3;27.6;0.0;
19/02/2025 20:35:56;100;0;245.74;-4;-20.25;-3.72;603.8;13.90;75956;2838.242;-1800.150;1;236;-70;-75.8;44.1;44.6;17;17.1;27.7;0.0;
19/02/2025 20:36:16;100;0;247.89;-4;-20.22;-3.03;606.7;13.90;75946;2838.240;-1800.154;1;236;-70;-75.8;44.1;44.6;17;17.1;27.6;0.0;
19/02/2025 20:36:36;100;0;244.17;-4;-19.99;-2.89;609.7;13.90;75944;2838.239;-1800.158;1;236;-70;-75.8;44.1;44.6;15;14.9;27.6;0.0;
19/02/2025 20:36:56;100;0;242.09;-4;-19.53;-4.49;612.5;13.90;75935;2838.237;-1800.162;1;236;-70;-75.8;44.1;44.6;15;14.4;27.6;0.0;
19/02/2025 20:37:16;100;0;240.49;-4;-19.92;-4.42;615.3;13.90;75930;2838.236;-1800.165;1;236;-70;-75.8;44.1;44.6;13;13.1;27.6;0.0;
19/02/2025 20:37:36;100;0;240.77;-4;-20.34;-5.14;618.1;13.80;75929;2838.234;-1800.169;1;236;-70;-74.2;44.1;44.6;13;12.6;27.6;0.0;
19/02/2025 20:37:56;100;0;240.02;-4;-20.10;-5.12;621.0;13.80;75919;2838.232;-1800.173;1;236;-70;-75.8;44.1;44.6;13;12.6;27.6;0.0;
19/02/2025 20:38:17;100;0;240.86;-4;-19.67;-5.18;623.9;13.80;75910;2838.230;-1800.176;1;236;-70;-75.8;44.1;44.6;13;12.6;27.6;0.0;
19/02/2025 20:38:37;100;0;245.09;-4;-19.69;-5.13;626.7;13.70;75896;2838.229;-1800.180;1;236;-70;-75.8;44.1;44.6;17;17.1;27.6;0.0;
19/02/2025 20:38:57;100;0;244.71;-4;-19.89;-2.84;629.5;13.70;75890;2838.228;-1800.184;1;236;-70;-75.8;44.1;44.6;17;17.1;27.6;0.0;
19/02/2025 20:39:17;100;0;242.66;-4;-20.09;-2.97;632.4;13.70;75897;2838.226;-1800.187;1;236;-70;-75.8;44.1;44.6;15;14.9;27.6;0.0;
19/02/2025 20:39:37;100;0;241.74;-4;-19.84;-4.38;635.2;13.70;75892;2838.224;-1800.191;1;236;-70;-75.8;44.1;44.8;15;14.4;27.6;0.0;
19/02/2025 20:39:57;100;0;240.91;-4;-19.61;-4.36;638.1;13.60;75879;2838.223;-1800.195;1;236;-70;-75.8;44.1;44.6;15;14.4;27.7;0.0;
19/02/2025 20:40:17;100;0;239.37;-4;-19.91;-4.39;640.8;13.60;75871;2838.221;-1800.198;1;236;-70;-75.8;44.1;44.6;13;13.1;27.6;0.0;
19/02/2025 20:40:37;100;0;239.01;-4;-19.55;-5.11;643.7;13.60;75861;2838.219;-1800.202;1;236;-70;-75.8;44.1;44.6;13;12.6;27.6;0.0;
19/02/2025 20:40:57;100;0;239.59;-4;-19.55;-5.14;646.5;13.60;75870;2838.218;-1800.205;1;236;-70;-77.4;44.1;44.6;13;13.1;27.7;0.0;
19/02/2025 20:41:17;100;0;240.04;-4;-19.62;-5.09;649.3;13.50;75852;2838.216;-1800.209;1;236;-70;-75.8;44.1;44.6;13;12.6;27.6;0.0;
19/02/2025 20:41:37;100;0;239.78;-4;-19.54;-5.09;652.2;13.50;75852;2838.214;-1800.213;1;236;-70;-74.2;44.1;44.8;13;12.6;27.6;0.0;
19/02/2025 20:41:57;100;0;240.39;-4;-19.39;-5.16;655.1;13.50;75845;2838.212;-1800.216;1;236;-70;-75.8;44.1;44.6;13;13.1;27.6;0.0;
19/02/2025 20:42:17;100;0;241.43;-4;-19.36;-5.16;657.9;13.40;75842;2838.211;-1800.220;1;236;-70;-75.8;44.1;44.6;13;13.1;27.6;0.0;
19/02/2025 20:42:37;100;0;244.27;-4;-19.46;-5.14;660.8;13.40;75835;2838.209;-1800.224;1;236;-70;-75.8;44.1;44.6;15;14.9;27.6;0.0;
19/02/2025 20:42:57;100;0;246.80;-4;-19.20;-4.04;663.6;13.40;75828;2838.208;-1800.228;1;236;-70;-75.8;44.1;44.6;18;18.1;27.6;0.0;
19/02/2025 20:43:17;100;0;246.09;-4;-19.38;-2.48;666.4;13.40;75824;2838.206;-1800.232;1;236;-70;-75.8;44.1;44.6;18;18.5;27.6;0.0;
19/02/2025 20:43:37;100;0;245.79;-4;-19.39;-2.43;669.1;13.30;75809;2838.205;-1800.236;1;236;-70;-75.8;44.1;44.6;18;18.5;27.6;0.0;
19/02/2025 20:43:57;100;0;245.48;-4;-19.53;-2.46;671.8;13.30;75791;2838.204;-1800.239;1;236;-70;-75.8;44.1;44.6;18;18.1;27.6;0.0;
19/02/2025 20:44:17;100;0;244.62;-4;-19.84;-2.49;674.5;13.30;75794;2838.202;-1800.243;1;236;-70;-75.8;44.1;44.6;18;18.5;27.6;0.0;
19/02/2025 20:44:37;100;0;244.77;-4;-19.73;-2.34;677.2;13.30;75787;2838.201;-1800.247;1;236;-70;-77.4;44.1;44.6;18;18.1;27.6;0.0;
19/02/2025 20:44:57;100;0;243.58;-4;-19.90;-2.42;679.9;13.20;75783;2838.199;-1800.250;1;236;-70;-75.8;44.1;44.6;16;15.3;27.6;0.0;
19/02/2025 20:45:17;100;0;242.50;-4;-19.97;-4.07;682.6;13.20;75785;2838.198;-1800.254;1;236;-70;-75.8;44.1;44.6;16;15.3;27.6;0.0;
19/02/2025 20:45:37;100;0;241.74;-4;-19.52;-4.02;685.0;13.20;75769;2838.197;-1800.257;1;235;-70;-75.8;44.1;44.6;16;15.3;27.6;0.0;
19/02/2025 20:45:57;100;0;242.62;-4;-19.40;-4.14;687.4;13.10;75765;2838.195;-1800.260;1;235;-70;-75.8;44.1;44.8;16;14.9;27.6;0.0;
19/02/2025 20:46:17;100;0;240.77;-4;-19.80;-4.14;689.8;13.10;75760;2838.194;-1800.263;1;235;-70;-75.8;44.1;44.6;16;14.9;27.7;0.0;
19/02/2025 20:46:37;100;0;237.77;-4;-18.42;-4.05;692.3;13.10;75760;2838.192;-1800.266;1;235;-70;-75.8;44.6;44.6;14;14.0;27.6;0.0;
19/02/2025 20:46:57;100;0;240.03;-4;-18.93;-4.63;694.6;13.10;75753;2838.191;-1800.269;1;235;-70;-75.8;44.9;44.9;14;14.0;27.6;0.0;
19/02/2025 20:47:17;100;0;238.49;-4;-20.58;-4.77;696.8;13.00;75750;2838.189;-1800.272;1;235;-70;-75.8;44.9;45.2;14;14.0;27.6;0.0;
19/02/2025 20:47:37;100;0;241.79;-4;-20.65;-4.64;698.9;13.00;75742;2838.188;-1800.275;1;235;-70;-75.8;44.9;45.2;16;16.2;27.6;0.0;
19/02/2025 20:47:57;100;0;241.61;-4;-21.06;-3.49;701.5;13.00;75727;2838.187;-1800.278;1;235;-70;-75.8;44.9;45.2;16;16.7;27.7;0.0;
19/02/2025 20:48:17;100;0;242.26;-4;-21.82;-3.06;704.2;13.00;75726;2838.186;-1800.281;1;235;-70;-75.8;44.9;45.2;16;16.7;27.6;0.0;
19/02/2025 20:48:37;100;0;242.57;-4;-20.97;-3.09;706.8;12.90;75713;2838.184;-1800.284;1;235;-70;-74.2;44.9;45.2;16;16.7;27.6;0.0;
19/02/2025 20:48:57;100;0;241.82;-4;-20.66;-3.26;709.3;12.90;75715;2838.183;-1800.288;1;235;-70;-75.8;44.9;45.2;16;16.7;27.7;0.0;
19/02/2025 20:49:17;100;0;243.02;-4;-20.98;-3.18;711.8;12.90;75710;2838.181;-1800.291;1;235;-70;-74.2;44.9;45.2;16;16.7;27.6;0.0;
19/02/2025 20:49:37;100;0;246.29;-4;-20.99;-3.48;714.2;12.90;75708;2838.180;-1800.294;1;235;-70;-74.2;44.9;45.2;20;19.9;27.6;0.0;
19/02/2025 20:49:57;100;0;244.07;-4;-20.56;-1.44;716.5;12.80;75699;2838.179;-1800.297;1;235;-70;-75.8;44.9;45.2;18;18.1;27.6;0.0;
19/02/2025 20:50:17;100;0;240.01;-4;-21.30;-2.75;719.0;12.80;75686;2838.178;-1800.300;1;235;-70;-74.2;44.9;45.2;15;14.9;27.6;0.0;
19/02/2025 20:50:37;100;0;238.32;-4;-20.65;-4.07;721.5;12.80;75681;2838.176;-1800.303;1;235;-70;-75.8;44.9;45.2;15;14.9;27.6;0.0;
19/02/2025 20:50:57;100;0;238.15;-4;-20.36;-4.23;723.9;12.80;75685;2838.175;-1800.306;1;235;-70;-75.8;44.9;45.1;15;14.9;27.6;0.0;
19/02/2025 20:51:17;100;0;240.84;-4;-20.86;-4.12;726.4;12.70;75673;2838.173;-1800.309;1;235;-70;-74.2;44.9;45.2;15;14.9;27.6;0.0;
19/02/2025 20:51:37;100;0;240.38;-4;-20.43;-4.21;728.8;12.70;75663;2838.172;-1800.312;1;235;-70;-74.2;44.9;45.2;15;14.9;27.6;0.0;
19/02/2025 20:51:57;100;0;237.51;-4;-20.70;-3.51;731.1;12.70;75656;2838.171;-1800.315;1;235;-70;-74.2;44.9;45.2;15;14.9;27.6;0.0;
19/02/2025 20:52:17;100;0;236.38;-4;-21.38;-4.16;733.6;12.70;75649;2838.169;-1800.318;1;235;-70;-75.8;44.9;45.2;15;14.9;27.6;0.0;
19/02/2025 20:52:37;100;0;236.90;-4;-20.66;-4.09;736.2;12.60;75630;2838.167;-1800.321;1;235;-70;-74.2;44.9;45.2;15;14.9;27.6;0.0;
19/02/2025 20:52:57;100;0;236.79;-4;-19.65;-3.97;738.6;12.60;75636;2838.166;-1800.324;1;235;-70;-75.8;44.9;45.2;15;14.9;27.6;0.0;
19/02/2025 20:53:17;100;0;232.63;-4;-20.90;-4.34;741.0;12.60;75632;2838.164;-1800.326;1;235;-70;-75.8;44.9;45.2;15;14.9;27.6;0.0;
19/02/2025 20:53:37;100;0;230.39;-4;-20.92;-4.04;743.4;12.60;75619;2838.162;-1800.329;1;235;-70;-75.8;44.9;45.2;15;14.9;27.6;0.0;
19/02/2025 20:53:57;100;0;229.22;-4;-20.80;-4.05;746.1;12.50;75622;2838.160;-1800.332;1;235;-70;-74.2;44.9;45.4;15;14.9;27.6;0.0;
19/02/2025 20:54:17;100;0;227.32;-4;-19.78;-4.20;748.8;12.50;75621;2838.158;-1800.335;1;235;-70;-75.8;44.9;45.2;13;13.1;27.6;0.0;
19/02/2025 20:54:37;100;0;227.19;-4;-20.26;-5.08;751.0;12.50;75612;2838.156;-1800.337;1;235;-70;-75.8;44.9;45.2;13;12.6;27.6;0.0;
19/02/2025 20:54:57;100;0;225.78;-4;-20.88;-5.68;753.3;12.40;75608;2838.154;-1800.340;1;235;-70;-75.8;44.9;45.2;13;13.1;27.6;0.0;
19/02/2025 20:55:17;100;0;225.36;-4;-19.75;-5.26;755.6;12.40;75600;2838.152;-1800.342;1;235;-70;-75.8;44.9;45.2;13;13.1;27.6;0.0;
19/02/2025 20:55:37;100;0;226.69;-4;-20.21;-5.19;758.1;12.40;75594;2838.150;-1800.345;1;235;-70;-75.8;44.9;45.2;13;13.1;27.6;0.0;
19/02/2025 20:55:57;100;0;225.11;-4;-20.92;-5.29;760.5;12.40;75595;2838.148;-1800.347;1;235;-70;-74.2;44.9;45.2;13;12.6;27.6;0.0;
19/02/2025 20:56:17;100;0;227.93;-4;-20.41;-5.38;763.0;12.40;75584;2838.146;-1800.350;1;235;-70;-75.8;44.9;45.2;13;12.6;27.6;0.0;
19/02/2025 20:56:37;100;0;230.69;-4;-19.82;-5.08;765.6;12.30;75591;2838.144;-1800.353;1;235;-70;-74.2;44.9;45.2;13;12.6;27.6;0.0;
19/02/2025 20:56:57;100;0;233.07;-4;-18.52;-5.43;767.7;12.30;75592;2838.143;-1800.355;1;235;-70;-75.8;45.4;45.4;13;12.6;27.6;0.0;
19/02/2025 20:57:17;100;0;231.19;-4;-21.52;-5.33;769.7;12.30;75576;2838.141;-1800.357;1;235;-90;-90.3;45.4;45.7;13;12.6;27.6;0.0;
19/02/2025 20:57:37;100;0;230.31;-4;-21.25;-5.08;772.0;12.30;75607;2838.140;-1800.360;1;235;-90;-91.9;45.4;45.7;13;12.6;27.6;0.0;
19/02/2025 20:57:57;100;0;229.79;-4;-21.24;-5.31;774.4;12.20;75610;2838.138;-1800.363;1;235;-90;-93.5;45.4;45.7;13;12.6;27.6;0.0;
19/02/2025 20:58:17;100;0;230.02;-4;-21.46;-5.21;777.0;12.20;75594;2838.136;-1800.365;1;235;-90;-93.5;45.4;45.5;13;13.1;27.6;0.0;
19/02/2025 20:58:37;100;0;227.42;-4;-21.76;-5.42;779.9;12.20;75585;2838.134;-1800.368;1;235;-90;-93.5;45.4;45.7;13;12.6;27.6;0.0;
19/02/2025 20:58:57;100;0;228.01;-4;-21.10;-4.95;783.0;12.20;75581;2838.131;-1800.372;1;235;-90;-95.2;45.4;45.5;13;12.6;27.6;0.0;
19/02/2025 20:59:17;100;0;227.00;-4;-20.36;-5.15;786.0;12.10;75585;2838.129;-1800.375;1;235;-90;-95.2;45.4;45.7;13;13.1;27.6;0.0;
19/02/2025 20:59:37;100;0;230.06;-4;-19.31;-5.13;788.8;12.10;75577;2838.126;-1800.378;1;235;-90;-93.5;45.4;45.5;13;12.6;27.6;0.0;
19/02/2025 20:59:57;100;0;233.24;-4;-22.54;-5.05;791.5;12.10;75574;2838.124;-1800.381;1;235;-90;-95.2;44.6;44.6;13;13.1;27.6;0.0;
19/02/2025 21:00:17;100;0;233.04;-4;-20.11;-5.09;794.7;12.10;75564;2838.122;-1800.385;1;235;-90;-95.2;44.6;44.3;13;13.1;27.6;0.0;
19/02/2025 21:00:37;100;0;232.35;-4;-19.54;-5.29;797.6;12.00;75564;2838.120;-1800.388;1;235;-90;-95.2;44.6;44.3;13;13.1;27.6;0.0;
19/02/2025 21:00:47;118;0;230.82;-4;-19.20;-5.22;798.9;12.00;75551;2838.119;-1800.390;1;235;150;-95.2;34.0;34.0;10;9.9;27.6;0.0;
19/02/2025 21:00:57;118;0;201.31;-4;-11.02;-7.29;799.9;12.00;75551;2838.118;-1800.390;1;235;150;29.0;34.0;33.7;10;9.9;26.5;-1.0;
19/02/2025 21:01:07;118;0;132.04;-4;-0.50;-7.04;800.7;12.00;75270;2838.117;-1800.390;1;235;150;153.2;34.0;33.6;10;9.9;26.6;-1.0;
19/02/2025 21:01:17;118;0;187.53;-4;1.49;-7.33;800.6;12.00;75027;2838.117;-1800.390;1;235;150;153.2;34.0;33.6;10;9.9;27.6;-1.0;
19/02/2025 21:01:27;118;0;229.35;-4;0.95;-7.31;800.6;12.00;75040;2838.118;-1800.390;1;235;150;150.0;34.0;33.6;10;9.9;27.6;-1.0;
19/02/2025 21:01:47;117;0;228.13;-4;2.64;-7.52;800.4;12.00;75039;2838.118;-1800.390;1;235;150;151.6;34.0;33.6;10;9.9;27.6;-1.0;
19/02/2025 21:02:07;117;0;221.58;-4;0.05;-7.59;800.0;12.00;75034;2838.118;-1800.390;1;235;150;151.6;28.0;27.8;6;5.4;27.6;-1.0;
19/02/2025 21:02:27;117;0;217.85;-4;17.91;-9.86;799.5;12.00;75027;2838.117;-1800.391;1;235;150;153.2;27.4;27.1;36;36.1;27.6;-1.0;
19/02/2025 21:02:47;117;0;218.31;-4;19.77;6.64;798.5;12.00;75024;2838.116;-1800.392;1;235;150;154.8;27.4;27.0;40;40.2;27.6;-1.0;
19/02/2025 21:03:07;117;0;220.56;-4;21.81;8.81;797.4;11.90;75017;2838.115;-1800.393;1;235;150;154.8;27.4;27.0;38;37.9;27.6;-1.0;
19/02/2025 21:03:27;117;0;224.26;-4;21.35;7.21;795.9;11.90;75007;2838.114;-1800.394;1;235;150;154.8;27.4;26.8;36;36.1;27.6;-1.0;
19/02/2025 21:03:47;117;0;222.87;-4;20.63;6.84;794.6;11.90;75014;2838.113;-1800.395;1;235;150;156.5;27.4;26.8;36;37.0;27.6;-1.0;
19/02/2025 21:04:07;117;0;223.01;-4;21.05;6.82;793.2;11.80;75009;2838.112;-1800.397;1;235;150;153.2;27.4;26.8;36;37.0;27.6;-1.0;
19/02/2025 21:04:27;117;0;223.26;-4;21.68;6.83;791.9;11.80;75002;2838.111;-1800.398;1;236;150;153.2;27.4;27.0;36;36.6;27.6;-1.0;
19/02/2025 21:04:47;117;0;225.16;-4;20.08;6.97;790.6;11.80;75000;2838.110;-1800.399;1;236;150;153.2;27.4;26.8;36;37.0;27.6;-1.0;
19/02/2025 21:05:07;117;0;226.03;-4;20.04;6.89;789.5;11.80;75007;2838.109;-1800.401;1;236;150;153.2;27.4;26.8;36;37.0;27.6;-1.0;
19/02/2025 21:05:27;117;0;226.98;-4;21.91;7.09;788.4;11.80;75000;2838.108;-1800.402;1;236;150;154.8;27.4;27.0;36;36.6;27.6;-1.0;
19/02/2025 21:05:47;117;0;229.52;-4;21.71;6.98;787.2;11.70;74999;2838.107;-1800.403;1;236;150;154.8;27.4;26.8;34;33.8;27.6;-1.0;
19/02/2025 21:06:07;117;0;229.93;-4;20.39;5.07;786.0;11.70;74989;2838.106;-1800.404;1;236;150;154.8;27.4;26.8;34;33.4;27.6;-1.0;
19/02/2025 21:06:27;117;0;230.60;-4;21.00;5.02;785.0;11.70;74996;2838.106;-1800.405;1;236;150;154.8;27.4;26.8;34;33.4;27.6;-1.0;
19/02/2025 21:06:47;117;0;230.79;-4;20.85;5.14;783.8;11.70;74994;2838.105;-1800.407;1;236;150;154.8;27.4;27.0;34;33.4;27.6;-1.0;
19/02/2025 21:07:07;117;0;228.87;-4;19.79;5.08;782.6;11.70;74991;2838.104;-1800.408;1;236;150;153.2;27.4;26.8;34;33.4;27.6;-1.0;
19/02/2025 21:07:27;117;0;229.65;-4;21.90;5.02;781.5;11.70;74981;2838.103;-1800.409;1;236;150;154.8;27.4;26.8;34;33.4;27.6;-1.0;
19/02/2025 21:07:47;117;0;231.61;-4;21.98;4.88;780.4;11.60;74980;2838.103;-1800.410;1;236;150;154.8;27.4;26.8;34;33.4;27.7;-1.0;
19/02/2025 21:08:07;117;0;233.59;-4;21.32;5.04;779.2;11.60;74991;2838.102;-1800.412;1;236;170;172.6;27.4;26.8;34;33.4;27.6;-1.0;
19/02/2025 21:08:27;117;0;238.78;-4;20.40;5.05;777.9;11.60;74945;2838.101;-1800.414;1;236;190;191.9;27.4;26.8;34;33.4;27.6;-1.0;
19/02/2025 21:08:47;117;0;236.58;-4;20.09;5.35;776.3;11.60;74901;2838.100;-1800.415;1;236;210;212.9;27.4;26.8;34;33.4;27.6;-1.0;
19/02/2025 21:09:07;117;0;236.24;-4;19.16;5.18;774.6;11.60;74864;2838.099;-1800.418;1;236;230;233.9;27.4;26.8;34;33.4;27.6;-1.0;
19/02/2025 21:09:27;117;0;242.90;-4;18.73;5.33;772.9;11.60;74819;2838.098;-1800.420;1;235;250;253.2;27.0;26.8;31;31.1;27.6;-1.0;
19/02/2025 21:09:47;117;0;243.23;-4;18.43;3.89;771.2;11.60;74779;2838.097;-1800.422;1;235;270;272.6;26.5;26.4;31;30.7;27.6;-1.0;
19/02/2025 21:10:07;117;0;236.42;-4;20.42;3.59;769.3;11.50;74736;2838.096;-1800.425;1;235;290;293.5;26.5;26.7;34;34.7;27.6;-1.0;
19/02/2025 21:10:27;117;0;242.90;-4;18.77;5.88;767.2;11.50;74692;2838.095;-1800.427;1;235;290;291.9;26.2;26.2;31;30.7;27.6;-1.0;
19/02/2025 21:10:47;117;0;243.69;-4;20.05;3.95;765.3;11.50;74692;2838.094;-1800.430;1;235;310;311.3;26.2;26.1;31;30.7;27.6;-1.0;
19/02/2025 21:11:07;117;0;239.64;-4;19.11;3.68;763.1;11.50;74652;2838.092;-1800.433;1;235;310;311.3;26.2;25.9;33;32.9;27.6;-1.0;
19/02/2025 21:11:27;117;0;240.62;-4;20.28;5.06;760.8;11.50;74642;2838.091;-1800.436;1;235;310;311.3;26.2;25.9;33;33.4;27.6;-1.0;
19/02/2025 21:11:48;117;0;240.95;-4;19.17;5.28;758.2;11.50;74647;2838.089;-1800.439;1;235;310;311.3;26.2;26.1;33;33.4;27.6;-1.0;
19/02/2025 21:12:08;117;0;241.36;-4;19.04;5.21;755.6;11.50;74636;2838.088;-1800.443;1;235;310;312.9;26.2;25.9;33;33.4;27.6;-1.0;
19/02/2025 21:12:28;117;0;243.12;-4;18.91;5.20;753.1;11.50;74645;2838.086;-1800.446;1;235;310;312.9;25.8;25.5;31;31.1;27.6;-1.0;
19/02/2025 21:12:48;117;0;243.48;-4;20.46;3.85;750.5;11.50;74640;2838.085;-1800.450;1;235;310;312.9;25.8;25.3;31;30.7;27.6;-1.0;
19/02/2025 21:13:08;117;0;243.06;-4;20.42;3.88;747.9;11.50;74634;2838.084;-1800.453;1;235;310;311.3;25.8;25.2;31;30.7;27.6;-1.0;
19/02/2025 21:13:28;117;0;242.94;-4;20.46;3.90;745.2;11.40;74631;2838.082;-1800.457;1;235;310;312.9;25.8;25.2;31;30.7;27.6;-1.0;
19/02/2025 21:13:48;117;0;242.64;-4;19.97;3.88;742.7;11.40;74637;2838.081;-1800.460;1;235;310;311.3;25.8;25.2;31;30.7;27.6;-1.0;
19/02/2025 21:14:08;117;0;243.02;-4;21.03;3.83;740.1;11.40;74640;2838.079;-1800.463;1;235;310;312.9;25.8;25.2;31;30.7;27.6;-1.0;
19/02/2025 21:14:28;117;0;242.46;-4;20.27;3.89;737.6;11.40;74627;2838.078;-1800.466;1;235;310;312.9;25.8;25.2;31;30.7;27.6;-1.0;
19/02/2025 21:14:48;117;0;244.57;-4;20.70;3.85;735.0;11.40;74625;2838.077;-1800.470;1;235;310;312.9;25.8;25.8;29;28.9;27.6;-1.0;
19/02/2025 21:15:08;117;0;245.10;-4;20.03;2.83;732.3;11.40;74625;2838.075;-1800.473;1;235;310;311.3;25.8;25.9;29;28.4;27.6;-1.0;
19/02/2025 21:15:28;117;0;244.89;-4;19.74;2.83;729.5;11.40;74625;2838.074;-1800.477;1;235;310;311.3;25.8;26.1;29;28.9;27.6;-1.0;
19/02/2025 21:15:48;117;0;243.89;-4;19.53;2.81;726.7;11.40;74623;2838.073;-1800.481;1;235;310;312.9;25.8;25.9;29;28.4;27.6;-1.0;
19/02/2025 21:16:08;117;0;243.45;-4;19.28;2.75;723.9;11.40;74630;2838.071;-1800.485;1;235;310;312.9;25.8;25.9;31;31.6;27.6;-1.0;
19/02/2025 21:16:28;117;0;244.62;-4;18.93;4.39;721.0;11.30;74622;2838.069;-1800.488;1;235;310;311.3;25.5;25.5;31;32.0;27.6;-1.0;
19/02/2025 21:16:48;117;0;244.67;-4;20.02;4.44;718.5;11.30;74617;2838.068;-1800.492;1;235;310;312.9;25.5;25.0;29;28.4;27.6;-1.0;
19/02/2025 21:17:08;117;0;244.45;-4;20.32;2.80;715.8;11.30;74617;2838.067;-1800.495;1;235;310;311.3;25.5;25.0;29;28.4;27.6;-1.0;
19/02/2025 21:17:28;117;0;243.72;-4;20.58;2.67;713.2;11.30;74612;2838.066;-1800.499;1;235;310;311.3;25.5;24.9;29;28.4;27.6;-1.0;
19/02/2025 21:17:48;117;0;244.19;-4;20.88;2.66;710.4;11.30;74606;2838.064;-1800.502;1;235;310;311.3;25.5;25.0;29;28.4;27.6;-1.0;
19/02/2025 21:18:08;117;0;245.31;-4;20.66;2.62;707.7;11.30;74608;2838.063;-1800.506;1;235;310;312.9;25.5;24.9;29;28.4;27.6;-1.0;
19/02/2025 21:18:28;117;0;245.26;-4;20.58;2.63;705.1;11.30;74606;2838.062;-1800.509;1;235;310;311.3;25.5;24.9;29;28.4;27.6;-1.0;
19/02/2025 21:18:48;117;0;244.64;-4;20.57;2.74;702.5;11.30;74608;2838.060;-1800.512;1;235;310;309.7;25.5;25.0;29;28.4;27.6;-1.0;
19/02/2025 21:19:08;117;0;243.37;-4;20.47;2.77;699.9;11.30;74610;2838.059;-1800.516;1;234;310;311.3;25.5;25.0;29;28.4;27.6;-1.0;
19/02/2025 21:19:28;117;0;243.22;-4;20.51;2.72;697.4;11.30;74598;2838.058;-1800.519;1;234;310;311.3;25.5;25.0;29;28.4;27.6;-1.0;
19/02/2025 21:19:48;117;0;243.55;-4;20.56;2.62;695.0;11.30;74610;2838.056;-1800.522;1;234;310;311.3;25.5;25.0;29;28.4;27.6;-1.0;
19/02/2025 21:20:08;117;0;243.72;-4;20.67;2.65;692.6;11.20;74613;2838.055;-1800.525;1;234;310;312.9;25.5;24.9;29;28.4;27.6;-1.0;
19/02/2025 21:20:28;117;0;242.62;-4;21.02;2.62;690.2;11.20;74608;2838.054;-1800.528;1;234;310;309.7;25.5;25.0;29;28.4;27.6;-1.0;
19/02/2025 21:20:48;117;0;238.66;-4;20.15;2.84;687.8;11.20;74611;2838.052;-1800.531;1;234;310;312.9;25.5;25.0;32;32.0;27.6;-1.0;
19/02/2025 21:21:08;117;0;237.07;-4;20.11;4.77;685.6;11.20;74610;2838.051;-1800.534;1;234;310;311.3;25.5;24.9;32;32.0;27.6;-1.0;
19/02/2025 21:21:28;117;0;235.16;-4;20.65;4.81;683.4;11.20;74622;2838.050;-1800.536;1;234;310;311.3;25.5;25.0;32;32.5;27.6;-1.0;
19/02/2025 21:21:48;117;0;234.58;-4;20.95;4.84;681.2;11.20;74628;2838.048;-1800.539;1;234;310;311.3;25.5;25.0;32;32.5;27.6;-1.0;
19/02/2025 21:22:08;117;0;235.06;-4;20.69;4.67;679.0;11.20;74627;2838.047;-1800.541;1;234;310;311.3;25.5;25.0;32;32.0;27.6;-1.0;
19/02/2025 21:22:28;117;0;235.16;-4;20.65;4.77;676.8;11.20;74628;2838.045;-1800.544;1;234;310;312.9;25.5;25.0;32;32.5;27.6;-1.0;
19/02/2025 21:22:48;117;0;234.90;-4;20.89;4.73;674.6;11.20;74637;2838.044;-1800.547;1;234;310;311.3;25.5;25.0;32;32.5;27.6;-1.0;
19/02/2025 21:23:08;117;0;235.13;-4;21.04;4.69;672.0;11.20;74628;2838.042;-1800.550;1;234;310;311.3;25.5;25.0;32;32.0;27.6;-1.0;
19/02/2025 21:23:28;117;0;235.41;-4;20.70;4.75;669.5;11.20;74642;2838.040;-1800.552;1;234;310;311.3;25.5;25.0;32;32.0;27.6;-1.0;
19/02/2025 21:23:48;117;0;235.53;-4;20.73;4.76;667.1;11.20;74634;2838.039;-1800.555;1;234;310;311.3;25.5;25.0;32;32.0;27.6;-1.0;
19/02/2025 21:24:08;117;0;235.18;-4;21.26;4.67;664.4;11.20;74637;2838.037;-1800.558;1;234;310;312.9;25.5;25.0;32;32.0;27.6;-1.0;
19/02/2025 21:24:28;117;0;234.75;-4;20.61;4.72;661.7;11.20;74637;2838.035;-1800.562;1;234;310;311.3;25.5;25.0;32;32.0;27.6;-1.0;
19/02/2025 21:24:48;117;0;233.86;-4;20.55;4.77;659.0;11.20;74644;2838.033;-1800.565;1;234;310;311.3;25.5;25.0;32;32.0;27.6;-1.0;
19/02/2025 21:25:08;117;0;234.53;-4;20.71;4.68;656.3;11.20;74644;2838.032;-1800.568;1;234;310;314.5;25.5;25.0;32;32.5;27.6;-1.0;
19/02/2025 21:25:28;117;0;234.93;-4;20.64;4.69;653.6;11.20;74653;2838.030;-1800.571;1;234;310;312.9;25.5;25.0;32;32.5;27.6;-1.0;
19/02/2025 21:25:48;117;0;235.55;-4;20.53;4.67;651.0;11.20;74648;2838.028;-1800.574;1;234;310;311.3;25.5;25.0;32;32.5;27.6;-1.0;
19/02/2025 21:26:08;117;0;234.69;-4;20.81;4.64;648.3;11.20;74667;2838.026;-1800.577;1;234;310;312.9;25.5;25.0;32;32.5;27.6;-1.0;
19/02/2025 21:26:28;117;0;235.23;-4;20.60;4.70;645.5;11.20;74659;2838.024;-1800.580;1;234;310;311.3;25.5;25.0;32;32.0;27.6;-1.0;
19/02/2025 21:26:48;117;0;235.54;-4;20.66;4.63;642.8;11.30;74666;2838.023;-1800.583;1;234;310;312.9;25.5;25.0;32;32.0;27.6;-1.0;
19/02/2025 21:27:08;117;0;233.53;-4;20.38;4.80;640.1;11.20;74653;2838.021;-1800.587;1;234;310;312.9;25.5;25.0;32;32.0;27.6;-1.0;
19/02/2025 21:27:28;117;0;232.88;-4;20.45;4.72;637.4;11.30;74672;2838.019;-1800.590;1;234;310;312.9;25.5;25.0;32;32.0;27.6;-1.0;
19/02/2025 21:27:48;117;0;232.41;-4;20.59;4.71;634.7;11.30;74663;2838.017;-1800.593;1;234;310;311.3;25.5;25.0;32;32.0;27.6;-1.0;
19/02/2025 21:28:08;117;0;232.51;-4;20.50;4.67;632.1;11.30;74672;2838.015;-1800.596;1;234;310;312.9;25.5;24.9;32;32.0;27.6;-1.0;
19/02/2025 21:28:28;117;0;233.41;-4;20.58;4.68;629.4;11.30;74670;2838.013;-1800.599;1;234;310;312.9;25.5;25.0;32;32.5;27.6;-1.0;
19/02/2025 21:28:48;117;0;234.48;-4;20.58;4.65;626.7;11.30;74666;2838.011;-1800.602;1;234;310;311.3;25.5;25.0;32;32.5;27.6;-1.0;
19/02/2025 21:29:08;117;0;235.85;-4;20.71;4.68;623.9;11.30;74670;2838.009;-1800.605;1;234;310;311.3;25.5;25.0;32;32.5;27.6;-1.0;
19/02/2025 21:29:28;117;0;236.92;-4;20.79;4.68;621.3;11.30;74678;2838.008;-1800.608;1;234;310;312.9;25.5;25.0;32;32.0;27.6;-1.0;
19/02/2025 21:29:48;117;0;236.84;-4;20.35;4.64;618.6;11.30;74667;2838.006;-1800.612;1;234;310;312.9;25.5;25.0;32;32.5;27.6;-1.0;
19/02/2025 21:30:08;117;0;236.84;-4;20.29;4.71;616.1;11.30;74676;2838.004;-1800.615;1;234;310;312.9;25.5;25.0;32;32.5;27.6;-1.0;
19/02/2025 21:30:28;117;0;237.08;-4;20.59;4.78;613.6;11.30;74687;2838.003;-1800.618;1;234;310;312.9;25.5;25.0;32;32.0;27.6;-1.0;
19/02/2025 21:30:48;117;0;239.15;-4;20.43;4.60;611.1;11.30;74676;2838.001;-1800.621;1;234;310;312.9;25.5;25.0;32;32.5;27.6;-1.0;
19/02/2025 21:31:08;117;0;240.74;-4;20.51;4.61;608.6;11.30;74679;2838.000;-1800.624;1;234;310;312.9;25.5;25.0;32;32.0;27.6;-1.0;
19/02/2025 21:31:28;117;0;243.24;-4;20.47;4.62;606.1;11.30;74682;2837.998;-1800.627;1;234;310;311.3;25.5;25.0;28;28.0;27.6;-1.0;
19/02/2025 21:31:48;117;0;242.82;-4;20.31;2.20;603.7;11.30;74684;2837.997;-1800.630;1;234;310;312.9;25.5;25.0;28;27.5;27.6;-1.0;
19/02/2025 21:32:08;117;0;241.50;-4;20.31;2.24;601.3;11.30;74690;2837.996;-1800.633;1;234;310;312.9;25.5;25.0;30;29.8;27.6;-1.0;
19/02/2025 21:32:28;117;0;240.95;-4;20.53;3.54;598.9;11.30;74684;2837.994;-1800.637;1;234;310;312.9;25.5;25.0;30;30.2;27.6;-1.0;
19/02/2025 21:32:48;117;0;240.08;-4;20.56;3.55;596.5;11.40;74694;2837.993;-1800.639;1;234;310;312.9;25.5;25.0;30;30.2;27.6;-1.0;
19/02/2025 21:33:08;117;0;239.40;-4;20.49;3.53;594.1;11.30;74688;2837.991;-1800.643;1;234;310;312.9;25.5;25.2;30;30.2;27.6;-1.0;
19/02/2025 21:33:28;117;0;238.12;-4;20.42;3.45;591.7;11.40;74693;2837.990;-1800.645;1;234;310;312.9;25.5;24.9;32;32.0;27.6;-1.0;
19/02/2025 21:33:48;117;0;238.03;-4;20.45;4.73;589.2;11.40;74701;2837.988;-1800.649;1;234;310;312.9;25.5;25.0;32;32.5;27.6;-1.0;
19/02/2025 21:34:08;117;0;238.57;-4;20.53;4.84;586.7;11.40;74704;2837.987;-1800.652;1;234;310;312.9;25.5;25.0;32;32.5;27.6;-1.0;
19/02/2025 21:34:28;117;0;239.98;-4;20.47;4.82;584.2;11.40;74696;2837.985;-1800.655;1;234;310;312.9;25.5;25.0;32;32.5;27.6;-1.0;
19/02/2025 21:34:48;117;0;239.45;-4;20.37;4.73;581.9;11.40;74697;2837.984;-1800.658;1;234;310;312.9;25.5;24.9;32;32.5;27.6;-1.0;
19/02/2025 21:35:08;117;0;239.67;-4;20.67;4.74;579.4;11.40;74705;2837.982;-1800.661;1;234;310;312.9;25.5;25.0;32;32.5;27.6;-1.0;
19/02/2025 21:35:28;117;0;239.50;-4;20.62;4.80;577.0;11.40;74702;2837.981;-1800.664;1;234;310;312.9;25.5;25.0;32;32.5;27.6;-1.0;
19/02/2025 21:35:48;117;0;240.34;-4;20.71;4.79;574.5;11.40;74702;2837.980;-1800.667;1;234;310;312.9;25.5;24.9;30;29.8;27.6;-1.0;
19/02/2025 21:36:08;117;0;238.35;-4;21.02;3.12;571.9;11.40;74708;2837.978;-1800.670;1;233;310;312.9;25.5;25.0;30;29.3;27.6;-1.0;
19/02/2025 21:36:28;117;0;237.76;-4;19.69;3.23;569.5;11.40;74711;2837.977;-1800.673;1;233;310;312.9;25.5;24.9;30;29.3;27.6;-1.0;
19/02/2025 21:36:48;117;0;235.66;-4;20.04;3.25;567.1;11.40;74723;2837.975;-1800.676;1;233;310;312.9;25.5;24.9;32;32.0;27.6;-1.0;
19/02/2025 21:37:08;117;0;235.84;-4;20.35;4.76;564.7;11.40;74723;2837.973;-1800.679;1;233;310;312.9;25.5;25.0;32;32.5;27.6;-1.0;
19/02/2025 21:37:28;117;0;234.73;-4;20.42;4.82;562.4;11.50;74721;2837.972;-1800.681;1;233;310;312.9;25.5;25.0;32;32.5;27.6;-1.0;
19/02/2025 21:37:48;117;0;236.20;-4;20.58;4.77;560.1;11.50;74723;2837.970;-1800.684;1;233;310;311.3;25.5;24.9;32;32.5;27.6;-1.0;
19/02/2025 21:38:08;117;0;239.77;-4;20.61;4.67;557.7;11.50;74739;2837.969;-1800.687;1;233;310;314.5;25.5;25.0;30;29.8;27.6;-1.0;
19/02/2025 21:38:28;117;0;238.93;-4;19.96;3.22;555.3;11.50;74739;2837.967;-1800.690;1;233;310;311.3;25.5;24.9;30;29.3;27.6;-1.0;
19/02/2025 21:38:48;117;0;239.31;-4;20.32;3.05;553.1;11.50;74739;2837.966;-1800.693;1;233;310;312.9;25.5;25.0;30;29.3;27.6;-1.0;
19/02/2025 21:39:08;117;0;237.56;-4;20.52;3.25;550.7;11.50;74730;2837.965;-1800.696;1;233;310;312.9;25.5;25.0;30;29.8;27.6;-1.0;
19/02/2025 21:39:28;117;0;239.63;-4;19.92;3.12;548.3;11.50;74740;2837.963;-1800.699;1;233;310;312.9;25.5;25.0;30;29.3;27.6;-1.0;
19/02/2025 21:39:48;117;0;240.56;-4;20.39;3.18;546.1;11.50;74743;2837.962;-1800.702;1;233;310;312.9;25.5;24.9;30;29.3;27.6;-1.0;
19/02/2025 21:40:08;117;0;242.50;-4;20.26;3.07;543.9;11.50;74747;2837.961;-1800.705;1;233;310;312.9;25.5;24.9;27;27.1;27.6;-1.0;
19/02/2025 21:40:28;117;0;241.63;-4;20.04;1.75;541.6;11.50;74745;2837.959;-1800.708;1;233;310;312.9;25.5;25.0;27;26.2;27.6;-1.0;
19/02/2025 21:40:48;117;0;241.66;-4;20.15;1.66;539.3;11.50;74730;2837.958;-1800.710;1;233;310;312.9;25.5;25.0;27;26.6;27.6;-1.0;
19/02/2025 21:41:08;117;0;241.34;-4;20.03;1.75;537.0;11.60;74741;2837.957;-1800.713;1;233;310;312.9;25.5;25.0;27;26.6;27.6;-1.0;
19/02/2025 21:41:28;117;0;241.10;-4;20.00;1.73;534.7;11.60;74745;2837.955;-1800.716;1;233;310;312.9;25.5;25.0;27;26.6;27.6;-1.0;
19/02/2025 21:41:48;117;0;239.50;-4;20.02;1.74;532.5;11.60;74746;2837.954;-1800.719;1;233;310;312.9;25.5;25.0;30;29.8;27.6;-1.0;
19/02/2025 21:42:08;117;0;239.58;-4;20.24;3.57;530.2;11.60;74747;2837.953;-1800.722;1;233;310;312.9;25.5;25.0;30;29.8;27.6;-1.0;
19/02/2025 21:42:28;117;0;241.21;-4;20.25;3.51;527.9;11.60;74751;2837.951;-1800.725;1;233;310;312.9;25.5;25.0;28;28.0;27.6;-1.0;
19/02/2025 21:42:48;117;0;239.80;-4;19.95;2.34;525.4;11.60;74753;2837.950;-1800.728;1;233;310;314.5;25.5;25.0;28;27.5;27.6;-1.0;
19/02/2025 21:43:08;117;0;238.77;-4;19.98;2.34;523.3;11.60;74765;2837.949;-1800.731;1;233;310;311.3;25.5;25.0;30;29.8;27.6;-1.0;
19/02/2025 21:43:28;117;0;238.74;-4;20.06;3.62;521.0;11.60;74769;2837.947;-1800.734;1;233;310;314.5;25.5;25.0;30;30.2;27.6;-1.0;
19/02/2025 21:43:48;117;0;239.01;-4;20.24;3.65;518.7;11.60;74765;2837.946;-1800.737;1;233;310;312.9;25.5;24.9;30;30.2;27.6;-1.0;
19/02/2025 21:44:08;117;0;239.88;-4;20.14;3.65;516.5;11.60;74761;2837.944;-1800.739;1;233;310;312.9;25.5;24.9;30;30.2;27.6;-1.0;
19/02/2025 21:44:28;117;0;240.91;-4;20.19;3.68;514.2;11.70;74769;2837.943;-1800.742;1;233;310;312.9;25.5;25.0;28;28.0;27.6;-1.0;
19/02/2025 21:44:48;117;0;240.89;-4;20.17;2.37;512.0;11.70;74775;2837.942;-1800.745;1;233;310;312.9;25.5;24.9;28;28.0;27.6;-1.0;
19/02/2025 21:45:08;117;0;240.45;-4;20.04;2.37;509.8;11.70;74765;2837.941;-1800.748;1;233;310;312.9;25.5;24.9;28;28.0;27.6;-1.0;
19/02/2025 21:45:28;117;0;240.14;-4;20.09;2.34;507.6;11.70;74770;2837.939;-1800.751;1;233;310;312.9;25.5;24.9;28;28.0;27.6;-1.0;
19/02/2025 21:45:48;117;0;239.41;-4;19.90;2.33;505.3;11.70;74776;2837.938;-1800.754;1;232;310;312.9;25.5;24.9;28;28.0;27.6;-1.0;
19/02/2025 21:46:08;117;0;238.76;-4;20.05;2.38;503.2;11.70;74781;2837.937;-1800.756;1;232;310;314.5;25.5;24.9;28;28.0;27.6;-1.0;
19/02/2025 21:46:28;117;0;237.74;-4;19.90;2.34;501.1;11.70;74777;2837.935;-1800.759;1;232;310;314.5;25.5;24.9;30;29.8;27.6;-1.0;
19/02/2025 21:46:48;117;0;237.83;-4;19.89;3.70;498.9;11.70;74775;2837.934;-1800.762;1;232;310;312.9;25.5;24.9;30;30.2;27.6;-1.0;
19/02/2025 21:47:08;117;0;237.14;-4;19.97;3.67;496.8;11.70;74781;2837.933;-1800.764;1;232;310;312.9;25.5;25.0;30;30.2;27.6;-1.0;
19/02/2025 21:47:28;117;0;237.58;-4;20.04;3.70;494.7;11.70;74792;2837.931;-1800.767;1;232;310;312.9;25.5;24.9;30;30.7;27.6;-1.0;
19/02/2025 21:47:49;117;0;237.21;-4;20.02;3.68;492.7;11.80;74796;2837.930;-1800.769;1;232;310;312.9;25.5;24.9;30;30.2;27.6;-1.0;
19/02/2025 21:48:09;117;0;237.63;-4;20.10;3.66;490.7;11.80;74785;2837.929;-1800.772;1;232;310;312.9;25.5;25.0;30;30.7;27.6;-1.0;
19/02/2025 21:48:29;117;0;236.65;-4;20.02;3.63;488.7;11.80;74792;2837.927;-1800.774;1;232;310;311.3;25.5;24.9;30;30.2;27.6;-1.0;
19/02/2025 21:48:49;117;0;234.80;-4;20.00;3.72;486.7;11.80;74803;2837.926;-1800.777;1;232;330;333.9;25.5;24.9;30;30.7;27.6;-1.0;
19/02/2025 21:49:09;117;0;240.93;-4;19.82;3.71;484.8;11.80;74765;2837.925;-1800.779;1;232;350;353.2;25.5;24.9;27;27.1;27.6;-1.0;
19/02/2025 21:49:29;117;0;241.11;-4;19.10;1.88;482.7;11.80;74729;2837.924;-1800.782;1;232;350;353.2;25.5;24.9;27;27.1;27.6;-1.0;
