Timestamp;NavState;SecurityLevel;Heading;Declination;Pitch;Roll;Depth;Temperature;Pa;Lat;Lon;DeadReckoning;DesiredH;BallastCmd;BallastPos;LinCmd;LinPos;AngCmd;AngPos;Voltage;Altitude;
13/02/2025 18:17:08;119;0;267.26;-4;-57.49;-16.94;-0.2;19.60;76240;2837.597;-1801.269;0;230;500;509.7;100.0;100.7;0;-0.5;28.7;-1.0;
13/02/2025 18:17:18;116;0;279.05;-4;-52.79;-19.26;-0.2;19.60;76252;2837.599;-1801.266;0;229;500;506.5;100.0;100.7;0;-0.5;28.7;-1.0;
13/02/2025 18:17:42;116;0;253.61;-4;-55.21;-8.04;-0.1;19.70;76263;2837.601;-1801.265;0;229;500;509.7;100.0;100.7;0;-0.5;28.7;-1.0;
13/02/2025 18:17:59;116;0;264.58;-4;-54.37;-11.97;-0.1;19.70;76265;2837.601;-1801.265;0;-9999;500;508.1;100.0;100.7;0;-0.5;28.7;-1.0;
13/02/2025 18:18:17;116;0;266.18;-4;-55.61;-20.85;-0.0;19.70;76273;2837.603;-1801.264;0;55;500;509.7;100.0;100.7;0;-0.5;28.7;-1.0;
13/02/2025 18:18:37;116;0;257.76;-4;-54.89;-15.96;-0.1;19.70;76269;2837.603;-1801.262;0;55;500;508.1;100.0;100.7;0;-0.5;28.7;-1.0;
13/02/2025 18:18:57;116;0;251.34;-4;-56.05;-19.57;0.0;19.80;76287;2837.605;-1801.261;0;55;500;508.1;100.0;100.7;0;-0.5;28.7;-1.0;
13/02/2025 18:20:00;116;0;246.03;-4;-58.21;-13.05;0.0;19.90;76302;2837.611;-1801.257;0;55;500;509.7;100.0;100.7;0;-0.5;28.7;-1.0;
13/02/2025 18:20:52;116;0;256.49;-4;-55.43;-9.19;-0.0;20.10;76306;2837.615;-1801.254;0;55;500;508.1;100.0;100.9;0;-0.5;28.7;-1.0;
13/02/2025 18:21:38;116;0;274.32;-4;-55.42;-4.35;0.1;20.20;76320;2837.619;-1801.250;0;55;500;508.1;100.0;100.7;0;-0.5;28.7;-1.0;
13/02/2025 18:21:58;116;0;265.76;-4;-53.13;-15.01;-0.1;20.30;76321;2837.620;-1801.248;0;55;500;509.7;100.0;100.7;0;-0.5;28.7;-1.0;
13/02/2025 18:22:47;116;0;274.65;-4;-55.86;-10.71;0.1;20.40;76332;2837.624;-1801.245;0;55;500;509.7;100.0;100.7;0;-0.5;28.7;-1.0;
13/02/2025 18:22:58;116;0;282.28;-4;-51.95;-11.39;0.1;20.50;76336;2837.625;-1801.244;0;55;500;509.7;100.0;100.7;0;-0.5;28.7;-1.0;
13/02/2025 18:23:18;110;0;269.51;-4;-54.27;-19.10;0.0;20.50;76344;2837.625;-1801.244;0;56;-100;393.5;100.0;99.7;-12;-12.2;28.7;-1.0;
13/02/2025 18:23:28;110;0;263.31;-4;-51.25;-24.15;0.1;20.60;76689;2837.625;-1801.244;1;56;-100;243.5;100.0;99.7;-12;-12.6;28.6;-1.0;
13/02/2025 18:23:38;110;0;265.76;-4;-58.89;-20.25;0.5;20.60;76945;2837.625;-1801.244;1;56;-100;80.6;100.0;99.7;-12;-12.6;28.6;-1.0;
13/02/2025 18:23:48;110;0;265.61;-4;-68.47;-24.81;0.8;20.60;77275;2837.625;-1801.244;1;56;-100;-80.6;100.0;99.7;-12;-12.6;28.6;-1.0;
13/02/2025 18:23:58;110;0;266.04;-4;-66.41;-13.43;1.2;20.70;77630;2837.625;-1801.244;1;56;-100;-100.0;49.2;49.2;-12;-12.6;28.7;-1.0;
13/02/2025 18:24:08;110;0;285.86;-4;-51.97;-17.18;2.8;20.70;77631;2837.626;-1801.245;1;56;-100;-101.6;49.2;48.9;-12;-12.6;28.7;-1.0;
13/02/2025 18:24:28;100;0;299.43;-4;-31.13;-17.85;7.0;20.80;77622;2837.628;-1801.249;1;56;-100;-98.4;49.2;48.9;-12;-12.6;28.7;-1.0;
13/02/2025 18:24:48;100;0;306.60;-4;-31.30;-17.47;11.9;20.80;77606;2837.630;-1801.252;1;56;-100;-98.4;49.2;48.7;-70;-69.9;28.7;-1.0;
13/02/2025 18:25:08;100;0;314.82;-4;-30.57;-44.96;16.7;20.80;77601;2837.633;-1801.255;1;56;-100;-100.0;49.2;48.6;-70;-70.4;28.7;0.0;
13/02/2025 18:25:28;100;0;325.72;-4;-30.10;-44.87;21.4;20.80;77605;2837.637;-1801.258;1;56;-100;-96.8;49.2;48.7;-70;-70.4;28.7;0.0;
13/02/2025 18:25:48;100;0;335.72;-4;-30.49;-44.72;26.0;20.90;77594;2837.641;-1801.260;1;56;-100;-98.4;49.2;48.7;-70;-70.4;28.7;0.0;
13/02/2025 18:26:08;100;0;346.26;-4;-29.46;-44.56;30.6;20.90;77595;2837.645;-1801.261;1;56;-100;-98.4;49.2;48.7;-70;-70.4;28.7;0.0;
13/02/2025 18:26:28;100;0;355.72;-4;-29.85;-44.90;35.3;20.90;77603;2837.649;-1801.261;1;56;-100;-98.4;49.2;48.7;-64;-63.6;28.7;0.0;
13/02/2025 18:26:48;100;0;7.65;-4;-29.81;-41.31;39.8;20.90;77603;2837.654;-1801.260;1;56;-100;-96.8;49.2;48.7;-49;-49.2;28.7;0.0;
13/02/2025 18:27:08;100;0;18.94;-4;-29.20;-34.19;44.4;20.90;77600;2837.658;-1801.258;1;57;-100;-96.8;49.2;48.7;-37;-36.6;28.7;0.0;
13/02/2025 18:27:28;100;0;29.07;-4;-29.18;-28.26;48.9;20.90;77606;2837.661;-1801.256;1;57;-100;-96.8;49.2;48.7;-22;-22.1;28.7;0.0;
13/02/2025 18:27:48;100;0;38.29;-4;-29.44;-21.27;53.4;20.90;77609;2837.665;-1801.253;1;57;-100;-98.4;49.2;48.7;-7;-7.2;28.7;0.0;
13/02/2025 18:28:08;100;0;43.81;-4;-30.11;-14.43;58.0;20.80;77617;2837.668;-1801.250;1;57;-100;-96.8;49.2;48.7;2;1.8;28.7;0.0;
13/02/2025 18:28:28;100;0;46.67;-4;-30.52;-10.29;62.6;20.80;77615;2837.671;-1801.246;1;57;-100;-96.8;49.2;48.7;5;5.0;28.7;0.0;
13/02/2025 18:28:48;100;0;48.26;-4;-30.72;-8.68;67.3;20.80;77615;2837.674;-1801.243;1;57;-100;-96.8;49.2;48.7;7;7.2;28.7;0.0;
13/02/2025 18:29:08;100;0;48.90;-4;-30.92;-7.57;72.1;20.80;77616;2837.676;-1801.239;1;57;-100;-96.8;49.2;48.7;7;8.1;28.7;0.0;
13/02/2025 18:29:28;100;0;49.29;-4;-30.98;-7.58;77.0;20.80;77629;2837.679;-1801.235;1;57;-100;-96.8;49.2;48.7;7;7.7;28.7;0.0;
13/02/2025 18:29:48;100;0;51.18;-4;-31.08;-7.54;81.7;20.80;77612;2837.682;-1801.232;1;57;-100;-96.8;49.2;48.7;7;7.7;28.7;0.0;
13/02/2025 18:30:08;100;0;52.31;-4;-31.17;-7.50;86.5;20.80;77628;2837.685;-1801.228;1;57;-100;-98.4;49.2;48.7;9;9.0;28.7;0.0;
13/02/2025 18:30:28;100;0;51.24;-4;-31.28;-6.69;91.3;20.80;77637;2837.687;-1801.224;1;57;-100;-98.4;49.2;48.7;9;9.5;28.7;0.0;
13/02/2025 18:30:48;100;0;48.43;-4;-31.02;-6.76;96.1;20.70;77627;2837.690;-1801.220;1;57;-100;-96.8;49.2;48.7;7;6.8;28.7;0.0;
13/02/2025 18:31:08;100;0;48.75;-4;-30.82;-8.33;100.9;20.70;77628;2837.693;-1801.217;1;57;-100;-100.0;49.2;48.7;7;6.8;28.7;0.0;
13/02/2025 18:31:28;100;0;48.76;-4;-31.04;-8.39;105.5;20.70;77631;2837.696;-1801.213;1;57;-100;-96.8;49.2;48.9;7;6.8;28.7;0.0;
13/02/2025 18:31:48;100;0;49.36;-4;-30.84;-8.35;110.3;20.70;77634;2837.699;-1801.209;1;57;-100;-96.8;49.2;48.7;7;6.3;28.7;0.0;
13/02/2025 18:32:08;100;0;48.69;-4;-30.70;-8.32;114.9;20.70;77629;2837.702;-1801.206;1;57;-100;-98.4;49.2;48.7;7;6.3;28.7;0.0;
13/02/2025 18:32:29;100;0;49.13;-4;-30.77;-8.25;119.5;20.70;77630;2837.704;-1801.202;1;57;-100;-96.8;49.2;48.7;7;6.3;28.7;0.0;
13/02/2025 18:32:49;100;0;47.14;-4;-30.75;-8.37;124.1;20.70;77622;2837.707;-1801.199;1;57;-100;-96.8;49.2;48.7;5;5.0;28.7;0.0;
13/02/2025 18:33:09;100;0;48.89;-4;-30.32;-9.55;128.5;20.60;77626;2837.710;-1801.196;1;57;-100;-96.8;49.2;48.6;7;7.2;28.7;0.0;
13/02/2025 18:33:29;100;0;51.96;-4;-32.84;-7.46;133.2;20.60;77608;2837.712;-1801.192;1;57;-100;-96.8;48.4;48.3;7;7.7;28.7;0.0;
13/02/2025 18:33:49;100;0;48.60;-4;-30.85;-7.67;138.0;20.60;77585;2837.715;-1801.188;1;57;-100;-98.4;48.4;48.0;7;7.7;28.7;0.0;
13/02/2025 18:34:09;100;0;51.23;-4;-29.37;-7.82;142.2;20.60;77558;2837.718;-1801.185;1;57;-100;-96.8;48.4;48.2;7;7.7;28.7;0.0;
13/02/2025 18:34:29;100;0;50.47;-4;-30.77;-7.53;146.5;20.60;77511;2837.720;-1801.181;1;57;-100;-98.4;48.4;48.2;7;7.7;28.7;0.0;
13/02/2025 18:34:49;100;0;46.64;-4;-29.17;-7.75;150.7;20.50;77482;2837.723;-1801.178;1;57;-100;-96.8;48.4;48.2;5;5.0;28.7;0.0;
13/02/2025 18:35:09;100;0;45.41;-4;-28.58;-9.37;154.5;20.50;77470;2837.726;-1801.175;1;57;-100;-98.4;48.8;48.7;3;2.7;28.7;0.0;
13/02/2025 18:35:29;100;0;44.72;-4;-29.14;-10.31;158.2;20.40;77452;2837.728;-1801.172;1;57;-100;-96.8;48.8;48.9;3;2.7;28.7;0.0;
13/02/2025 18:35:49;100;0;38.72;-4;-31.39;-10.37;162.0;20.40;77439;2837.731;-1801.170;1;57;-100;-98.4;48.8;49.0;-7;-7.2;28.7;0.0;
13/02/2025 18:36:09;100;0;47.40;-4;-30.39;-15.37;166.2;20.40;77407;2837.734;-1801.167;1;57;-100;-100.0;48.8;48.9;5;5.0;28.7;0.0;
13/02/2025 18:36:29;100;0;55.36;-4;-30.97;-8.97;170.6;20.30;77380;2837.736;-1801.163;1;57;-100;-96.8;48.8;49.0;9;9.0;28.7;0.0;
13/02/2025 18:36:49;100;0;60.62;-4;-30.25;-6.90;174.9;20.30;77366;2837.738;-1801.159;1;57;-100;-98.4;48.8;49.0;9;9.5;28.7;0.0;
13/02/2025 18:37:09;100;0;64.20;-4;-30.46;-6.83;179.1;20.20;77328;2837.740;-1801.155;1;57;-100;-96.8;48.8;49.0;9;9.5;28.7;0.0;
13/02/2025 18:37:29;100;0;67.33;-4;-30.04;-6.85;183.3;20.20;77316;2837.741;-1801.151;1;57;-100;-96.8;48.8;49.0;11;10.8;28.7;0.0;
13/02/2025 18:37:49;100;0;71.96;-4;-30.00;-6.12;187.4;20.10;77290;2837.743;-1801.147;1;57;-100;-98.4;48.8;49.0;16;15.8;28.7;0.0;
13/02/2025 18:38:09;100;0;70.16;-4;-30.25;-3.68;191.6;20.10;77263;2837.744;-1801.143;1;57;-100;-96.8;48.8;49.0;14;14.0;28.7;0.0;
13/02/2025 18:38:29;100;0;71.66;-4;-30.39;-4.85;195.8;20.00;77249;2837.745;-1801.139;1;57;-100;-96.8;48.8;48.9;16;15.8;28.7;0.0;
13/02/2025 18:38:49;100;0;71.43;-4;-30.28;-3.44;200.0;20.00;77232;2837.747;-1801.135;1;57;-100;-96.8;48.8;49.0;16;16.2;28.7;0.0;
13/02/2025 18:39:09;100;0;71.95;-4;-30.19;-3.51;204.3;19.90;77208;2837.748;-1801.130;1;57;-100;-96.8;48.8;49.0;16;16.2;28.7;0.0;
13/02/2025 18:39:29;100;0;70.38;-4;-30.07;-3.40;208.3;19.80;77200;2837.749;-1801.126;1;57;-100;-96.8;48.8;49.0;16;16.2;28.7;0.0;
13/02/2025 18:39:49;100;0;68.07;-4;-31.31;-3.48;212.6;19.80;77182;2837.751;-1801.122;1;57;-100;-98.4;48.8;49.0;12;12.2;28.7;0.0;
13/02/2025 18:40:09;100;0;65.93;-4;-31.02;-5.35;217.0;19.70;77163;2837.753;-1801.118;1;57;-100;-96.8;48.8;49.0;12;12.2;28.7;0.0;
13/02/2025 18:40:29;100;0;63.69;-4;-30.53;-5.42;221.4;19.70;77162;2837.754;-1801.114;1;57;-100;-98.4;48.8;49.0;10;9.9;28.7;0.0;
13/02/2025 18:40:49;100;0;62.06;-4;-30.57;-6.74;225.6;19.60;77159;2837.756;-1801.111;1;57;-100;-98.4;48.8;49.0;10;9.5;28.7;0.0;
13/02/2025 18:41:09;100;0;64.73;-4;-29.91;-6.89;229.9;19.60;77147;2837.758;-1801.107;1;57;-100;-98.4;48.8;49.0;10;9.5;28.7;0.0;
13/02/2025 18:41:29;100;0;65.88;-4;-30.04;-7.02;234.0;19.50;77131;2837.760;-1801.103;1;57;-100;-96.8;48.8;49.0;10;9.5;28.7;0.0;
13/02/2025 18:41:49;100;0;65.22;-4;-30.17;-6.95;238.4;19.50;77132;2837.762;-1801.098;1;57;-100;-96.8;48.8;49.0;10;9.5;28.7;0.0;
13/02/2025 18:42:09;100;0;66.00;-4;-30.32;-6.98;242.6;19.40;77120;2837.763;-1801.094;1;57;-100;-100.0;48.8;49.0;10;9.5;28.7;0.0;
13/02/2025 18:42:29;100;0;65.99;-4;-30.34;-6.98;246.9;19.40;77102;2837.765;-1801.090;1;57;-100;-96.8;48.8;49.0;10;9.5;28.7;0.0;
13/02/2025 18:42:49;100;0;67.30;-4;-30.96;-6.95;251.3;19.30;77090;2837.767;-1801.086;1;57;-100;-98.4;48.8;49.0;12;12.2;28.7;0.0;
13/02/2025 18:43:09;100;0;72.75;-4;-30.90;-5.13;256.1;19.30;77072;2837.768;-1801.082;1;57;-100;-96.8;48.8;49.0;18;18.5;28.7;0.0;
13/02/2025 18:43:29;100;0;67.83;-4;-29.80;-2.43;260.5;19.20;77046;2837.770;-1801.077;1;57;-100;-98.4;48.8;49.0;13;13.1;28.7;0.0;
13/02/2025 18:43:49;100;0;64.44;-4;-30.20;-5.38;264.7;19.10;77029;2837.771;-1801.073;1;57;-100;-96.8;48.8;49.0;10;9.5;28.7;0.0;
13/02/2025 18:44:09;100;0;66.11;-4;-30.12;-7.02;269.1;19.10;77011;2837.773;-1801.069;1;57;-100;-98.4;48.8;49.0;10;9.0;28.7;0.0;
13/02/2025 18:44:29;100;0;65.98;-4;-29.61;-7.12;273.3;19.00;76989;2837.775;-1801.065;1;57;-100;-96.8;48.8;49.0;10;9.0;28.7;0.0;
13/02/2025 18:44:49;100;0;66.84;-4;-29.48;-6.98;277.5;19.00;76969;2837.776;-1801.061;1;57;-100;-96.8;48.8;49.0;12;12.2;28.7;0.0;
13/02/2025 18:45:09;100;0;64.36;-4;-30.18;-5.57;281.7;18.90;76961;2837.778;-1801.057;1;57;-100;-96.8;48.8;48.9;12;12.6;28.7;0.0;
13/02/2025 18:45:29;100;0;61.41;-4;-30.12;-5.27;286.1;18.80;76955;2837.780;-1801.053;1;57;-100;-98.4;48.8;49.0;10;9.9;28.7;0.0;
13/02/2025 18:45:49;100;0;58.03;-4;-29.99;-6.94;290.4;18.80;76945;2837.782;-1801.049;1;57;-100;-96.8;48.8;49.0;10;9.5;28.7;0.0;
13/02/2025 18:46:09;100;0;55.42;-4;-30.43;-6.92;294.6;18.70;76934;2837.785;-1801.046;1;57;-100;-96.8;48.8;49.0;10;9.5;28.7;0.0;
13/02/2025 18:46:29;100;0;57.61;-4;-30.00;-6.87;298.9;18.70;76913;2837.787;-1801.042;1;57;-100;-100.0;48.8;49.0;10;9.5;28.7;0.0;
13/02/2025 18:46:49;100;0;58.62;-4;-29.79;-6.90;303.0;18.60;76909;2837.789;-1801.038;1;57;-100;-96.8;48.8;49.0;10;9.5;28.7;0.0;
13/02/2025 18:47:09;100;0;60.72;-4;-30.19;-6.99;307.0;18.50;76895;2837.791;-1801.034;1;57;-100;-96.8;48.8;49.0;10;9.5;28.7;0.0;
13/02/2025 18:47:29;100;0;61.76;-4;-30.24;-6.84;311.3;18.50;76892;2837.793;-1801.031;1;57;-100;-98.4;48.8;49.0;10;9.5;28.7;0.0;
13/02/2025 18:47:49;100;0;63.11;-4;-30.25;-6.85;315.5;18.40;76886;2837.795;-1801.027;1;57;-100;-96.8;48.8;49.0;10;9.5;28.7;0.0;
13/02/2025 18:48:09;100;0;64.27;-4;-30.44;-6.81;319.8;18.40;76872;2837.796;-1801.023;1;57;-100;-96.8;48.8;49.0;10;9.5;28.7;0.0;
13/02/2025 18:48:29;100;0;60.13;-4;-30.16;-6.86;324.1;18.30;76866;2837.798;-1801.019;1;57;-100;-96.8;48.8;49.0;10;9.5;28.7;0.0;
13/02/2025 18:48:49;100;0;63.20;-4;-29.90;-6.86;328.3;18.30;76849;2837.800;-1801.015;1;57;-100;-96.8;48.8;49.0;10;9.5;28.7;0.0;
13/02/2025 18:49:09;100;0;67.10;-4;-29.91;-6.90;332.4;18.20;76840;2837.802;-1801.011;1;57;-100;-96.8;48.8;49.0;12;12.2;28.7;0.0;
13/02/2025 18:49:29;100;0;65.92;-4;-29.65;-5.36;336.6;18.20;76813;2837.804;-1801.007;1;57;-100;-98.4;48.8;49.0;12;12.6;28.7;0.0;
13/02/2025 18:49:49;100;0;66.26;-4;-29.49;-5.45;340.8;18.10;76801;2837.805;-1801.003;1;57;-100;-96.8;48.8;49.0;12;12.6;28.7;0.0;
13/02/2025 18:50:09;100;0;69.48;-4;-29.85;-5.45;344.8;18.00;76787;2837.807;-1800.999;1;57;-100;-100.0;48.8;49.0;14;14.0;28.7;0.0;
13/02/2025 18:50:29;100;0;70.59;-4;-29.57;-4.47;348.9;18.00;76777;2837.808;-1800.995;1;56;-100;-98.4;48.8;49.0;17;17.1;28.7;0.0;
13/02/2025 18:50:49;100;0;73.18;-4;-30.41;-2.87;353.2;17.90;76749;2837.809;-1800.990;1;56;-100;-98.4;48.8;49.0;21;21.2;28.7;0.0;
13/02/2025 18:51:09;100;0;70.49;-4;-30.53;-0.92;357.7;17.90;76743;2837.811;-1800.986;1;56;-100;-96.8;48.8;49.0;17;17.1;28.7;0.0;
13/02/2025 18:51:29;100;0;68.99;-4;-30.55;-3.17;362.4;17.80;76724;2837.812;-1800.982;1;56;-100;-96.8;48.8;49.0;15;14.9;28.7;0.0;
13/02/2025 18:51:49;100;0;68.09;-4;-30.38;-4.29;367.1;17.80;76715;2837.814;-1800.977;1;56;-100;-98.4;48.8;49.0;15;14.9;28.7;0.0;
13/02/2025 18:52:09;100;0;64.25;-4;-30.30;-4.27;371.7;17.70;76703;2837.816;-1800.973;1;56;-100;-96.8;48.8;49.0;11;10.8;28.7;0.0;
13/02/2025 18:52:29;100;0;60.40;-4;-29.96;-6.58;376.4;17.60;76686;2837.818;-1800.969;1;56;-100;-96.8;48.8;49.0;11;10.4;28.7;0.0;
13/02/2025 18:52:49;100;0;63.09;-4;-29.75;-6.49;381.0;17.60;76675;2837.820;-1800.964;1;56;-100;-98.4;48.8;49.0;11;10.4;28.7;0.0;
13/02/2025 18:53:09;100;0;64.63;-4;-29.52;-6.57;385.6;17.50;76664;2837.822;-1800.960;1;56;-100;-96.8;48.8;48.9;11;10.4;28.7;0.0;
13/02/2025 18:53:29;100;0;61.94;-4;-30.24;-6.54;390.2;17.50;76646;2837.824;-1800.956;1;56;-100;-100.0;48.8;49.0;11;10.4;28.7;0.0;
13/02/2025 18:53:49;100;0;59.53;-4;-30.31;-6.72;394.9;17.40;76625;2837.827;-1800.952;1;56;-100;-96.8;48.8;49.0;11;10.4;28.7;0.0;
13/02/2025 18:54:09;100;0;57.29;-4;-30.00;-6.65;399.5;17.40;76613;2837.829;-1800.947;1;56;-100;-96.8;48.8;49.0;11;10.4;28.7;0.0;
13/02/2025 18:54:29;100;0;55.81;-4;-30.14;-6.52;404.1;17.30;76617;2837.831;-1800.943;1;56;-100;-96.8;48.8;49.0;11;10.4;28.7;0.0;
13/02/2025 18:54:49;100;0;53.36;-4;-29.43;-6.48;408.6;17.20;76597;2837.834;-1800.940;1;56;-100;-98.4;48.8;49.0;11;10.4;28.7;0.0;
13/02/2025 18:55:09;100;0;51.36;-4;-29.65;-6.41;413.0;17.20;76591;2837.837;-1800.936;1;56;-100;-96.8;48.8;49.2;11;10.4;28.7;0.0;
13/02/2025 18:55:29;100;0;47.22;-4;-29.76;-6.62;417.4;17.10;76585;2837.839;-1800.933;1;56;-100;-96.8;48.8;49.0;7;7.2;28.7;0.0;
13/02/2025 18:55:49;100;0;46.24;-4;-29.73;-8.19;421.7;17.10;76576;2837.842;-1800.929;1;56;-100;-96.8;48.8;49.0;7;6.8;28.7;0.0;
13/02/2025 18:56:09;100;0;44.80;-4;-30.10;-8.12;425.9;17.00;76570;2837.845;-1800.926;1;56;-100;-96.8;48.8;49.0;5;5.0;28.7;0.0;
13/02/2025 18:56:29;100;0;42.75;-4;-30.05;-9.27;430.3;17.00;76559;2837.848;-1800.923;1;56;-100;-96.8;48.8;49.0;2;1.8;28.7;0.0;
13/02/2025 18:56:49;100;0;49.72;-4;-30.02;-10.64;434.7;16.90;76542;2837.851;-1800.920;1;56;-100;-98.4;48.8;49.0;9;9.0;28.7;0.0;
13/02/2025 18:57:09;100;0;53.74;-4;-29.07;-7.06;438.9;16.90;76528;2837.853;-1800.916;1;56;-100;-96.8;48.8;49.0;9;9.5;28.7;0.0;
13/02/2025 18:57:29;100;0;54.32;-4;-29.21;-6.91;442.9;16.80;76515;2837.855;-1800.912;1;56;-100;-96.8;48.8;49.0;9;9.5;28.7;0.0;
13/02/2025 18:57:49;100;0;53.54;-4;-29.10;-6.93;446.7;16.80;76507;2837.858;-1800.909;1;56;-100;-96.8;48.8;49.0;9;9.5;28.7;0.0;
13/02/2025 18:58:09;100;0;54.02;-4;-29.25;-6.91;450.6;16.70;76494;2837.860;-1800.906;1;56;-100;-96.8;48.8;49.0;9;9.5;28.7;0.0;
13/02/2025 18:58:29;100;0;55.36;-4;-29.45;-6.86;454.5;16.60;76481;2837.862;-1800.902;1;56;-100;-96.8;48.8;49.0;9;9.5;28.7;0.0;
13/02/2025 18:58:49;100;0;57.71;-4;-29.61;-6.88;458.5;16.60;76482;2837.864;-1800.898;1;56;-100;-96.8;48.8;49.0;9;9.5;28.7;0.0;
13/02/2025 18:59:09;100;0;60.87;-4;-29.21;-6.88;462.5;16.60;76476;2837.866;-1800.895;1;56;-100;-96.8;48.8;49.0;9;9.5;28.7;0.0;
13/02/2025 18:59:29;100;0;68.37;-4;-29.92;-6.99;466.5;16.50;76473;2837.868;-1800.891;1;56;-100;-96.8;48.8;49.0;14;14.4;28.7;0.0;
13/02/2025 18:59:49;100;0;75.94;-4;-29.72;-4.27;470.7;16.50;76450;2837.869;-1800.887;1;56;-100;-96.8;48.8;49.0;25;24.8;28.7;0.0;
13/02/2025 19:00:09;100;0;77.86;-4;-30.48;0.80;474.8;16.40;76438;2837.870;-1800.882;1;56;-100;-98.4;48.8;49.0;28;28.0;28.7;0.0;
13/02/2025 19:00:29;100;0;75.31;-4;-30.58;2.32;479.0;16.40;76429;2837.871;-1800.878;1;56;-100;-96.8;48.8;49.0;24;23.9;28.7;0.0;
13/02/2025 19:00:49;100;0;70.02;-4;-30.87;0.19;483.1;16.30;76416;2837.872;-1800.874;1;56;-100;-96.8;48.8;49.0;16;15.8;28.7;0.0;
13/02/2025 19:01:09;100;0;66.74;-4;-30.01;-3.80;487.3;16.20;76404;2837.874;-1800.870;1;56;-100;-96.8;48.8;49.0;13;13.1;28.7;0.0;
13/02/2025 19:01:29;100;0;65.15;-4;-29.95;-5.18;491.4;16.20;76405;2837.875;-1800.867;1;56;-100;-96.8;48.8;49.0;13;13.1;28.7;0.0;
13/02/2025 19:01:49;100;0;65.73;-4;-29.54;-5.12;495.4;16.20;76402;2837.877;-1800.863;1;56;-100;-98.4;48.8;49.0;13;13.1;28.7;0.0;
13/02/2025 19:02:09;100;0;64.24;-4;-29.47;-5.18;499.6;16.10;76378;2837.879;-1800.859;1;56;-100;-96.8;48.8;49.0;13;13.1;28.7;0.0;
13/02/2025 19:02:29;100;0;62.82;-4;-29.37;-5.21;503.7;16.10;76379;2837.881;-1800.855;1;56;-100;-96.8;48.8;49.0;11;9.9;28.7;0.0;
13/02/2025 19:02:49;100;0;62.21;-4;-29.10;-6.26;507.7;16.00;76363;2837.883;-1800.851;1;56;-100;-96.8;48.8;49.0;11;10.8;28.7;0.0;
13/02/2025 19:03:09;100;0;61.30;-4;-28.85;-6.05;511.9;16.00;76359;2837.885;-1800.847;1;56;-100;-96.8;49.1;49.2;11;10.8;28.7;0.0;
13/02/2025 19:03:29;100;0;60.93;-4;-28.82;-6.37;515.9;15.90;76342;2837.886;-1800.843;1;56;-100;-96.8;49.5;49.6;11;10.8;28.7;0.0;
13/02/2025 19:03:49;100;0;60.32;-4;-29.86;-6.24;520.0;15.90;76344;2837.888;-1800.839;1;56;-100;-96.8;49.5;49.8;11;11.3;28.7;0.0;
13/02/2025 19:04:09;100;0;56.49;-4;-30.17;-6.24;524.2;15.80;76327;2837.891;-1800.836;1;56;-100;-96.8;49.5;49.8;11;10.8;28.7;0.0;
13/02/2025 19:04:29;100;0;53.09;-4;-30.52;-6.29;528.5;15.80;76318;2837.893;-1800.832;1;56;-100;-96.8;49.5;49.8;11;10.8;28.7;0.0;
13/02/2025 19:04:49;100;0;48.09;-4;-31.08;-6.26;533.0;15.80;76314;2837.896;-1800.829;1;56;-100;-96.8;49.5;49.9;8;8.1;28.7;0.0;
13/02/2025 19:05:09;100;0;44.77;-4;-31.17;-7.76;537.6;15.70;76305;2837.899;-1800.825;1;56;-100;-96.8;49.5;49.8;5;5.0;28.7;0.0;
13/02/2025 19:05:29;100;0;44.49;-4;-31.11;-9.35;542.4;15.70;76290;2837.902;-1800.822;1;56;-100;-96.8;49.5;49.8;5;4.5;28.7;0.0;
13/02/2025 19:05:49;100;0;47.90;-4;-29.92;-9.12;547.1;15.60;76282;2837.905;-1800.818;1;56;-100;-96.8;49.5;49.8;8;8.1;28.7;0.0;
13/02/2025 19:06:09;100;0;52.01;-4;-29.88;-7.28;551.6;15.60;76272;2837.907;-1800.815;1;56;-100;-96.8;49.5;49.8;10;10.4;28.7;0.0;
13/02/2025 19:06:29;100;0;52.33;-4;-30.44;-6.25;555.9;15.50;76269;2837.910;-1800.811;1;56;-100;-98.4;49.5;49.8;10;10.8;28.7;0.0;
13/02/2025 19:06:49;100;0;52.79;-4;-30.05;-6.42;560.2;15.50;76257;2837.912;-1800.808;1;56;-100;-96.8;49.5;49.8;10;10.8;28.7;0.0;
13/02/2025 19:07:09;100;0;54.44;-4;-30.05;-6.24;564.4;15.50;76250;2837.915;-1800.804;1;56;-100;-98.4;49.5;49.8;10;10.4;28.7;0.0;
13/02/2025 19:07:29;100;0;55.00;-4;-30.08;-6.42;568.7;15.40;76253;2837.917;-1800.800;1;56;-100;-96.8;49.5;49.8;10;10.8;28.7;0.0;
13/02/2025 19:07:49;100;0;55.60;-4;-30.11;-6.45;573.0;15.40;76242;2837.919;-1800.796;1;56;-100;-96.8;49.5;49.8;10;10.4;28.7;0.0;
13/02/2025 19:08:10;100;0;57.38;-4;-30.70;-6.29;577.2;15.30;76236;2837.921;-1800.793;1;56;-100;-96.8;49.5;49.8;10;10.8;28.7;0.0;
13/02/2025 19:08:30;100;0;58.34;-4;-30.02;-6.10;581.6;15.30;76238;2837.924;-1800.789;1;56;-100;-96.8;49.5;49.8;10;10.8;28.7;0.0;
13/02/2025 19:08:50;100;0;61.76;-4;-30.44;-6.34;585.8;15.20;76226;2837.926;-1800.785;1;56;-100;-96.8;49.5;49.8;10;10.8;28.7;0.0;
13/02/2025 19:09:10;100;0;63.21;-4;-31.11;-6.35;590.1;15.20;76217;2837.927;-1800.781;1;56;-100;-98.4;49.5;49.8;10;10.8;28.7;0.0;
13/02/2025 19:09:30;100;0;65.69;-4;-31.50;-6.30;594.8;15.20;76210;2837.929;-1800.777;1;56;-100;-96.8;49.5;49.8;12;12.2;28.7;0.0;
13/02/2025 19:09:50;100;0;62.37;-4;-31.56;-5.25;599.4;15.10;76187;2837.931;-1800.773;1;56;-100;-96.8;49.5;49.9;12;12.6;28.7;0.0;
13/02/2025 19:10:10;100;0;60.52;-4;-30.58;-5.30;604.1;15.10;76174;2837.933;-1800.769;1;56;-100;-96.8;49.5;49.8;10;9.5;28.7;0.0;
13/02/2025 19:10:30;100;0;58.03;-4;-29.82;-7.05;608.3;15.00;76170;2837.935;-1800.765;1;56;-100;-100.0;49.5;49.9;10;9.5;28.7;0.0;
13/02/2025 19:10:50;100;0;56.03;-4;-29.58;-7.06;612.6;15.00;76146;2837.938;-1800.762;1;56;-100;-96.8;49.5;49.8;10;9.0;28.7;0.0;
13/02/2025 19:11:10;100;0;53.67;-4;-29.87;-7.13;616.6;15.00;76147;2837.940;-1800.758;1;56;-100;-96.8;49.5;49.9;10;9.5;28.7;0.0;
13/02/2025 19:11:30;100;0;53.06;-4;-30.42;-7.13;620.8;14.90;76125;2837.942;-1800.755;1;56;-100;-96.8;49.5;49.9;10;9.0;28.7;0.0;
13/02/2025 19:11:50;100;0;55.54;-4;-30.99;-7.21;625.3;14.90;76116;2837.945;-1800.751;1;56;-100;-98.4;49.5;49.8;10;9.5;28.7;0.0;
13/02/2025 19:12:10;100;0;58.41;-4;-31.16;-7.21;630.0;14.80;76103;2837.947;-1800.747;1;56;-100;-96.8;49.5;49.8;10;9.5;28.7;0.0;
13/02/2025 19:12:30;100;0;59.66;-4;-30.56;-6.97;634.9;14.80;76097;2837.949;-1800.743;1;56;-100;-98.4;49.5;49.9;10;9.5;28.7;0.0;
13/02/2025 19:12:50;100;0;58.86;-4;-30.29;-7.08;639.6;14.70;76086;2837.951;-1800.738;1;56;-100;-98.4;49.5;49.9;10;9.5;28.7;0.0;
13/02/2025 19:13:10;100;0;59.74;-4;-30.16;-7.06;644.5;14.70;76074;2837.954;-1800.734;1;56;-100;-96.8;49.5;49.8;10;9.5;28.7;0.0;
13/02/2025 19:13:30;100;0;61.60;-4;-30.34;-7.17;649.2;14.70;76064;2837.956;-1800.730;1;56;-100;-96.8;49.5;49.9;10;9.5;28.7;0.0;
13/02/2025 19:13:50;100;0;62.83;-4;-30.02;-6.93;654.1;14.60;76066;2837.958;-1800.725;1;56;-100;-96.8;49.5;49.9;10;9.5;28.7;0.0;
13/02/2025 19:14:10;100;0;61.10;-4;-30.05;-6.95;658.7;14.60;76055;2837.960;-1800.721;1;56;-100;-96.8;49.5;49.8;10;9.5;28.7;0.0;
13/02/2025 19:14:30;100;0;62.05;-4;-30.20;-7.05;663.4;14.50;76037;2837.962;-1800.717;1;56;-100;-96.8;49.5;49.9;10;9.5;28.7;0.0;
13/02/2025 19:14:50;100;0;62.15;-4;-29.82;-7.03;668.1;14.50;76036;2837.964;-1800.712;1;56;-100;-96.8;49.5;49.9;10;9.5;28.7;0.0;
13/02/2025 19:15:10;100;0;62.95;-4;-30.32;-6.90;672.6;14.50;76040;2837.966;-1800.708;1;56;-100;-96.8;49.5;49.8;10;9.0;28.7;0.0;
13/02/2025 19:15:30;100;0;60.71;-4;-29.90;-7.09;677.1;14.40;76021;2837.969;-1800.704;1;56;-100;-96.8;49.5;49.8;10;9.5;28.7;0.0;
13/02/2025 19:15:50;100;0;59.10;-4;-29.71;-7.08;681.5;14.40;76031;2837.971;-1800.700;1;56;-100;-96.8;49.5;49.8;10;9.5;28.7;0.0;
13/02/2025 19:16:10;100;0;59.40;-4;-30.06;-7.08;685.8;14.30;76016;2837.973;-1800.696;1;56;-100;-96.8;49.5;49.8;10;9.5;28.7;0.0;
13/02/2025 19:16:30;100;0;58.48;-4;-30.06;-7.01;690.0;14.30;76017;2837.975;-1800.692;1;56;-100;-96.8;49.5;49.8;10;9.5;28.7;0.0;
13/02/2025 19:16:50;100;0;59.72;-4;-29.71;-7.05;694.2;14.30;75996;2837.977;-1800.689;1;56;-100;-96.8;49.5;49.8;10;9.5;28.7;0.0;
13/02/2025 19:17:10;100;0;59.99;-4;-29.95;-7.12;698.3;14.20;75998;2837.979;-1800.685;1;56;-100;-98.4;49.5;49.9;10;9.5;28.7;0.0;
13/02/2025 19:17:30;100;0;60.03;-4;-29.94;-7.09;702.5;14.20;76000;2837.981;-1800.681;1;56;-100;-96.8;49.5;49.9;10;9.5;28.6;0.0;
13/02/2025 19:17:50;100;0;60.68;-4;-29.25;-7.17;706.5;14.20;75997;2837.983;-1800.677;1;56;-100;-98.4;49.5;49.8;10;9.0;28.7;0.0;
13/02/2025 19:18:10;100;0;61.07;-4;-29.51;-7.04;710.4;14.10;75978;2837.985;-1800.674;1;56;-100;-96.8;49.5;49.9;10;9.5;28.7;0.0;
13/02/2025 19:18:30;100;0;57.14;-4;-29.62;-7.15;714.3;14.10;75965;2837.987;-1800.670;1;56;-100;-98.4;49.5;49.8;10;9.5;28.7;0.0;
13/02/2025 19:18:50;100;0;59.33;-4;-29.99;-7.06;718.3;14.00;75951;2837.989;-1800.667;1;56;-100;-96.8;49.5;49.9;10;9.5;28.7;0.0;
13/02/2025 19:19:10;100;0;59.57;-4;-30.29;-7.05;722.3;14.00;75937;2837.991;-1800.663;1;56;-100;-96.8;49.5;49.8;10;9.5;28.7;0.0;
13/02/2025 19:19:30;100;0;62.18;-4;-30.50;-7.06;726.5;14.00;75935;2837.993;-1800.659;1;56;-100;-96.8;49.5;49.9;10;9.5;28.7;0.0;
13/02/2025 19:19:50;100;0;58.57;-4;-29.64;-7.05;730.5;13.90;75918;2837.995;-1800.656;1;56;-100;-96.8;49.5;49.8;10;9.5;28.7;0.0;
13/02/2025 19:20:10;100;0;58.01;-4;-30.19;-7.13;734.5;13.90;75909;2837.997;-1800.652;1;56;-100;-96.8;49.5;49.8;10;9.5;28.7;0.0;
13/02/2025 19:20:30;100;0;60.80;-4;-30.64;-7.22;738.6;13.90;75893;2837.998;-1800.649;1;56;-100;-96.8;49.5;49.8;10;9.5;28.7;0.0;
13/02/2025 19:20:50;100;0;64.26;-4;-30.18;-7.02;742.8;13.80;75888;2838.000;-1800.645;1;56;-100;-96.8;49.5;49.8;12;12.6;28.7;0.0;
13/02/2025 19:21:10;100;0;62.17;-4;-29.73;-5.21;746.9;13.80;75882;2838.002;-1800.641;1;56;-100;-100.0;49.5;49.8;12;13.1;28.7;0.0;
13/02/2025 19:21:20;118;0;60.65;-4;-29.81;-5.30;748.9;13.80;75880;2838.003;-1800.639;1;56;220;-91.9;19.4;19.4;12;13.1;28.7;0.0;
13/02/2025 19:21:30;118;0;83.64;-4;-15.89;-6.05;750.5;13.70;75855;2838.003;-1800.636;1;56;220;37.1;19.4;19.3;12;13.1;27.8;-1.0;
13/02/2025 19:21:40;118;0;72.24;-4;15.19;-5.91;750.8;13.70;75580;2838.004;-1800.636;1;56;220;162.9;19.4;18.9;12;13.1;27.8;-1.0;
13/02/2025 19:21:50;118;0;65.76;-4;31.17;-6.41;749.9;13.70;75328;2838.004;-1800.635;1;56;220;222.6;19.4;19.4;12;13.1;27.7;-1.0;
13/02/2025 19:22:00;118;0;66.43;-4;33.60;-6.10;748.3;13.70;75206;2838.005;-1800.634;1;56;220;222.6;19.4;19.6;12;13.1;28.6;-1.0;
13/02/2025 19:22:20;117;0;63.75;-4;34.21;-6.13;744.9;13.70;75215;2838.006;-1800.631;1;56;220;221.0;19.4;19.7;12;13.1;28.7;-1.0;
13/02/2025 19:22:40;117;0;56.09;-4;33.58;-5.96;741.0;13.60;75208;2838.008;-1800.628;1;56;220;221.0;20.5;20.8;34;33.8;28.7;-1.0;
13/02/2025 19:23:00;117;0;52.42;-4;33.60;5.90;737.3;13.60;75202;2838.010;-1800.625;1;56;220;224.2;21.5;21.5;34;34.3;28.7;-1.0;
13/02/2025 19:23:20;117;0;50.96;-4;31.96;5.42;733.9;13.60;75193;2838.012;-1800.622;1;56;220;222.6;21.5;21.6;34;34.3;28.7;-1.0;
13/02/2025 19:23:40;117;0;50.96;-4;32.18;5.53;730.7;13.50;75194;2838.013;-1800.620;1;56;220;222.6;22.2;22.2;34;34.3;28.7;-1.0;
13/02/2025 19:24:00;117;0;51.51;-4;30.95;5.63;727.4;13.50;75180;2838.015;-1800.617;1;56;220;222.6;22.2;22.4;34;34.3;28.7;-1.0;
13/02/2025 19:24:20;117;0;53.00;-4;30.53;5.45;724.2;13.40;75179;2838.017;-1800.615;1;56;220;222.6;22.2;22.4;34;34.3;28.7;-1.0;
13/02/2025 19:24:40;117;0;54.14;-4;30.29;5.46;721.2;13.40;75186;2838.019;-1800.612;1;56;220;222.6;22.2;22.4;34;34.3;28.7;-1.0;
13/02/2025 19:25:00;117;0;51.01;-4;30.24;5.46;718.3;13.40;75185;2838.021;-1800.610;1;56;220;221.0;22.2;22.4;34;34.3;28.7;-1.0;
13/02/2025 19:25:20;117;0;49.66;-4;30.47;5.71;715.6;13.40;75184;2838.022;-1800.607;1;56;220;222.6;22.2;22.4;36;36.6;28.7;-1.0;
13/02/2025 19:25:40;117;0;50.00;-4;30.53;6.77;712.7;13.30;75171;2838.024;-1800.605;1;56;220;222.6;22.2;22.4;36;37.0;28.7;-1.0;
13/02/2025 19:26:00;117;0;51.36;-4;30.67;6.97;709.8;13.30;75176;2838.026;-1800.603;1;56;220;222.6;22.2;22.4;36;37.0;28.7;-1.0;
13/02/2025 19:26:20;117;0;56.82;-4;31.06;6.89;706.8;13.30;75177;2838.027;-1800.600;1;56;220;222.6;22.2;22.4;34;33.4;28.7;-1.0;
13/02/2025 19:26:40;117;0;55.06;-4;30.50;4.88;703.8;13.20;75188;2838.029;-1800.598;1;56;220;224.2;22.2;22.4;34;33.4;28.7;-1.0;
13/02/2025 19:27:00;117;0;53.91;-4;30.14;4.89;700.9;13.20;75186;2838.031;-1800.595;1;56;220;222.6;22.2;22.4;34;33.4;28.7;-1.0;
13/02/2025 19:27:20;117;0;52.20;-4;30.31;4.91;698.0;13.20;75182;2838.032;-1800.593;1;56;220;224.2;22.2;22.4;34;33.4;28.7;-1.0;
13/02/2025 19:27:40;117;0;51.10;-4;30.40;4.85;695.1;13.20;75188;2838.034;-1800.590;1;56;220;222.6;22.2;22.4;34;33.4;28.7;-1.0;
13/02/2025 19:28:00;117;0;51.30;-4;30.32;4.83;692.3;13.20;75187;2838.036;-1800.588;1;56;220;222.6;22.2;22.4;34;33.4;28.7;-1.0;
13/02/2025 19:28:20;117;0;50.78;-4;30.41;4.85;689.4;13.10;75185;2838.038;-1800.586;1;56;220;222.6;22.2;22.4;36;36.1;28.7;-1.0;
13/02/2025 19:28:40;117;0;49.54;-4;30.70;6.58;686.5;13.10;75178;2838.039;-1800.583;1;56;220;222.6;22.2;22.4;36;36.6;28.7;-1.0;
13/02/2025 19:29:00;117;0;49.21;-4;30.72;6.45;683.6;13.10;75181;2838.041;-1800.581;1;56;220;222.6;22.2;22.4;36;36.6;28.7;-1.0;
13/02/2025 19:29:20;117;0;49.11;-4;30.53;6.61;680.5;13.10;75185;2838.043;-1800.579;1;56;220;224.2;22.2;22.5;36;36.6;28.7;-1.0;
13/02/2025 19:29:40;117;0;48.83;-4;30.59;6.52;677.6;13.10;75178;2838.045;-1800.576;1;56;220;222.6;22.2;22.4;36;36.1;28.7;-1.0;
13/02/2025 19:30:00;117;0;48.55;-4;30.76;6.53;674.5;13.00;75173;2838.047;-1800.574;1;56;220;222.6;22.2;22.4;36;36.6;28.7;-1.0;
13/02/2025 19:30:20;117;0;47.70;-4;31.00;6.66;671.3;13.00;75171;2838.049;-1800.572;1;56;220;221.0;22.2;22.4;36;36.6;28.7;-1.0;
13/02/2025 19:30:40;117;0;48.50;-4;30.64;6.58;668.3;13.00;75171;2838.051;-1800.569;1;56;220;222.6;22.2;22.4;36;36.1;28.7;-1.0;
13/02/2025 19:31:00;117;0;49.00;-4;30.50;6.44;665.1;13.00;75166;2838.053;-1800.567;1;56;220;222.6;22.2;22.4;36;36.6;28.7;-1.0;
13/02/2025 19:31:20;117;0;49.23;-4;30.72;6.49;662.0;13.00;75166;2838.055;-1800.564;1;56;220;222.6;22.2;22.4;36;36.1;28.7;-1.0;
13/02/2025 19:31:40;117;0;48.18;-4;30.54;6.62;658.8;13.00;75156;2838.057;-1800.562;1;56;220;222.6;22.2;22.4;36;36.6;28.7;-1.0;
13/02/2025 19:32:00;117;0;49.44;-4;30.72;6.61;655.6;13.00;75156;2838.058;-1800.559;1;56;220;222.6;22.2;22.4;36;36.6;28.7;-1.0;
13/02/2025 19:32:20;117;0;50.71;-4;30.57;6.59;652.5;12.90;75165;2838.060;-1800.557;1;56;220;222.6;22.2;22.4;36;36.1;28.7;-1.0;
13/02/2025 19:32:40;117;0;49.77;-4;30.49;6.43;649.2;12.90;75159;2838.062;-1800.554;1;56;220;224.2;22.2;22.4;36;36.6;28.7;-1.0;
13/02/2025 19:33:00;117;0;49.43;-4;29.16;6.38;646.1;12.90;75176;2838.064;-1800.551;1;56;220;222.6;22.2;22.4;36;36.6;28.7;-1.0;
13/02/2025 19:33:20;117;0;44.48;-4;31.52;6.56;643.3;12.90;75161;2838.066;-1800.549;1;56;220;224.2;22.2;22.4;42;42.0;28.7;-1.0;
13/02/2025 19:33:40;117;0;42.41;-4;31.11;9.69;640.0;12.90;75159;2838.068;-1800.547;1;56;220;222.6;22.2;22.4;42;42.0;28.7;-1.0;
13/02/2025 19:34:00;117;0;44.70;-4;30.58;9.59;636.7;12.90;75174;2838.071;-1800.545;1;57;220;222.6;22.2;22.4;42;42.0;28.7;-1.0;
13/02/2025 19:34:20;117;0;45.52;-4;30.72;9.62;633.5;12.90;75177;2838.073;-1800.542;1;57;220;222.6;22.2;22.4;42;42.0;28.7;-1.0;
13/02/2025 19:34:40;117;0;42.57;-4;30.41;9.67;630.3;12.90;75168;2838.075;-1800.540;1;57;220;221.0;22.2;22.4;44;44.2;28.7;-1.0;
13/02/2025 19:35:00;117;0;41.86;-4;30.80;10.90;627.4;12.90;75163;2838.077;-1800.538;1;57;220;222.6;22.2;22.4;47;46.9;28.7;-1.0;
13/02/2025 19:35:20;117;0;42.76;-4;30.71;12.52;624.5;12.80;75159;2838.079;-1800.536;1;57;220;222.6;22.2;22.4;47;46.9;28.7;-1.0;
13/02/2025 19:35:40;117;0;44.15;-4;30.78;12.47;621.8;12.80;75162;2838.081;-1800.534;1;57;220;222.6;22.2;22.4;44;44.2;28.7;-1.0;
13/02/2025 19:36:00;117;0;51.98;-4;30.94;10.60;619.1;12.80;75171;2838.082;-1800.532;1;57;220;222.6;22.2;22.4;36;35.6;28.7;-1.0;
13/02/2025 19:36:20;117;0;52.83;-4;31.00;6.41;616.4;12.80;75171;2838.084;-1800.530;1;57;220;222.6;22.2;22.4;36;35.6;28.7;-1.0;
13/02/2025 19:36:40;117;0;55.74;-4;30.37;6.01;613.5;12.80;75168;2838.085;-1800.527;1;57;220;222.6;22.2;22.4;36;35.6;28.7;-1.0;
13/02/2025 19:37:00;117;0;56.23;-4;30.40;6.08;610.7;12.80;75169;2838.087;-1800.525;1;57;220;221.0;22.2;22.4;36;35.6;28.7;-1.0;
13/02/2025 19:37:20;117;0;58.36;-4;30.50;5.99;607.9;12.80;75172;2838.088;-1800.522;1;57;220;222.6;22.2;22.4;36;35.6;28.7;-1.0;
13/02/2025 19:37:40;117;0;59.53;-4;29.47;5.87;604.9;12.80;75175;2838.090;-1800.519;1;57;220;222.6;22.2;22.4;36;35.6;28.7;-1.0;
13/02/2025 19:38:00;117;0;58.96;-4;29.55;5.97;602.3;12.80;75170;2838.091;-1800.517;1;57;220;222.6;22.2;22.4;36;35.6;28.7;-1.0;
13/02/2025 19:38:20;117;0;60.03;-4;29.42;6.35;599.7;12.80;75180;2838.093;-1800.514;1;57;220;222.6;22.2;22.4;36;35.6;28.7;-1.0;
13/02/2025 19:38:40;117;0;58.75;-4;30.33;6.13;596.9;12.80;75180;2838.094;-1800.512;1;57;220;222.6;22.2;22.4;36;35.6;28.7;-1.0;
13/02/2025 19:39:00;117;0;58.32;-4;29.52;6.11;594.0;12.80;75184;2838.096;-1800.509;1;57;220;222.6;22.2;22.4;36;35.6;28.7;-1.0;
13/02/2025 19:39:20;117;0;56.64;-4;30.03;6.06;591.4;12.80;75184;2838.097;-1800.507;1;57;220;224.2;22.2;22.4;36;35.6;28.7;-1.0;
13/02/2025 19:39:40;117;0;55.46;-4;30.84;5.89;588.7;12.80;75184;2838.099;-1800.505;1;57;220;221.0;22.2;22.4;36;35.6;28.7;-1.0;
13/02/2025 19:40:00;117;0;54.77;-4;30.03;5.97;585.9;12.80;75190;2838.100;-1800.502;1;57;220;222.6;22.2;22.4;36;35.6;28.7;-1.0;
13/02/2025 19:40:20;117;0;53.17;-4;30.32;6.04;583.0;12.80;75184;2838.102;-1800.500;1;57;220;222.6;22.2;22.4;36;35.6;28.7;-1.0;
13/02/2025 19:40:40;117;0;52.44;-4;30.30;6.03;580.2;12.80;75176;2838.104;-1800.497;1;57;220;222.6;22.2;22.4;36;35.6;28.7;-1.0;
13/02/2025 19:41:00;117;0;52.38;-4;30.25;6.03;577.4;12.80;75192;2838.105;-1800.495;1;57;220;222.6;22.2;22.5;36;35.6;28.7;-1.0;
13/02/2025 19:41:20;117;0;51.43;-4;30.44;6.01;574.5;12.80;75184;2838.107;-1800.492;1;57;220;222.6;22.2;22.4;36;35.6;28.7;-1.0;
13/02/2025 19:41:41;117;0;50.33;-4;30.59;6.14;571.5;12.80;75184;2838.109;-1800.490;1;57;220;222.6;22.2;22.4;36;35.6;28.7;-1.0;
13/02/2025 19:42:01;117;0;46.16;-4;30.33;6.13;568.5;12.80;75183;2838.111;-1800.488;1;57;220;224.2;22.2;22.4;40;40.2;28.7;-1.0;
13/02/2025 19:42:21;117;0;48.35;-4;30.19;8.74;565.5;12.80;75198;2838.113;-1800.485;1;57;220;222.6;22.2;22.4;40;40.6;28.7;-1.0;
13/02/2025 19:42:41;117;0;52.09;-4;30.02;8.69;562.6;12.80;75198;2838.114;-1800.483;1;57;220;222.6;22.2;22.4;37;37.0;28.7;-1.0;
13/02/2025 19:43:01;117;0;54.70;-4;30.37;6.76;559.6;12.80;75193;2838.116;-1800.480;1;57;220;224.2;22.2;22.4;37;37.0;28.7;-1.0;
13/02/2025 19:43:21;117;0;57.59;-4;29.96;6.76;556.6;12.80;75207;2838.118;-1800.478;1;57;220;224.2;22.2;22.4;37;37.0;28.7;-1.0;
13/02/2025 19:43:41;117;0;59.59;-4;30.02;6.70;553.6;12.80;75207;2838.119;-1800.475;1;57;220;222.6;22.2;22.5;37;37.0;28.7;-1.0;
13/02/2025 19:44:01;117;0;61.40;-4;30.19;6.68;550.8;12.80;75201;2838.121;-1800.472;1;57;220;222.6;22.2;22.4;35;34.3;28.7;-1.0;
13/02/2025 19:44:21;117;0;62.29;-4;30.21;6.00;547.7;12.80;75203;2838.122;-1800.469;1;57;220;224.2;22.2;22.4;35;35.2;28.7;-1.0;
13/02/2025 19:44:41;117;0;62.73;-4;30.14;5.94;544.6;12.80;75203;2838.123;-1800.466;1;57;220;224.2;22.2;22.4;35;35.2;28.7;-1.0;
13/02/2025 19:45:01;117;0;63.18;-4;30.54;6.08;541.5;12.80;75209;2838.125;-1800.464;1;57;220;222.6;22.2;22.4;35;35.2;28.7;-1.0;
13/02/2025 19:45:21;117;0;63.53;-4;29.95;5.85;538.4;12.80;75203;2838.126;-1800.461;1;57;220;222.6;22.2;22.4;35;35.2;28.7;-1.0;
13/02/2025 19:45:41;117;0;63.93;-4;30.05;5.95;535.3;12.80;75211;2838.128;-1800.458;1;57;220;222.6;22.2;22.4;35;35.6;28.7;-1.0;
13/02/2025 19:46:01;117;0;61.46;-4;30.08;6.06;532.3;12.80;75206;2838.129;-1800.455;1;57;220;219.4;22.2;22.4;35;35.6;28.7;-1.0;
13/02/2025 19:46:21;117;0;57.52;-4;30.62;6.03;529.2;12.80;75209;2838.131;-1800.452;1;57;220;222.6;22.2;22.4;35;35.6;28.7;-1.0;
13/02/2025 19:46:41;117;0;50.89;-4;30.22;5.97;526.1;12.80;75200;2838.132;-1800.450;1;57;220;222.6;22.2;22.4;37;37.0;28.7;-1.0;
13/02/2025 19:47:01;117;0;49.05;-4;30.45;7.08;523.1;12.80;75209;2838.134;-1800.447;1;57;220;221.0;22.2;22.4;39;39.3;28.7;-1.0;
13/02/2025 19:47:21;117;0;50.28;-4;30.25;8.05;520.0;12.80;75216;2838.136;-1800.445;1;57;220;224.2;22.2;22.4;37;37.0;28.7;-1.0;
13/02/2025 19:47:41;117;0;48.62;-4;30.19;6.81;517.0;12.80;75223;2838.138;-1800.442;1;57;220;222.6;22.2;22.4;37;37.0;28.7;-1.0;
13/02/2025 19:48:01;117;0;49.25;-4;30.13;6.67;513.9;12.80;75216;2838.140;-1800.440;1;57;220;224.2;22.2;22.4;37;37.0;28.7;-1.0;
13/02/2025 19:48:21;117;0;51.74;-4;29.81;6.74;510.9;12.80;75226;2838.142;-1800.437;1;57;220;224.2;22.2;22.4;37;37.0;28.7;-1.0;
13/02/2025 19:48:41;117;0;49.95;-4;29.87;6.74;508.0;12.80;75223;2838.144;-1800.435;1;57;220;224.2;22.2;22.2;37;36.6;28.7;-1.0;
13/02/2025 19:49:01;117;0;48.80;-4;29.56;6.66;505.1;12.80;75229;2838.146;-1800.433;1;57;220;222.6;22.2;22.4;39;38.8;28.7;-1.0;
13/02/2025 19:49:21;117;0;49.87;-4;29.72;7.72;502.3;12.90;75238;2838.147;-1800.430;1;57;220;224.2;22.2;22.4;39;38.8;28.7;-1.0;
13/02/2025 19:49:41;117;0;50.78;-4;30.02;7.73;499.4;12.90;75247;2838.149;-1800.428;1;57;220;222.6;22.2;22.4;39;38.8;28.7;-1.0;
13/02/2025 19:50:01;117;0;49.67;-4;29.74;7.76;496.6;12.90;75241;2838.151;-1800.426;1;57;220;222.6;22.2;22.4;39;38.8;28.7;-1.0;
13/02/2025 19:50:21;117;0;47.79;-4;30.19;7.84;493.8;12.90;75249;2838.153;-1800.423;1;57;220;222.6;22.2;22.4;39;38.8;28.7;-1.0;
13/02/2025 19:50:41;117;0;48.83;-4;30.21;7.85;490.9;12.90;75255;2838.155;-1800.421;1;57;220;224.2;22.2;22.4;39;38.8;28.7;-1.0;
13/02/2025 19:51:01;117;0;49.23;-4;30.18;7.90;488.0;12.90;75252;2838.157;-1800.419;1;57;220;224.2;22.2;22.4;39;38.8;28.7;-1.0;
13/02/2025 19:51:21;117;0;49.14;-4;30.19;7.89;485.0;12.90;75258;2838.158;-1800.416;1;57;220;224.2;22.2;22.4;39;38.8;28.7;-1.0;
13/02/2025 19:51:41;117;0;49.05;-4;30.16;7.86;482.0;12.90;75260;2838.160;-1800.414;1;57;220;222.6;22.2;22.5;39;38.8;28.7;-1.0;
13/02/2025 19:52:01;117;0;48.72;-4;30.36;7.96;479.0;12.90;75271;2838.162;-1800.411;1;57;220;222.6;22.2;22.4;39;38.8;28.7;-1.0;
13/02/2025 19:52:21;117;0;48.75;-4;30.36;7.87;476.0;12.90;75259;2838.164;-1800.409;1;57;220;224.2;22.2;22.4;39;38.8;28.7;-1.0;
13/02/2025 19:52:41;117;0;48.07;-4;30.37;7.91;472.9;13.00;75267;2838.166;-1800.406;1;57;220;224.2;22.2;22.4;39;38.8;28.7;-1.0;
13/02/2025 19:53:01;117;0;46.51;-4;30.49;7.91;469.8;12.90;75262;2838.168;-1800.404;1;57;220;224.2;22.2;22.4;41;41.1;28.7;-1.0;
13/02/2025 19:53:21;117;0;44.56;-4;30.15;9.18;466.6;13.00;75259;2838.170;-1800.402;1;57;220;222.6;22.2;22.4;44;44.2;28.7;-1.0;
13/02/2025 19:53:41;117;0;43.48;-4;30.05;11.00;463.7;13.00;75269;2838.172;-1800.399;1;57;220;224.2;22.2;22.4;44;44.7;28.7;-1.0;
13/02/2025 19:54:01;117;0;43.28;-4;30.24;11.15;460.7;13.00;75263;2838.174;-1800.397;1;57;220;222.6;22.2;22.4;46;46.0;28.7;-1.0;
13/02/2025 19:54:21;117;0;45.81;-4;30.72;11.58;457.7;13.00;75279;2838.176;-1800.395;1;57;220;224.2;22.2;22.4;43;42.4;28.7;-1.0;
13/02/2025 19:54:41;117;0;46.84;-4;29.82;9.58;454.7;13.00;75279;2838.178;-1800.393;1;58;220;224.2;22.2;22.5;43;42.4;28.7;-1.0;
13/02/2025 19:55:01;117;0;51.56;-4;30.24;9.55;451.9;13.00;75282;2838.180;-1800.390;1;58;220;224.2;22.2;22.4;38;37.9;28.7;-1.0;
13/02/2025 19:55:21;117;0;53.06;-4;29.88;7.02;449.0;13.00;75288;2838.182;-1800.388;1;58;220;221.0;22.2;22.4;38;37.5;28.7;-1.0;
13/02/2025 19:55:41;117;0;55.91;-4;29.45;7.03;446.1;13.00;75285;2838.183;-1800.385;1;58;220;224.2;22.2;22.4;38;37.5;28.7;-1.0;
13/02/2025 19:56:01;117;0;57.61;-4;29.64;7.04;443.4;13.00;75288;2838.185;-1800.383;1;58;220;224.2;22.2;22.4;36;36.1;28.7;-1.0;
13/02/2025 19:56:21;117;0;59.15;-4;29.27;6.03;440.6;13.00;75301;2838.186;-1800.380;1;58;220;224.2;22.2;22.5;36;35.6;28.7;-1.0;
13/02/2025 19:56:41;117;0;61.24;-4;29.79;6.08;437.9;13.00;75301;2838.188;-1800.378;1;58;220;224.2;22.2;22.4;36;35.6;28.7;-1.0;
13/02/2025 19:57:01;117;0;64.15;-4;29.85;6.06;435.2;13.10;75305;2838.189;-1800.375;1;58;220;224.2;22.2;22.4;36;35.6;28.7;-1.0;
13/02/2025 19:57:21;117;0;66.26;-4;29.82;6.06;432.3;13.10;75310;2838.190;-1800.372;1;58;220;224.2;22.2;22.4;36;35.6;28.7;-1.0;
13/02/2025 19:57:41;117;0;68.27;-4;29.90;6.20;429.4;13.10;75310;2838.191;-1800.369;1;58;220;224.2;22.2;22.4;34;30.7;28.7;-1.0;
13/02/2025 19:58:01;117;0;67.87;-4;29.86;5.49;426.5;13.10;75312;2838.192;-1800.366;1;57;220;224.2;22.2;22.4;34;34.7;28.7;-1.0;
13/02/2025 19:58:21;117;0;70.62;-4;28.88;5.31;423.7;13.10;75319;2838.193;-1800.364;1;57;220;224.2;21.9;21.6;32;32.9;28.7;-1.0;
13/02/2025 19:58:41;117;0;71.11;-4;29.91;4.62;420.8;13.10;75314;2838.194;-1800.361;1;57;220;225.8;21.9;21.5;32;32.9;28.7;-1.0;
13/02/2025 19:59:01;117;0;74.23;-4;30.74;4.57;418.0;13.10;75314;2838.195;-1800.358;1;57;220;221.0;21.9;21.5;27;26.6;28.7;-1.0;
13/02/2025 19:59:21;117;0;72.31;-4;30.43;1.10;415.0;13.10;75318;2838.196;-1800.355;1;57;220;224.2;21.9;21.5;30;29.8;28.7;-1.0;
13/02/2025 19:59:41;117;0;71.73;-4;30.65;3.08;412.0;13.10;75321;2838.197;-1800.352;1;57;220;224.2;21.9;21.5;30;30.2;28.7;-1.0;
13/02/2025 20:00:01;117;0;71.64;-4;30.83;3.06;408.9;13.20;75329;2838.198;-1800.349;1;57;220;224.2;21.9;21.5;30;30.2;28.7;-1.0;
13/02/2025 20:00:21;117;0;70.47;-4;31.00;3.06;405.7;13.20;75322;2838.199;-1800.346;1;57;220;224.2;21.9;21.5;30;30.2;28.7;-1.0;
13/02/2025 20:00:41;117;0;69.08;-4;31.06;3.07;402.5;13.20;75327;2838.200;-1800.343;1;57;220;224.2;21.9;21.5;32;32.0;28.7;-1.0;
13/02/2025 20:01:01;117;0;67.94;-4;30.38;4.62;399.1;13.20;75319;2838.202;-1800.340;1;57;220;224.2;21.9;21.5;32;32.5;28.7;-1.0;
13/02/2025 20:01:21;117;0;65.94;-4;30.61;4.40;395.9;13.20;75329;2838.203;-1800.337;1;57;220;224.2;21.9;21.5;34;33.8;28.7;-1.0;
13/02/2025 20:01:41;117;0;64.16;-4;30.47;5.20;392.8;13.20;75330;2838.204;-1800.334;1;57;220;224.2;21.9;21.5;34;34.3;28.7;-1.0;
13/02/2025 20:02:01;117;0;61.29;-4;30.88;5.20;389.6;13.20;75336;2838.206;-1800.331;1;57;220;225.8;21.9;21.5;36;36.1;28.7;-1.0;
13/02/2025 20:02:21;117;0;59.75;-4;31.03;6.63;386.5;13.20;75333;2838.207;-1800.328;1;57;220;224.2;21.9;21.6;36;36.6;28.7;-1.0;
13/02/2025 20:02:41;117;0;56.02;-4;30.57;6.71;383.3;13.30;75351;2838.209;-1800.325;1;57;220;224.2;21.9;21.6;36;36.6;28.7;-1.0;
13/02/2025 20:03:01;117;0;57.06;-4;30.87;6.54;380.2;13.30;75350;2838.211;-1800.323;1;57;220;224.2;21.9;21.5;36;36.6;28.7;-1.0;
13/02/2025 20:03:21;117;0;58.33;-4;30.88;6.57;377.1;13.30;75363;2838.212;-1800.320;1;57;220;224.2;21.9;21.6;36;36.6;28.7;-1.0;
13/02/2025 20:03:41;117;0;60.04;-4;31.10;6.56;374.0;13.30;75355;2838.214;-1800.317;1;57;220;224.2;21.9;21.5;36;36.6;28.7;-1.0;
13/02/2025 20:04:01;117;0;60.76;-4;30.60;6.59;370.8;13.30;75365;2838.215;-1800.314;1;57;220;224.2;21.9;21.6;36;36.6;28.7;-1.0;
13/02/2025 20:04:21;117;0;62.71;-4;30.58;6.54;367.7;13.30;75370;2838.216;-1800.311;1;57;220;225.8;21.9;21.6;36;36.6;28.7;-1.0;
13/02/2025 20:04:41;117;0;56.62;-4;30.70;6.59;364.6;13.30;75370;2838.218;-1800.309;1;57;220;221.0;21.9;21.5;36;36.6;28.7;-1.0;
13/02/2025 20:05:01;117;0;52.49;-4;31.13;6.63;361.5;13.30;75375;2838.220;-1800.306;1;57;220;224.2;21.9;21.5;36;36.6;28.7;-1.0;
13/02/2025 20:05:21;117;0;50.84;-4;31.01;6.66;358.3;13.40;75385;2838.222;-1800.304;1;57;220;225.8;21.9;21.5;36;36.6;28.7;-1.0;
13/02/2025 20:05:41;117;0;47.68;-4;31.36;6.57;355.1;13.40;75385;2838.224;-1800.301;1;57;220;224.2;21.9;21.5;39;38.8;28.7;-1.0;
13/02/2025 20:06:01;117;0;45.52;-4;31.29;7.98;351.9;13.40;75395;2838.226;-1800.299;1;57;220;224.2;21.9;21.5;42;42.0;28.7;-1.0;
13/02/2025 20:06:21;117;0;43.48;-4;31.28;9.89;348.7;13.40;75401;2838.228;-1800.297;1;57;220;224.2;21.9;21.5;44;44.2;28.7;-1.0;
13/02/2025 20:06:41;117;0;41.98;-4;31.29;10.91;345.5;13.40;75401;2838.230;-1800.294;1;57;220;224.2;21.9;21.5;46;46.0;28.7;-1.0;
13/02/2025 20:07:01;117;0;40.78;-4;31.59;12.07;342.3;13.50;75408;2838.232;-1800.292;1;57;220;224.2;21.9;21.5;50;50.1;28.7;-1.0;
13/02/2025 20:07:21;117;0;41.04;-4;31.83;14.24;339.1;13.50;75405;2838.234;-1800.290;1;57;220;224.2;21.9;21.5;50;50.5;28.7;-1.0;
13/02/2025 20:07:41;117;0;41.37;-4;31.75;14.22;336.0;13.50;75412;2838.237;-1800.288;1;58;220;224.2;21.9;21.5;50;50.5;28.7;-1.0;
13/02/2025 20:08:01;117;0;42.21;-4;31.67;14.29;332.9;13.50;75411;2838.239;-1800.286;1;58;220;225.8;21.9;21.5;48;47.8;28.7;-1.0;
13/02/2025 20:08:21;117;0;46.82;-4;31.40;12.37;329.9;13.50;75423;2838.240;-1800.284;1;58;220;224.2;21.9;21.5;43;42.9;28.7;-1.0;
13/02/2025 20:08:41;117;0;49.81;-4;31.32;9.79;327.0;13.50;75435;2838.242;-1800.281;1;58;220;224.2;21.9;21.5;40;40.2;28.7;-1.0;
13/02/2025 20:09:01;117;0;51.03;-4;30.98;8.14;324.0;13.60;75445;2838.244;-1800.279;1;58;220;224.2;21.9;21.6;40;39.7;28.7;-1.0;
13/02/2025 20:09:21;117;0;55.49;-4;30.93;8.15;321.1;13.60;75455;2838.246;-1800.277;1;58;220;225.8;21.9;21.5;37;37.0;28.6;-1.0;
13/02/2025 20:09:41;117;0;54.20;-4;30.71;6.55;318.2;13.60;75462;2838.247;-1800.274;1;58;220;224.2;21.9;21.5;37;36.6;28.7;-1.0;
13/02/2025 20:10:01;117;0;55.14;-4;30.74;6.51;315.2;13.60;75470;2838.249;-1800.272;1;58;220;225.8;21.9;21.5;37;36.6;28.7;-1.0;
13/02/2025 20:10:21;117;0;56.75;-4;30.85;6.54;312.3;13.60;75482;2838.250;-1800.269;1;58;220;225.8;21.9;21.5;37;36.6;28.7;-1.0;
13/02/2025 20:10:41;117;0;55.61;-4;30.56;6.53;309.5;13.60;75474;2838.252;-1800.267;1;58;220;225.8;21.9;21.5;37;36.6;28.7;-1.0;
13/02/2025 20:11:01;117;0;52.94;-4;30.81;6.57;306.8;13.70;75494;2838.253;-1800.265;1;58;220;222.6;21.9;21.5;37;36.6;28.7;-1.0;
13/02/2025 20:11:21;117;0;53.23;-4;30.56;6.53;303.9;13.70;75494;2838.255;-1800.262;1;58;220;224.2;21.9;21.5;37;36.6;28.7;-1.0;
13/02/2025 20:11:41;117;0;56.91;-4;31.13;6.59;301.2;13.70;75504;2838.256;-1800.260;1;58;220;224.2;21.9;21.5;37;36.6;28.7;-1.0;
13/02/2025 20:12:01;117;0;59.15;-4;30.87;6.53;298.2;13.70;75512;2838.258;-1800.257;1;58;220;224.2;21.9;21.5;37;36.6;28.7;-1.0;
13/02/2025 20:12:21;117;0;58.73;-4;30.75;6.57;295.3;13.80;75517;2838.259;-1800.255;1;58;220;224.2;21.9;21.5;37;36.6;28.7;-1.0;
13/02/2025 20:12:41;117;0;59.18;-4;30.76;6.57;292.4;13.80;75537;2838.261;-1800.252;1;58;220;224.2;21.9;21.5;37;36.6;28.7;-1.0;
13/02/2025 20:13:01;117;0;61.54;-4;30.63;6.56;289.6;13.80;75531;2838.262;-1800.250;1;58;220;225.8;21.9;21.5;37;36.6;28.7;-1.0;
13/02/2025 20:13:21;117;0;62.57;-4;30.57;6.55;286.8;13.80;75539;2838.263;-1800.247;1;58;220;224.2;21.9;21.5;37;36.6;28.7;-1.0;
13/02/2025 20:13:41;117;0;61.31;-4;30.60;6.56;284.1;13.90;75554;2838.265;-1800.245;1;58;220;224.2;21.9;21.5;37;36.6;28.7;-1.0;
13/02/2025 20:14:01;117;0;59.84;-4;30.75;6.44;281.5;13.90;75561;2838.266;-1800.242;1;58;220;225.8;21.9;21.5;37;36.6;28.7;-1.0;
13/02/2025 20:14:21;117;0;58.92;-4;30.69;6.57;278.9;13.90;75566;2838.267;-1800.240;1;58;220;224.2;21.9;21.5;37;36.6;28.7;-1.0;
13/02/2025 20:14:41;117;0;58.23;-4;30.58;6.51;276.2;13.90;75574;2838.269;-1800.237;1;58;220;225.8;21.9;21.5;37;36.6;28.7;-1.0;
13/02/2025 20:15:01;117;0;55.65;-4;30.49;6.57;273.7;14.00;75577;2838.270;-1800.235;1;58;220;224.2;21.9;21.5;37;36.6;28.7;-1.0;
13/02/2025 20:15:21;117;0;55.26;-4;30.77;6.58;271.3;14.00;75582;2838.271;-1800.233;1;58;220;225.8;21.9;21.5;37;36.6;28.7;-1.0;
13/02/2025 20:15:41;117;0;52.68;-4;30.94;6.66;268.7;14.00;75595;2838.273;-1800.231;1;58;220;225.8;21.9;21.5;37;36.6;28.7;-1.0;
13/02/2025 20:16:01;117;0;47.17;-4;30.71;6.63;266.2;14.00;75602;2838.275;-1800.229;1;58;220;224.2;21.9;21.5;43;42.9;28.7;-1.0;
13/02/2025 20:16:21;117;0;46.86;-4;30.90;10.22;263.8;14.10;75619;2838.276;-1800.227;1;58;220;225.8;21.9;21.5;43;43.3;28.7;-1.0;
13/02/2025 20:16:41;117;0;47.40;-4;30.76;10.34;261.3;14.10;75638;2838.278;-1800.225;1;58;220;224.2;21.9;21.6;43;43.3;28.7;-1.0;
13/02/2025 20:17:02;117;0;52.00;-4;30.84;10.42;258.9;14.10;75636;2838.279;-1800.223;1;58;220;225.8;21.9;21.5;38;37.5;28.7;-1.0;
13/02/2025 20:17:22;117;0;55.50;-4;30.38;6.86;256.5;14.20;75643;2838.280;-1800.221;1;58;220;225.8;21.9;21.5;38;37.5;28.7;-1.0;
13/02/2025 20:17:42;117;0;57.54;-4;30.32;6.80;254.1;14.20;75661;2838.282;-1800.219;1;58;220;225.8;21.9;21.5;38;37.5;28.7;-1.0;
13/02/2025 20:18:02;117;0;58.54;-4;30.75;6.95;251.7;14.20;75657;2838.283;-1800.217;1;58;220;224.2;21.9;21.5;38;37.0;28.7;-1.0;
13/02/2025 20:18:22;117;0;57.77;-4;30.43;6.78;249.2;14.20;75670;2838.284;-1800.215;1;58;220;224.2;21.9;21.5;38;37.0;28.7;-1.0;
13/02/2025 20:18:42;117;0;57.14;-4;30.44;6.93;246.6;14.30;75676;2838.286;-1800.212;1;58;220;224.2;21.9;21.5;38;37.0;28.7;-1.0;
13/02/2025 20:19:02;117;0;57.39;-4;30.46;6.86;244.2;14.30;75686;2838.287;-1800.210;1;58;220;225.8;21.9;21.5;38;37.0;28.7;-1.0;
13/02/2025 20:19:22;117;0;57.52;-4;30.36;6.84;241.6;14.30;75701;2838.289;-1800.208;1;58;220;225.8;21.9;21.5;38;37.5;28.6;-1.0;
13/02/2025 20:19:42;117;0;58.21;-4;30.49;6.85;239.0;14.40;75699;2838.290;-1800.205;1;58;220;225.8;21.9;21.5;38;37.0;28.7;-1.0;
13/02/2025 20:20:02;117;0;58.85;-4;30.77;6.80;236.4;14.40;75710;2838.291;-1800.203;1;58;220;225.8;21.9;21.5;38;37.5;28.6;-1.0;
13/02/2025 20:20:22;117;0;59.24;-4;30.54;6.86;233.6;14.40;75719;2838.293;-1800.201;1;58;220;225.8;21.9;21.5;38;37.5;28.7;-1.0;
13/02/2025 20:20:42;117;0;60.35;-4;30.66;6.76;230.7;14.40;75726;2838.294;-1800.198;1;58;220;224.2;21.9;21.5;38;37.5;28.7;-1.0;
13/02/2025 20:21:02;117;0;59.26;-4;30.41;6.84;227.9;14.50;75725;2838.295;-1800.195;1;58;220;225.8;21.9;21.5;38;37.5;28.7;-1.0;
13/02/2025 20:21:22;117;0;57.44;-4;30.39;6.88;225.1;14.50;75736;2838.297;-1800.193;1;58;220;225.8;21.9;21.5;38;37.0;28.7;-1.0;
13/02/2025 20:21:42;117;0;58.24;-4;30.80;6.84;222.2;14.50;75748;2838.298;-1800.190;1;58;220;225.8;21.9;21.5;38;37.0;28.7;-1.0;
13/02/2025 20:22:02;117;0;57.24;-4;30.68;6.91;219.2;14.60;75757;2838.300;-1800.188;1;58;220;225.8;21.9;21.5;38;37.5;28.7;-1.0;
13/02/2025 20:22:22;117;0;57.02;-4;30.87;6.86;216.0;14.60;75771;2838.302;-1800.185;1;58;220;224.2;21.9;21.5;38;37.0;28.7;-1.0;
13/02/2025 20:22:42;117;0;56.06;-4;30.75;6.91;212.8;14.60;75776;2838.303;-1800.182;1;58;220;225.8;21.9;21.5;38;37.0;28.7;-1.0;
13/02/2025 20:23:02;117;0;53.83;-4;30.65;6.90;209.6;14.70;75787;2838.305;-1800.180;1;58;220;225.8;21.9;21.5;38;37.0;28.7;-1.0;
13/02/2025 20:23:22;117;0;48.69;-4;30.44;6.93;206.3;14.70;75807;2838.307;-1800.177;1;58;220;225.8;21.9;21.5;40;40.2;28.7;-1.0;
13/02/2025 20:23:42;117;0;44.18;-4;30.91;8.57;203.1;14.70;75817;2838.309;-1800.175;1;58;220;225.8;21.9;21.5;47;46.9;28.7;-1.0;
13/02/2025 20:24:02;117;0;43.95;-4;31.52;12.58;199.9;14.80;75832;2838.311;-1800.173;1;58;220;225.8;21.9;21.5;47;47.4;28.7;-1.0;
13/02/2025 20:24:22;117;0;44.71;-4;30.87;12.52;196.4;14.80;75844;2838.314;-1800.170;1;58;220;227.4;21.9;21.5;45;44.7;28.7;-1.0;
13/02/2025 20:24:42;117;0;46.98;-4;30.79;10.68;193.0;14.80;75850;2838.316;-1800.167;1;58;220;225.8;21.9;21.5;42;41.5;28.7;-1.0;
13/02/2025 20:25:02;117;0;44.26;-4;30.63;9.17;189.6;14.90;75876;2838.318;-1800.165;1;58;220;225.8;21.9;21.5;46;46.0;28.7;-1.0;
13/02/2025 20:25:22;117;0;44.01;-4;30.87;12.02;186.2;14.90;75881;2838.320;-1800.163;1;58;220;225.8;21.9;21.6;46;46.5;28.7;-1.0;
13/02/2025 20:25:42;117;0;42.79;-4;31.26;11.98;182.7;15.00;75887;2838.323;-1800.160;1;59;220;224.2;21.9;21.4;49;49.2;28.7;-1.0;
13/02/2025 20:26:02;117;0;45.49;-4;29.97;13.40;179.0;15.00;75893;2838.325;-1800.157;1;59;220;225.8;21.9;21.6;45;44.7;28.7;-1.0;
13/02/2025 20:26:22;117;0;46.04;-4;29.92;10.80;175.7;15.00;75908;2838.327;-1800.155;1;59;220;225.8;21.9;21.5;45;44.7;28.7;-1.0;
13/02/2025 20:26:42;117;0;45.21;-4;30.34;10.87;172.4;15.10;75915;2838.329;-1800.152;1;59;220;224.2;21.9;21.6;47;47.4;28.7;-1.0;
13/02/2025 20:27:02;117;0;47.18;-4;30.65;12.66;169.1;15.10;75927;2838.332;-1800.150;1;59;220;225.8;21.9;21.5;45;45.1;28.7;-1.0;
13/02/2025 20:27:22;117;0;50.11;-4;30.70;10.58;165.7;15.10;75942;2838.334;-1800.147;1;59;220;225.8;21.9;21.5;41;40.6;28.7;-1.0;
13/02/2025 20:27:42;117;0;52.96;-4;30.22;8.43;162.4;15.20;75956;2838.335;-1800.144;1;59;220;225.8;21.9;21.5;39;38.8;28.7;-1.0;
13/02/2025 20:28:02;117;0;55.89;-4;30.18;7.48;159.2;15.20;75985;2838.337;-1800.141;1;59;220;225.8;21.9;21.5;39;38.4;28.7;-1.0;
13/02/2025 20:28:22;117;0;55.83;-4;30.06;7.43;155.9;15.30;75999;2838.339;-1800.139;1;59;220;224.2;21.9;21.5;39;38.4;28.7;-1.0;
13/02/2025 20:28:42;117;0;56.31;-4;29.59;7.52;152.9;15.30;76016;2838.341;-1800.136;1;59;220;225.8;21.9;21.5;39;38.4;28.7;-1.0;
13/02/2025 20:29:02;117;0;58.34;-4;30.23;7.50;150.0;15.40;76036;2838.342;-1800.133;1;59;220;225.8;21.9;21.5;39;38.4;28.7;-1.0;
13/02/2025 20:29:22;117;0;59.54;-4;30.36;7.54;147.0;15.40;76055;2838.344;-1800.131;1;59;220;225.8;21.9;21.5;39;38.4;28.7;-1.0;
13/02/2025 20:29:42;117;0;56.60;-4;29.84;7.44;144.2;15.50;76068;2838.345;-1800.128;1;59;220;224.2;21.9;21.5;39;38.4;28.7;-1.0;
13/02/2025 20:30:02;117;0;63.63;-4;30.29;7.49;141.3;15.50;76111;2838.346;-1800.125;1;59;220;225.8;21.9;21.5;37;37.0;28.7;-1.0;
13/02/2025 20:30:22;117;0;68.21;-4;29.94;6.45;138.7;15.60;76136;2838.348;-1800.123;1;59;220;225.8;21.9;21.5;37;36.6;28.7;-1.0;
13/02/2025 20:30:42;117;0;71.58;-4;29.37;6.30;135.9;15.60;76161;2838.349;-1800.120;1;59;220;225.8;21.9;21.5;34;33.8;28.7;-1.0;
13/02/2025 20:31:02;117;0;69.87;-4;29.85;4.74;133.5;15.70;76198;2838.349;-1800.117;1;59;220;227.4;21.9;21.5;34;33.4;28.7;-1.0;
13/02/2025 20:31:22;117;0;71.16;-4;29.77;4.75;130.9;15.70;76221;2838.350;-1800.115;1;59;220;225.8;21.9;21.5;34;33.4;28.7;-1.0;
13/02/2025 20:31:42;117;0;70.15;-4;29.61;4.70;128.3;15.80;76254;2838.351;-1800.112;1;59;220;225.8;21.9;21.5;34;33.4;28.7;-1.0;
13/02/2025 20:32:02;117;0;68.71;-4;29.53;4.76;125.6;15.90;76257;2838.352;-1800.110;1;59;220;222.6;21.9;21.5;36;36.1;28.7;-1.0;
13/02/2025 20:32:22;117;0;71.30;-4;29.83;6.66;123.1;15.90;76270;2838.353;-1800.107;1;59;220;224.2;21.9;21.5;34;33.8;28.7;-1.0;
13/02/2025 20:32:42;117;0;70.77;-4;29.49;4.68;120.3;16.00;76290;2838.354;-1800.104;1;59;220;225.8;21.9;21.5;34;33.4;28.7;-1.0;
13/02/2025 20:33:02;117;0;69.00;-4;29.55;4.75;117.5;16.00;76296;2838.355;-1800.101;1;59;220;225.8;21.9;21.5;36;36.1;28.7;-1.0;
13/02/2025 20:33:22;117;0;68.03;-4;29.84;6.69;114.8;16.10;76310;2838.356;-1800.099;1;59;220;224.2;21.9;21.5;36;36.6;28.6;-1.0;
13/02/2025 20:33:42;117;0;67.51;-4;29.94;6.62;111.8;16.20;76331;2838.357;-1800.096;1;59;220;225.8;21.9;21.5;36;36.6;28.7;-1.0;
13/02/2025 20:34:02;117;0;68.02;-4;29.72;6.62;108.8;16.20;76346;2838.359;-1800.093;1;59;220;225.8;21.9;21.5;36;36.6;28.7;-1.0;
13/02/2025 20:34:22;117;0;68.70;-4;29.79;6.63;106.0;16.30;76348;2838.360;-1800.090;1;58;220;225.8;21.9;21.5;36;36.6;28.7;-1.0;
13/02/2025 20:34:42;117;0;69.05;-4;29.95;6.67;103.0;16.40;76357;2838.361;-1800.087;1;58;220;225.8;21.9;21.5;36;36.6;28.7;-1.0;
13/02/2025 20:35:02;117;0;70.14;-4;29.95;6.67;100.1;16.40;76379;2838.362;-1800.084;1;58;220;227.4;21.9;21.5;34;33.8;28.7;-1.0;
13/02/2025 20:35:22;117;0;70.24;-4;29.42;4.68;97.1;16.50;76384;2838.363;-1800.081;1;58;220;225.8;21.9;21.5;34;33.4;28.7;-1.0;
13/02/2025 20:35:42;117;0;70.07;-4;29.54;4.73;94.3;16.50;76387;2838.364;-1800.078;1;58;220;225.8;21.9;21.5;34;33.4;28.7;-1.0;
13/02/2025 20:36:02;117;0;70.32;-4;29.18;4.67;91.5;16.60;76397;2838.365;-1800.075;1;58;220;225.8;21.9;21.5;34;33.4;28.7;-1.0;
13/02/2025 20:36:22;117;0;69.77;-4;29.26;4.54;88.7;16.60;76410;2838.366;-1800.072;1;58;220;225.8;21.9;21.5;34;33.4;28.7;-1.0;
13/02/2025 20:36:42;117;0;70.55;-4;29.48;4.74;86.0;16.70;76415;2838.367;-1800.070;1;58;220;225.8;21.9;21.6;34;33.4;28.7;-1.0;
13/02/2025 20:37:02;117;0;69.83;-4;29.67;4.70;83.2;16.80;76429;2838.368;-1800.067;1;58;220;225.8;21.9;21.6;34;33.4;28.7;-1.0;
13/02/2025 20:37:22;117;0;69.21;-4;29.44;4.71;80.5;16.80;76430;2838.369;-1800.064;1;58;220;225.8;21.9;21.5;34;33.4;28.7;-1.0;
13/02/2025 20:37:42;117;0;67.94;-4;29.62;4.75;77.7;16.90;76444;2838.370;-1800.061;1;58;220;225.8;21.9;21.5;34;33.4;28.7;-1.0;
13/02/2025 20:38:02;117;0;66.65;-4;29.57;4.76;75.0;16.90;76441;2838.371;-1800.059;1;58;220;227.4;21.9;21.5;36;36.6;28.7;-1.0;
13/02/2025 20:38:22;117;0;66.16;-4;29.72;6.67;72.2;17.00;76447;2838.372;-1800.056;1;58;220;227.4;21.9;21.5;36;36.6;28.7;-1.0;
13/02/2025 20:38:42;117;0;64.96;-4;30.04;6.78;69.4;17.00;76461;2838.374;-1800.053;1;58;220;225.8;21.9;21.6;36;36.6;28.7;-1.0;
13/02/2025 20:39:02;117;0;65.17;-4;29.76;6.72;66.6;17.10;76462;2838.375;-1800.051;1;58;220;225.8;21.9;21.5;36;37.0;28.7;-1.0;
13/02/2025 20:39:22;117;0;64.79;-4;29.66;6.65;63.7;17.10;76462;2838.376;-1800.048;1;58;220;225.8;21.9;21.5;36;36.6;28.7;-1.0;
13/02/2025 20:39:42;117;0;63.98;-4;29.88;6.74;61.0;17.10;76463;2838.377;-1800.045;1;58;220;225.8;21.9;21.5;36;36.6;28.7;-1.0;
13/02/2025 20:40:02;117;0;63.53;-4;29.96;6.71;58.1;17.20;76483;2838.379;-1800.042;1;58;220;225.8;21.9;21.6;36;36.6;28.7;-1.0;
13/02/2025 20:40:22;117;0;63.03;-4;29.60;6.66;55.4;17.20;76484;2838.380;-1800.040;1;58;220;225.8;21.9;21.5;36;36.6;28.7;-1.0;
13/02/2025 20:40:42;117;0;62.89;-4;29.65;6.73;52.6;17.30;76487;2838.381;-1800.037;1;58;220;225.8;21.9;21.5;36;37.0;28.7;-1.0;
13/02/2025 20:41:02;117;0;63.19;-4;29.87;6.76;49.8;17.30;76496;2838.382;-1800.035;1;58;220;225.8;21.9;21.5;36;37.0;28.7;-1.0;
13/02/2025 20:41:22;117;0;62.86;-4;29.67;6.72;47.1;17.40;76494;2838.384;-1800.032;1;58;220;225.8;21.9;21.5;36;36.6;28.7;-1.0;
13/02/2025 20:41:42;117;0;62.08;-4;29.70;6.71;44.3;17.40;76502;2838.385;-1800.029;1;58;220;225.8;21.9;21.5;36;36.6;28.7;-1.0;
13/02/2025 20:42:02;117;0;60.07;-4;29.91;6.76;41.5;17.40;76506;2838.386;-1800.027;1;58;220;225.8;21.9;21.5;36;36.6;28.7;-1.0;
13/02/2025 20:42:22;117;0;56.90;-4;29.70;6.88;38.7;17.50;76518;2838.388;-1800.024;1;58;220;225.8;21.9;21.5;36;36.6;28.7;-1.0;
13/02/2025 20:42:42;117;0;50.04;-4;29.63;6.81;36.1;17.50;76521;2838.390;-1800.022;1;58;220;227.4;21.9;21.5;40;40.2;28.7;-1.0;
13/02/2025 20:43:02;117;0;46.87;-4;30.10;8.84;33.3;17.60;76539;2838.391;-1800.020;1;58;220;225.8;21.9;21.5;43;42.9;28.7;-1.0;
13/02/2025 20:43:22;117;0;47.10;-4;30.21;10.28;30.4;17.60;76546;2838.393;-1800.018;1;58;220;225.8;21.9;21.5;43;43.3;28.7;-1.0;
13/02/2025 20:43:42;117;0;45.75;-4;30.28;10.41;27.6;17.70;76566;2838.395;-1800.015;1;58;220;224.2;21.9;21.5;43;43.3;28.6;-1.0;
13/02/2025 20:44:02;117;0;46.56;-4;30.39;10.33;24.7;17.70;76573;2838.397;-1800.013;1;58;220;227.4;21.9;21.5;43;43.3;28.7;-1.0;
13/02/2025 20:44:22;117;0;47.34;-4;30.41;10.36;21.8;17.80;76564;2838.399;-1800.011;1;58;220;225.8;21.9;21.5;43;43.3;28.7;-1.0;
13/02/2025 20:44:42;117;0;47.42;-4;30.21;10.42;18.9;17.80;76566;2838.401;-1800.009;1;58;220;225.8;21.9;21.5;43;43.3;28.7;-1.0;
13/02/2025 20:45:02;117;0;48.29;-4;30.45;10.32;16.0;17.80;76582;2838.403;-1800.006;1;58;220;224.2;21.9;21.5;43;43.3;28.7;-1.0;
13/02/2025 20:45:22;117;0;48.60;-4;30.07;10.48;13.0;17.90;76590;2838.405;-1800.004;1;58;220;225.8;21.9;21.5;41;41.1;28.7;-1.0;
13/02/2025 20:45:42;117;0;49.66;-4;30.29;9.00;10.1;17.90;76591;2838.407;-1800.001;1;58;220;227.4;21.9;21.6;41;40.2;28.7;-1.0;
13/02/2025 20:46:02;117;0;49.30;-4;29.88;8.76;7.2;18.00;76594;2838.408;-1759.999;1;58;220;225.8;21.9;21.5;41;40.2;28.6;-1.0;
13/02/2025 20:46:22;117;0;49.99;-4;29.82;8.36;4.3;18.00;76604;2838.410;-1759.997;1;59;220;225.8;21.9;21.5;41;40.2;28.7;-1.0;
13/02/2025 20:46:31;115;0;53.38;-4;30.17;8.76;3.1;18.00;76606;2838.411;-1759.996;1;59;500;227.4;100.0;52.4;0;-0.5;28.7;-1.0;
13/02/2025 20:46:41;115;0;54.85;-4;21.51;-12.33;1.9;18.00;76610;2838.412;-1759.994;1;59;500;327.4;100.0;100.0;0;-0.5;28.6;-1.0;
13/02/2025 20:46:51;115;0;60.74;-4;-52.68;-9.96;1.9;18.00;76383;2838.412;-1759.994;1;59;500;445.2;100.0;100.4;0;-0.5;28.5;-1.0;
13/02/2025 20:47:01;115;0;348.93;-4;-68.51;-8.65;2.0;18.10;76139;2838.412;-1759.994;1;59;500;508.1;100.0;100.6;0;0.0;28.5;-1.0;
13/02/2025 20:47:11;115;0;304.75;-4;-29.50;-7.77;-0.1;18.10;76009;2838.413;-1759.996;1;59;500;508.1;100.0;100.6;0;0.0;28.7;-1.0;
13/02/2025 20:47:31;119;0;279.49;-4;-59.35;-9.81;0.3;18.20;76031;2838.413;-1759.996;1;59;500;511.3;100.0;100.6;0;0.0;28.7;-1.0;
13/02/2025 20:47:41;119;0;270.70;-4;-44.85;-11.01;0.1;18.20;76022;2838.245;-1800.086;0;59;500;509.7;100.0;100.6;0;0.0;28.7;-1.0;
