Timestamp;NavState;SecurityLevel;Heading;Declination;Pitch;Roll;Depth;Temperature;Pa;Lat;Lon;DeadReckoning;DesiredH;BallastCmd;BallastPos;LinCmd;LinPos;AngCmd;AngPos;Voltage;Altitude;
05/03/2025 13:40:43;119;0;332.56;-4;-41.24;-13.66;0.0;19.30;76494;2837.771;-1757.447;0;141;500;506.5;100.0;100.6;0;-0.5;24.6;-1.0;
05/03/2025 13:40:53;116;0;327.41;-4;-65.31;-15.27;0.3;19.30;76503;2837.772;-1757.447;0;141;500;506.5;100.0;100.6;0;-0.5;24.6;-1.0;
05/03/2025 13:41:17;116;0;325.48;-4;-61.28;-25.20;0.3;19.40;76500;2837.772;-1757.446;0;141;500;506.5;100.0;100.6;0;-0.5;24.7;-1.0;
05/03/2025 13:41:51;116;0;309.01;-4;-52.40;-21.58;0.2;19.50;76521;2837.773;-1757.446;0;177;500;506.5;100.0;100.7;0;-0.5;24.6;-1.0;
05/03/2025 13:42:07;116;0;325.65;-4;-41.43;-18.57;0.2;19.50;76531;2837.773;-1757.446;0;177;500;508.1;100.0;100.7;0;-0.5;24.6;-1.0;
05/03/2025 13:42:27;116;0;327.20;-4;-52.50;-13.28;0.1;19.50;76521;2837.774;-1757.445;0;177;500;506.5;100.0;100.7;0;-0.5;24.6;-1.0;
05/03/2025 13:42:47;116;0;317.11;-4;-47.38;-10.04;0.4;19.50;76536;2837.775;-1757.445;0;177;500;506.5;100.0;100.7;0;-0.5;24.6;-1.0;
05/03/2025 13:43:07;116;0;305.52;-4;-54.70;-11.27;0.2;19.60;76544;2837.775;-1757.444;0;177;500;506.5;100.0;100.6;0;-0.5;24.6;-1.0;
05/03/2025 13:43:27;116;0;311.85;-4;-55.09;1.40;0.2;19.60;76549;2837.776;-1757.444;0;177;500;506.5;100.0;100.6;0;-0.5;24.6;-1.0;
05/03/2025 13:43:47;116;0;316.45;-4;-56.80;-12.91;0.3;19.70;76551;2837.777;-1757.444;0;177;500;506.5;100.0;100.7;0;-0.5;24.6;-1.0;
05/03/2025 13:44:07;116;0;325.03;-4;-56.76;-13.33;0.3;19.70;76555;2837.778;-1757.443;0;177;500;506.5;100.0;100.6;0;-0.5;24.6;-1.0;
05/03/2025 13:44:27;116;0;317.45;-4;-41.44;-16.81;0.3;19.80;76558;2837.778;-1757.442;0;177;500;508.1;100.0;100.6;0;-0.5;24.6;-1.0;
05/03/2025 13:44:47;116;0;316.31;-4;-59.36;-16.86;0.3;19.90;76574;2837.779;-1757.442;0;177;500;508.1;100.0;100.7;0;-0.5;24.6;-1.0;
05/03/2025 13:45:07;116;0;318.92;-4;-47.38;-11.31;0.2;19.90;76579;2837.779;-1757.442;0;177;500;506.5;100.0;100.6;0;-0.5;24.6;-1.0;
05/03/2025 13:45:27;116;0;329.31;-4;-40.93;-11.42;0.3;20.00;76574;2837.779;-1757.442;0;177;500;506.5;100.0;100.7;0;-0.5;24.6;-1.0;
05/03/2025 13:45:47;116;0;320.04;-4;-49.56;-7.27;0.1;20.00;76577;2837.779;-1757.441;0;177;500;506.5;100.0;100.7;0;-0.5;24.6;-1.0;
05/03/2025 13:46:07;116;0;309.43;-4;-37.46;-15.72;0.3;20.10;76583;2837.780;-1757.441;0;177;500;508.1;100.0;100.7;0;-0.5;24.6;-1.0;
05/03/2025 13:46:27;116;0;324.74;-4;-48.42;-3.31;0.2;20.10;76591;2837.781;-1757.439;0;177;500;506.5;100.0;100.6;0;-0.5;24.6;-1.0;
05/03/2025 13:46:47;116;0;316.08;-4;-39.57;-8.45;0.3;20.20;76594;2837.781;-1757.438;0;177;500;506.5;100.0;100.6;0;-0.5;24.6;-1.0;
05/03/2025 13:47:07;116;0;329.33;-4;-47.42;-17.08;0.3;20.30;76591;2837.782;-1757.437;0;177;500;506.5;100.0;100.7;0;-0.5;24.6;-1.0;
05/03/2025 13:47:27;116;0;326.71;-4;-58.87;-7.37;0.3;20.30;76595;2837.782;-1757.435;0;177;500;506.5;100.0;100.6;0;-0.5;24.6;-1.0;
05/03/2025 13:47:47;116;0;336.52;-4;-52.44;-14.49;0.2;20.40;76593;2837.783;-1757.435;0;177;500;504.8;100.0;100.7;0;-0.5;24.6;-1.0;
05/03/2025 13:48:07;116;0;328.26;-4;-43.26;-17.16;0.2;20.40;76599;2837.782;-1757.435;0;177;500;506.5;100.0;100.6;0;-0.5;24.6;-1.0;
05/03/2025 13:48:28;116;0;334.90;-4;-45.27;-19.71;0.1;20.50;76606;2837.783;-1757.433;0;177;500;506.5;100.0;100.7;0;-0.5;24.6;-1.0;
05/03/2025 13:48:48;116;0;328.32;-4;-58.77;-5.84;0.0;20.50;76607;2837.784;-1757.432;0;177;500;506.5;100.0;100.7;0;-0.5;24.6;-1.0;
05/03/2025 13:49:08;116;0;307.57;-4;-47.46;-5.66;0.1;20.60;76608;2837.784;-1757.432;0;177;500;506.5;100.0;100.7;0;-0.5;24.6;-1.0;
05/03/2025 13:49:28;116;0;328.30;-4;-52.15;-14.38;0.1;20.60;76608;2837.784;-1757.431;0;177;500;504.8;100.0;100.7;0;-0.5;24.6;-1.0;
05/03/2025 13:49:48;116;0;318.43;-4;-46.70;-10.77;0.1;20.60;76607;2837.784;-1757.431;0;177;500;506.5;100.0;100.7;0;-0.5;24.6;-1.0;
05/03/2025 13:50:08;116;0;319.22;-4;-58.40;-16.92;0.3;20.70;76626;2837.784;-1757.430;0;177;500;506.5;100.0;100.7;0;-0.5;24.6;-1.0;
05/03/2025 13:50:28;116;0;335.00;-4;-53.42;-16.50;0.2;20.80;76628;2837.784;-1757.429;0;177;500;506.5;100.0;100.7;0;-0.5;24.6;-1.0;
05/03/2025 13:50:48;116;0;313.38;-4;-49.99;-12.45;0.1;20.80;76627;2837.785;-1757.428;0;177;500;506.5;100.0;100.6;0;-0.5;24.6;-1.0;
05/03/2025 13:51:08;116;0;333.29;-4;-45.65;-15.20;0.3;20.90;76622;2837.786;-1757.427;0;177;500;506.5;100.0;100.7;0;-0.5;24.6;-1.0;
05/03/2025 13:51:28;116;0;322.09;-4;-48.61;-18.26;0.2;20.90;76628;2837.786;-1757.426;0;177;500;506.5;100.0;100.7;0;-0.5;24.6;-1.0;
05/03/2025 13:51:48;116;0;303.02;-4;-56.22;-13.56;0.1;20.90;76630;2837.787;-1757.425;0;177;500;506.5;100.0;100.7;0;-0.5;24.6;-1.0;
05/03/2025 13:52:08;116;0;320.88;-4;-40.65;-8.87;0.2;21.00;76628;2837.787;-1757.424;0;177;500;506.5;100.0;100.7;0;-0.5;24.6;-1.0;
05/03/2025 13:52:28;116;0;311.15;-4;-46.88;-11.23;0.1;21.00;76632;2837.787;-1757.422;0;177;500;506.5;100.0;100.7;0;-0.5;24.6;-1.0;
05/03/2025 13:52:48;116;0;307.06;-4;-47.87;-7.71;0.2;21.10;76646;2837.788;-1757.422;0;183;500;506.5;100.0;100.7;0;-0.5;24.6;-1.0;
05/03/2025 13:52:59;116;0;328.18;-4;-55.58;-24.35;0.1;21.10;76640;2837.788;-1757.421;0;183;500;506.5;100.0;100.7;0;-0.5;24.6;-1.0;
05/03/2025 13:53:19;116;0;325.37;-4;-45.90;-16.93;0.1;21.10;76641;2837.788;-1757.420;0;183;500;506.5;100.0;100.7;0;-0.5;24.6;-1.0;
05/03/2025 13:53:39;116;0;316.77;-4;-52.13;-17.79;0.3;21.20;76647;2837.790;-1757.419;0;183;500;506.5;100.0;100.7;0;-0.5;24.6;-1.0;
05/03/2025 13:53:59;116;0;325.12;-4;-46.46;-16.73;0.2;21.20;76645;2837.790;-1757.418;0;183;500;506.5;100.0;100.7;0;-0.5;24.6;-1.0;
05/03/2025 13:54:19;116;0;315.08;-4;-41.84;-6.31;0.2;21.30;76645;2837.790;-1757.417;0;183;500;506.5;100.0;100.6;0;-0.5;24.6;-1.0;
05/03/2025 13:54:39;116;0;325.40;-4;-44.13;-15.42;0.1;21.30;76650;2837.790;-1757.416;0;183;500;506.5;100.0;100.7;0;-0.5;24.6;-1.0;
05/03/2025 13:54:59;116;0;312.83;-4;-57.81;-10.03;0.2;21.30;76649;2837.790;-1757.415;0;183;500;506.5;100.0;100.7;0;-0.9;24.6;-1.0;
05/03/2025 13:55:19;116;0;305.77;-4;-51.47;-12.33;0.2;21.40;76655;2837.790;-1757.414;0;183;500;504.8;100.0;100.7;0;-0.5;24.6;-1.0;
05/03/2025 13:55:39;116;0;321.70;-4;-58.34;-9.72;0.2;21.40;76662;2837.790;-1757.413;0;183;500;506.5;100.0;100.6;0;-0.5;24.5;-1.0;
05/03/2025 13:55:59;116;0;326.16;-4;-46.93;-6.66;0.2;21.40;76664;2837.791;-1757.413;0;183;500;508.1;100.0;100.7;0;-0.5;24.6;-1.0;
05/03/2025 13:56:19;116;0;321.83;-4;-47.41;-16.40;0.1;21.50;76663;2837.791;-1757.412;0;183;500;506.5;100.0;100.6;0;-0.5;24.6;-1.0;
05/03/2025 13:56:39;116;0;333.21;-4;-48.97;-18.65;0.1;21.50;76663;2837.790;-1757.411;0;183;500;506.5;100.0;100.7;0;-0.5;24.6;-1.0;
05/03/2025 13:56:59;116;0;327.40;-4;-52.99;-9.68;-0.0;21.50;76664;2837.791;-1757.410;0;183;500;504.8;100.0;100.6;0;-0.5;24.6;-1.0;
05/03/2025 13:57:19;116;0;333.07;-4;-54.39;-9.92;0.1;21.50;76664;2837.791;-1757.408;0;183;500;506.5;100.0;100.7;0;-0.5;24.6;-1.0;
05/03/2025 13:57:39;116;0;325.69;-4;-50.70;-13.81;0.2;21.60;76667;2837.791;-1757.407;0;183;500;506.5;100.0;100.7;0;-0.5;24.5;-1.0;
05/03/2025 13:57:59;116;0;318.03;-4;-47.52;-11.50;0.2;21.60;76672;2837.791;-1757.406;0;183;500;506.5;100.0;100.7;0;-0.5;24.6;-1.0;
05/03/2025 13:58:19;116;0;326.43;-4;-50.28;-18.72;0.1;21.60;76671;2837.791;-1757.405;0;183;500;506.5;100.0;100.7;0;-0.5;24.6;-1.0;
05/03/2025 13:58:39;116;0;312.57;-4;-50.04;-8.31;0.3;21.70;76677;2837.791;-1757.404;0;183;500;508.1;100.0;100.7;0;-0.5;24.6;-1.0;
05/03/2025 13:58:59;116;0;321.11;-4;-48.85;-23.56;0.2;21.70;76676;2837.792;-1757.403;0;183;500;506.5;100.0;100.7;0;-0.5;24.6;-1.0;
05/03/2025 13:59:19;116;0;317.11;-4;-41.94;-15.95;0.2;21.70;76683;2837.792;-1757.402;0;183;500;506.5;100.0;100.7;0;-0.5;24.6;-1.0;
05/03/2025 13:59:39;116;0;328.47;-4;-52.36;-3.90;0.3;21.80;76676;2837.793;-1757.400;0;183;500;506.5;100.0;100.6;0;-0.5;24.6;-1.0;
05/03/2025 13:59:59;116;0;326.35;-4;-46.78;-8.89;0.1;21.80;76680;2837.792;-1757.400;0;183;500;504.8;100.0;100.7;0;-0.5;24.6;-1.0;
05/03/2025 14:00:19;116;0;310.76;-4;-45.22;-8.83;0.2;21.80;76682;2837.792;-1757.398;0;183;500;506.5;100.0;100.7;0;-0.5;24.6;-1.0;
05/03/2025 14:00:40;116;0;316.78;-4;-49.06;-7.32;-0.1;21.80;76687;2837.792;-1757.397;0;183;500;506.5;100.0;100.6;0;-0.5;24.5;-1.0;
05/03/2025 14:01:00;116;0;91.02;-4;-51.32;10.11;-0.2;21.90;76694;2837.788;-1757.393;0;183;500;506.5;100.0;100.7;0;-0.5;24.6;-1.0;
05/03/2025 14:01:20;116;0;139.11;-4;-16.63;-97.28;-0.2;21.90;76687;2837.786;-1757.389;0;189;500;506.5;100.0;100.3;0;-3.2;24.6;-1.0;
05/03/2025 14:01:33;116;0;136.59;-4;1.11;-8.49;-0.1;21.90;76682;2837.786;-1757.385;0;189;500;506.5;100.0;99.6;0;-4.5;24.6;-1.0;
05/03/2025 14:01:53;116;0;151.71;-4;-7.28;-11.07;-0.3;21.90;76670;2837.784;-1757.379;0;189;500;504.8;100.0;100.1;0;-4.5;24.6;-1.0;
05/03/2025 14:02:13;116;0;124.18;-4;4.34;-10.76;-0.3;21.90;76659;2837.783;-1757.373;0;189;500;506.5;100.0;100.0;0;-4.1;24.6;-1.0;
05/03/2025 14:02:33;116;0;113.91;-4;4.87;-16.18;-0.3;21.90;76659;2837.780;-1757.368;0;189;500;506.5;100.0;100.0;0;-4.1;24.6;-1.0;
05/03/2025 14:02:53;116;0;130.51;-4;2.19;-11.29;-0.5;21.90;76654;2837.779;-1757.363;0;196;500;506.5;100.0;100.0;0;-4.1;24.6;-1.0;
