Timestamp;NavState;SecurityLevel;Heading;Declination;Pitch;Roll;Depth;Temperature;Pa;Lat;Lon;DeadReckoning;DesiredH;BallastCmd;BallastPos;LinCmd;LinPos;AngCmd;AngPos;Voltage;Altitude;
18/02/2025 15:25:20;119;0;328.20;-4;-39.79;-6.68;0.1;17.40;75736;2836.124;-1759.259;0;154;500;509.7;100.0;100.6;0;-0.9;27.9;-1.0;
18/02/2025 15:25:30;116;0;341.05;-4;-44.76;-20.29;0.2;17.50;75740;2836.123;-1759.259;0;154;500;509.7;100.0;100.6;0;-0.5;27.9;-1.0;
18/02/2025 15:26:02;116;0;354.52;-4;-52.85;1.12;0.1;17.60;75756;2836.123;-1759.256;0;154;500;509.7;100.0;100.6;0;-0.5;27.9;-1.0;
18/02/2025 15:26:21;116;0;344.05;-4;-40.74;-7.41;0.1;17.60;75756;2836.122;-1759.256;0;154;500;509.7;100.0;100.6;0;-0.5;27.9;-1.0;
18/02/2025 15:26:41;116;0;325.79;-4;-35.18;-17.34;0.2;17.70;75768;2836.120;-1759.255;0;154;500;509.7;100.0;100.6;0;-0.5;27.9;-1.0;
18/02/2025 15:27:01;116;0;342.07;-4;-44.05;-15.29;0.0;17.80;75782;2836.120;-1759.254;0;154;500;509.7;100.0;100.6;0;-0.5;27.9;-1.0;
18/02/2025 15:28:03;116;0;323.60;-4;-30.63;-11.12;-0.1;18.00;75803;2836.120;-1759.251;0;154;500;509.7;100.0;100.6;0;-0.5;27.9;-1.0;
18/02/2025 15:30:06;116;0;337.98;-4;-37.02;-17.02;0.0;18.50;75840;2836.114;-1759.247;0;154;500;509.7;100.0;100.7;0;-0.5;27.9;-1.0;
18/02/2025 15:31:35;116;0;349.31;-4;-44.72;-13.26;0.1;18.90;75873;2836.107;-1759.245;0;154;500;509.7;100.0;100.6;0;-0.5;27.9;-1.0;
18/02/2025 15:31:45;116;0;340.58;-4;-38.19;-10.01;-0.1;19.00;75870;2836.105;-1759.244;0;154;500;509.7;100.0;100.6;0;-0.5;27.9;-1.0;
18/02/2025 15:32:06;110;0;322.30;-4;-39.46;-4.46;0.3;19.10;75897;2836.105;-1759.244;0;154;-50;401.6;100.0;100.6;-8;-8.1;27.9;-1.0;
18/02/2025 15:32:16;110;0;330.43;-4;-53.42;-24.38;0.1;19.10;76217;2836.106;-1759.244;1;154;-50;256.5;100.0;100.6;-8;-8.1;27.9;-1.0;
18/02/2025 15:32:26;110;0;343.67;-4;-55.78;-33.64;0.6;19.10;76447;2836.106;-1759.244;1;154;-50;100.0;100.0;100.6;-8;-8.1;27.9;-1.0;
18/02/2025 15:32:36;110;0;348.48;-4;-70.49;-29.27;1.2;19.20;76773;2836.107;-1759.244;1;154;-50;-48.4;100.0;100.7;-8;-8.6;27.9;-1.0;
18/02/2025 15:32:46;110;0;359.23;-4;-67.47;-11.52;1.8;19.20;77077;2836.107;-1759.245;1;154;-50;-48.4;43.1;43.2;-8;-8.1;27.9;-1.0;
18/02/2025 15:33:06;100;0;358.04;-4;-32.22;-13.99;6.0;19.30;77045;2836.111;-1759.245;1;154;-50;-46.8;43.1;42.9;-8;-8.6;27.9;-1.0;
18/02/2025 15:33:26;100;0;359.30;-4;-18.88;-16.77;10.2;19.40;77067;2836.117;-1759.245;1;155;-50;-43.5;43.4;43.9;-70;-69.9;27.9;-1.0;
18/02/2025 15:33:46;100;0;12.06;-4;-19.70;-46.58;13.2;19.40;77064;2836.122;-1759.244;1;155;-50;-41.9;43.4;43.9;-70;-70.4;27.9;0.0;
18/02/2025 15:34:06;100;0;20.11;-4;-21.67;-45.33;15.7;19.50;77072;2836.125;-1759.243;1;155;-50;-41.9;43.4;43.9;-70;-70.4;27.9;0.0;
18/02/2025 15:34:26;100;0;27.40;-4;-23.60;-45.19;18.2;19.50;77078;2836.128;-1759.242;1;155;-50;-41.9;42.4;42.4;-70;-70.4;27.9;0.0;
18/02/2025 15:34:46;100;0;33.55;-4;-19.75;-45.59;20.2;19.60;77084;2836.130;-1759.240;1;155;-70;-69.4;42.4;42.1;-70;-70.4;27.9;0.0;
18/02/2025 15:35:06;100;0;52.49;-4;-16.63;-45.47;22.9;19.60;77161;2836.133;-1759.237;1;155;-70;-71.0;43.4;43.4;-70;-70.4;27.9;0.0;
18/02/2025 15:35:26;100;0;62.92;-4;-17.06;-45.16;25.5;19.70;77168;2836.135;-1759.233;1;155;-70;-71.0;44.3;44.2;-70;-70.4;27.9;0.0;
18/02/2025 15:35:46;100;0;71.09;-4;-19.86;-45.03;28.3;19.70;77159;2836.137;-1759.230;1;156;-70;-69.4;44.3;44.5;-70;-70.4;27.9;0.0;
18/02/2025 15:36:06;100;0;84.54;-4;-19.90;-45.70;31.3;19.70;77164;2836.138;-1759.225;1;156;-70;-71.0;44.3;44.5;-70;-70.4;27.9;0.0;
18/02/2025 15:36:26;100;0;99.03;-4;-19.47;-45.35;34.2;19.70;77166;2836.138;-1759.221;1;156;-70;-71.0;44.3;44.5;-57;-56.9;27.9;0.0;
18/02/2025 15:36:46;100;0;112.76;-4;-19.56;-38.81;37.1;19.70;77177;2836.137;-1759.217;1;156;-70;-71.0;44.3;44.5;-40;-40.2;27.9;0.0;
18/02/2025 15:37:06;100;0;125.71;-4;-20.07;-30.20;40.0;19.70;77180;2836.135;-1759.214;1;156;-70;-71.0;44.3;44.5;-23;-23.0;27.9;0.0;
18/02/2025 15:37:26;100;0;135.86;-4;-20.93;-21.77;43.1;19.70;77177;2836.133;-1759.211;1;156;-70;-71.0;44.3;44.6;-6;-5.9;27.9;0.0;
18/02/2025 15:37:46;100;0;143.72;-4;-22.26;-13.84;46.2;19.70;77170;2836.130;-1759.209;1;156;-70;-71.0;43.6;43.3;6;5.9;27.9;0.0;
18/02/2025 15:38:06;100;0;148.09;-4;-20.76;-8.52;49.4;19.70;77174;2836.127;-1759.207;1;156;-70;-71.0;43.6;43.3;11;10.8;27.9;0.0;
18/02/2025 15:38:26;100;0;149.71;-4;-21.25;-5.71;52.6;19.70;77174;2836.124;-1759.204;1;156;-70;-71.0;43.6;43.3;11;11.3;27.9;0.0;
18/02/2025 15:38:46;100;0;148.29;-4;-20.96;-5.74;55.9;19.70;77177;2836.121;-1759.202;1;156;-70;-71.0;43.6;43.3;11;11.3;27.9;0.0;
18/02/2025 15:39:06;100;0;147.32;-4;-20.52;-5.76;59.2;19.60;77181;2836.118;-1759.200;1;156;-70;-71.0;43.6;43.3;11;11.7;27.9;0.0;
18/02/2025 15:39:26;100;0;148.79;-4;-19.92;-5.78;62.5;19.60;77169;2836.115;-1759.197;1;156;-70;-71.0;43.6;43.3;11;11.7;27.9;0.0;
18/02/2025 15:39:46;100;0;148.99;-4;-20.01;-5.87;65.6;19.60;77167;2836.112;-1759.195;1;157;-70;-71.0;43.6;43.3;11;11.3;27.9;0.0;
18/02/2025 15:40:06;100;0;150.32;-4;-20.55;-5.78;68.5;19.60;77165;2836.110;-1759.193;1;157;-70;-71.0;43.6;43.3;11;11.3;27.9;0.0;
18/02/2025 15:40:26;100;0;148.79;-4;-20.45;-5.80;71.5;19.60;77160;2836.107;-1759.191;1;157;-70;-72.6;43.6;43.3;11;11.3;27.9;0.0;
18/02/2025 15:40:46;100;0;144.48;-4;-21.15;-5.66;74.6;19.60;77168;2836.104;-1759.189;1;157;-70;-71.0;43.6;43.3;6;5.9;27.9;0.0;
18/02/2025 15:41:06;100;0;143.06;-4;-20.20;-8.98;77.8;19.60;77160;2836.102;-1759.186;1;157;-70;-71.0;43.6;43.3;4;4.1;27.9;0.0;
18/02/2025 15:41:26;100;0;144.79;-4;-20.31;-9.79;80.9;19.60;77160;2836.099;-1759.184;1;157;-70;-69.4;43.6;43.3;6;5.9;27.9;0.0;
18/02/2025 15:41:46;100;0;148.95;-4;-19.97;-8.32;84.0;19.60;77169;2836.096;-1759.181;1;157;-70;-71.0;43.6;43.3;10;10.4;27.9;0.0;
18/02/2025 15:42:06;100;0;151.73;-4;-19.87;-6.33;87.1;19.60;77154;2836.093;-1759.179;1;157;-70;-71.0;43.6;43.3;12;12.2;27.9;0.0;
18/02/2025 15:42:26;100;0;150.09;-4;-20.54;-5.15;90.2;19.60;77160;2836.090;-1759.177;1;157;-70;-72.6;43.6;43.3;12;12.6;27.9;0.0;
18/02/2025 15:42:46;100;0;146.38;-4;-20.21;-5.14;93.2;19.50;77158;2836.087;-1759.175;1;157;-70;-71.0;43.6;43.3;8;7.7;27.9;0.0;
18/02/2025 15:43:06;100;0;144.50;-4;-19.69;-7.84;96.0;19.50;77161;2836.085;-1759.173;1;157;-70;-71.0;43.6;43.3;5;4.5;27.9;0.0;
18/02/2025 15:43:26;100;0;144.52;-4;-19.73;-9.54;98.8;19.50;77155;2836.082;-1759.171;1;157;-70;-71.0;43.6;43.3;5;4.1;27.9;0.0;
18/02/2025 15:43:46;100;0;147.83;-4;-19.69;-9.50;101.6;19.50;77153;2836.080;-1759.168;1;157;-70;-69.4;43.6;43.3;9;9.0;27.9;0.0;
18/02/2025 15:44:06;100;0;148.79;-4;-19.96;-6.90;104.5;19.50;77147;2836.077;-1759.166;1;157;-70;-71.0;43.6;43.3;9;9.5;27.9;0.0;
18/02/2025 15:44:26;100;0;146.64;-4;-20.09;-6.88;107.2;19.50;77118;2836.075;-1759.164;1;157;-70;-71.0;43.6;43.3;9;9.5;27.9;0.0;
18/02/2025 15:44:46;100;0;151.49;-4;-19.80;-6.83;109.9;19.50;77101;2836.072;-1759.163;1;157;-70;-71.0;43.6;43.3;11;10.8;27.9;0.0;
18/02/2025 15:45:06;100;0;153.10;-4;-19.74;-5.84;112.6;19.50;77088;2836.069;-1759.161;1;157;-70;-71.0;43.6;43.3;11;11.3;27.9;0.0;
18/02/2025 15:45:26;100;0;155.36;-4;-19.95;-5.78;115.4;19.40;77067;2836.067;-1759.159;1;157;-70;-71.0;43.6;43.3;11;11.3;27.9;0.0;
18/02/2025 15:45:46;100;0;155.05;-4;-20.45;-5.80;118.3;19.40;77057;2836.064;-1759.158;1;157;-70;-71.0;43.6;43.3;11;11.3;27.9;0.0;
18/02/2025 15:46:06;100;0;159.27;-4;-19.66;-5.81;121.1;19.40;77041;2836.061;-1759.156;1;157;-70;-71.0;43.6;43.3;11;11.7;27.9;0.0;
18/02/2025 15:46:26;100;0;161.85;-4;-19.61;-5.84;123.9;19.30;77022;2836.058;-1759.155;1;157;-70;-71.0;43.6;43.3;11;11.3;27.9;0.0;
18/02/2025 15:46:46;100;0;163.28;-4;-19.58;-5.84;126.6;19.30;77015;2836.055;-1759.154;1;157;-70;-69.4;43.6;43.3;13;13.1;27.9;0.0;
18/02/2025 15:47:06;100;0;161.99;-4;-19.65;-4.85;129.3;19.30;76996;2836.052;-1759.153;1;157;-70;-71.0;43.6;43.3;13;13.5;27.9;0.0;
18/02/2025 15:47:26;100;0;160.33;-4;-19.68;-4.85;131.9;19.20;76986;2836.050;-1759.152;1;157;-70;-72.6;43.6;43.3;13;13.5;27.9;0.0;
18/02/2025 15:47:46;100;0;160.37;-4;-19.58;-4.81;134.5;19.20;76993;2836.047;-1759.151;1;157;-70;-69.4;43.6;43.3;13;13.5;27.9;0.0;
18/02/2025 15:48:06;100;0;157.99;-4;-19.72;-4.85;137.1;19.20;76973;2836.044;-1759.150;1;157;-70;-71.0;43.6;43.3;13;13.5;27.9;0.0;
18/02/2025 15:48:26;100;0;154.37;-4;-19.73;-4.79;139.8;19.10;76965;2836.042;-1759.148;1;157;-70;-71.0;43.6;43.3;13;13.5;27.9;0.0;
18/02/2025 15:48:46;100;0;152.18;-4;-19.56;-4.88;142.5;19.10;76955;2836.039;-1759.146;1;157;-70;-71.0;43.6;43.3;11;10.8;27.9;0.0;
18/02/2025 15:49:06;100;0;156.96;-4;-19.37;-6.35;145.1;19.10;76945;2836.037;-1759.145;1;157;-70;-71.0;43.6;43.3;11;10.4;27.9;0.0;
18/02/2025 15:49:26;100;0;156.74;-4;-19.43;-6.37;147.7;19.00;76941;2836.034;-1759.143;1;157;-70;-71.0;43.6;43.3;11;10.4;27.9;0.0;
18/02/2025 15:49:46;100;0;161.14;-4;-19.70;-6.35;150.3;19.00;76926;2836.031;-1759.142;1;157;-70;-72.6;43.6;43.3;11;10.4;27.9;0.0;
18/02/2025 15:50:06;100;0;164.73;-4;-19.21;-6.37;153.0;19.00;76925;2836.028;-1759.141;1;157;-70;-71.0;43.6;43.4;13;13.1;27.9;0.0;
18/02/2025 15:50:26;100;0;163.53;-4;-19.38;-4.94;155.5;19.00;76909;2836.025;-1759.140;1;157;-70;-69.4;43.6;43.3;13;13.5;27.9;0.0;
18/02/2025 15:50:46;100;0;165.53;-4;-19.66;-4.95;158.0;18.90;76902;2836.023;-1759.140;1;157;-70;-71.0;43.6;43.3;13;13.5;27.9;0.0;
18/02/2025 15:51:06;100;0;166.57;-4;-19.65;-4.87;160.7;18.90;76895;2836.020;-1759.139;1;157;-70;-71.0;43.6;43.2;13;13.5;27.9;0.0;
18/02/2025 15:51:26;100;0;167.89;-4;-19.88;-4.87;163.2;18.90;76884;2836.017;-1759.138;1;157;-70;-72.6;43.6;43.3;15;14.9;27.9;0.0;
18/02/2025 15:51:46;100;0;173.54;-4;-19.72;-3.82;165.9;18.80;76876;2836.014;-1759.138;1;157;-70;-71.0;43.6;43.3;22;22.1;27.9;0.0;
18/02/2025 15:52:06;100;0;169.64;-4;-19.76;-0.21;168.5;18.80;76853;2836.012;-1759.137;1;157;-70;-72.6;43.6;43.3;17;16.7;27.9;0.0;
18/02/2025 15:52:26;100;0;164.15;-4;-19.68;-3.32;170.9;18.70;76841;2836.009;-1759.136;1;157;-70;-72.6;43.6;43.4;13;13.1;27.9;0.0;
18/02/2025 15:52:46;100;0;160.87;-4;-19.64;-5.20;173.5;18.70;76848;2836.006;-1759.135;1;157;-70;-72.6;43.6;43.3;13;13.1;27.9;0.0;
18/02/2025 15:53:06;100;0;162.05;-4;-19.23;-5.20;175.9;18.70;76839;2836.004;-1759.134;1;157;-70;-71.0;43.6;43.3;13;12.6;27.9;0.0;
18/02/2025 15:53:26;100;0;163.16;-4;-19.22;-5.24;178.3;18.60;76811;2836.001;-1759.133;1;157;-70;-71.0;43.6;43.3;13;13.1;27.9;0.0;
18/02/2025 15:53:46;100;0;161.77;-4;-19.37;-5.26;180.7;18.60;76802;2835.999;-1759.132;1;157;-70;-72.6;43.6;43.3;13;12.6;27.9;0.0;
18/02/2025 15:54:06;100;0;159.77;-4;-19.44;-5.29;183.1;18.50;76807;2835.996;-1759.131;1;157;-70;-71.0;43.6;43.3;13;12.6;27.9;0.0;
18/02/2025 15:54:26;100;0;158.31;-4;-19.46;-5.22;185.6;18.50;76778;2835.994;-1759.130;1;157;-70;-72.6;43.6;43.3;13;13.1;27.9;0.0;
18/02/2025 15:54:46;100;0;158.42;-4;-19.43;-5.19;188.0;18.50;76777;2835.991;-1759.129;1;157;-70;-72.6;43.6;43.3;13;13.1;27.9;0.0;
18/02/2025 15:55:06;100;0;158.83;-4;-19.54;-5.29;190.6;18.40;76765;2835.988;-1759.128;1;157;-70;-72.6;43.6;43.3;13;12.6;27.9;0.0;
18/02/2025 15:55:26;100;0;161.10;-4;-19.44;-5.23;193.1;18.40;76766;2835.986;-1759.126;1;157;-70;-74.2;43.6;43.3;13;13.1;27.9;0.0;
18/02/2025 15:55:46;100;0;162.37;-4;-19.32;-5.19;195.7;18.40;76755;2835.983;-1759.125;1;157;-70;-71.0;43.6;43.3;13;13.1;27.9;0.0;
18/02/2025 15:56:06;100;0;164.67;-4;-19.37;-5.23;198.2;18.30;76750;2835.980;-1759.124;1;157;-70;-71.0;43.6;43.3;13;13.1;27.9;0.0;
18/02/2025 15:56:26;100;0;161.25;-4;-19.51;-5.22;200.9;18.30;76751;2835.977;-1759.123;1;157;-70;-72.6;43.6;43.3;13;12.6;27.9;0.0;
18/02/2025 15:56:46;100;0;157.33;-4;-19.38;-5.23;203.5;18.20;76720;2835.975;-1759.122;1;157;-70;-71.0;43.6;43.3;13;13.1;27.9;0.0;
18/02/2025 15:57:06;100;0;153.40;-4;-19.47;-5.22;206.2;18.20;76718;2835.972;-1759.120;1;157;-70;-72.6;43.6;43.2;13;12.6;27.9;0.0;
18/02/2025 15:57:26;100;0;149.95;-4;-19.50;-5.19;208.8;18.20;76700;2835.970;-1759.118;1;157;-70;-72.6;43.6;43.3;11;10.8;27.9;0.0;
18/02/2025 15:57:46;100;0;148.06;-4;-19.31;-6.32;211.5;18.10;76688;2835.967;-1759.116;1;157;-70;-71.0;43.6;43.3;9;8.6;27.9;0.0;
18/02/2025 15:58:06;100;0;146.01;-4;-19.29;-7.24;214.2;18.10;76689;2835.964;-1759.114;1;157;-70;-71.0;43.6;43.3;7;7.2;27.9;0.0;
18/02/2025 15:58:26;100;0;145.02;-4;-19.19;-8.13;217.0;18.00;76669;2835.962;-1759.112;1;157;-70;-72.6;43.6;43.3;7;6.8;27.9;0.0;
18/02/2025 15:58:46;100;0;148.42;-4;-18.88;-8.12;219.7;18.00;76663;2835.959;-1759.110;1;157;-70;-71.0;43.9;44.2;10;10.4;27.9;0.0;
18/02/2025 15:59:06;100;0;153.52;-4;-20.13;-6.18;222.5;17.90;76645;2835.956;-1759.108;1;157;-70;-71.0;43.9;44.2;12;12.6;27.9;0.0;
18/02/2025 15:59:26;100;0;155.59;-4;-20.68;-5.12;225.4;17.90;76639;2835.954;-1759.107;1;157;-70;-75.8;43.9;44.3;12;12.6;27.9;0.0;
18/02/2025 15:59:46;100;0;158.35;-4;-20.47;-5.12;228.4;17.90;76634;2835.951;-1759.105;1;157;-70;-72.6;43.9;44.3;12;12.6;27.9;0.0;
18/02/2025 16:00:06;100;0;162.32;-4;-20.62;-5.01;231.3;17.80;76624;2835.948;-1759.104;1;157;-70;-72.6;43.9;44.3;12;12.6;27.9;0.0;
18/02/2025 16:00:26;100;0;164.75;-4;-20.33;-4.93;234.2;17.80;76621;2835.945;-1759.103;1;157;-70;-72.6;43.9;44.3;12;12.6;27.9;0.0;
18/02/2025 16:00:46;100;0;168.12;-4;-20.63;-5.11;237.2;17.70;76619;2835.941;-1759.102;1;157;-70;-72.6;43.9;44.2;16;16.2;27.9;0.0;
18/02/2025 16:01:06;100;0;169.04;-4;-20.54;-3.47;240.1;17.70;76605;2835.938;-1759.102;1;157;-70;-75.8;43.9;44.3;16;16.2;27.9;0.0;
18/02/2025 16:01:26;100;0;170.48;-4;-21.03;-3.28;243.0;17.60;76599;2835.935;-1759.101;1;157;-70;-72.6;43.9;44.3;18;18.1;27.9;0.0;
18/02/2025 16:01:46;100;0;171.54;-4;-20.85;-2.26;246.1;17.60;76589;2835.932;-1759.101;1;157;-70;-72.6;43.9;44.3;18;18.5;27.9;0.0;
18/02/2025 16:02:06;100;0;171.28;-4;-20.80;-2.28;248.8;17.60;76584;2835.929;-1759.100;1;157;-70;-72.6;43.9;44.3;18;18.5;27.9;0.0;
18/02/2025 16:02:26;100;0;169.76;-4;-21.16;-2.29;251.8;17.50;76581;2835.926;-1759.100;1;157;-70;-72.6;43.9;44.3;18;18.5;27.9;0.0;
18/02/2025 16:02:46;100;0;167.26;-4;-20.85;-2.33;254.6;17.50;76580;2835.923;-1759.099;1;157;-70;-72.6;43.9;44.3;15;14.9;27.9;0.0;
18/02/2025 16:03:06;100;0;162.16;-4;-21.08;-4.46;257.4;17.50;76563;2835.920;-1759.098;1;157;-70;-72.6;43.9;44.3;13;13.1;27.9;0.0;
18/02/2025 16:03:26;100;0;159.57;-4;-20.97;-5.16;260.2;17.40;76537;2835.918;-1759.096;1;157;-70;-74.2;43.9;44.3;13;12.6;27.9;0.0;
18/02/2025 16:03:46;100;0;158.11;-4;-20.70;-5.21;263.0;17.40;76528;2835.915;-1759.095;1;157;-70;-72.6;43.9;44.3;13;12.6;27.9;0.0;
18/02/2025 16:04:06;100;0;156.28;-4;-20.66;-5.21;265.7;17.30;76528;2835.912;-1759.094;1;157;-70;-74.2;43.9;44.3;13;12.6;27.9;0.0;
18/02/2025 16:04:26;100;0;153.25;-4;-20.70;-5.26;268.4;17.30;76519;2835.910;-1759.092;1;157;-70;-72.6;43.9;44.3;13;12.6;27.9;0.0;
18/02/2025 16:04:46;100;0;150.11;-4;-20.87;-5.15;271.1;17.20;76505;2835.907;-1759.090;1;157;-70;-71.0;43.9;44.3;11;10.8;27.9;0.0;
18/02/2025 16:05:06;100;0;149.89;-4;-20.60;-6.32;273.9;17.20;76500;2835.905;-1759.089;1;157;-70;-72.6;43.9;44.2;11;10.4;27.9;0.0;
18/02/2025 16:05:26;100;0;149.37;-4;-20.65;-6.27;276.7;17.20;76488;2835.902;-1759.087;1;157;-70;-74.2;43.9;44.3;11;10.4;27.9;0.0;
18/02/2025 16:05:46;100;0;147.82;-4;-20.42;-6.34;279.3;17.10;76473;2835.900;-1759.085;1;157;-70;-75.8;43.9;44.3;9;8.1;27.9;0.0;
18/02/2025 16:06:06;100;0;146.24;-4;-20.54;-6.80;282.0;17.10;76481;2835.898;-1759.083;1;157;-70;-72.6;43.9;44.3;6;5.4;27.9;0.0;
18/02/2025 16:06:26;100;0;145.00;-4;-20.40;-8.99;284.7;17.10;76474;2835.895;-1759.081;1;157;-70;-72.6;43.9;44.3;6;5.0;27.9;0.0;
18/02/2025 16:06:46;100;0;142.07;-4;-20.16;-9.03;287.4;17.00;76464;2835.893;-1759.078;1;157;-70;-72.6;43.9;44.3;2;1.4;27.9;0.0;
18/02/2025 16:07:06;100;0;143.92;-4;-20.05;-10.96;289.9;17.00;76450;2835.891;-1759.076;1;157;-70;-72.6;43.9;44.2;5;5.0;27.9;0.0;
18/02/2025 16:07:27;100;0;147.80;-4;-20.11;-8.83;292.7;16.90;76434;2835.888;-1759.074;1;157;-70;-72.6;43.9;44.3;9;9.0;27.9;0.0;
18/02/2025 16:07:47;100;0;150.41;-4;-20.02;-6.70;295.2;16.90;76433;2835.886;-1759.073;1;157;-70;-72.6;43.9;44.3;9;9.5;27.9;0.0;
18/02/2025 16:08:07;100;0;152.64;-4;-20.11;-6.76;297.6;16.90;76416;2835.884;-1759.071;1;157;-70;-72.6;43.9;44.2;11;11.3;27.9;0.0;
18/02/2025 16:08:27;100;0;154.25;-4;-20.15;-5.65;300.1;16.80;76409;2835.881;-1759.070;1;157;-70;-72.6;43.9;44.3;11;11.7;27.9;0.0;
18/02/2025 16:08:47;100;0;155.13;-4;-20.37;-5.66;302.6;16.80;76406;2835.879;-1759.068;1;157;-70;-72.6;43.9;44.3;11;11.7;27.9;0.0;
18/02/2025 16:09:07;100;0;154.87;-4;-20.15;-5.75;305.1;16.70;76390;2835.877;-1759.067;1;157;-70;-72.6;43.9;44.3;11;11.7;27.9;0.0;
18/02/2025 16:09:27;100;0;154.54;-4;-20.27;-5.71;307.5;16.70;76385;2835.874;-1759.065;1;157;-70;-71.0;43.9;44.3;11;11.7;27.9;0.0;
18/02/2025 16:09:47;100;0;154.53;-4;-20.34;-5.70;310.1;16.60;76376;2835.872;-1759.064;1;157;-70;-72.6;43.9;44.3;11;11.7;27.9;0.0;
18/02/2025 16:10:07;100;0;154.29;-4;-20.21;-5.73;312.6;16.60;76380;2835.869;-1759.062;1;157;-70;-72.6;43.9;44.3;11;11.7;27.9;0.0;
18/02/2025 16:10:27;100;0;154.55;-4;-20.41;-5.73;314.9;16.60;76363;2835.867;-1759.061;1;157;-70;-72.6;43.9;44.2;11;11.7;27.9;0.0;
18/02/2025 16:10:47;100;0;157.52;-4;-20.35;-5.67;317.5;16.50;76351;2835.865;-1759.060;1;157;-70;-72.6;43.9;44.2;11;11.7;27.9;0.0;
18/02/2025 16:11:07;100;0;155.92;-4;-20.29;-5.78;319.9;16.50;76341;2835.862;-1759.058;1;157;-70;-72.6;43.9;44.3;11;11.7;27.9;0.0;
18/02/2025 16:11:27;100;0;155.58;-4;-20.11;-5.75;322.3;16.50;76329;2835.860;-1759.057;1;157;-70;-72.6;43.9;44.3;11;11.7;27.9;0.0;
18/02/2025 16:11:47;100;0;156.23;-4;-20.12;-5.72;324.7;16.40;76330;2835.858;-1759.056;1;157;-70;-72.6;43.9;44.3;11;11.7;27.9;0.0;
18/02/2025 16:12:07;100;0;157.21;-4;-20.21;-5.74;327.1;16.40;76319;2835.855;-1759.055;1;157;-70;-72.6;43.9;44.3;11;11.7;27.9;0.0;
18/02/2025 16:12:27;100;0;158.21;-4;-20.26;-5.70;329.4;16.30;76315;2835.853;-1759.054;1;157;-70;-71.0;43.9;44.3;11;11.7;27.9;0.0;
18/02/2025 16:12:47;100;0;161.75;-4;-20.40;-5.69;331.8;16.30;76309;2835.851;-1759.053;1;157;-70;-71.0;43.9;44.3;11;11.7;27.9;0.0;
18/02/2025 16:13:07;100;0;162.91;-4;-20.47;-5.72;334.2;16.20;76300;2835.848;-1759.052;1;157;-70;-74.2;43.9;44.3;11;11.7;27.9;0.0;
18/02/2025 16:13:27;100;0;162.78;-4;-20.61;-5.63;336.7;16.20;76295;2835.846;-1759.051;1;157;-70;-72.6;43.9;44.3;11;11.7;27.9;0.0;
18/02/2025 16:13:47;100;0;164.71;-4;-20.54;-5.61;339.1;16.20;76292;2835.843;-1759.050;1;157;-70;-72.6;43.9;44.3;13;13.1;27.9;0.0;
18/02/2025 16:14:07;100;0;165.46;-4;-20.51;-4.67;341.6;16.20;76287;2835.841;-1759.049;1;157;-70;-72.6;43.9;44.3;13;13.5;27.9;0.0;
18/02/2025 16:14:27;100;0;164.58;-4;-20.38;-4.67;344.0;16.10;76284;2835.838;-1759.048;1;157;-70;-74.2;43.9;44.3;13;13.5;27.9;0.0;
18/02/2025 16:14:47;100;0;159.98;-4;-20.54;-4.70;346.4;16.10;76267;2835.836;-1759.047;1;157;-70;-75.8;43.9;44.3;13;14.0;27.9;0.0;
18/02/2025 16:15:07;100;0;159.02;-4;-20.75;-4.72;348.7;16.00;76249;2835.834;-1759.046;1;157;-70;-75.8;43.9;44.3;13;14.0;27.9;0.0;
18/02/2025 16:15:27;100;0;158.02;-4;-20.66;-4.62;351.3;16.00;76241;2835.831;-1759.045;1;157;-70;-72.6;43.9;44.3;13;14.0;27.9;0.0;
18/02/2025 16:15:47;100;0;158.14;-4;-20.72;-4.69;353.7;16.00;76242;2835.829;-1759.044;1;157;-70;-72.6;43.9;44.3;13;14.0;27.9;0.0;
18/02/2025 16:16:07;100;0;159.73;-4;-20.31;-4.68;356.2;15.90;76235;2835.826;-1759.043;1;157;-70;-72.6;43.9;44.3;13;13.5;27.9;0.0;
18/02/2025 16:16:27;100;0;159.41;-4;-20.02;-4.68;358.6;15.90;76223;2835.824;-1759.042;1;157;-70;-72.6;43.9;44.3;13;13.5;27.9;0.0;
18/02/2025 16:16:47;100;0;159.62;-4;-20.50;-4.62;361.0;15.90;76209;2835.822;-1759.041;1;157;-70;-74.2;43.9;44.3;13;13.5;27.9;0.0;
18/02/2025 16:17:07;100;0;160.30;-4;-20.39;-4.67;363.4;15.80;76214;2835.819;-1759.040;1;157;-70;-72.6;43.9;44.2;13;13.5;27.9;0.0;
18/02/2025 16:17:27;100;0;160.61;-4;-20.08;-4.71;365.9;15.80;76209;2835.817;-1759.039;1;157;-70;-72.6;43.9;44.5;13;13.5;27.9;0.0;
18/02/2025 16:17:47;100;0;161.45;-4;-20.52;-4.85;368.3;15.80;76211;2835.814;-1759.038;1;157;-70;-72.6;43.9;44.3;13;13.5;27.9;0.0;
18/02/2025 16:18:07;100;0;162.92;-4;-20.25;-4.74;370.7;15.70;76196;2835.812;-1759.037;1;157;-70;-72.6;43.9;44.3;13;13.5;27.9;0.0;
18/02/2025 16:18:27;100;0;161.27;-4;-20.38;-4.70;373.1;15.70;76191;2835.809;-1759.036;1;157;-70;-72.6;43.9;44.3;13;13.5;27.9;0.0;
18/02/2025 16:18:47;100;0;161.85;-4;-20.27;-4.68;375.6;15.60;76182;2835.807;-1759.035;1;157;-70;-72.6;43.9;44.3;13;13.5;27.9;0.0;
18/02/2025 16:19:07;100;0;162.10;-4;-20.27;-4.63;378.2;15.60;76172;2835.804;-1759.034;1;157;-70;-74.2;43.9;44.3;13;13.5;27.9;0.0;
18/02/2025 16:19:27;100;0;164.21;-4;-20.27;-4.90;380.8;15.60;76175;2835.801;-1759.033;1;157;-70;-75.8;43.9;44.3;13;13.5;27.9;0.0;
18/02/2025 16:19:47;100;0;166.66;-4;-20.31;-4.59;383.4;15.50;76157;2835.799;-1759.032;1;157;-70;-72.6;43.9;44.3;13;13.5;27.9;0.0;
18/02/2025 16:20:07;100;0;166.42;-4;-20.25;-4.63;386.1;15.50;76152;2835.796;-1759.031;1;157;-70;-72.6;43.9;44.3;13;13.5;27.9;0.0;
18/02/2025 16:20:27;100;0;168.29;-4;-20.20;-4.62;388.7;15.50;76154;2835.793;-1759.030;1;157;-70;-74.2;43.9;44.3;16;15.8;27.9;0.0;
18/02/2025 16:20:47;100;0;169.22;-4;-20.05;-3.45;391.5;15.40;76144;2835.790;-1759.030;1;157;-70;-74.2;43.9;44.3;16;16.2;27.9;0.0;
18/02/2025 16:21:07;100;0;170.38;-4;-20.69;-3.36;394.2;15.40;76143;2835.787;-1759.029;1;157;-70;-72.6;43.9;44.3;18;18.1;27.9;0.0;
18/02/2025 16:21:27;100;0;168.91;-4;-20.24;-2.23;396.9;15.40;76139;2835.784;-1759.029;1;157;-70;-74.2;43.9;44.3;16;15.3;27.9;0.0;
18/02/2025 16:21:47;100;0;167.65;-4;-20.15;-3.99;399.6;15.30;76127;2835.781;-1759.028;1;157;-70;-74.2;43.9;44.3;16;15.3;27.9;0.0;
18/02/2025 16:22:07;100;0;165.12;-4;-20.10;-4.05;402.2;15.30;76119;2835.779;-1759.027;1;157;-70;-74.2;43.9;44.3;14;14.0;27.9;0.0;
18/02/2025 16:22:27;100;0;162.57;-4;-19.98;-4.77;404.9;15.30;76112;2835.776;-1759.026;1;157;-70;-74.2;43.9;44.5;14;13.5;27.9;0.0;
18/02/2025 16:22:47;100;0;159.69;-4;-20.60;-4.88;407.6;15.20;76102;2835.773;-1759.025;1;157;-70;-72.6;43.9;44.3;14;13.5;27.9;0.0;
18/02/2025 16:23:07;100;0;157.98;-4;-19.93;-4.85;410.3;15.20;76101;2835.770;-1759.024;1;157;-70;-72.6;43.9;44.3;14;13.5;27.9;0.0;
18/02/2025 16:23:27;100;0;155.13;-4;-20.30;-4.83;413.0;15.20;76110;2835.768;-1759.022;1;157;-70;-74.2;43.9;44.3;12;12.2;27.9;0.0;
18/02/2025 16:23:47;100;0;152.78;-4;-20.01;-5.63;415.7;15.20;76095;2835.765;-1759.020;1;157;-70;-72.6;43.9;44.3;12;12.2;27.9;0.0;
18/02/2025 16:24:07;100;0;153.38;-4;-20.12;-5.57;418.4;15.10;76080;2835.763;-1759.019;1;157;-70;-71.0;43.9;44.3;12;12.2;27.9;0.0;
18/02/2025 16:24:27;100;0;153.40;-4;-20.18;-5.61;421.2;15.10;76089;2835.760;-1759.017;1;157;-70;-74.2;43.9;44.3;12;12.2;27.9;0.0;
18/02/2025 16:24:47;100;0;152.95;-4;-20.02;-5.55;424.0;15.10;76075;2835.757;-1759.015;1;157;-70;-72.6;43.9;44.3;12;11.7;27.9;0.0;
18/02/2025 16:25:07;100;0;152.11;-4;-19.87;-5.60;426.6;15.00;76071;2835.755;-1759.014;1;157;-70;-74.2;43.9;44.3;12;12.2;27.9;0.0;
18/02/2025 16:25:27;100;0;150.80;-4;-19.74;-5.61;429.4;15.00;76061;2835.752;-1759.012;1;157;-70;-74.2;43.9;44.3;12;12.2;27.9;0.0;
18/02/2025 16:25:47;100;0;149.80;-4;-19.57;-5.57;432.1;15.00;76067;2835.749;-1759.010;1;157;-70;-72.6;43.9;44.3;12;12.2;27.9;0.0;
18/02/2025 16:26:07;100;0;148.98;-4;-20.10;-5.54;434.6;15.00;76060;2835.747;-1759.008;1;157;-70;-72.6;43.9;44.3;10;9.9;27.9;0.0;
18/02/2025 16:26:27;100;0;149.51;-4;-19.86;-6.13;437.4;14.90;76044;2835.745;-1759.006;1;157;-70;-72.6;43.9;44.3;10;10.8;27.9;0.0;
18/02/2025 16:26:47;100;0;148.76;-4;-19.88;-6.10;440.1;14.90;76052;2835.742;-1759.004;1;157;-70;-74.2;43.9;44.3;10;10.8;27.9;0.0;
18/02/2025 16:27:07;100;0;148.40;-4;-19.96;-6.17;443.0;14.90;76051;2835.739;-1759.002;1;157;-70;-74.2;43.9;44.3;10;10.8;27.9;0.0;
18/02/2025 16:27:27;100;0;149.13;-4;-20.07;-6.01;445.8;14.80;76038;2835.737;-1759.000;1;157;-70;-72.6;43.9;44.3;10;10.8;27.9;0.0;
18/02/2025 16:27:47;100;0;148.98;-4;-20.12;-6.11;448.7;14.80;76037;2835.734;-1758.998;1;157;-70;-74.2;43.9;44.3;10;11.3;27.9;0.0;
18/02/2025 16:28:07;100;0;148.34;-4;-20.09;-6.09;451.5;14.80;76029;2835.731;-1758.996;1;157;-70;-75.8;43.9;44.3;10;10.8;27.9;0.0;
18/02/2025 16:28:27;100;0;150.90;-4;-19.61;-6.10;454.4;14.70;76026;2835.729;-1758.994;1;157;-70;-72.6;43.9;44.3;10;10.8;27.9;0.0;
18/02/2025 16:28:47;100;0;154.84;-4;-19.73;-6.15;457.2;14.70;76011;2835.726;-1758.993;1;157;-70;-72.6;43.9;44.3;12;12.2;27.9;0.0;
18/02/2025 16:29:07;100;0;157.13;-4;-19.89;-5.22;460.0;14.70;76009;2835.723;-1758.991;1;157;-70;-72.6;43.9;44.3;12;12.6;27.9;0.0;
18/02/2025 16:29:27;100;0;157.67;-4;-19.55;-5.36;462.7;14.60;75997;2835.720;-1758.990;1;157;-70;-72.6;43.9;44.3;12;12.6;27.9;0.0;
18/02/2025 16:29:47;100;0;155.45;-4;-19.96;-5.36;465.5;14.60;75994;2835.718;-1758.988;1;157;-70;-74.2;43.9;44.3;12;12.6;27.9;0.0;
18/02/2025 16:30:07;100;0;152.46;-4;-19.91;-5.33;468.3;14.60;75992;2835.715;-1758.986;1;157;-70;-72.6;43.9;44.3;12;12.6;27.9;0.0;
18/02/2025 16:30:27;100;0;149.42;-4;-19.82;-5.36;471.0;14.60;75985;2835.712;-1758.984;1;157;-70;-72.6;43.9;44.3;10;9.9;27.9;0.0;
18/02/2025 16:30:47;100;0;148.12;-4;-19.68;-6.80;473.9;14.60;75972;2835.710;-1758.982;1;157;-70;-72.6;43.9;44.5;10;9.9;27.9;0.0;
18/02/2025 16:31:07;100;0;146.89;-4;-19.96;-6.75;476.7;14.50;75971;2835.707;-1758.980;1;158;-70;-72.6;43.9;44.3;7;7.2;27.9;0.0;
18/02/2025 16:31:27;100;0;150.00;-4;-19.71;-8.06;479.6;14.50;75961;2835.704;-1758.978;1;158;-70;-72.6;43.9;44.3;10;9.9;27.9;0.0;
18/02/2025 16:31:47;100;0;152.32;-4;-19.81;-6.25;482.5;14.50;75958;2835.702;-1758.976;1;158;-70;-74.2;43.9;44.3;10;10.8;27.9;0.0;
18/02/2025 16:32:07;100;0;153.85;-4;-19.75;-6.26;485.3;14.40;75946;2835.699;-1758.975;1;158;-70;-74.2;43.9;44.3;10;10.8;27.9;0.0;
18/02/2025 16:32:27;100;0;155.01;-4;-19.81;-6.25;488.2;14.40;75943;2835.696;-1758.973;1;158;-70;-74.2;43.9;44.3;12;12.2;27.9;0.0;
18/02/2025 16:32:47;100;0;156.01;-4;-19.78;-5.24;491.1;14.40;75945;2835.693;-1758.972;1;158;-70;-74.2;43.9;44.3;12;12.6;27.9;0.0;
18/02/2025 16:33:07;100;0;158.63;-4;-19.69;-5.25;494.0;14.40;75935;2835.690;-1758.970;1;158;-70;-72.6;43.9;44.3;12;12.6;27.9;0.0;
18/02/2025 16:33:27;100;0;159.78;-4;-19.59;-5.29;496.8;14.30;75928;2835.687;-1758.969;1;158;-70;-72.6;43.9;44.3;12;12.6;27.9;0.0;
18/02/2025 16:33:47;100;0;162.06;-4;-19.56;-5.19;499.6;14.30;75927;2835.684;-1758.968;1;158;-70;-74.2;43.9;44.3;12;12.6;27.9;0.0;
18/02/2025 16:34:07;100;0;163.16;-4;-19.67;-5.25;502.4;14.30;75922;2835.681;-1758.967;1;158;-70;-74.2;43.9;44.3;12;12.6;27.9;0.0;
18/02/2025 16:34:27;100;0;161.84;-4;-19.92;-5.23;505.2;14.20;75912;2835.678;-1758.965;1;158;-70;-74.2;43.9;44.3;12;12.6;27.9;0.0;
18/02/2025 16:34:47;100;0;164.67;-4;-20.14;-5.22;508.1;14.20;75917;2835.675;-1758.964;1;158;-70;-74.2;43.9;44.3;12;12.6;27.9;0.0;
18/02/2025 16:35:07;100;0;164.99;-4;-19.43;-5.21;511.1;14.20;75904;2835.672;-1758.963;1;158;-70;-72.6;43.9;44.3;12;12.6;27.9;0.0;
18/02/2025 16:35:27;100;0;162.87;-4;-19.39;-5.40;513.8;14.20;75902;2835.669;-1758.962;1;158;-70;-74.2;43.9;44.3;12;12.6;27.9;0.0;
18/02/2025 16:35:47;100;0;162.51;-4;-20.00;-5.27;516.6;14.10;75895;2835.666;-1758.961;1;158;-70;-74.2;43.9;44.3;12;12.6;27.9;0.0;
18/02/2025 16:36:07;100;0;160.25;-4;-19.22;-5.49;519.4;14.10;75878;2835.663;-1758.960;1;158;-70;-74.2;43.9;44.3;12;12.6;27.9;0.0;
18/02/2025 16:36:27;100;0;157.00;-4;-19.52;-5.32;522.1;14.10;75874;2835.660;-1758.959;1;158;-70;-74.2;43.9;44.5;12;12.6;27.9;0.0;
18/02/2025 16:36:47;100;0;154.62;-4;-19.66;-5.30;525.0;14.10;75880;2835.657;-1758.957;1;158;-70;-72.6;43.9;44.3;12;12.6;27.9;0.0;
18/02/2025 16:37:07;100;0;152.41;-4;-19.56;-5.26;527.8;14.00;75858;2835.655;-1758.955;1;158;-70;-72.6;43.9;44.3;12;12.6;27.9;0.0;
18/02/2025 16:37:27;100;0;152.61;-4;-19.71;-5.24;530.7;14.00;75873;2835.652;-1758.953;1;158;-70;-74.2;43.9;44.3;12;12.6;27.9;0.0;
18/02/2025 16:37:47;100;0;153.24;-4;-19.75;-5.22;533.6;14.00;75870;2835.649;-1758.952;1;158;-70;-74.2;43.9;44.3;12;12.6;27.9;0.0;
18/02/2025 16:38:07;100;0;151.96;-4;-19.46;-5.22;536.4;13.90;75857;2835.646;-1758.950;1;158;-70;-72.6;43.9;44.3;12;12.6;27.9;0.0;
18/02/2025 16:38:27;100;0;150.75;-4;-19.54;-5.26;539.3;13.90;75860;2835.643;-1758.948;1;158;-70;-74.2;43.9;44.3;10;9.9;27.9;0.0;
18/02/2025 16:38:47;100;0;150.76;-4;-19.36;-6.74;542.1;13.90;75857;2835.641;-1758.946;1;158;-70;-72.6;43.9;44.3;10;9.9;27.9;0.0;
18/02/2025 16:39:07;100;0;150.55;-4;-19.37;-6.69;544.9;13.90;75856;2835.638;-1758.944;1;158;-70;-72.6;43.9;44.3;10;9.9;27.9;0.0;
18/02/2025 16:39:27;100;0;149.99;-4;-19.15;-6.73;547.7;13.90;75846;2835.635;-1758.942;1;158;-70;-74.2;43.9;44.3;10;9.9;27.9;0.0;
18/02/2025 16:39:47;100;0;148.68;-4;-19.22;-6.78;550.3;13.80;75836;2835.633;-1758.940;1;158;-70;-72.6;43.9;44.3;8;8.1;27.9;0.0;
18/02/2025 16:40:07;100;0;148.43;-4;-19.15;-7.77;553.0;13.80;75837;2835.630;-1758.938;1;158;-70;-72.6;43.9;44.3;8;7.7;27.9;0.0;
18/02/2025 16:40:27;100;0;150.38;-4;-18.96;-7.74;555.7;13.80;75835;2835.627;-1758.936;1;158;-70;-72.6;44.2;44.2;8;7.7;27.9;0.0;
18/02/2025 16:40:47;100;0;151.57;-4;-18.91;-7.77;558.4;13.70;75818;2835.625;-1758.934;1;158;-70;-74.2;44.6;44.9;10;10.4;27.9;0.0;
18/02/2025 16:41:07;100;0;151.70;-4;-20.26;-6.15;561.0;13.70;75820;2835.622;-1758.932;1;158;-70;-72.6;44.6;44.9;10;10.8;27.9;0.0;
18/02/2025 16:41:27;100;0;151.99;-4;-20.41;-6.11;563.9;13.70;75823;2835.620;-1758.931;1;158;-70;-72.6;44.6;45.1;10;10.8;27.9;0.0;
18/02/2025 16:41:47;100;0;152.34;-4;-20.27;-6.18;566.6;13.70;75816;2835.617;-1758.929;1;158;-70;-74.2;44.6;44.9;10;10.8;27.9;0.0;
18/02/2025 16:42:07;100;0;150.30;-4;-20.75;-6.15;569.5;13.70;75817;2835.614;-1758.927;1;158;-70;-72.6;44.6;44.9;10;10.8;27.9;0.0;
18/02/2025 16:42:27;100;0;148.33;-4;-20.96;-6.01;572.3;13.60;75809;2835.612;-1758.925;1;158;-70;-72.6;44.6;44.9;8;7.7;27.9;0.0;
18/02/2025 16:42:48;100;0;150.26;-4;-20.82;-7.80;575.2;13.60;75800;2835.609;-1758.923;1;159;-70;-72.6;44.6;44.9;8;7.7;27.9;0.0;
18/02/2025 16:43:08;100;0;151.44;-4;-21.00;-7.82;578.0;13.60;75800;2835.607;-1758.921;1;159;-70;-74.2;44.6;45.1;8;7.7;27.9;0.0;
18/02/2025 16:43:28;100;0;153.31;-4;-20.92;-7.69;580.9;13.60;75793;2835.604;-1758.920;1;159;-70;-74.2;44.6;44.9;10;9.9;27.9;0.0;
18/02/2025 16:43:48;100;0;154.61;-4;-21.12;-6.12;583.9;13.50;75786;2835.601;-1758.918;1;159;-70;-74.2;44.6;44.9;10;10.4;27.9;0.0;
18/02/2025 16:44:08;100;0;156.13;-4;-20.97;-6.18;586.8;13.50;75784;2835.598;-1758.916;1;159;-70;-74.2;44.6;44.9;10;10.8;27.9;0.0;
18/02/2025 16:44:28;100;0;157.81;-4;-20.77;-6.23;589.8;13.50;75777;2835.595;-1758.915;1;159;-70;-72.6;44.6;44.9;10;10.4;27.9;0.0;
18/02/2025 16:44:48;100;0;158.94;-4;-20.66;-6.22;592.5;13.50;75772;2835.593;-1758.914;1;159;-70;-72.6;44.6;44.9;10;10.4;27.9;0.0;
18/02/2025 16:45:08;100;0;161.04;-4;-20.62;-6.23;595.4;13.40;75766;2835.590;-1758.913;1;159;-70;-74.2;44.6;44.9;10;10.8;27.9;0.0;
18/02/2025 16:45:28;100;0;163.91;-4;-20.29;-6.35;598.1;13.40;75758;2835.587;-1758.912;1;159;-70;-72.6;44.6;44.9;10;10.8;27.9;0.0;
18/02/2025 16:45:48;100;0;165.44;-4;-20.74;-6.28;600.8;13.40;75762;2835.584;-1758.911;1;159;-70;-75.8;44.6;44.9;12;12.2;27.9;0.0;
18/02/2025 16:46:08;100;0;167.06;-4;-21.06;-5.07;603.6;13.40;75755;2835.581;-1758.910;1;159;-70;-74.2;44.6;44.9;12;13.1;27.9;0.0;
18/02/2025 16:46:28;100;0;169.11;-4;-20.51;-5.03;606.5;13.40;75750;2835.578;-1758.909;1;159;-70;-75.8;44.6;44.9;14;14.0;27.9;0.0;
18/02/2025 16:46:48;100;0;172.16;-4;-20.54;-4.30;609.2;13.30;75755;2835.575;-1758.909;1;158;-70;-72.6;44.6;44.9;18;18.1;27.9;0.0;
18/02/2025 16:47:08;100;0;172.44;-4;-21.29;-2.39;611.9;13.30;75747;2835.573;-1758.909;1;158;-70;-72.6;44.6;44.9;18;18.5;27.9;0.0;
18/02/2025 16:47:28;100;0;171.52;-4;-21.47;-2.32;614.8;13.30;75735;2835.570;-1758.908;1;158;-70;-72.6;44.6;44.9;18;18.5;27.9;0.0;
18/02/2025 16:47:48;100;0;167.97;-4;-21.17;-2.39;617.8;13.30;75736;2835.566;-1758.907;1;158;-70;-74.2;44.6;45.1;14;14.0;27.9;0.0;
18/02/2025 16:48:08;100;0;164.14;-4;-20.77;-4.62;620.5;13.30;75721;2835.564;-1758.906;1;158;-70;-74.2;44.6;44.9;12;12.2;27.9;0.0;
18/02/2025 16:48:28;100;0;159.52;-4;-20.77;-5.46;623.3;13.20;75717;2835.561;-1758.905;1;158;-70;-74.2;44.6;44.9;12;12.2;27.9;0.0;
18/02/2025 16:48:48;100;0;155.31;-4;-20.69;-5.41;626.1;13.20;75702;2835.558;-1758.904;1;158;-70;-72.6;44.6;44.9;12;12.2;27.9;0.0;
18/02/2025 16:49:08;100;0;152.51;-4;-20.62;-5.45;628.8;13.20;75702;2835.556;-1758.902;1;158;-70;-72.6;44.6;44.9;10;9.9;27.9;0.0;
18/02/2025 16:49:28;100;0;151.48;-4;-20.49;-6.74;631.5;13.10;75693;2835.553;-1758.900;1;158;-70;-72.6;44.6;44.9;10;9.5;27.9;0.0;
18/02/2025 16:49:48;100;0;150.49;-4;-20.40;-6.65;634.3;13.10;75689;2835.551;-1758.898;1;158;-70;-72.6;44.6;44.9;10;9.5;27.9;0.0;
18/02/2025 16:50:08;100;0;150.87;-4;-19.92;-6.69;637.0;13.10;75679;2835.548;-1758.897;1;158;-70;-74.2;44.6;45.1;10;9.9;27.9;0.0;
18/02/2025 16:50:28;100;0;149.14;-4;-19.51;-7.44;639.6;13.10;75675;2835.546;-1758.895;1;159;-70;-74.2;44.6;44.9;7;7.2;27.9;0.0;
18/02/2025 16:50:48;100;0;147.83;-4;-21.12;-8.00;642.2;13.00;75673;2835.543;-1758.893;1;159;-70;-74.2;44.6;44.9;7;7.2;27.9;0.0;
18/02/2025 16:51:08;100;0;148.76;-4;-19.95;-8.17;644.8;13.00;75670;2835.541;-1758.891;1;159;-70;-72.6;44.6;44.9;7;7.2;27.9;0.0;
18/02/2025 16:51:28;100;0;150.19;-4;-20.10;-8.03;647.4;13.00;75660;2835.539;-1758.889;1;159;-70;-72.6;44.6;44.9;7;7.2;27.9;0.0;
18/02/2025 16:51:48;100;0;146.76;-4;-20.47;-8.12;650.0;13.00;75660;2835.536;-1758.887;1;159;-70;-74.2;44.6;45.1;5;5.0;27.9;0.0;
18/02/2025 16:52:08;100;0;149.22;-4;-20.15;-9.39;652.6;13.00;75655;2835.534;-1758.886;1;159;-70;-72.6;44.6;44.9;7;7.2;27.9;0.0;
18/02/2025 16:52:28;100;0;153.24;-4;-20.55;-7.88;655.2;12.90;75629;2835.531;-1758.884;1;159;-70;-72.6;44.6;45.1;10;9.9;27.9;0.0;
18/02/2025 16:52:48;100;0;155.68;-4;-20.23;-6.37;657.9;12.90;75631;2835.529;-1758.883;1;159;-70;-72.6;44.6;44.9;10;10.4;27.9;0.0;
18/02/2025 16:53:08;100;0;157.07;-4;-20.48;-6.41;660.6;12.90;75631;2835.526;-1758.881;1;159;-70;-74.2;44.6;45.1;10;10.4;27.9;0.0;
18/02/2025 16:53:28;100;0;159.15;-4;-20.62;-6.35;663.3;12.90;75641;2835.523;-1758.880;1;159;-70;-72.6;44.6;45.1;10;10.4;27.9;0.0;
18/02/2025 16:53:48;100;0;162.14;-4;-20.48;-6.35;666.0;12.80;75624;2835.521;-1758.879;1;159;-70;-74.2;44.6;45.1;10;10.4;27.9;0.0;
18/02/2025 16:54:08;100;0;164.63;-4;-20.31;-6.34;668.7;12.80;75628;2835.518;-1758.878;1;159;-70;-74.2;44.6;44.9;10;10.4;27.9;0.0;
18/02/2025 16:54:28;100;0;168.83;-4;-20.54;-6.31;671.5;12.80;75608;2835.515;-1758.877;1;159;-70;-72.6;44.6;44.9;13;13.1;27.9;0.0;
18/02/2025 16:54:48;100;0;171.86;-4;-20.59;-4.81;674.2;12.80;75610;2835.512;-1758.877;1;159;-70;-72.6;44.6;45.1;16;15.8;27.9;0.0;
18/02/2025 16:55:08;100;0;172.52;-4;-20.34;-3.64;677.0;12.80;75602;2835.509;-1758.877;1;159;-70;-74.2;44.6;44.9;16;15.8;27.9;0.0;
18/02/2025 16:55:28;100;0;176.51;-4;-20.48;-3.67;679.6;12.70;75589;2835.506;-1758.876;1;159;-70;-74.2;44.6;44.9;22;22.1;27.9;0.0;
18/02/2025 16:55:48;100;0;177.91;-4;-20.55;-0.45;682.2;12.70;75580;2835.503;-1758.876;1;158;-70;-74.2;44.6;44.9;26;26.2;27.9;0.0;
18/02/2025 16:56:08;100;0;174.09;-4;-20.67;1.62;684.9;12.70;75565;2835.501;-1758.876;1;158;-70;-72.6;44.6;44.9;20;19.9;27.9;0.0;
18/02/2025 16:56:28;100;0;170.72;-4;-20.50;-1.76;687.4;12.60;75566;2835.498;-1758.876;1;158;-70;-72.6;44.6;44.9;16;15.8;27.9;0.0;
18/02/2025 16:56:48;100;0;169.19;-4;-20.44;-3.87;690.0;12.60;75551;2835.495;-1758.875;1;158;-70;-72.6;44.6;45.1;16;15.8;27.9;0.0;
18/02/2025 16:57:08;100;0;166.45;-4;-20.43;-3.88;692.6;12.60;75539;2835.492;-1758.874;1;158;-70;-74.2;44.6;45.1;13;13.1;27.9;0.0;
18/02/2025 16:57:28;100;0;165.26;-4;-20.37;-4.63;695.2;12.60;75541;2835.490;-1758.873;1;158;-70;-72.6;44.6;45.1;13;14.0;27.9;0.0;
18/02/2025 16:57:48;100;0;165.15;-4;-20.43;-4.68;697.8;12.50;75543;2835.487;-1758.873;1;158;-70;-72.6;44.6;45.1;13;14.0;27.9;0.0;
18/02/2025 16:58:08;100;0;165.01;-4;-20.28;-4.69;700.4;12.50;75541;2835.484;-1758.872;1;158;-70;-72.6;44.6;45.1;13;14.0;27.9;0.0;
18/02/2025 16:58:28;100;0;163.98;-4;-20.08;-4.78;703.1;12.50;75526;2835.481;-1758.871;1;158;-70;-72.6;44.6;44.9;13;14.0;27.9;0.0;
18/02/2025 16:58:48;100;0;165.24;-4;-19.93;-4.75;705.7;12.50;75517;2835.478;-1758.870;1;158;-70;-72.6;44.6;44.9;13;14.0;27.9;0.0;
18/02/2025 16:59:08;100;0;165.84;-4;-20.41;-4.74;708.4;12.40;75505;2835.476;-1758.869;1;158;-70;-72.6;44.6;44.9;13;14.0;27.9;0.0;
18/02/2025 16:59:28;100;0;164.79;-4;-20.73;-4.63;711.1;12.40;75516;2835.473;-1758.868;1;158;-70;-74.2;44.6;44.9;13;14.0;27.9;0.0;
18/02/2025 16:59:48;100;0;161.36;-4;-20.04;-4.55;713.8;12.40;75502;2835.470;-1758.867;1;158;-70;-74.2;44.6;44.9;13;14.0;27.9;0.0;
18/02/2025 17:00:08;100;0;156.98;-4;-20.32;-4.66;716.4;12.40;75498;2835.467;-1758.866;1;158;-70;-74.2;44.6;44.9;13;14.0;27.9;0.0;
18/02/2025 17:00:28;100;0;156.00;-4;-20.02;-4.62;719.0;12.30;75491;2835.465;-1758.864;1;158;-70;-74.2;44.6;44.9;11;10.8;27.9;0.0;
18/02/2025 17:00:48;100;0;154.92;-4;-19.82;-6.37;721.6;12.30;75483;2835.462;-1758.863;1;158;-70;-74.2;44.6;44.9;11;10.8;27.9;0.0;
18/02/2025 17:01:08;100;0;153.42;-4;-20.66;-6.27;724.1;12.30;75472;2835.460;-1758.861;1;158;-70;-72.6;44.6;45.1;11;10.8;27.9;0.0;
18/02/2025 17:01:28;100;0;153.99;-4;-20.83;-6.24;726.8;12.30;75472;2835.458;-1758.860;1;158;-70;-74.2;44.6;44.9;11;10.8;27.9;0.0;
18/02/2025 17:01:48;100;0;155.75;-4;-20.53;-6.32;729.6;12.20;75468;2835.455;-1758.858;1;158;-70;-74.2;44.6;44.9;11;10.8;27.9;0.0;
18/02/2025 17:02:08;100;0;154.86;-4;-20.65;-6.24;732.3;12.20;75453;2835.452;-1758.857;1;158;-70;-74.2;44.6;44.9;11;10.8;27.9;0.0;
18/02/2025 17:02:28;100;0;154.36;-4;-20.18;-6.03;734.9;12.20;75457;2835.450;-1758.855;1;158;-70;-74.2;44.6;44.9;11;10.8;27.9;0.0;
18/02/2025 17:02:48;100;0;154.93;-4;-20.28;-6.16;737.5;12.20;75450;2835.447;-1758.854;1;158;-70;-74.2;44.6;44.9;11;10.8;27.9;0.0;
18/02/2025 17:03:08;100;0;156.68;-4;-20.38;-6.17;740.1;12.10;75442;2835.445;-1758.853;1;158;-70;-72.6;44.6;44.9;11;10.8;27.9;0.0;
18/02/2025 17:03:28;100;0;156.39;-4;-20.48;-6.16;742.7;12.10;75440;2835.442;-1758.851;1;158;-70;-74.2;44.6;44.9;11;10.8;27.9;0.0;
18/02/2025 17:03:48;100;0;157.31;-4;-20.23;-6.20;745.2;12.10;75442;2835.440;-1758.850;1;158;-70;-72.6;44.6;44.9;11;10.8;27.9;0.0;
18/02/2025 17:04:08;100;0;157.12;-4;-20.27;-6.17;747.8;12.10;75433;2835.437;-1758.848;1;158;-70;-74.2;44.6;44.9;11;10.8;27.9;0.0;
18/02/2025 17:04:28;100;0;156.14;-4;-20.12;-6.18;750.4;12.00;75440;2835.435;-1758.847;1;158;-70;-74.2;44.6;44.9;11;10.8;27.9;0.0;
18/02/2025 17:04:48;100;0;154.44;-4;-20.04;-6.20;752.9;12.00;75429;2835.432;-1758.846;1;158;-70;-72.6;44.6;44.9;11;10.8;27.9;0.0;
18/02/2025 17:05:08;100;0;153.12;-4;-20.11;-6.19;755.4;12.00;75432;2835.430;-1758.844;1;158;-70;-74.2;44.6;44.9;11;10.8;27.9;0.0;
18/02/2025 17:05:28;100;0;152.84;-4;-20.11;-6.27;758.0;12.00;75426;2835.427;-1758.843;1;158;-70;-74.2;44.6;44.9;11;10.8;27.9;0.0;
18/02/2025 17:05:48;100;0;154.46;-4;-20.01;-6.23;760.5;11.90;75411;2835.425;-1758.841;1;158;-70;-72.6;44.6;45.1;11;10.8;27.9;0.0;
18/02/2025 17:06:08;100;0;156.75;-4;-19.69;-6.18;763.0;11.90;75407;2835.422;-1758.840;1;158;-70;-72.6;44.6;44.9;11;10.8;27.9;0.0;
18/02/2025 17:06:28;100;0;160.33;-4;-19.72;-6.25;765.6;11.90;75407;2835.420;-1758.839;1;158;-70;-75.8;44.6;44.9;11;10.8;27.9;0.0;
18/02/2025 17:06:48;100;0;163.78;-4;-19.83;-6.21;768.0;11.90;75403;2835.417;-1758.838;1;158;-70;-72.6;44.6;44.9;11;10.8;27.9;0.0;
18/02/2025 17:07:08;100;0;166.28;-4;-19.86;-6.24;770.5;11.90;75401;2835.415;-1758.837;1;158;-70;-74.2;44.6;44.9;13;13.1;27.9;0.0;
18/02/2025 17:07:28;100;0;169.21;-4;-21.00;-4.81;773.1;11.80;75408;2835.412;-1758.836;1;158;-70;-72.6;44.6;44.9;15;14.9;27.9;0.0;
18/02/2025 17:07:48;100;0;173.20;-4;-20.08;-4.05;775.8;11.80;75403;2835.409;-1758.836;1;158;-70;-72.6;44.6;44.9;19;19.0;27.9;0.0;
18/02/2025 17:08:08;100;0;172.09;-4;-20.68;-2.09;778.5;11.80;75384;2835.406;-1758.836;1;158;-70;-72.6;44.6;45.1;19;19.4;27.9;0.0;
18/02/2025 17:08:28;100;0;174.55;-4;-20.48;-1.95;781.3;11.80;75382;2835.403;-1758.835;1;158;-70;-74.2;44.6;44.9;21;21.7;27.9;0.0;
18/02/2025 17:08:48;100;0;174.06;-4;-20.54;-0.45;784.1;11.80;75382;2835.400;-1758.835;1;158;-70;-75.8;44.6;44.9;21;22.1;27.9;0.0;
18/02/2025 17:09:08;100;0;172.65;-4;-20.54;-0.48;787.0;11.70;75384;2835.397;-1758.835;1;157;-70;-74.2;44.6;44.9;19;18.1;27.9;0.0;
18/02/2025 17:09:28;100;0;172.30;-4;-20.67;-1.68;789.8;11.70;75388;2835.394;-1758.834;1;157;-70;-72.6;44.6;44.9;19;19.9;27.9;0.0;
18/02/2025 17:09:48;100;0;173.18;-4;-20.29;-1.64;792.7;11.70;75378;2835.391;-1758.834;1;157;-70;-72.6;44.6;44.9;21;21.7;27.9;0.0;
18/02/2025 17:10:08;100;0;171.89;-4;-20.39;-0.69;795.8;11.70;75368;2835.387;-1758.833;1;157;-70;-75.8;44.6;44.9;19;17.6;27.9;0.0;
18/02/2025 17:10:28;100;0;169.18;-4;-20.27;-1.56;798.6;11.70;75377;2835.384;-1758.833;1;157;-70;-74.2;44.6;44.9;16;15.8;27.9;0.0;
18/02/2025 17:10:48;100;0;167.58;-4;-20.48;-3.98;801.6;11.60;75368;2835.381;-1758.832;1;157;-70;-72.6;44.6;45.1;14;14.0;27.9;0.0;
18/02/2025 17:11:08;100;0;168.54;-4;-20.26;-4.66;804.5;11.60;75355;2835.378;-1758.831;1;157;-70;-72.6;44.6;44.9;14;14.0;27.9;0.0;
18/02/2025 17:11:28;100;0;168.00;-4;-20.08;-4.70;807.5;11.60;75360;2835.375;-1758.831;1;156;-70;-72.6;44.6;44.9;16;16.2;27.9;0.0;
18/02/2025 17:11:48;100;0;167.16;-4;-20.20;-3.45;810.4;11.60;75363;2835.371;-1758.830;1;156;-70;-74.2;44.6;44.9;16;16.2;27.9;0.0;
18/02/2025 17:12:08;100;0;166.16;-4;-19.80;-3.58;813.2;11.50;75352;2835.368;-1758.829;1;156;-70;-72.6;44.6;45.1;14;14.0;27.9;0.0;
18/02/2025 17:12:28;100;0;167.56;-4;-19.97;-5.01;816.0;11.50;75360;2835.365;-1758.828;1;156;-70;-72.6;44.6;44.9;16;15.8;27.9;0.0;
18/02/2025 17:12:48;100;0;167.88;-4;-19.78;-3.64;818.7;11.50;75345;2835.362;-1758.827;1;156;-70;-74.2;44.6;45.1;16;15.8;27.9;0.0;
18/02/2025 17:13:08;100;0;165.24;-4;-19.85;-3.68;821.2;11.50;75336;2835.360;-1758.827;1;156;-70;-72.6;44.6;45.1;13;12.6;27.9;0.0;
18/02/2025 17:13:28;100;0;164.86;-4;-19.83;-4.93;823.8;11.50;75339;2835.357;-1758.826;1;156;-70;-72.6;44.6;45.1;13;13.5;27.9;0.0;
18/02/2025 17:13:48;100;0;166.04;-4;-19.71;-4.99;826.5;11.40;75329;2835.354;-1758.825;1;156;-70;-72.6;44.6;44.9;13;13.5;27.9;0.0;
18/02/2025 17:14:08;100;0;166.71;-4;-19.57;-5.13;829.1;11.40;75324;2835.352;-1758.824;1;155;-70;-72.6;44.6;44.9;15;14.9;27.9;0.0;
18/02/2025 17:14:28;100;0;166.54;-4;-19.76;-4.05;831.6;11.40;75323;2835.349;-1758.823;1;155;-70;-72.6;44.6;45.1;15;15.3;27.9;0.0;
18/02/2025 17:14:48;100;0;167.03;-4;-19.83;-4.03;834.2;11.40;75322;2835.346;-1758.823;1;155;-70;-72.6;44.6;45.1;15;15.3;27.9;0.0;
18/02/2025 17:15:08;100;0;166.74;-4;-19.89;-3.99;836.8;11.40;75322;2835.343;-1758.822;1;155;-70;-74.2;44.6;44.9;15;15.3;27.9;0.0;
18/02/2025 17:15:28;100;0;166.74;-4;-19.86;-3.92;839.2;11.30;75317;2835.341;-1758.821;1;155;-70;-74.2;44.6;44.9;15;15.3;27.9;0.0;
18/02/2025 17:15:48;100;0;168.32;-4;-19.55;-4.08;841.6;11.30;75307;2835.338;-1758.821;1;155;-70;-72.6;44.6;44.9;17;17.1;27.9;0.0;
18/02/2025 17:16:08;100;0;168.27;-4;-19.72;-2.89;844.1;11.30;75305;2835.336;-1758.820;1;155;-70;-72.6;44.6;44.9;17;17.6;27.9;0.0;
18/02/2025 17:16:28;100;0;166.10;-4;-20.00;-2.94;846.3;11.30;75295;2835.333;-1758.819;1;155;-70;-74.2;44.6;45.1;15;14.9;27.9;0.0;
18/02/2025 17:16:48;100;0;164.76;-4;-19.70;-4.27;848.7;11.30;75291;2835.331;-1758.819;1;154;-70;-74.2;44.6;44.9;15;14.9;27.9;0.0;
18/02/2025 17:17:08;100;0;165.56;-4;-20.33;-4.23;851.2;11.20;75297;2835.328;-1758.818;1;154;-70;-72.6;44.6;45.1;15;14.9;27.9;0.0;
18/02/2025 17:17:28;100;0;162.73;-4;-19.10;-4.12;853.5;11.20;75287;2835.326;-1758.817;1;154;-70;-72.6;44.6;44.9;13;11.3;27.9;0.0;
18/02/2025 17:17:48;100;0;160.83;-4;-19.83;-5.06;855.9;11.20;75280;2835.323;-1758.816;1;154;-70;-72.6;44.6;44.9;13;13.5;27.9;0.0;
18/02/2025 17:18:08;100;0;158.74;-4;-19.55;-5.01;858.3;11.20;75270;2835.321;-1758.815;1;154;-70;-74.2;44.6;44.9;13;13.5;27.9;0.0;
18/02/2025 17:18:29;100;0;157.89;-4;-19.56;-4.91;860.6;11.20;75266;2835.319;-1758.814;1;154;-70;-74.2;44.6;45.1;13;13.5;27.9;0.0;
18/02/2025 17:18:49;100;0;156.66;-4;-19.62;-5.01;862.8;11.10;75258;2835.317;-1758.812;1;154;-70;-72.6;44.6;45.1;13;13.5;27.9;0.0;
18/02/2025 17:19:09;100;0;156.64;-4;-19.85;-4.98;865.1;11.10;75262;2835.314;-1758.811;1;154;-70;-74.2;44.6;44.9;13;13.5;27.9;0.0;
18/02/2025 17:19:29;100;0;155.40;-4;-19.83;-4.99;867.4;11.10;75266;2835.312;-1758.810;1;154;-70;-72.6;44.6;44.9;13;13.5;27.9;0.0;
18/02/2025 17:19:49;100;0;155.20;-4;-19.68;-4.98;869.6;11.10;75258;2835.310;-1758.809;1;154;-70;-72.6;44.6;44.9;13;13.5;27.9;0.0;
18/02/2025 17:20:09;100;0;155.27;-4;-19.97;-4.89;871.9;11.10;75252;2835.308;-1758.808;1;154;-70;-72.6;44.6;44.9;13;13.5;27.9;0.0;
18/02/2025 17:20:29;100;0;154.78;-4;-19.62;-5.01;874.1;11.10;75249;2835.306;-1758.806;1;154;-70;-72.6;44.6;44.9;13;13.5;27.9;0.0;
18/02/2025 17:20:49;100;0;155.33;-4;-19.58;-5.04;876.4;11.00;75248;2835.304;-1758.805;1;154;-70;-72.6;44.6;44.9;13;13.5;27.9;0.0;
18/02/2025 17:21:09;100;0;156.25;-4;-19.41;-5.01;878.6;11.00;75243;2835.301;-1758.804;1;154;-70;-72.6;44.6;44.9;13;13.5;27.9;0.0;
18/02/2025 17:21:29;100;0;157.09;-4;-19.53;-5.03;880.8;11.00;75239;2835.299;-1758.803;1;154;-70;-74.2;44.6;44.9;13;13.5;27.9;0.0;
18/02/2025 17:21:49;100;0;158.28;-4;-19.50;-5.02;883.1;11.00;75237;2835.297;-1758.801;1;154;-70;-72.6;44.6;44.9;13;13.5;27.9;0.0;
18/02/2025 17:22:09;100;0;159.34;-4;-19.51;-5.11;885.3;11.00;75237;2835.295;-1758.800;1;154;-70;-72.6;44.6;45.1;13;13.5;27.9;0.0;
18/02/2025 17:22:29;100;0;156.98;-4;-19.51;-5.01;887.6;10.90;75225;2835.292;-1758.799;1;154;-70;-72.6;44.6;44.9;13;13.5;27.9;0.0;
18/02/2025 17:22:49;100;0;155.37;-4;-19.77;-4.99;889.9;11.00;75217;2835.290;-1758.798;1;154;-70;-74.2;44.6;44.9;13;13.5;27.9;0.0;
18/02/2025 17:23:09;100;0;154.02;-4;-19.24;-5.03;892.0;10.90;75217;2835.288;-1758.797;1;154;-70;-74.2;44.6;45.1;13;13.5;27.9;0.0;
18/02/2025 17:23:29;100;0;153.82;-4;-19.25;-5.08;894.3;10.90;75204;2835.286;-1758.795;1;154;-70;-74.2;44.6;44.9;13;13.5;27.9;0.0;
18/02/2025 17:23:49;100;0;156.62;-4;-19.34;-5.07;896.4;10.90;75213;2835.284;-1758.794;1;154;-70;-72.6;44.6;45.1;13;13.5;27.9;0.0;
18/02/2025 17:24:09;100;0;157.50;-4;-19.24;-5.09;898.4;10.90;75202;2835.282;-1758.793;1;154;-70;-72.6;44.6;45.1;13;13.5;27.9;0.0;
18/02/2025 17:24:29;100;0;157.90;-4;-19.26;-5.06;900.5;10.80;75201;2835.280;-1758.792;1;154;-70;-74.2;44.6;44.9;13;13.5;27.9;0.0;
18/02/2025 17:24:49;100;0;157.49;-4;-19.47;-5.07;902.6;10.80;75185;2835.278;-1758.791;1;154;-70;-72.6;44.6;44.9;13;13.5;27.9;0.0;
18/02/2025 17:25:09;100;0;156.91;-4;-19.54;-5.03;904.6;10.80;75196;2835.276;-1758.790;1;154;-90;-95.2;44.6;44.9;13;13.5;27.9;0.0;
18/02/2025 17:25:29;100;0;156.99;-4;-18.85;-4.91;906.7;10.80;75240;2835.274;-1758.789;1;154;-90;-93.5;44.9;44.9;13;13.5;27.9;0.0;
18/02/2025 17:25:49;100;0;156.97;-4;-18.92;-4.93;908.9;10.80;75243;2835.272;-1758.788;1;154;-90;-96.8;45.2;45.4;13;13.5;27.9;0.0;
18/02/2025 17:26:09;100;0;156.87;-4;-19.89;-4.93;911.1;10.70;75242;2835.269;-1758.787;1;154;-90;-96.8;45.2;45.5;13;13.5;27.9;0.0;
18/02/2025 17:26:29;100;0;154.87;-4;-19.98;-4.85;913.2;10.70;75231;2835.267;-1758.785;1;154;-90;-98.4;45.2;45.5;13;13.5;27.9;0.0;
18/02/2025 17:26:49;100;0;154.13;-4;-20.23;-4.91;915.3;10.70;75231;2835.266;-1758.784;1;154;-90;-98.4;45.2;45.5;13;13.5;27.9;0.0;
18/02/2025 17:27:09;100;0;153.94;-4;-20.30;-4.88;917.3;10.70;75233;2835.264;-1758.783;1;154;-90;-98.4;45.2;45.5;13;13.5;27.9;0.0;
18/02/2025 17:27:29;100;0;153.34;-4;-20.39;-4.93;919.5;10.70;75234;2835.262;-1758.782;1;154;-90;-98.4;45.2;45.5;13;13.5;27.9;0.0;
18/02/2025 17:27:49;100;0;153.11;-4;-20.51;-4.89;921.6;10.70;75219;2835.260;-1758.781;1;154;-90;-98.4;45.2;45.5;13;13.5;27.9;0.0;
18/02/2025 17:28:09;100;0;153.20;-4;-20.24;-4.88;923.6;10.60;75218;2835.258;-1758.779;1;154;-90;-100.0;45.2;45.5;13;13.5;27.9;0.0;
18/02/2025 17:28:29;100;0;152.83;-4;-20.49;-4.93;925.6;10.60;75223;2835.256;-1758.778;1;154;-90;-96.8;45.2;45.5;13;13.5;27.9;0.0;
18/02/2025 17:28:49;100;0;151.67;-4;-20.80;-4.85;927.7;10.60;75214;2835.254;-1758.777;1;155;-90;-98.4;45.2;45.5;13;13.5;27.9;0.0;
18/02/2025 17:29:09;100;0;151.11;-4;-20.26;-4.80;929.7;10.60;75203;2835.253;-1758.776;1;155;-90;-100.0;45.2;45.5;13;13.5;27.9;0.0;
18/02/2025 17:29:29;100;0;153.67;-4;-20.95;-4.92;931.9;10.60;75207;2835.251;-1758.774;1;155;-90;-98.4;45.2;45.5;13;13.5;27.9;0.0;
18/02/2025 17:29:49;100;0;155.41;-4;-20.15;-4.82;934.1;10.60;75212;2835.249;-1758.773;1;155;-90;-98.4;45.2;45.5;13;13.5;27.9;0.0;
18/02/2025 17:30:09;100;0;156.23;-4;-20.01;-4.97;936.3;10.50;75208;2835.246;-1758.772;1;155;-90;-98.4;45.2;45.5;13;13.5;27.9;0.0;
18/02/2025 17:30:29;100;0;156.36;-4;-21.00;-4.80;938.6;10.50;75209;2835.244;-1758.771;1;155;-90;-98.4;45.2;45.5;13;13.5;27.9;0.0;
18/02/2025 17:30:49;100;0;157.75;-4;-20.81;-4.91;941.1;10.50;75194;2835.242;-1758.770;1;155;-90;-100.0;45.2;45.5;13;13.5;27.9;0.0;
18/02/2025 17:31:09;100;0;155.75;-4;-20.88;-4.95;944.0;10.50;75205;2835.239;-1758.768;1;155;-90;-101.6;45.2;45.5;13;13.5;27.9;0.0;
18/02/2025 17:31:29;100;0;156.05;-4;-19.75;-4.82;946.9;10.50;75195;2835.236;-1758.766;1;155;-90;-98.4;45.2;45.7;13;13.5;27.9;0.0;
18/02/2025 17:31:49;100;0;159.28;-4;-21.34;-4.81;949.7;10.50;75185;2835.234;-1758.765;1;155;-90;-98.4;45.2;45.8;13;13.5;27.9;0.0;
18/02/2025 17:32:09;100;0;160.51;-4;-18.73;-4.80;952.7;10.50;75188;2835.230;-1758.764;1;155;-90;-98.4;45.6;45.7;13;13.5;27.9;0.0;
18/02/2025 17:32:29;100;0;162.23;-4;-21.49;-4.88;955.7;10.40;75192;2835.227;-1758.763;1;154;-90;-98.4;45.6;45.8;13;13.5;27.9;0.0;
18/02/2025 17:32:49;100;0;162.29;-4;-20.23;-4.79;959.0;10.40;75192;2835.224;-1758.761;1;154;-90;-98.4;45.6;45.7;13;13.5;27.9;0.0;
18/02/2025 17:33:09;100;0;166.69;-4;-21.54;-4.89;961.9;10.40;75189;2835.221;-1758.760;1;154;-90;-98.4;45.6;45.8;16;15.8;27.9;0.0;
18/02/2025 17:33:29;100;0;168.77;-4;-21.49;-3.62;965.1;10.40;75186;2835.217;-1758.760;1;153;-90;-98.4;45.6;45.8;20;19.9;27.9;0.0;
18/02/2025 17:33:49;100;0;165.86;-4;-19.30;-0.92;968.0;10.40;75185;2835.214;-1758.759;1;153;-90;-98.4;45.6;45.8;16;15.8;27.9;0.0;
18/02/2025 17:34:09;100;0;165.96;-4;-21.37;-3.25;970.6;10.40;75190;2835.211;-1758.758;1;153;-90;-98.4;45.6;45.8;16;15.8;27.9;0.0;
18/02/2025 17:34:29;100;0;164.70;-4;-20.78;-4.23;973.3;10.30;75183;2835.209;-1758.757;1;152;-90;-100.0;45.6;45.8;16;15.8;27.9;0.0;
18/02/2025 17:34:49;100;0;168.20;-4;-20.42;-3.72;975.6;10.30;75175;2835.206;-1758.757;1;152;-90;-100.0;45.6;45.8;20;19.9;27.9;0.0;
18/02/2025 17:35:09;100;0;166.45;-4;-20.26;-0.77;978.0;10.30;75182;2835.204;-1758.756;1;151;-90;-98.4;45.6;45.8;18;18.1;27.9;0.0;
18/02/2025 17:35:29;100;0;168.68;-4;-21.59;-2.68;980.6;10.30;75180;2835.201;-1758.755;1;151;-90;-101.6;45.6;45.8;21;21.2;27.9;0.0;
18/02/2025 17:35:49;100;0;163.97;-4;-21.94;-0.89;983.3;10.30;75176;2835.199;-1758.754;1;151;-90;-98.4;45.6;45.8;17;17.1;27.9;0.0;
18/02/2025 17:36:09;100;0;163.36;-4;-22.44;-2.80;986.1;10.30;75170;2835.196;-1758.753;1;150;-90;-98.4;44.9;44.9;17;17.1;27.9;0.0;
18/02/2025 17:36:29;100;0;161.72;-4;-19.18;-3.56;989.0;10.30;75178;2835.193;-1758.752;1;150;-90;-96.8;44.9;44.8;17;17.1;27.9;0.0;
18/02/2025 17:36:49;100;0;162.36;-4;-19.54;-3.39;991.7;10.20;75169;2835.190;-1758.751;1;149;-90;-98.4;44.9;44.8;17;17.1;27.9;0.0;
18/02/2025 17:37:09;100;0;161.01;-4;-19.44;-3.19;994.6;10.20;75178;2835.187;-1758.750;1;149;-90;-98.4;44.9;44.8;17;17.1;27.9;0.0;
18/02/2025 17:37:29;100;0;162.17;-4;-18.63;-3.17;997.2;10.20;75178;2835.184;-1758.749;1;148;-90;-100.0;45.3;45.2;17;17.1;27.9;0.0;
18/02/2025 17:37:42;118;0;162.08;-4;-20.26;-3.29;998.8;10.20;75164;2835.182;-1758.748;1;148;270;-95.2;23.0;23.0;8;8.1;27.9;0.0;
18/02/2025 17:37:52;118;0;120.40;-4;-5.87;-8.72;999.8;10.20;75152;2835.182;-1758.747;1;149;270;32.3;23.0;22.7;8;8.1;26.8;-1.0;
18/02/2025 17:38:02;118;0;105.94;-4;19.96;-8.16;999.9;10.20;74887;2835.182;-1758.747;1;149;270;156.5;23.0;23.0;8;7.7;26.6;-1.0;
18/02/2025 17:38:12;118;0;100.68;-4;28.34;-8.67;999.1;10.20;74627;2835.182;-1758.746;1;149;270;271.0;23.0;23.1;8;8.1;26.3;-1.0;
18/02/2025 17:38:22;118;0;162.60;-4;27.72;-7.45;997.7;10.20;74420;2835.181;-1758.745;1;149;270;271.0;23.0;23.1;8;8.1;27.8;-1.0;
18/02/2025 17:38:32;118;0;159.78;-4;26.90;-8.13;996.2;10.20;74421;2835.180;-1758.745;1;149;270;272.6;23.0;23.1;8;8.1;27.9;-1.0;
18/02/2025 17:38:52;117;0;154.27;-4;25.89;-8.16;992.9;10.20;74415;2835.177;-1758.743;1;149;270;272.6;23.0;23.1;8;8.1;27.9;-1.0;
18/02/2025 17:39:12;117;0;148.44;-4;25.78;-8.12;989.1;10.30;74415;2835.174;-1758.741;1;149;270;272.6;24.8;25.0;28;28.0;27.9;-1.0;
18/02/2025 17:39:32;117;0;147.94;-4;23.00;2.70;985.8;10.30;74422;2835.172;-1758.739;1;149;270;272.6;25.7;25.6;28;28.4;27.9;-1.0;
18/02/2025 17:39:52;117;0;149.65;-4;23.10;2.78;982.4;10.30;74414;2835.169;-1758.737;1;149;270;271.0;26.6;26.8;28;28.4;27.9;-1.0;
18/02/2025 17:40:12;117;0;148.01;-4;19.16;2.83;979.3;10.30;74411;2835.166;-1758.735;1;150;270;272.6;26.6;27.0;28;28.4;27.9;-1.0;
18/02/2025 17:40:32;117;0;145.23;-4;19.81;2.92;976.8;10.30;74409;2835.164;-1758.733;1;150;270;272.6;26.6;27.0;30;29.8;27.9;-1.0;
18/02/2025 17:40:52;117;0;144.94;-4;19.10;3.51;974.2;10.30;74407;2835.161;-1758.730;1;151;270;272.6;26.6;27.0;30;30.2;27.9;-1.0;
18/02/2025 17:41:12;117;0;144.47;-4;19.67;3.64;971.9;10.30;74401;2835.159;-1758.729;1;151;270;272.6;26.6;27.0;30;30.2;27.9;-1.0;
18/02/2025 17:41:32;117;0;144.40;-4;18.72;3.73;969.6;10.30;74402;2835.157;-1758.727;1;152;270;272.6;26.2;26.2;30;30.2;27.9;-1.0;
18/02/2025 17:41:52;117;0;144.07;-4;20.02;3.61;967.4;10.20;74391;2835.156;-1758.725;1;153;270;271.0;26.2;25.8;33;32.9;27.9;-1.0;
18/02/2025 17:42:12;117;0;144.60;-4;20.92;5.14;965.2;10.20;74389;2835.154;-1758.723;1;153;270;272.6;26.2;25.6;33;33.4;27.9;-1.0;
18/02/2025 17:42:32;117;0;145.09;-4;22.64;5.03;962.8;10.20;74392;2835.152;-1758.722;1;154;270;272.6;27.0;27.0;33;33.4;27.9;-1.0;
18/02/2025 17:42:52;117;0;151.56;-4;20.28;5.21;960.0;10.20;74385;2835.149;-1758.720;1;155;270;272.6;27.0;27.1;29;28.9;27.9;-1.0;
18/02/2025 17:43:12;117;0;148.08;-4;17.63;2.91;957.7;10.20;74391;2835.147;-1758.718;1;156;270;272.6;26.3;26.2;32;32.0;27.9;-1.0;
18/02/2025 17:43:32;117;0;143.57;-4;19.36;4.80;955.7;10.20;74384;2835.146;-1758.716;1;157;290;291.9;26.3;25.8;38;37.9;27.9;-1.0;
18/02/2025 17:43:52;117;0;141.18;-4;20.04;7.63;953.9;10.20;74336;2835.144;-1758.715;1;159;310;311.3;26.3;25.8;45;45.1;27.9;-1.0;
18/02/2025 17:44:12;117;0;146.29;-4;20.74;11.50;951.6;10.20;74293;2835.142;-1758.713;1;160;310;311.3;26.3;25.8;37;36.6;27.9;-1.0;
18/02/2025 17:44:32;117;0;150.55;-4;21.30;7.40;949.4;10.10;74291;2835.140;-1758.712;1;162;310;311.3;26.3;25.8;34;33.8;27.9;-1.0;
18/02/2025 17:44:52;117;0;147.46;-4;21.37;5.87;946.9;10.10;74291;2835.138;-1758.710;1;164;310;311.3;26.3;26.5;40;40.2;27.9;-1.0;
18/02/2025 17:45:12;117;0;146.74;-4;19.14;9.19;944.5;10.10;74287;2835.136;-1758.708;1;167;310;311.3;26.3;26.5;46;46.0;27.9;-1.0;
18/02/2025 17:45:32;117;0;152.34;-4;19.76;12.13;942.0;10.10;74278;2835.134;-1758.707;1;171;310;311.3;26.3;26.7;42;42.0;27.9;-1.0;
18/02/2025 17:45:52;117;0;153.88;-4;19.37;9.50;939.5;10.10;74280;2835.131;-1758.705;1;175;310;312.9;26.3;26.5;46;46.0;27.9;-1.0;
18/02/2025 17:46:12;117;0;158.83;-4;19.33;12.11;937.1;10.10;74277;2835.129;-1758.704;1;181;310;311.3;26.3;26.5;46;46.5;27.9;-1.0;
18/02/2025 17:46:32;117;0;163.69;-4;19.57;12.08;934.6;10.10;74272;2835.126;-1758.703;1;189;310;312.9;26.3;26.5;50;50.1;27.9;-1.0;
18/02/2025 17:46:52;117;0;169.51;-4;19.83;14.12;932.1;10.10;74270;2835.124;-1758.702;1;202;310;311.3;26.3;26.5;59;59.1;27.9;-1.0;
18/02/2025 17:47:12;117;0;177.49;-4;19.82;18.86;929.6;10.10;74265;2835.121;-1758.702;1;241;310;312.9;26.3;26.5;70;69.9;27.9;-1.0;
18/02/2025 17:47:32;117;0;187.65;-4;19.72;25.02;927.0;10.00;74263;2835.118;-1758.703;1;337;310;312.9;26.3;26.7;70;70.4;27.9;-1.0;
18/02/2025 17:47:52;117;0;198.50;-4;19.80;24.92;924.3;10.00;74258;2835.115;-1758.704;1;3;310;311.3;26.3;26.7;70;70.4;27.9;-1.0;
18/02/2025 17:48:12;117;0;210.76;-4;19.77;25.03;921.5;10.00;74256;2835.113;-1758.707;1;17;310;311.3;26.3;26.5;70;70.4;27.9;-1.0;
18/02/2025 17:48:32;117;0;222.86;-4;19.19;25.00;918.6;10.00;74252;2835.110;-1758.710;1;27;310;311.3;26.3;26.7;70;70.4;27.9;-1.0;
18/02/2025 17:48:52;117;0;234.95;-4;19.60;24.96;915.9;10.00;74257;2835.109;-1758.713;1;35;310;312.9;26.3;26.7;70;70.4;27.9;-1.0;
18/02/2025 17:49:12;117;0;248.19;-4;19.66;25.14;913.0;10.00;74241;2835.108;-1758.717;1;43;310;311.3;26.3;26.7;70;70.4;27.9;-1.0;
18/02/2025 17:49:32;117;0;261.74;-4;19.31;25.01;910.1;10.00;74256;2835.108;-1758.722;1;51;310;312.9;26.3;26.5;70;70.4;27.9;-1.0;
18/02/2025 17:49:52;117;0;274.93;-4;19.24;25.04;907.1;10.00;74243;2835.109;-1758.726;1;60;310;311.3;26.3;26.5;70;70.4;27.9;-1.0;
18/02/2025 17:50:12;117;0;287.53;-4;19.34;24.97;904.2;10.00;74245;2835.110;-1758.731;1;67;310;311.3;26.3;26.7;70;70.4;27.9;-1.0;
18/02/2025 17:50:32;117;0;300.02;-4;19.56;25.13;901.3;9.90;74236;2835.113;-1758.734;1;74;310;311.3;26.3;26.5;70;69.9;27.9;-1.0;
18/02/2025 17:50:52;117;0;312.10;-4;19.52;25.13;898.2;9.90;74231;2835.116;-1758.738;1;82;310;312.9;26.3;26.7;70;70.4;27.9;-1.0;
18/02/2025 17:51:12;117;0;324.09;-4;19.35;25.16;895.3;9.90;74247;2835.119;-1758.740;1;89;310;311.3;26.3;26.7;70;70.4;27.9;-1.0;
18/02/2025 17:51:32;117;0;334.97;-4;19.43;25.10;892.3;9.90;74229;2835.123;-1758.743;1;96;310;311.3;26.3;26.7;70;70.4;27.9;-1.0;
18/02/2025 17:51:52;117;0;345.53;-4;19.32;25.03;889.3;9.90;74245;2835.128;-1758.744;1;102;310;311.3;26.3;26.5;70;70.4;27.9;-1.0;
18/02/2025 17:52:12;117;0;356.41;-4;19.13;25.01;886.3;9.90;74238;2835.132;-1758.744;1;109;310;311.3;26.3;26.7;70;70.4;27.9;-1.0;
18/02/2025 17:52:32;117;0;7.05;-4;19.09;24.97;883.4;9.90;74234;2835.136;-1758.744;1;115;310;311.3;26.3;26.7;70;70.4;27.9;-1.0;
18/02/2025 17:52:52;117;0;17.84;-4;19.20;24.97;880.5;9.90;74231;2835.141;-1758.743;1;121;310;311.3;26.3;26.7;70;70.4;27.9;-1.0;
18/02/2025 17:53:13;117;0;28.55;-4;19.10;25.14;877.6;9.90;74237;2835.144;-1758.741;1;127;310;312.9;26.3;26.5;70;70.4;27.9;-1.0;
18/02/2025 17:53:33;117;0;39.66;-4;19.18;24.98;874.7;9.90;74229;2835.148;-1758.738;1;133;310;311.3;26.3;26.7;70;70.4;27.9;-1.0;
18/02/2025 17:53:53;117;0;50.45;-4;19.14;25.06;871.9;9.90;74234;2835.151;-1758.735;1;139;310;311.3;26.3;26.7;70;70.4;27.9;-1.0;
18/02/2025 17:54:13;117;0;61.84;-4;19.07;24.98;869.1;9.90;74238;2835.153;-1758.731;1;144;310;311.3;26.3;26.5;70;70.4;27.9;-1.0;
18/02/2025 17:54:33;117;0;73.38;-4;19.01;25.01;866.3;9.90;74232;2835.154;-1758.727;1;149;310;312.9;26.3;26.5;70;70.4;27.9;-1.0;
18/02/2025 17:54:53;117;0;85.99;-4;18.93;25.14;863.6;9.80;74239;2835.155;-1758.723;1;154;310;308.1;26.0;25.9;70;70.4;27.9;-1.0;
18/02/2025 17:55:13;117;0;97.74;-4;20.98;24.88;860.9;9.80;74234;2835.155;-1758.720;1;159;310;311.3;26.0;25.3;70;70.4;27.9;-1.0;
18/02/2025 17:55:33;117;0;109.09;-4;21.99;24.97;857.9;9.80;74220;2835.155;-1758.716;1;163;310;311.3;26.0;25.3;70;70.4;27.9;-1.0;
18/02/2025 17:55:53;117;0;120.93;-4;22.59;25.21;854.8;9.80;74223;2835.153;-1758.713;1;167;310;312.9;26.8;27.0;70;70.4;27.9;-1.0;
18/02/2025 17:56:13;117;0;131.05;-4;17.87;24.63;851.9;9.80;74223;2835.151;-1758.709;1;171;310;311.3;26.1;26.1;70;70.4;27.9;-1.0;
18/02/2025 17:56:33;117;0;139.18;-4;19.53;24.82;849.5;9.80;74223;2835.149;-1758.707;1;175;310;312.9;26.1;25.8;70;70.4;27.9;-1.0;
18/02/2025 17:56:53;117;0;150.07;-4;21.73;24.92;847.0;9.80;74216;2835.147;-1758.706;1;177;310;311.3;26.1;26.2;54;54.2;27.9;-1.0;
18/02/2025 17:57:13;117;0;155.76;-4;20.74;16.07;844.3;9.80;74199;2835.145;-1758.704;1;180;310;311.3;26.1;26.2;50;49.6;27.9;-1.0;
18/02/2025 17:57:33;117;0;162.48;-4;20.83;13.34;841.6;9.80;74202;2835.142;-1758.703;1;182;310;312.9;26.1;26.2;42;42.0;27.9;-1.0;
18/02/2025 17:57:53;117;0;165.56;-4;20.18;9.35;839.0;9.80;74205;2835.139;-1758.702;1;184;310;311.3;26.1;26.2;40;40.2;27.9;-1.0;
18/02/2025 17:58:13;117;0;166.26;-4;19.34;8.77;836.5;9.80;74197;2835.136;-1758.702;1;188;310;312.9;26.1;26.1;44;44.2;27.9;-1.0;
18/02/2025 17:58:33;117;0;170.77;-4;19.80;11.23;834.0;9.80;74186;2835.134;-1758.701;1;191;310;311.3;26.1;26.2;40;39.7;27.9;-1.0;
18/02/2025 17:58:53;117;0;174.18;-4;20.06;8.35;831.6;9.80;74189;2835.131;-1758.701;1;194;310;312.9;26.1;26.2;40;39.7;27.9;-1.0;
18/02/2025 17:59:13;117;0;178.53;-4;19.55;8.25;829.1;9.80;74189;2835.128;-1758.701;1;198;310;311.3;26.1;26.2;37;37.0;27.9;-1.0;
18/02/2025 17:59:33;117;0;181.68;-4;19.31;6.94;826.7;9.80;74172;2835.126;-1758.701;1;204;310;312.9;26.1;26.2;42;42.0;27.9;-1.0;
18/02/2025 17:59:53;117;0;185.51;-4;19.52;9.84;824.3;9.80;74189;2835.123;-1758.702;1;215;310;312.9;26.1;26.2;50;50.1;27.9;-1.0;
18/02/2025 18:00:13;117;0;192.11;-4;19.76;14.12;822.0;9.80;74189;2835.121;-1758.702;1;247;310;312.9;26.1;26.2;70;69.9;27.9;-1.0;
18/02/2025 18:00:33;117;0;202.42;-4;20.09;25.03;819.7;9.70;74193;2835.118;-1758.704;1;355;310;312.9;26.1;26.4;70;70.4;27.9;-1.0;
