Timestamp;NavState;SecurityLevel;Heading;Declination;Pitch;Roll;Depth;Temperature;Pa;Lat;Lon;DeadReckoning;DesiredH;BallastCmd;BallastPos;LinCmd;LinPos;AngCmd;AngPos;Voltage;Altitude;
05/03/2025 12:01:09;119;0;148.90;-4;-59.34;-15.72;0.1;20.90;76643;2838.018;-1757.954;0;201;500;506.5;100.0;100.7;0;-0.5;24.7;-1.0;
05/03/2025 12:01:19;116;0;152.40;-4;-45.66;-9.13;0.1;20.90;76659;2838.025;-1757.958;0;201;500;504.8;100.0;100.7;0;-0.5;24.7;-1.0;
05/03/2025 12:01:47;116;0;160.60;-4;-52.51;-12.68;-0.1;20.90;76663;2838.028;-1757.959;0;201;500;506.5;100.0;100.7;0;-0.5;24.7;-1.0;
05/03/2025 12:02:03;116;0;158.33;-4;-58.57;-13.92;0.2;20.90;76663;2838.029;-1757.960;0;200;500;506.5;100.0;100.7;0;-0.5;24.7;-1.0;
05/03/2025 12:02:21;116;0;159.41;-4;-52.98;-16.57;0.1;20.90;76668;2838.032;-1757.961;0;200;500;504.8;100.0;100.7;0;-0.5;24.7;-1.0;
05/03/2025 12:02:41;116;0;151.87;-4;-55.31;-21.05;0.2;20.90;76665;2838.035;-1757.963;0;200;500;506.5;100.0;100.9;0;-0.5;24.7;-1.0;
05/03/2025 12:02:52;116;0;152.46;-4;-54.88;-17.37;0.1;20.90;76673;2838.038;-1757.964;0;200;500;506.5;100.0;100.7;0;-0.5;24.7;-1.0;
05/03/2025 12:03:12;110;0;143.66;-4;-52.57;-11.66;0.1;20.90;76670;2838.038;-1757.964;0;200;-500;424.2;100.0;99.9;-12;-12.6;24.7;-1.0;
05/03/2025 12:03:22;110;0;137.51;-4;-52.63;-7.62;-0.0;21.00;76957;2838.039;-1757.965;1;200;-500;272.6;100.0;99.9;-12;-12.6;24.7;-1.0;
05/03/2025 12:03:32;110;0;148.22;-4;-60.96;-18.40;0.3;21.00;77207;2838.039;-1757.965;1;200;-500;116.1;100.0;99.9;-12;-12.6;24.6;-1.0;
05/03/2025 12:03:42;110;0;167.24;-4;-67.70;-32.50;0.9;21.00;77537;2838.040;-1757.966;1;200;-500;-45.2;100.0;99.9;-12;-12.6;24.6;-1.0;
05/03/2025 12:03:52;110;0;164.87;-4;-62.65;-20.67;1.0;21.00;77881;2838.041;-1757.966;1;200;-500;-212.9;54.7;54.8;-12;-13.1;24.6;-1.0;
05/03/2025 12:04:02;110;0;168.85;-4;-55.16;-18.70;2.1;21.00;78232;2838.042;-1757.967;1;200;-500;-422.6;54.7;54.8;-12;-13.1;24.6;-1.0;
05/03/2025 12:04:12;110;0;179.55;-4;-41.58;-15.31;5.0;21.00;78732;2838.041;-1757.968;1;200;-500;-500.0;54.7;54.6;-12;-12.6;24.6;-1.0;
05/03/2025 12:04:22;110;0;188.77;-4;-38.86;-13.70;9.4;21.00;78856;2838.040;-1757.969;1;200;-500;-500.0;54.7;54.6;-12;-12.6;24.7;-1.0;
05/03/2025 12:04:42;100;0;198.78;-4;-39.27;-13.78;20.1;21.10;78852;2838.035;-1757.973;1;200;-500;-501.6;54.7;54.6;-12;-12.6;24.7;-1.0;
05/03/2025 12:05:02;100;0;203.38;-4;-39.69;-13.23;32.6;21.10;78857;2838.031;-1757.978;1;200;-500;-500.0;53.3;53.2;28;28.0;24.7;0.0;
05/03/2025 12:05:22;100;0;194.52;-4;-38.66;6.08;44.1;21.10;78854;2838.026;-1757.981;1;200;-500;-504.8;52.2;52.0;15;14.9;24.7;0.0;
05/03/2025 12:05:42;100;0;188.10;-4;-37.08;-0.48;55.2;21.10;78846;2838.021;-1757.984;1;200;-500;-504.8;51.6;51.5;13;13.1;24.7;0.0;
05/03/2025 12:06:02;100;0;181.51;-4;-36.42;-1.29;65.9;21.10;78844;2838.015;-1757.985;1;200;-500;-508.1;51.6;51.4;13;13.1;24.7;0.0;
05/03/2025 12:06:22;100;0;174.76;-4;-36.39;-1.27;76.5;21.10;78841;2838.010;-1757.986;1;200;-500;-504.8;51.6;51.4;9;9.0;24.7;0.0;
05/03/2025 12:06:42;100;0;168.82;-4;-35.92;-3.18;86.7;21.00;78836;2838.005;-1757.986;1;200;-500;-504.8;51.6;51.4;2;1.4;24.7;0.0;
05/03/2025 12:07:02;100;0;170.35;-4;-35.55;-7.47;96.7;21.00;78842;2838.000;-1757.986;1;200;-500;-504.8;51.6;51.4;4;4.1;24.7;0.0;
05/03/2025 12:07:22;100;0;175.01;-4;-34.25;-5.86;106.9;21.00;78828;2837.995;-1757.986;1;200;-500;-504.8;51.6;51.4;9;9.0;24.7;0.0;
05/03/2025 12:07:42;100;0;170.61;-4;-35.08;-4.47;116.4;21.00;78821;2837.990;-1757.986;1;200;-500;-504.8;51.6;51.4;6;5.4;24.7;0.0;
05/03/2025 12:08:02;100;0;169.13;-4;-35.37;-6.06;126.5;21.00;78818;2837.985;-1757.986;1;200;-500;-503.2;51.6;51.4;2;1.8;24.7;0.0;
05/03/2025 12:08:22;100;0;168.07;-4;-36.02;-6.61;136.9;21.00;78816;2837.980;-1757.986;1;200;-500;-504.8;51.6;51.4;2;1.4;24.7;0.0;
05/03/2025 12:08:42;100;0;166.84;-4;-35.22;-7.06;148.0;20.90;78811;2837.974;-1757.985;1;200;-500;-504.8;51.6;51.4;-5;1.4;24.7;0.0;
05/03/2025 12:08:45;118;0;168.25;-4;-36.00;-9.78;149.6;20.90;78811;2837.973;-1757.985;1;200;500;-504.8;14.5;14.7;13;13.5;24.7;0.0;
05/03/2025 12:08:55;118;0;144.07;-4;-30.07;-2.27;153.4;20.90;78787;2837.971;-1757.983;1;200;500;-379.0;14.5;14.1;13;13.5;24.3;-1.0;
05/03/2025 12:09:05;118;0;140.63;-4;-8.94;-2.62;156.8;20.90;78508;2837.968;-1757.980;1;200;500;-248.4;14.5;14.0;13;13.5;24.3;-1.0;
05/03/2025 12:09:15;118;0;137.35;-4;13.48;-3.64;157.5;20.90;78222;2837.968;-1757.980;1;200;500;-116.1;14.5;14.6;13;13.5;24.2;-1.0;
05/03/2025 12:09:25;118;0;134.17;-4;34.32;-5.31;156.9;20.90;77962;2837.969;-1757.980;1;200;500;6.5;14.5;14.6;13;13.5;24.3;-1.0;
05/03/2025 12:09:35;118;0;134.06;-4;44.83;-5.40;156.6;20.90;77679;2837.970;-1757.980;1;200;500;129.0;14.5;14.6;13;13.5;24.3;-1.0;
05/03/2025 12:09:45;118;0;143.30;-4;42.48;-5.90;156.6;20.90;77417;2837.971;-1757.981;1;200;500;251.6;14.5;14.6;13;13.5;24.3;-1.0;
05/03/2025 12:09:55;118;0;149.49;-4;38.09;-6.22;156.3;20.90;77153;2837.972;-1757.982;1;200;500;374.2;14.5;14.6;13;13.5;24.2;-1.0;
05/03/2025 12:10:05;118;0;146.83;-4;38.69;-5.46;155.2;20.90;76902;2837.973;-1757.982;1;200;500;480.6;14.5;14.6;13;13.5;24.3;-1.0;
05/03/2025 12:10:15;118;0;141.98;-4;37.83;-4.54;153.2;20.90;76653;2837.973;-1757.982;1;200;500;506.5;14.5;14.6;13;13.5;24.3;-1.0;
05/03/2025 12:10:25;118;0;171.48;-4;34.63;-4.53;150.5;20.90;76613;2837.972;-1757.982;1;200;500;506.5;14.5;14.6;13;13.5;24.7;-1.0;
05/03/2025 12:10:45;117;0;160.34;-4;33.81;-4.19;145.3;20.90;76622;2837.971;-1757.982;1;200;500;506.5;14.5;14.6;13;13.5;24.7;-1.0;
05/03/2025 12:11:05;117;0;143.65;-4;33.34;-4.93;138.9;20.90;76623;2837.969;-1757.980;1;200;500;504.8;14.0;13.8;70;69.9;24.7;-1.0;
05/03/2025 12:11:25;117;0;145.56;-4;34.98;28.16;132.6;20.90;76629;2837.967;-1757.978;1;200;500;501.6;14.0;13.8;70;69.9;24.7;-1.0;
05/03/2025 12:11:45;117;0;147.70;-4;36.41;28.41;125.6;20.90;76634;2837.965;-1757.977;1;200;500;504.8;14.0;13.8;70;69.9;24.6;-1.0;
05/03/2025 12:12:05;117;0;152.18;-4;36.56;28.80;118.4;20.80;76622;2837.963;-1757.975;1;200;500;506.5;14.0;13.8;63;63.2;24.7;-1.0;
05/03/2025 12:12:25;117;0;152.21;-4;37.79;23.21;111.5;20.80;76633;2837.961;-1757.974;1;200;500;506.5;14.8;14.9;61;60.5;24.7;-1.0;
05/03/2025 12:12:45;117;0;157.39;-4;36.15;23.25;104.3;20.80;76621;2837.959;-1757.973;1;200;500;506.5;14.8;15.0;56;56.0;24.7;-1.0;
05/03/2025 12:13:05;117;0;159.12;-4;35.97;19.81;97.6;20.80;76638;2837.957;-1757.973;1;200;500;506.5;14.8;15.0;49;49.2;24.6;-1.0;
05/03/2025 12:13:25;117;0;161.10;-4;35.63;15.81;91.0;20.80;76636;2837.954;-1757.972;1;200;500;506.5;14.8;15.0;46;46.0;24.7;-1.0;
05/03/2025 12:13:45;117;0;163.91;-4;35.03;13.60;84.6;20.80;76639;2837.952;-1757.972;1;200;500;506.5;14.8;15.0;43;42.9;24.7;-1.0;
05/03/2025 12:14:05;117;0;163.22;-4;34.56;11.88;78.4;20.80;76648;2837.950;-1757.972;1;200;500;506.5;14.8;15.0;43;42.4;24.7;-1.0;
05/03/2025 12:14:25;117;0;163.45;-4;34.77;11.51;72.3;20.70;76638;2837.948;-1757.972;1;200;500;506.5;14.8;15.2;43;42.4;24.7;-1.0;
05/03/2025 12:14:45;117;0;163.02;-4;34.56;11.87;65.8;20.80;76648;2837.946;-1757.972;1;200;500;506.5;14.8;15.0;43;42.4;24.7;-1.0;
05/03/2025 12:15:05;117;0;161.67;-4;34.66;11.85;59.7;20.70;76643;2837.944;-1757.972;1;200;500;504.8;14.8;15.0;45;45.1;24.7;-1.0;
05/03/2025 12:15:25;117;0;161.52;-4;35.47;13.79;53.0;20.70;76652;2837.941;-1757.971;1;200;500;504.8;14.8;15.0;49;49.2;24.7;-1.0;
05/03/2025 12:15:45;117;0;163.72;-4;34.63;16.53;46.3;20.70;76645;2837.939;-1757.971;1;200;500;506.5;14.8;15.0;45;45.1;24.7;-1.0;
05/03/2025 12:16:05;117;0;163.19;-4;35.05;13.04;39.4;20.70;76650;2837.936;-1757.971;1;200;500;504.8;14.8;15.0;47;46.9;24.7;-1.0;
05/03/2025 12:16:25;117;0;158.96;-4;34.25;14.77;32.8;20.70;76650;2837.934;-1757.970;1;200;500;506.5;14.8;15.0;53;52.8;24.7;-1.0;
05/03/2025 12:16:45;117;0;165.57;-4;34.78;17.46;26.1;20.70;76645;2837.931;-1757.970;1;200;500;506.5;14.8;15.0;43;42.4;24.7;-1.0;
05/03/2025 12:17:05;117;0;161.05;-4;34.71;11.51;19.7;20.70;76650;2837.929;-1757.970;1;200;500;504.8;14.8;15.0;47;46.9;24.7;-1.0;
05/03/2025 12:17:25;117;0;162.56;-4;34.96;15.24;13.0;20.70;76636;2837.926;-1757.969;1;200;500;503.2;14.8;15.2;47;47.4;24.7;-1.0;
05/03/2025 12:17:45;117;0;164.30;-4;34.42;15.07;6.0;20.70;76628;2837.923;-1757.969;1;200;500;504.8;14.8;15.0;47;47.4;24.7;-1.0;
05/03/2025 12:17:53;115;0;164.88;-4;34.00;14.94;3.3;20.70;76634;2837.922;-1757.969;1;200;500;506.5;100.0;50.8;0;-0.5;24.7;-1.0;
05/03/2025 12:18:03;115;0;160.33;-4;24.18;-10.75;0.8;20.70;76634;2837.921;-1757.968;1;200;500;506.5;100.0;100.0;0;0.0;24.6;-1.0;
05/03/2025 12:18:13;115;0;150.44;-4;-25.71;-10.15;0.3;20.70;76650;2837.921;-1757.969;1;200;500;506.5;100.0;100.3;0;0.0;24.7;-1.0;
05/03/2025 12:18:33;119;0;172.02;-4;-29.05;-7.21;-0.2;20.70;76665;2837.921;-1757.969;1;200;500;504.8;100.0;100.7;0;-0.5;24.7;-1.0;
05/03/2025 12:18:43;119;0;156.95;-4;-49.89;-8.07;0.1;20.70;76667;2837.931;-1757.995;0;200;500;504.8;100.0;100.7;0;-0.5;24.7;-1.0;
