Timestamp;NavState;SecurityLevel;Heading;Declination;Pitch;Roll;Depth;Temperature;Pa;Lat;Lon;DeadReckoning;DesiredH;BallastCmd;BallastPos;LinCmd;LinPos;AngCmd;AngPos;Voltage;Altitude;
27/02/2025 09:22:12;119;0;351.77;-4;-47.18;-13.14;0.2;16.60;75536;2837.749;-1801.551;0;321;500;506.5;100.0;100.6;0;-0.5;25.8;-1.0;
27/02/2025 09:22:22;116;0;13.43;-4;-54.19;-15.32;0.0;16.60;75537;2837.755;-1801.555;0;321;500;506.5;100.0;100.6;0;-0.5;25.8;-1.0;
27/02/2025 09:22:47;116;0;46.39;-4;-55.60;-12.85;-0.0;16.70;75543;2837.757;-1801.564;0;321;500;508.1;100.0;100.6;0;-0.5;25.8;-1.0;
27/02/2025 09:23:06;116;0;74.17;-4;-56.63;-23.44;0.1;16.80;75552;2837.757;-1801.566;0;136;500;506.5;100.0;100.6;0;-0.5;25.8;-1.0;
27/02/2025 09:23:28;116;0;91.82;-4;-51.51;-15.49;0.1;16.80;75568;2837.760;-1801.572;0;136;500;506.5;100.0;100.6;0;-0.5;25.8;-1.0;
27/02/2025 09:24:30;116;0;78.93;-4;-54.12;-9.57;0.1;17.00;75597;2837.773;-1801.583;0;136;500;506.5;100.0;100.7;0;-0.5;25.8;-1.0;
27/02/2025 09:25:18;116;0;97.82;-4;-56.91;-9.31;0.0;17.20;75626;2837.783;-1801.590;0;136;500;506.5;100.0;100.6;0;-0.5;25.8;-1.0;
27/02/2025 09:26:21;116;0;80.52;-4;-56.95;-15.82;0.1;17.50;75634;2837.795;-1801.598;0;136;500;506.5;100.0;100.6;0;-0.5;25.8;-1.0;
27/02/2025 09:27:27;116;0;98.44;-4;-56.77;-11.51;0.1;17.80;75664;2837.810;-1801.608;0;136;500;506.5;100.0;100.7;0;-0.5;25.8;-1.0;
27/02/2025 09:27:47;110;0;72.40;-4;-52.45;-7.65;-0.1;17.90;75669;2837.810;-1801.608;0;136;-90;385.5;100.0;99.7;-7;-7.2;25.8;-1.0;
27/02/2025 09:27:57;110;0;81.87;-4;-52.24;-16.73;0.1;18.00;76032;2837.811;-1801.608;1;136;-90;233.9;100.0;99.9;-7;-7.2;25.8;-1.0;
27/02/2025 09:28:07;110;0;82.29;-4;-62.41;-10.11;0.6;18.00;76274;2837.811;-1801.608;1;136;-90;82.3;100.0;99.9;-7;-7.2;25.8;-1.0;
27/02/2025 09:28:17;110;0;89.30;-4;-65.16;-15.27;0.7;18.10;76602;2837.811;-1801.608;1;136;-90;-75.8;100.0;99.9;-7;-7.2;25.8;-1.0;
27/02/2025 09:28:27;110;0;86.38;-4;-69.31;-9.49;1.0;18.10;76926;2837.811;-1801.608;1;136;-90;-88.7;42.4;52.6;-7;-7.2;25.8;-1.0;
27/02/2025 09:28:37;110;0;95.86;-4;-54.95;-16.54;2.1;18.10;76910;2837.811;-1801.607;1;136;-90;-88.7;42.4;42.4;-7;-7.2;25.8;-1.0;
27/02/2025 09:28:57;100;0;103.74;-4;-23.19;-15.46;5.2;18.20;76914;2837.811;-1801.603;1;136;-90;-85.5;42.4;42.1;-7;-7.2;25.8;-1.0;
27/02/2025 09:29:17;100;0;111.37;-4;-17.96;-15.64;8.1;18.30;76922;2837.810;-1801.600;1;136;-90;-83.9;43.0;43.3;-14;-14.0;25.8;-1.0;
27/02/2025 09:29:37;100;0;117.50;-4;-19.90;-18.67;10.5;18.30;76920;2837.809;-1801.597;1;136;-90;-83.9;43.0;43.3;-3;-3.2;25.8;-1.0;
27/02/2025 09:29:57;100;0;122.73;-4;-21.26;-12.88;12.9;18.30;76919;2837.808;-1801.594;1;136;-90;-83.9;43.0;43.3;5;5.0;25.8;0.0;
27/02/2025 09:30:17;100;0;125.36;-4;-20.52;-8.96;15.4;18.40;76937;2837.806;-1801.591;1;136;-90;-83.9;43.0;43.3;9;9.0;25.8;0.0;
27/02/2025 09:30:37;100;0;124.80;-4;-21.59;-6.93;17.7;18.40;76939;2837.805;-1801.589;1;136;-90;-83.9;43.0;43.4;9;9.0;25.8;0.0;
27/02/2025 09:30:57;100;0;125.20;-4;-21.91;-7.12;20.1;18.40;76944;2837.804;-1801.587;1;136;-90;-83.9;43.0;43.3;9;9.0;25.8;0.0;
27/02/2025 09:31:17;100;0;126.08;-4;-21.88;-7.00;22.5;18.50;76960;2837.802;-1801.584;1;136;-90;-82.3;43.0;43.3;9;9.0;25.8;0.0;
27/02/2025 09:31:37;100;0;127.15;-4;-21.57;-6.93;25.2;18.50;76956;2837.801;-1801.582;1;136;-90;-82.3;43.0;43.3;9;9.0;25.8;0.0;
27/02/2025 09:31:57;100;0;126.63;-4;-21.08;-6.96;27.6;18.50;76956;2837.799;-1801.579;1;136;-90;-82.3;43.0;43.3;9;9.0;25.8;0.0;
27/02/2025 09:32:17;100;0;126.52;-4;-21.35;-7.04;30.0;18.50;76953;2837.798;-1801.577;1;136;-90;-82.3;43.0;43.3;9;9.0;25.8;0.0;
27/02/2025 09:32:37;100;0;124.21;-4;-21.16;-7.10;32.5;18.50;76966;2837.797;-1801.574;1;136;-90;-82.3;43.0;43.3;7;7.2;25.8;0.0;
27/02/2025 09:32:57;100;0;124.06;-4;-21.20;-8.07;34.9;18.50;76984;2837.795;-1801.571;1;136;-90;-82.3;43.0;43.3;7;6.8;25.8;0.0;
27/02/2025 09:33:18;100;0;124.68;-4;-21.35;-8.15;37.5;18.50;76978;2837.794;-1801.569;1;136;-90;-82.3;43.0;43.3;7;7.2;25.8;0.0;
27/02/2025 09:33:38;100;0;125.35;-4;-21.51;-8.10;40.0;18.60;76985;2837.793;-1801.566;1;136;-90;-82.3;43.0;43.3;7;7.2;25.8;0.0;
27/02/2025 09:33:58;100;0;126.93;-4;-21.22;-8.12;42.4;18.60;76988;2837.791;-1801.564;1;136;-90;-82.3;43.0;43.4;10;10.4;25.8;0.0;
27/02/2025 09:34:18;100;0;127.63;-4;-21.48;-6.35;44.8;18.60;76993;2837.790;-1801.561;1;136;-90;-82.3;43.0;43.3;10;10.8;25.8;0.0;
27/02/2025 09:34:38;100;0;128.20;-4;-21.52;-6.31;47.4;18.60;76989;2837.788;-1801.559;1;136;-90;-82.3;43.0;43.4;10;10.4;25.8;0.0;
27/02/2025 09:34:58;100;0;128.99;-4;-21.43;-6.37;50.0;18.60;77000;2837.787;-1801.556;1;136;-90;-82.3;43.0;43.3;12;12.2;25.9;0.0;
27/02/2025 09:35:18;100;0;128.30;-4;-20.87;-5.36;52.6;18.60;77000;2837.785;-1801.554;1;136;-90;-83.9;43.0;43.4;12;12.6;25.8;0.0;
27/02/2025 09:35:38;100;0;130.33;-4;-21.17;-5.44;55.0;18.60;77002;2837.783;-1801.551;1;136;-90;-82.3;43.0;43.4;12;12.6;25.8;0.0;
27/02/2025 09:35:58;100;0;133.70;-4;-21.23;-5.50;57.4;18.60;77005;2837.782;-1801.549;1;136;-90;-82.3;43.0;43.3;14;14.0;25.8;0.0;
27/02/2025 09:36:18;100;0;135.14;-4;-21.08;-4.49;59.8;18.70;77007;2837.780;-1801.547;1;136;-90;-82.3;43.0;43.3;14;14.4;25.8;0.0;
27/02/2025 09:36:38;100;0;138.11;-4;-21.07;-4.38;62.3;18.70;77009;2837.778;-1801.545;1;136;-90;-83.9;43.0;43.3;14;14.4;25.8;0.0;
27/02/2025 09:36:58;100;0;140.27;-4;-20.77;-4.51;64.4;18.70;77001;2837.776;-1801.543;1;136;-90;-82.3;43.0;43.3;14;14.4;25.8;0.0;
27/02/2025 09:37:18;100;0;134.78;-4;-20.83;-4.55;66.7;18.70;77003;2837.775;-1801.541;1;136;-90;-82.3;43.0;43.3;14;14.4;25.8;0.0;
27/02/2025 09:37:38;100;0;133.47;-4;-21.23;-4.47;69.0;18.70;76978;2837.773;-1801.539;1;136;-90;-82.3;43.0;43.4;14;14.4;25.8;0.0;
27/02/2025 09:37:58;100;0;134.23;-4;-21.57;-4.33;71.2;18.70;76963;2837.772;-1801.537;1;136;-90;-82.3;43.0;43.3;14;14.4;25.8;0.0;
27/02/2025 09:38:18;100;0;134.69;-4;-21.52;-4.46;73.7;18.70;76953;2837.770;-1801.535;1;136;-90;-82.3;43.0;43.3;14;14.4;25.8;0.0;
27/02/2025 09:38:38;100;0;132.34;-4;-21.39;-4.34;76.2;18.70;76947;2837.768;-1801.533;1;136;-90;-82.3;43.0;43.4;14;14.4;25.8;0.0;
27/02/2025 09:38:58;100;0;128.97;-4;-21.23;-4.40;78.5;18.60;76933;2837.767;-1801.530;1;136;-90;-82.3;43.0;43.4;11;10.8;25.8;0.0;
27/02/2025 09:39:18;100;0;128.32;-4;-21.30;-6.33;80.8;18.60;76920;2837.766;-1801.528;1;136;-90;-82.3;43.0;43.3;11;10.4;25.8;0.0;
27/02/2025 09:39:38;100;0;131.61;-4;-20.74;-6.37;83.2;18.60;76907;2837.764;-1801.526;1;136;-90;-83.9;43.0;43.3;13;13.5;25.8;0.0;
27/02/2025 09:39:58;100;0;131.20;-4;-20.85;-4.86;85.5;18.60;76890;2837.762;-1801.524;1;136;-90;-82.3;43.0;43.3;13;13.5;25.8;0.0;
27/02/2025 09:40:18;100;0;130.05;-4;-20.96;-4.83;87.7;18.60;76887;2837.761;-1801.522;1;136;-90;-83.9;43.0;43.3;13;13.5;25.8;0.0;
27/02/2025 09:40:38;100;0;129.92;-4;-21.06;-4.84;90.0;18.50;76872;2837.760;-1801.519;1;136;-90;-82.3;43.0;43.3;13;13.5;25.8;0.0;
27/02/2025 09:40:58;100;0;131.69;-4;-21.26;-4.72;92.4;18.50;76878;2837.758;-1801.517;1;136;-90;-82.3;43.0;43.4;13;13.5;25.8;0.0;
27/02/2025 09:41:18;100;0;134.07;-4;-21.24;-4.73;95.0;18.50;76861;2837.756;-1801.515;1;136;-90;-82.3;43.0;43.4;13;13.5;25.8;0.0;
27/02/2025 09:41:38;100;0;138.14;-4;-21.28;-4.77;97.4;18.50;76854;2837.754;-1801.513;1;136;-90;-82.3;43.0;43.3;13;13.5;25.8;0.0;
27/02/2025 09:41:58;100;0;141.52;-4;-21.34;-4.75;99.9;18.50;76848;2837.752;-1801.511;1;136;-90;-82.3;43.0;43.4;13;13.5;25.8;0.0;
27/02/2025 09:42:18;100;0;141.85;-4;-20.96;-5.09;102.2;18.50;76832;2837.751;-1801.509;1;136;-90;-85.5;43.0;43.3;13;13.5;25.8;0.0;
27/02/2025 09:42:38;100;0;140.65;-4;-20.63;-5.03;104.4;18.40;76833;2837.749;-1801.507;1;136;-90;-82.3;43.0;43.4;13;13.5;25.8;0.0;
27/02/2025 09:42:58;100;0;140.59;-4;-21.17;-4.92;106.8;18.40;76828;2837.747;-1801.505;1;136;-90;-80.6;43.0;43.3;13;13.5;25.8;0.0;
27/02/2025 09:43:18;100;0;142.14;-4;-20.97;-4.86;109.1;18.40;76832;2837.745;-1801.504;1;136;-90;-82.3;43.0;43.3;13;13.5;25.8;0.0;
27/02/2025 09:43:38;100;0;142.45;-4;-21.04;-4.87;111.3;18.40;76819;2837.743;-1801.502;1;136;-90;-83.9;43.0;43.3;13;13.5;25.8;0.0;
27/02/2025 09:43:58;100;0;143.00;-4;-20.46;-4.97;113.7;18.40;76819;2837.741;-1801.500;1;136;-90;-82.3;43.0;43.3;13;13.5;25.8;0.0;
27/02/2025 09:44:18;100;0;142.10;-4;-20.87;-4.94;116.1;18.30;76817;2837.739;-1801.498;1;136;-90;-82.3;43.0;43.3;13;13.5;25.8;0.0;
27/02/2025 09:44:38;100;0;141.59;-4;-20.71;-4.77;118.4;18.30;76813;2837.737;-1801.496;1;136;-90;-83.9;43.0;43.3;13;13.5;25.8;0.0;
27/02/2025 09:44:58;100;0;142.14;-4;-20.12;-4.90;121.0;18.30;76808;2837.735;-1801.494;1;136;-90;-82.3;43.0;43.4;13;13.5;25.8;0.0;
27/02/2025 09:45:18;100;0;142.50;-4;-20.61;-4.89;123.1;18.30;76798;2837.733;-1801.493;1;136;-90;-85.5;43.0;43.3;13;13.5;25.8;0.0;
27/02/2025 09:45:38;100;0;140.50;-4;-20.48;-4.90;125.6;18.20;76797;2837.731;-1801.491;1;136;-90;-83.9;43.0;43.4;13;13.5;25.8;0.0;
27/02/2025 09:45:58;100;0;139.18;-4;-20.72;-4.95;127.9;18.20;76797;2837.730;-1801.489;1;136;-90;-82.3;43.0;43.4;13;13.5;25.8;0.0;
27/02/2025 09:46:18;100;0;140.07;-4;-20.51;-4.90;130.4;18.20;76784;2837.728;-1801.487;1;136;-90;-83.9;43.0;43.3;13;13.5;25.8;0.0;
27/02/2025 09:46:38;100;0;139.54;-4;-20.54;-4.80;132.7;18.20;76780;2837.726;-1801.485;1;136;-90;-82.3;43.0;43.3;13;13.5;25.8;0.0;
27/02/2025 09:46:58;100;0;139.38;-4;-20.54;-4.85;135.2;18.20;76779;2837.724;-1801.483;1;136;-90;-82.3;43.0;43.4;13;13.5;25.8;0.0;
27/02/2025 09:47:18;100;0;140.38;-4;-20.18;-4.87;137.5;18.10;76771;2837.722;-1801.481;1;136;-90;-82.3;43.0;43.3;13;13.5;25.8;0.0;
27/02/2025 09:47:38;100;0;143.13;-4;-20.37;-4.87;139.8;18.10;76766;2837.720;-1801.479;1;136;-90;-83.9;43.0;43.3;13;13.5;25.8;0.0;
27/02/2025 09:47:58;100;0;146.51;-4;-20.90;-4.88;142.2;18.10;76759;2837.718;-1801.478;1;136;-90;-83.9;43.0;43.3;16;15.8;25.9;0.0;
27/02/2025 09:48:18;100;0;148.56;-4;-20.92;-3.59;144.6;18.10;76747;2837.716;-1801.476;1;136;-90;-83.9;43.0;43.3;16;16.2;25.8;0.0;
27/02/2025 09:48:38;100;0;149.87;-4;-21.25;-3.62;147.0;18.00;76754;2837.714;-1801.475;1;136;-90;-82.3;43.0;43.3;19;19.0;25.8;0.0;
27/02/2025 09:48:58;100;0;151.74;-4;-21.24;-1.83;149.6;18.00;76733;2837.711;-1801.473;1;136;-90;-82.3;43.0;43.4;21;21.2;25.8;0.0;
27/02/2025 09:49:18;100;0;151.31;-4;-21.43;-0.71;152.0;18.00;76737;2837.709;-1801.472;1;136;-90;-83.9;43.0;43.3;21;21.7;25.8;0.0;
27/02/2025 09:49:38;100;0;150.72;-4;-21.42;-0.71;154.5;18.00;76727;2837.707;-1801.470;1;136;-90;-82.3;43.0;43.3;21;21.7;25.8;0.0;
27/02/2025 09:49:58;100;0;149.78;-4;-20.81;-0.79;156.6;18.00;76727;2837.705;-1801.469;1;136;-90;-80.6;43.0;43.4;19;19.0;25.8;0.0;
27/02/2025 09:50:18;100;0;147.33;-4;-21.41;-2.38;158.8;17.90;76724;2837.703;-1801.468;1;136;-90;-83.9;43.0;43.3;17;17.1;25.8;0.0;
27/02/2025 09:50:38;100;0;144.55;-4;-21.12;-3.17;161.3;17.90;76717;2837.701;-1801.466;1;136;-90;-83.9;43.0;43.4;15;14.9;25.8;0.0;
27/02/2025 09:50:58;100;0;144.10;-4;-20.50;-4.45;163.5;17.90;76695;2837.699;-1801.464;1;136;-90;-82.3;43.0;43.4;15;14.4;25.8;0.0;
27/02/2025 09:51:18;100;0;148.86;-4;-20.42;-4.43;165.8;17.80;76696;2837.697;-1801.463;1;136;-90;-82.3;43.0;43.3;18;18.1;25.8;0.0;
27/02/2025 09:51:38;100;0;151.67;-4;-20.53;-2.46;167.7;17.80;76700;2837.695;-1801.462;1;136;-110;-109.7;43.0;43.3;21;21.2;25.8;0.0;
27/02/2025 09:51:58;100;0;149.88;-4;-19.94;-0.77;169.9;17.80;76748;2837.693;-1801.460;1;136;-110;-111.3;43.0;43.4;19;19.0;25.8;0.0;
27/02/2025 09:52:18;100;0;151.68;-4;-20.33;-2.44;172.2;17.80;76743;2837.691;-1801.459;1;136;-110;-111.3;43.0;43.3;21;21.7;25.8;0.0;
27/02/2025 09:52:38;100;0;149.47;-4;-20.63;-0.61;174.5;17.70;76735;2837.688;-1801.458;1;136;-110;-109.7;43.0;43.4;19;19.0;25.8;0.0;
27/02/2025 09:52:58;100;0;147.49;-4;-20.50;-2.31;176.9;17.70;76726;2837.686;-1801.456;1;136;-110;-111.3;43.0;43.3;17;17.1;25.8;0.0;
27/02/2025 09:53:18;100;0;148.87;-4;-20.47;-3.11;179.3;17.70;76722;2837.684;-1801.455;1;136;-110;-111.3;43.0;43.4;17;17.1;25.8;0.0;
27/02/2025 09:53:38;100;0;149.91;-4;-20.38;-3.08;181.9;17.60;76707;2837.682;-1801.453;1;136;-110;-109.7;43.0;43.3;19;19.0;25.8;0.0;
27/02/2025 09:53:58;100;0;149.87;-4;-20.82;-1.77;184.3;17.60;76692;2837.679;-1801.451;1;136;-110;-111.3;43.0;43.4;19;19.4;25.8;0.0;
27/02/2025 09:54:18;100;0;149.45;-4;-20.90;-1.73;187.0;17.60;76697;2837.677;-1801.450;1;136;-110;-111.3;43.0;43.3;19;19.4;25.8;0.0;
27/02/2025 09:54:38;100;0;149.56;-4;-20.91;-1.74;189.6;17.50;76685;2837.674;-1801.448;1;136;-110;-111.3;43.0;43.4;19;19.4;25.8;0.0;
27/02/2025 09:54:58;100;0;145.21;-4;-20.69;-1.84;192.1;17.50;76669;2837.672;-1801.446;1;136;-110;-111.3;43.0;43.4;16;15.8;25.8;0.0;
27/02/2025 09:55:18;100;0;143.72;-4;-20.36;-4.02;194.6;17.50;76668;2837.670;-1801.444;1;136;-110;-109.7;43.0;43.3;16;15.3;25.8;0.0;
27/02/2025 09:55:38;100;0;141.81;-4;-20.32;-4.03;197.0;17.50;76665;2837.668;-1801.443;1;136;-110;-111.3;43.0;43.4;16;15.3;25.8;0.0;
27/02/2025 09:55:58;100;0;141.50;-4;-20.43;-3.93;199.6;17.40;76652;2837.666;-1801.440;1;136;-110;-111.3;43.0;43.4;16;15.3;25.8;0.0;
27/02/2025 09:56:18;100;0;141.55;-4;-20.12;-3.98;202.0;17.40;76645;2837.664;-1801.439;1;136;-110;-111.3;43.0;43.3;16;14.9;25.8;0.0;
27/02/2025 09:56:38;100;0;142.23;-4;-20.18;-4.03;204.3;17.40;76632;2837.662;-1801.437;1;136;-110;-111.3;43.0;43.3;16;15.3;25.8;0.0;
27/02/2025 09:56:58;100;0;141.28;-4;-20.28;-3.98;206.8;17.30;76637;2837.660;-1801.435;1;136;-110;-111.3;43.0;43.3;16;15.3;25.8;0.0;
27/02/2025 09:57:18;100;0;139.72;-4;-20.10;-3.99;209.2;17.30;76622;2837.658;-1801.433;1;136;-110;-112.9;43.0;43.3;16;15.3;25.8;0.0;
27/02/2025 09:57:38;100;0;138.92;-4;-19.92;-4.06;211.5;17.30;76612;2837.656;-1801.431;1;136;-110;-108.1;43.0;43.4;16;15.3;25.8;0.0;
27/02/2025 09:57:58;100;0;139.43;-4;-19.89;-4.05;213.7;17.20;76613;2837.654;-1801.429;1;136;-110;-114.5;43.0;43.3;16;15.3;25.8;0.0;
27/02/2025 09:58:18;100;0;141.91;-4;-19.95;-4.11;216.0;17.20;76609;2837.652;-1801.427;1;136;-110;-111.3;43.0;43.3;16;15.3;25.8;0.0;
27/02/2025 09:58:38;100;0;142.09;-4;-19.90;-4.02;218.4;17.20;76595;2837.650;-1801.425;1;136;-110;-109.7;43.0;43.3;16;15.3;25.8;0.0;
27/02/2025 09:58:58;100;0;140.90;-4;-19.96;-4.01;220.6;17.10;76583;2837.648;-1801.423;1;136;-110;-109.7;43.0;43.3;16;15.3;25.8;0.0;
27/02/2025 09:59:18;100;0;140.18;-4;-20.10;-3.99;222.8;17.10;76575;2837.646;-1801.422;1;136;-110;-111.3;43.0;43.3;16;15.3;25.8;0.0;
27/02/2025 09:59:38;100;0;141.51;-4;-19.97;-3.97;225.1;17.10;76579;2837.645;-1801.420;1;136;-110;-111.3;43.0;43.3;16;14.9;25.8;0.0;
27/02/2025 09:59:58;100;0;141.11;-4;-19.90;-4.02;227.3;17.00;76567;2837.643;-1801.418;1;136;-110;-111.3;43.0;43.3;16;15.3;25.9;0.0;
27/02/2025 10:00:18;100;0;141.16;-4;-19.82;-4.03;229.6;17.00;76557;2837.641;-1801.416;1;136;-110;-111.3;43.0;43.3;16;14.9;25.8;0.0;
27/02/2025 10:00:38;100;0;138.93;-4;-19.89;-4.04;231.6;17.00;76544;2837.639;-1801.414;1;136;-130;-133.9;43.0;43.4;16;15.3;25.8;0.0;
27/02/2025 10:00:58;100;0;136.53;-4;-19.69;-3.96;234.1;17.00;76611;2837.637;-1801.412;1;136;-130;-135.5;43.0;43.3;16;15.3;25.8;0.0;
27/02/2025 10:01:18;100;0;141.19;-4;-19.51;-3.91;236.3;16.90;76590;2837.636;-1801.410;1;136;-130;-133.9;43.0;43.3;16;15.3;25.8;0.0;
27/02/2025 10:01:38;100;0;140.38;-4;-19.54;-3.91;238.6;16.90;76581;2837.634;-1801.408;1;136;-130;-135.5;43.0;43.3;16;15.3;25.8;0.0;
27/02/2025 10:01:58;100;0;138.65;-4;-19.74;-3.89;241.1;16.90;76568;2837.632;-1801.406;1;136;-130;-132.3;43.0;43.4;16;15.3;25.8;0.0;
27/02/2025 10:02:18;100;0;138.85;-4;-19.92;-3.85;243.4;16.80;76560;2837.630;-1801.404;1;136;-130;-132.3;43.0;43.3;16;15.3;25.8;0.0;
27/02/2025 10:02:38;100;0;138.31;-4;-19.88;-3.87;245.9;16.80;76563;2837.628;-1801.402;1;136;-130;-133.9;43.0;43.4;16;15.3;25.8;0.0;
27/02/2025 10:02:58;100;0;137.57;-4;-19.90;-3.86;248.2;16.80;76553;2837.626;-1801.400;1;136;-130;-135.5;43.0;43.3;16;15.3;25.8;0.0;
27/02/2025 10:03:18;100;0;136.81;-4;-19.79;-3.94;250.8;16.70;76548;2837.624;-1801.398;1;136;-130;-135.5;43.0;43.3;16;15.3;25.8;0.0;
27/02/2025 10:03:38;100;0;135.77;-4;-19.88;-3.89;253.2;16.70;76543;2837.622;-1801.396;1;136;-130;-132.3;43.0;43.4;16;15.3;25.9;0.0;
27/02/2025 10:03:58;100;0;133.93;-4;-20.14;-3.85;255.8;16.70;76537;2837.620;-1801.393;1;136;-130;-133.9;43.0;43.3;16;15.3;25.8;0.0;
27/02/2025 10:04:18;100;0;129.88;-4;-19.96;-3.88;258.3;16.60;76523;2837.618;-1801.391;1;136;-130;-133.9;43.0;43.3;13;13.1;25.8;0.0;
27/02/2025 10:04:38;100;0;127.93;-4;-19.90;-5.15;260.7;16.60;76526;2837.617;-1801.388;1;136;-130;-133.9;43.0;43.3;13;12.6;25.8;0.0;
27/02/2025 10:04:58;100;0;127.00;-4;-20.29;-5.07;263.2;16.60;76511;2837.615;-1801.385;1;136;-130;-133.9;43.0;43.3;11;10.8;25.8;0.0;
27/02/2025 10:05:18;100;0;127.52;-4;-19.05;-6.02;265.9;16.50;76504;2837.614;-1801.382;1;136;-130;-133.9;43.0;43.3;11;10.4;25.8;0.0;
27/02/2025 10:05:38;100;0;130.97;-4;-19.18;-6.20;268.4;16.50;76496;2837.612;-1801.380;1;136;-130;-133.9;43.0;43.3;14;14.0;25.8;0.0;
27/02/2025 10:05:58;100;0;132.17;-4;-19.77;-4.33;270.7;16.50;76481;2837.610;-1801.378;1;136;-130;-133.9;43.0;43.3;14;14.4;25.8;0.0;
27/02/2025 10:06:18;100;0;133.41;-4;-19.36;-4.42;273.2;16.40;76474;2837.608;-1801.375;1;136;-130;-133.9;43.0;43.3;14;14.4;25.8;0.0;
27/02/2025 10:06:38;100;0;133.02;-4;-19.36;-4.15;275.6;16.40;76475;2837.606;-1801.373;1;136;-130;-135.5;43.0;43.3;14;14.4;25.8;0.0;
27/02/2025 10:06:58;100;0;136.13;-4;-18.93;-4.31;278.2;16.40;76466;2837.604;-1801.370;1;136;-130;-133.9;43.4;43.3;14;14.4;25.8;0.0;
27/02/2025 10:07:18;100;0;135.68;-4;-19.56;-4.17;280.5;16.30;76468;2837.603;-1801.368;1;136;-130;-133.9;43.4;43.3;14;14.4;25.8;0.0;
27/02/2025 10:07:38;100;0;137.89;-4;-19.76;-4.15;283.0;16.30;76463;2837.601;-1801.366;1;136;-130;-133.9;43.4;43.3;14;14.4;25.8;0.0;
27/02/2025 10:07:59;100;0;139.55;-4;-19.43;-4.21;285.5;16.30;76460;2837.599;-1801.364;1;136;-130;-133.9;43.4;43.4;14;14.4;25.8;0.0;
27/02/2025 10:08:19;100;0;142.47;-4;-19.45;-4.24;288.1;16.30;76447;2837.596;-1801.362;1;136;-130;-133.9;43.4;43.3;14;14.4;25.8;0.0;
27/02/2025 10:08:39;100;0;144.25;-4;-19.48;-4.19;290.8;16.20;76460;2837.594;-1801.359;1;136;-130;-133.9;43.4;43.3;14;14.4;25.8;0.0;
27/02/2025 10:08:59;100;0;145.73;-4;-19.74;-4.17;293.4;16.20;76441;2837.591;-1801.358;1;136;-130;-133.9;43.4;43.3;16;15.8;25.8;0.0;
27/02/2025 10:09:19;100;0;146.29;-4;-19.70;-3.30;296.1;16.20;76437;2837.589;-1801.356;1;136;-130;-133.9;43.4;43.3;16;16.2;25.8;0.0;
27/02/2025 10:09:39;100;0;147.48;-4;-19.69;-3.25;298.7;16.10;76437;2837.586;-1801.354;1;136;-130;-133.9;43.4;43.3;16;16.2;25.8;0.0;
27/02/2025 10:09:59;100;0;149.39;-4;-19.56;-3.30;301.6;16.10;76434;2837.583;-1801.352;1;136;-130;-135.5;43.4;43.3;19;19.4;25.8;0.0;
27/02/2025 10:10:19;100;0;148.44;-4;-20.00;-1.63;304.2;16.10;76419;2837.581;-1801.350;1;136;-130;-135.5;43.4;43.3;19;19.4;25.8;0.0;
27/02/2025 10:10:39;100;0;150.30;-4;-20.17;-1.54;307.2;16.00;76406;2837.578;-1801.348;1;136;-130;-133.9;43.4;43.4;19;19.4;25.8;0.0;
27/02/2025 10:10:59;100;0;150.65;-4;-20.17;-1.60;310.2;16.00;76425;2837.575;-1801.346;1;136;-130;-133.9;43.4;43.3;21;21.7;25.8;0.0;
27/02/2025 10:11:19;100;0;150.07;-4;-20.27;-0.53;313.2;16.00;76395;2837.572;-1801.344;1;136;-130;-133.9;43.4;43.3;21;21.7;25.8;0.0;
27/02/2025 10:11:39;100;0;148.22;-4;-20.08;-0.46;316.2;16.00;76396;2837.569;-1801.342;1;136;-130;-133.9;43.4;43.3;18;18.1;25.8;0.0;
27/02/2025 10:11:59;100;0;151.71;-4;-19.43;-2.62;319.3;15.90;76392;2837.566;-1801.340;1;136;-130;-133.9;43.4;43.4;23;23.0;25.8;0.0;
27/02/2025 10:12:19;100;0;148.10;-4;-19.46;0.23;322.2;15.90;76382;2837.563;-1801.338;1;136;-130;-133.9;43.4;43.4;18;18.1;25.8;0.0;
27/02/2025 10:12:39;100;0;143.31;-4;-19.39;-2.70;325.1;15.90;76360;2837.560;-1801.336;1;136;-130;-135.5;43.4;43.4;16;15.8;25.8;0.0;
27/02/2025 10:12:59;100;0;140.97;-4;-19.26;-3.83;327.8;15.80;76355;2837.558;-1801.334;1;136;-130;-135.5;43.4;43.3;16;15.3;25.8;0.0;
27/02/2025 10:13:19;100;0;138.44;-4;-19.38;-3.77;330.6;15.80;76354;2837.556;-1801.331;1;136;-130;-135.5;43.4;43.3;16;15.3;25.8;0.0;
27/02/2025 10:13:39;100;0;134.05;-4;-19.53;-3.60;333.6;15.80;76342;2837.553;-1801.328;1;136;-130;-133.9;43.4;43.3;16;15.3;25.8;0.0;
27/02/2025 10:13:59;100;0;130.03;-4;-19.07;-3.84;336.5;15.70;76341;2837.551;-1801.325;1;136;-130;-133.9;43.4;43.3;13;13.1;25.8;0.0;
27/02/2025 10:14:19;100;0;131.22;-4;-18.91;-5.09;339.2;15.70;76332;2837.549;-1801.322;1;136;-130;-133.9;43.7;43.7;13;13.1;25.8;0.0;
27/02/2025 10:14:39;100;0;129.39;-4;-20.24;-5.01;342.3;15.70;76327;2837.547;-1801.319;1;136;-130;-133.9;43.7;43.9;13;13.1;25.8;0.0;
27/02/2025 10:14:59;100;0;127.29;-4;-20.41;-5.03;345.2;15.60;76328;2837.545;-1801.316;1;136;-130;-132.3;43.7;43.9;11;10.8;25.8;0.0;
27/02/2025 10:15:19;100;0;125.50;-4;-20.22;-6.22;348.1;15.60;76311;2837.543;-1801.313;1;136;-130;-132.3;43.7;44.0;9;9.0;25.8;0.0;
27/02/2025 10:15:39;100;0;125.85;-4;-20.42;-6.95;351.2;15.60;76314;2837.541;-1801.309;1;136;-130;-133.9;43.7;44.0;9;9.0;25.8;0.0;
27/02/2025 10:15:59;100;0;126.81;-4;-20.50;-6.97;354.0;15.60;76305;2837.540;-1801.306;1;136;-130;-133.9;43.7;44.0;11;10.8;25.8;0.0;
27/02/2025 10:16:19;100;0;127.76;-4;-20.41;-5.73;357.2;15.50;76292;2837.538;-1801.303;1;136;-130;-133.9;43.7;44.0;11;11.3;25.8;0.0;
27/02/2025 10:16:39;100;0;129.62;-4;-19.91;-5.75;360.0;15.50;76288;2837.536;-1801.300;1;136;-130;-133.9;43.7;44.0;13;13.5;25.8;0.0;
27/02/2025 10:16:59;100;0;129.96;-4;-20.24;-4.62;362.9;15.50;76298;2837.534;-1801.297;1;136;-130;-133.9;43.7;44.0;13;13.5;25.8;0.0;
27/02/2025 10:17:19;100;0;130.66;-4;-20.20;-4.55;365.7;15.40;76287;2837.532;-1801.294;1;136;-130;-135.5;43.7;44.0;13;13.5;25.8;0.0;
27/02/2025 10:17:39;100;0;130.62;-4;-20.27;-4.59;368.6;15.40;76287;2837.530;-1801.291;1;136;-130;-135.5;43.7;44.0;13;14.0;25.8;0.0;
27/02/2025 10:17:59;100;0;132.45;-4;-20.40;-4.59;371.6;15.40;76285;2837.527;-1801.288;1;136;-130;-135.5;43.7;44.0;13;13.5;25.8;0.0;
27/02/2025 10:18:19;100;0;135.18;-4;-20.51;-4.49;374.5;15.40;76277;2837.525;-1801.285;1;136;-130;-133.9;43.7;44.0;15;14.9;25.8;0.0;
27/02/2025 10:18:39;100;0;135.77;-4;-20.21;-3.89;377.3;15.30;76268;2837.523;-1801.283;1;136;-130;-135.5;43.7;43.9;15;14.9;25.8;0.0;
27/02/2025 10:18:59;100;0;135.43;-4;-20.41;-3.94;380.0;15.30;76258;2837.521;-1801.280;1;136;-130;-133.9;43.7;44.0;15;14.9;25.8;0.0;
27/02/2025 10:19:19;100;0;134.66;-4;-20.89;-3.95;382.8;15.30;76254;2837.519;-1801.278;1;136;-130;-133.9;43.7;44.0;15;14.9;25.8;0.0;
27/02/2025 10:19:39;100;0;133.34;-4;-20.91;-3.85;385.8;15.20;76256;2837.517;-1801.275;1;136;-130;-133.9;43.7;43.9;15;14.9;25.8;0.0;
27/02/2025 10:19:59;100;0;130.91;-4;-20.88;-3.88;388.7;15.20;76239;2837.515;-1801.272;1;136;-130;-133.9;43.7;44.0;13;12.6;25.8;0.0;
27/02/2025 10:20:19;100;0;129.49;-4;-20.80;-5.28;391.7;15.20;76237;2837.513;-1801.269;1;136;-130;-132.3;43.7;43.9;13;12.2;25.8;0.0;
27/02/2025 10:20:39;100;0;129.97;-4;-20.46;-5.22;394.6;15.10;76225;2837.511;-1801.266;1;136;-130;-133.9;43.7;44.0;13;12.2;25.8;0.0;
27/02/2025 10:20:59;100;0;132.11;-4;-20.33;-5.26;397.5;15.10;76221;2837.509;-1801.263;1;136;-130;-133.9;43.7;44.0;13;12.6;25.8;0.0;
27/02/2025 10:21:19;100;0;136.09;-4;-20.38;-5.24;400.3;15.10;76219;2837.506;-1801.261;1;136;-130;-133.9;43.7;43.9;13;12.6;25.8;0.0;
27/02/2025 10:21:39;100;0;137.43;-4;-20.51;-5.20;403.2;15.10;76207;2837.504;-1801.258;1;136;-130;-133.9;43.7;44.0;13;12.2;25.8;0.0;
27/02/2025 10:21:59;100;0;137.81;-4;-20.49;-5.25;406.1;15.00;76200;2837.502;-1801.255;1;136;-130;-133.9;43.7;44.0;13;12.2;25.8;0.0;
27/02/2025 10:22:19;100;0;139.36;-4;-19.90;-5.25;408.9;15.00;76198;2837.500;-1801.253;1;136;-130;-135.5;43.7;44.0;13;12.2;25.8;0.0;
27/02/2025 10:22:39;100;0;143.42;-4;-19.84;-5.28;411.6;15.00;76191;2837.497;-1801.251;1;136;-130;-132.3;43.7;43.9;15;14.9;25.8;0.0;
27/02/2025 10:22:59;100;0;143.30;-4;-20.22;-3.85;414.2;14.90;76171;2837.495;-1801.249;1;136;-130;-133.9;43.7;44.0;15;15.3;25.8;0.0;
27/02/2025 10:23:19;100;0;146.24;-4;-20.19;-3.74;417.0;14.90;76174;2837.492;-1801.247;1;136;-130;-135.5;43.7;44.0;15;15.3;25.8;0.0;
27/02/2025 10:23:39;100;0;146.67;-4;-20.69;-3.77;419.8;14.90;76167;2837.490;-1801.245;1;136;-130;-133.9;43.7;44.0;17;17.1;25.8;0.0;
27/02/2025 10:23:59;100;0;147.68;-4;-20.45;-2.66;422.8;14.90;76166;2837.487;-1801.243;1;136;-130;-133.9;43.7;44.0;17;17.6;25.8;0.0;
27/02/2025 10:24:19;100;0;147.51;-4;-20.67;-2.59;425.7;14.80;76156;2837.484;-1801.241;1;136;-130;-135.5;43.7;44.0;17;17.6;25.8;0.0;
27/02/2025 10:24:39;100;0;148.97;-4;-20.70;-2.64;428.4;14.80;76153;2837.482;-1801.239;1;136;-130;-135.5;43.7;44.0;19;19.0;25.8;0.0;
27/02/2025 10:24:59;100;0;147.33;-4;-20.48;-1.74;431.5;14.80;76150;2837.479;-1801.237;1;136;-130;-133.9;43.7;44.0;17;16.7;25.8;0.0;
27/02/2025 10:25:19;100;0;145.34;-4;-20.38;-3.19;434.3;14.80;76146;2837.476;-1801.235;1;136;-130;-135.5;43.7;44.0;17;16.7;25.8;0.0;
27/02/2025 10:25:39;100;0;143.84;-4;-20.45;-3.13;437.0;14.70;76143;2837.474;-1801.233;1;136;-130;-135.5;43.7;44.0;15;14.9;25.8;0.0;
27/02/2025 10:25:59;100;0;143.93;-4;-20.12;-4.27;439.8;14.70;76137;2837.471;-1801.231;1;136;-130;-133.9;43.7;44.0;15;14.4;25.8;0.0;
27/02/2025 10:26:19;100;0;145.28;-4;-20.29;-4.32;442.4;14.70;76137;2837.469;-1801.229;1;136;-130;-133.9;43.7;43.9;15;14.4;25.8;0.0;
27/02/2025 10:26:39;100;0;146.66;-4;-20.30;-4.26;445.3;14.60;76140;2837.466;-1801.227;1;136;-130;-135.5;43.7;44.0;17;17.1;25.8;0.0;
27/02/2025 10:26:59;100;0;146.07;-4;-20.56;-2.59;448.2;14.60;76133;2837.464;-1801.225;1;136;-130;-133.9;43.7;44.0;17;17.6;25.8;0.0;
27/02/2025 10:27:19;100;0;145.98;-4;-20.75;-2.55;451.0;14.60;76130;2837.461;-1801.223;1;136;-130;-133.9;43.7;43.9;17;17.6;25.8;0.0;
27/02/2025 10:27:39;100;0;144.84;-4;-20.77;-2.57;453.9;14.60;76123;2837.458;-1801.221;1;136;-130;-133.9;43.7;44.0;17;17.6;25.8;0.0;
27/02/2025 10:27:59;100;0;143.11;-4;-20.85;-2.59;456.8;14.60;76123;2837.456;-1801.218;1;136;-130;-133.9;43.7;44.0;15;14.9;25.8;0.0;
27/02/2025 10:28:19;100;0;137.78;-4;-20.18;-4.28;459.7;14.50;76120;2837.454;-1801.216;1;136;-130;-132.3;43.7;43.9;15;14.9;25.8;0.0;
27/02/2025 10:28:39;100;0;133.94;-4;-20.23;-4.23;462.5;14.50;76090;2837.452;-1801.213;1;136;-130;-133.9;43.7;44.0;15;14.9;25.8;0.0;
27/02/2025 10:28:59;100;0;132.96;-4;-20.15;-4.18;465.2;14.50;76096;2837.450;-1801.211;1;136;-130;-133.9;43.7;44.0;15;14.4;25.8;0.0;
27/02/2025 10:29:19;100;0;133.84;-4;-20.05;-4.25;468.0;14.40;76090;2837.447;-1801.208;1;136;-130;-133.9;43.7;44.0;15;14.4;25.8;0.0;
27/02/2025 10:29:39;100;0;134.51;-4;-19.91;-4.17;470.7;14.40;76083;2837.445;-1801.205;1;136;-130;-132.3;43.7;44.0;15;14.9;25.8;0.0;
27/02/2025 10:29:59;100;0;135.21;-4;-20.04;-4.21;473.4;14.40;76068;2837.443;-1801.203;1;136;-130;-133.9;43.7;44.0;15;14.4;25.8;0.0;
27/02/2025 10:30:19;100;0;134.52;-4;-20.03;-4.23;476.2;14.40;76063;2837.441;-1801.200;1;136;-130;-132.3;43.7;44.0;15;14.4;25.8;0.0;
27/02/2025 10:30:39;100;0;136.22;-4;-19.62;-4.11;479.0;14.30;76059;2837.439;-1801.198;1;136;-130;-133.9;43.7;43.9;15;14.9;25.8;0.0;
27/02/2025 10:30:59;100;0;138.20;-4;-19.89;-4.08;481.8;14.30;76057;2837.437;-1801.195;1;136;-130;-133.9;43.7;43.9;15;14.4;25.8;0.0;
27/02/2025 10:31:19;100;0;137.60;-4;-19.87;-4.24;484.5;14.30;76053;2837.434;-1801.193;1;136;-130;-137.1;43.7;44.0;15;14.9;25.8;0.0;
27/02/2025 10:31:39;100;0;134.33;-4;-19.87;-4.24;487.3;14.20;76041;2837.432;-1801.190;1;136;-130;-135.5;43.7;44.0;15;14.9;25.8;0.0;
27/02/2025 10:31:59;100;0;132.96;-4;-19.94;-4.19;490.3;14.20;76034;2837.430;-1801.187;1;136;-130;-133.9;43.7;44.0;15;14.9;25.8;0.0;
27/02/2025 10:32:19;100;0;131.76;-4;-20.03;-4.20;493.1;14.20;76027;2837.428;-1801.184;1;136;-130;-133.9;43.7;44.0;15;14.9;25.8;0.0;
27/02/2025 10:32:39;100;0;131.95;-4;-19.94;-4.16;496.0;14.20;76028;2837.426;-1801.181;1;136;-130;-133.9;43.7;44.0;15;14.4;25.8;0.0;
27/02/2025 10:32:59;100;0;132.47;-4;-19.95;-4.21;498.9;14.10;76018;2837.424;-1801.178;1;136;-130;-133.9;43.7;43.9;15;14.9;25.8;0.0;
27/02/2025 10:33:19;100;0;132.02;-4;-19.93;-4.33;501.8;14.10;76012;2837.422;-1801.176;1;136;-130;-132.3;43.7;44.0;15;14.4;25.8;0.0;
27/02/2025 10:33:39;100;0;130.95;-4;-19.85;-4.30;504.9;14.10;76007;2837.420;-1801.172;1;136;-130;-133.9;43.7;44.0;13;13.1;25.8;0.0;
27/02/2025 10:33:59;100;0;131.00;-4;-19.86;-4.93;507.9;14.10;76004;2837.417;-1801.169;1;136;-130;-133.9;43.7;44.0;13;13.1;25.8;0.0;
27/02/2025 10:34:19;100;0;129.91;-4;-19.90;-4.93;510.8;14.00;76004;2837.415;-1801.166;1;136;-130;-133.9;43.7;44.0;13;13.1;25.8;0.0;
27/02/2025 10:34:39;100;0;129.29;-4;-19.97;-4.99;514.1;14.00;76000;2837.413;-1801.163;1;136;-130;-135.5;43.7;44.0;13;13.1;25.8;0.0;
27/02/2025 10:34:59;100;0;127.99;-4;-20.13;-4.93;517.2;14.00;75998;2837.411;-1801.159;1;136;-130;-133.9;43.7;44.0;11;10.8;25.8;0.0;
27/02/2025 10:35:19;100;0;124.69;-4;-20.17;-6.11;520.5;13.90;75982;2837.409;-1801.156;1;136;-130;-133.9;43.7;44.0;9;9.0;25.8;0.0;
27/02/2025 10:35:39;100;0;121.68;-4;-19.57;-7.15;523.8;13.90;75994;2837.407;-1801.152;1;136;-130;-133.9;43.7;44.0;5;5.0;25.8;0.0;
27/02/2025 10:35:59;100;0;124.17;-4;-19.11;-9.29;527.0;13.90;75970;2837.405;-1801.148;1;136;-130;-132.3;43.7;43.9;8;8.1;25.8;0.0;
27/02/2025 10:36:19;100;0;126.76;-4;-19.43;-7.19;530.2;13.90;75977;2837.403;-1801.145;1;136;-130;-132.3;43.7;43.9;11;10.8;25.8;0.0;
27/02/2025 10:36:39;100;0;128.74;-4;-19.54;-5.81;533.3;13.90;75970;2837.401;-1801.141;1;136;-130;-133.9;43.7;44.0;11;11.3;25.8;0.0;
27/02/2025 10:36:59;100;0;129.91;-4;-19.63;-5.88;536.7;13.80;75954;2837.398;-1801.138;1;136;-130;-133.9;43.7;43.9;13;13.1;25.8;0.0;
27/02/2025 10:37:19;100;0;130.71;-4;-19.69;-4.63;539.9;13.80;75966;2837.396;-1801.134;1;136;-130;-137.1;43.7;44.0;13;13.5;25.8;0.0;
27/02/2025 10:37:39;100;0;133.10;-4;-19.83;-4.68;543.0;13.80;75963;2837.394;-1801.131;1;136;-130;-135.5;43.7;44.0;13;13.5;25.8;0.0;
27/02/2025 10:37:59;100;0;135.40;-4;-19.64;-4.65;546.3;13.80;75955;2837.391;-1801.128;1;136;-130;-133.9;43.7;44.0;13;13.5;25.8;0.0;
27/02/2025 10:38:19;100;0;137.35;-4;-19.79;-4.67;549.4;13.70;75942;2837.389;-1801.125;1;136;-130;-133.9;43.7;44.0;13;13.5;25.8;0.0;
27/02/2025 10:38:39;100;0;140.45;-4;-19.65;-4.63;552.6;13.70;75944;2837.386;-1801.123;1;136;-130;-133.9;43.7;44.0;13;13.5;25.8;0.0;
27/02/2025 10:38:59;100;0;143.32;-4;-19.53;-4.66;555.8;13.70;75949;2837.383;-1801.120;1;136;-130;-133.9;43.7;44.0;15;14.9;25.8;0.0;
27/02/2025 10:39:19;100;0;144.22;-4;-19.69;-3.77;558.7;13.70;75942;2837.380;-1801.118;1;136;-130;-133.9;43.7;43.9;15;15.3;25.8;0.0;
27/02/2025 10:39:39;100;0;145.72;-4;-19.85;-3.77;561.8;13.60;75936;2837.377;-1801.116;1;136;-130;-133.9;43.7;44.0;15;15.3;25.8;0.0;
27/02/2025 10:39:59;100;0;147.68;-4;-19.83;-3.81;564.9;13.60;75928;2837.374;-1801.113;1;136;-130;-133.9;43.7;44.0;17;17.1;25.8;0.0;
27/02/2025 10:40:19;100;0;147.13;-4;-19.96;-2.61;567.8;13.60;75921;2837.372;-1801.111;1;136;-130;-133.9;43.7;44.0;17;17.6;25.8;0.0;
27/02/2025 10:40:39;100;0;146.88;-4;-20.02;-2.71;570.7;13.60;75925;2837.369;-1801.109;1;136;-130;-135.5;43.7;44.0;17;17.6;25.8;0.0;
27/02/2025 10:40:59;100;0;146.58;-4;-20.11;-2.59;573.7;13.60;75926;2837.366;-1801.107;1;136;-130;-133.9;43.7;44.0;17;17.6;25.8;0.0;
27/02/2025 10:41:19;100;0;146.44;-4;-20.12;-2.50;576.8;13.50;75910;2837.363;-1801.105;1;136;-130;-135.5;43.7;43.9;17;17.6;25.8;0.0;
27/02/2025 10:41:39;100;0;147.07;-4;-19.90;-2.56;579.7;13.50;75911;2837.360;-1801.103;1;136;-130;-132.3;43.7;44.0;17;17.6;25.8;0.0;
27/02/2025 10:41:59;100;0;148.91;-4;-19.72;-2.64;582.6;13.50;75907;2837.358;-1801.101;1;136;-130;-133.9;43.7;44.0;19;19.0;25.8;0.0;
27/02/2025 10:42:19;100;0;149.01;-4;-20.60;-1.79;585.5;13.50;75910;2837.355;-1801.099;1;136;-130;-133.9;43.7;44.0;19;19.4;25.8;0.0;
27/02/2025 10:42:39;100;0;146.91;-4;-20.46;-1.82;588.5;13.50;75900;2837.352;-1801.097;1;136;-130;-133.9;43.7;44.0;17;17.1;25.8;0.0;
27/02/2025 10:43:00;100;0;144.34;-4;-20.02;-3.14;591.6;13.40;75890;2837.349;-1801.095;1;136;-130;-133.9;43.7;44.0;17;16.7;25.8;0.0;
27/02/2025 10:43:20;100;0;143.09;-4;-19.69;-3.11;594.4;13.40;75887;2837.347;-1801.092;1;136;-130;-132.3;43.7;43.9;15;14.9;25.8;0.0;
27/02/2025 10:43:40;100;0;142.02;-4;-19.61;-4.13;597.3;13.40;75888;2837.344;-1801.090;1;136;-130;-133.9;43.7;44.0;15;14.9;25.8;0.0;
27/02/2025 10:44:00;100;0;140.97;-4;-19.69;-4.13;600.2;13.40;75878;2837.342;-1801.088;1;136;-130;-133.9;43.7;43.9;15;14.9;25.8;0.0;
27/02/2025 10:44:20;100;0;139.41;-4;-19.50;-4.14;603.0;13.30;75876;2837.339;-1801.085;1;136;-130;-132.3;43.7;44.0;15;14.9;25.8;0.0;
27/02/2025 10:44:40;100;0;140.13;-4;-19.41;-4.15;605.9;13.30;75867;2837.337;-1801.082;1;136;-130;-133.9;43.7;43.9;15;14.9;25.8;0.0;
27/02/2025 10:45:00;100;0;136.64;-4;-19.80;-4.20;608.6;13.30;75868;2837.334;-1801.080;1;136;-130;-133.9;43.7;44.0;15;14.9;25.8;0.0;
27/02/2025 10:45:20;100;0;133.89;-4;-19.47;-4.18;611.5;13.30;75858;2837.332;-1801.077;1;136;-130;-133.9;43.7;44.0;15;14.9;25.8;0.0;
27/02/2025 10:45:40;100;0;131.59;-4;-19.55;-4.13;614.4;13.30;75858;2837.330;-1801.074;1;136;-130;-133.9;43.7;44.0;15;14.9;25.8;0.0;
27/02/2025 10:46:00;100;0;129.46;-4;-19.27;-4.15;617.4;13.20;75850;2837.328;-1801.071;1;136;-130;-133.9;43.7;44.0;13;13.1;25.8;0.0;
27/02/2025 10:46:20;100;0;129.49;-4;-19.25;-5.11;620.3;13.20;75854;2837.326;-1801.068;1;136;-130;-133.9;43.7;43.9;13;13.1;25.8;0.0;
27/02/2025 10:46:40;100;0;134.00;-4;-19.14;-5.10;623.0;13.20;75853;2837.324;-1801.065;1;136;-130;-133.9;43.7;44.0;13;13.1;25.8;0.0;
27/02/2025 10:47:00;100;0;135.71;-4;-19.05;-5.09;625.8;13.20;75830;2837.321;-1801.062;1;136;-130;-133.9;43.7;44.0;15;15.3;25.8;0.0;
27/02/2025 10:47:20;100;0;135.49;-4;-19.33;-3.80;628.7;13.10;75828;2837.319;-1801.060;1;136;-130;-133.9;43.7;44.0;15;15.3;25.8;0.0;
27/02/2025 10:47:40;100;0;134.27;-4;-18.91;-3.80;631.3;13.10;75832;2837.317;-1801.057;1;136;-130;-133.9;44.0;44.0;15;15.3;25.8;0.0;
27/02/2025 10:48:00;100;0;135.35;-4;-19.30;-3.83;634.0;13.10;75830;2837.315;-1801.054;1;136;-130;-133.9;44.0;44.0;15;15.3;25.8;0.0;
27/02/2025 10:48:20;100;0;137.02;-4;-19.49;-3.79;636.6;13.10;75820;2837.313;-1801.052;1;136;-130;-132.3;44.0;44.0;15;15.3;25.8;0.0;
27/02/2025 10:48:40;100;0;137.00;-4;-19.72;-3.91;639.3;13.00;75810;2837.311;-1801.049;1;136;-130;-133.9;44.0;44.0;15;15.3;25.8;0.0;
27/02/2025 10:49:00;100;0;139.16;-4;-19.86;-3.53;642.1;13.00;75800;2837.308;-1801.047;1;136;-130;-133.9;44.0;44.0;15;15.3;25.8;0.0;
27/02/2025 10:49:20;100;0;139.04;-4;-19.77;-3.85;644.7;13.00;75796;2837.306;-1801.045;1;136;-130;-133.9;44.0;44.0;15;15.8;25.8;0.0;
27/02/2025 10:49:40;100;0;139.77;-4;-19.26;-3.76;647.4;13.00;75791;2837.304;-1801.042;1;136;-130;-133.9;44.0;43.9;15;15.3;25.8;0.0;
27/02/2025 10:50:00;100;0;140.09;-4;-19.04;-3.88;650.0;13.00;75792;2837.302;-1801.040;1;136;-130;-133.9;44.0;43.9;15;15.3;25.8;0.0;
27/02/2025 10:50:20;100;0;142.55;-4;-18.99;-3.84;652.6;12.90;75786;2837.299;-1801.038;1;136;-130;-133.9;44.3;44.3;15;15.8;25.8;0.0;
27/02/2025 10:50:40;100;0;143.51;-4;-20.18;-3.78;655.2;12.90;75775;2837.297;-1801.036;1;136;-130;-135.5;44.3;44.5;15;15.3;25.8;0.0;
27/02/2025 10:51:00;100;0;142.61;-4;-20.13;-3.75;657.8;12.90;75769;2837.295;-1801.034;1;136;-130;-133.9;44.3;44.5;15;15.8;25.8;0.0;
27/02/2025 10:51:20;100;0;139.75;-4;-20.58;-3.77;660.4;12.90;75769;2837.292;-1801.032;1;136;-130;-137.1;44.3;44.5;15;15.3;25.8;0.0;
27/02/2025 10:51:40;100;0;138.00;-4;-20.16;-3.77;663.0;12.80;75743;2837.290;-1801.030;1;136;-130;-133.9;44.3;44.5;15;15.3;25.8;0.0;
27/02/2025 10:52:00;100;0;136.73;-4;-20.21;-3.75;665.6;12.80;75739;2837.288;-1801.027;1;136;-130;-133.9;44.3;44.5;15;15.8;25.8;0.0;
27/02/2025 10:52:20;100;0;135.45;-4;-20.38;-3.78;668.2;12.80;75732;2837.286;-1801.025;1;136;-130;-133.9;44.3;44.5;15;15.8;25.8;0.0;
27/02/2025 10:52:40;100;0;135.40;-4;-20.34;-3.71;670.7;12.80;75719;2837.284;-1801.022;1;136;-130;-133.9;44.3;44.5;15;15.3;25.8;0.0;
27/02/2025 10:53:00;100;0;136.15;-4;-20.34;-3.70;673.2;12.70;75723;2837.282;-1801.020;1;136;-130;-133.9;44.3;44.6;15;15.3;25.8;0.0;
27/02/2025 10:53:20;100;0;137.89;-4;-20.47;-3.71;675.8;12.70;75714;2837.280;-1801.018;1;136;-130;-133.9;44.3;44.5;15;15.3;25.8;0.0;
27/02/2025 10:53:40;100;0;139.28;-4;-20.21;-3.80;678.3;12.70;75711;2837.278;-1801.016;1;136;-130;-133.9;44.3;44.5;15;15.3;25.8;0.0;
27/02/2025 10:54:00;100;0;140.72;-4;-20.44;-3.75;680.7;12.70;75697;2837.276;-1801.014;1;136;-130;-133.9;44.3;44.5;15;15.8;25.8;0.0;
27/02/2025 10:54:20;100;0;143.15;-4;-20.32;-3.72;683.3;12.60;75696;2837.274;-1801.012;1;136;-130;-133.9;44.3;44.5;15;15.3;25.8;0.0;
27/02/2025 10:54:40;100;0;144.57;-4;-20.10;-3.74;685.7;12.60;75686;2837.272;-1801.010;1;136;-130;-135.5;44.3;44.6;15;15.3;25.8;0.0;
27/02/2025 10:55:00;100;0;144.49;-4;-20.21;-3.81;688.2;12.60;75676;2837.270;-1801.008;1;136;-130;-133.9;44.3;44.5;15;15.3;25.8;0.0;
27/02/2025 10:55:20;100;0;143.88;-4;-20.11;-3.80;690.8;12.60;75669;2837.267;-1801.006;1;136;-130;-135.5;44.3;44.5;15;15.3;25.8;0.0;
27/02/2025 10:55:40;100;0;143.70;-4;-20.08;-3.83;693.3;12.50;75664;2837.265;-1801.004;1;136;-130;-133.9;44.3;44.5;15;15.8;25.8;0.0;
27/02/2025 10:56:00;100;0;143.46;-4;-19.82;-3.83;695.6;12.50;75668;2837.263;-1801.002;1;136;-130;-133.9;44.3;44.5;15;15.3;25.8;0.0;
27/02/2025 10:56:20;100;0;141.84;-4;-19.78;-3.86;698.1;12.50;75657;2837.261;-1801.000;1;136;-130;-133.9;44.3;44.5;15;15.3;25.8;0.0;
27/02/2025 10:56:40;100;0;139.55;-4;-19.53;-3.94;700.4;12.50;75647;2837.259;-1800.999;1;136;-130;-133.9;44.3;44.6;15;15.3;25.8;0.0;
27/02/2025 10:57:00;100;0;139.35;-4;-20.43;-3.75;702.7;12.40;75650;2837.257;-1800.997;1;136;-130;-133.9;44.3;44.5;15;15.3;25.8;0.0;
27/02/2025 10:57:20;100;0;137.79;-4;-19.81;-3.80;705.2;12.40;75641;2837.255;-1800.994;1;136;-130;-133.9;44.3;44.5;15;15.8;25.8;0.0;
27/02/2025 10:57:40;100;0;136.26;-4;-19.74;-3.72;707.5;12.40;75634;2837.254;-1800.992;1;136;-130;-133.9;44.3;44.5;15;15.3;25.8;0.0;
27/02/2025 10:58:00;100;0;135.62;-4;-20.07;-3.86;709.9;12.40;75635;2837.252;-1800.990;1;136;-130;-133.9;44.3;44.6;15;15.3;25.8;0.0;
27/02/2025 10:58:20;100;0;135.40;-4;-20.08;-3.84;712.4;12.30;75638;2837.250;-1800.988;1;136;-130;-137.1;44.3;44.5;15;15.3;25.8;0.0;
27/02/2025 10:58:40;100;0;134.88;-4;-20.23;-3.81;714.7;12.30;75615;2837.248;-1800.986;1;136;-130;-133.9;44.3;44.5;15;15.3;25.8;0.0;
27/02/2025 10:59:00;100;0;134.65;-4;-19.88;-3.62;717.1;12.30;75619;2837.246;-1800.983;1;136;-130;-133.9;44.3;44.6;15;15.3;25.8;0.0;
27/02/2025 10:59:20;100;0;136.05;-4;-20.18;-3.77;719.4;12.30;75614;2837.245;-1800.981;1;136;-130;-137.1;44.3;44.6;15;15.3;25.8;0.0;
27/02/2025 10:59:40;100;0;136.71;-4;-20.09;-3.82;721.9;12.20;75613;2837.243;-1800.979;1;136;-130;-135.5;44.3;44.5;15;15.8;25.8;0.0;
27/02/2025 11:00:00;100;0;138.19;-4;-19.89;-3.71;724.4;12.20;75601;2837.241;-1800.977;1;136;-130;-133.9;44.3;44.5;15;15.3;25.8;0.0;
27/02/2025 11:00:20;100;0;139.41;-4;-19.88;-3.72;727.0;12.20;75604;2837.238;-1800.975;1;136;-130;-133.9;44.3;44.5;15;15.3;25.8;0.0;
27/02/2025 11:00:40;100;0;139.25;-4;-19.93;-3.81;729.4;12.20;75595;2837.237;-1800.973;1;136;-130;-133.9;44.3;44.5;15;15.3;25.8;0.0;
27/02/2025 11:01:00;100;0;138.81;-4;-20.02;-3.76;731.8;12.10;75577;2837.235;-1800.971;1;136;-130;-133.9;44.3;44.5;15;15.3;25.8;0.0;
27/02/2025 11:01:20;100;0;138.09;-4;-19.91;-3.79;734.3;12.10;75586;2837.233;-1800.968;1;136;-130;-133.9;44.3;44.5;15;15.3;25.8;0.0;
27/02/2025 11:01:40;100;0;137.85;-4;-20.19;-3.73;736.8;12.10;75571;2837.231;-1800.966;1;136;-130;-133.9;44.3;44.6;15;15.8;25.8;0.0;
27/02/2025 11:02:00;100;0;136.03;-4;-19.78;-3.80;739.2;12.10;75572;2837.229;-1800.964;1;136;-130;-133.9;44.3;44.6;15;15.3;25.8;0.0;
27/02/2025 11:02:20;100;0;135.39;-4;-19.90;-3.85;741.6;12.10;75564;2837.227;-1800.962;1;136;-130;-135.5;44.3;44.5;15;15.3;25.8;0.0;
27/02/2025 11:02:40;100;0;136.94;-4;-20.10;-3.72;744.0;12.00;75565;2837.225;-1800.960;1;136;-130;-132.3;44.3;44.5;15;15.3;25.8;0.0;
27/02/2025 11:03:00;100;0;139.32;-4;-20.30;-3.76;746.5;12.00;75555;2837.223;-1800.958;1;136;-130;-137.1;44.3;44.6;15;15.8;25.8;0.0;
27/02/2025 11:03:20;100;0;142.77;-4;-19.83;-3.71;749.2;12.00;75548;2837.221;-1800.955;1;136;-130;-133.9;44.3;44.5;15;15.3;25.8;0.0;
27/02/2025 11:03:40;100;0;141.92;-4;-19.71;-3.73;751.8;11.90;75539;2837.218;-1800.953;1;136;-130;-133.9;44.3;44.5;15;15.3;25.8;0.0;
27/02/2025 11:04:00;100;0;141.46;-4;-20.13;-3.78;754.3;11.90;75543;2837.216;-1800.951;1;136;-130;-133.9;44.3;44.5;15;15.8;25.8;0.0;
27/02/2025 11:04:20;100;0;141.06;-4;-19.99;-3.78;756.9;11.90;75541;2837.214;-1800.949;1;136;-130;-133.9;44.3;44.5;15;15.3;25.8;0.0;
27/02/2025 11:04:40;100;0;140.10;-4;-19.70;-3.75;759.5;11.90;75523;2837.212;-1800.947;1;136;-130;-133.9;44.3;44.5;15;15.8;25.8;0.0;
27/02/2025 11:05:00;100;0;137.71;-4;-20.07;-3.84;761.9;11.90;75526;2837.210;-1800.945;1;136;-130;-133.9;44.3;44.5;15;15.3;25.8;0.0;
27/02/2025 11:05:20;100;0;136.26;-4;-20.33;-3.84;764.5;11.80;75519;2837.208;-1800.942;1;136;-130;-133.9;44.3;44.5;15;15.3;25.8;0.0;
27/02/2025 11:05:40;100;0;133.42;-4;-19.77;-3.77;767.1;11.80;75509;2837.206;-1800.940;1;136;-130;-137.1;44.3;44.5;15;15.3;25.8;0.0;
27/02/2025 11:06:00;100;0;132.85;-4;-19.72;-3.83;769.6;11.80;75508;2837.204;-1800.938;1;136;-130;-133.9;44.3;44.6;15;15.3;25.8;0.0;
27/02/2025 11:06:20;100;0;131.36;-4;-19.74;-3.80;772.1;11.80;75514;2837.203;-1800.935;1;136;-130;-133.9;44.3;44.5;15;15.3;25.8;0.0;
27/02/2025 11:06:40;100;0;130.90;-4;-19.75;-3.77;774.5;11.70;75498;2837.201;-1800.933;1;136;-130;-133.9;44.3;44.5;15;15.3;25.8;0.0;
27/02/2025 11:07:00;100;0;129.79;-4;-19.71;-3.86;776.8;11.70;75500;2837.199;-1800.930;1;136;-130;-133.9;44.3;44.5;13;12.6;25.8;0.0;
27/02/2025 11:07:20;100;0;129.37;-4;-19.64;-5.28;779.3;11.70;75493;2837.198;-1800.928;1;136;-130;-133.9;44.3;44.5;13;12.6;25.8;0.0;
27/02/2025 11:07:40;100;0;128.80;-4;-19.94;-5.25;781.7;11.70;75492;2837.196;-1800.925;1;136;-130;-133.9;44.3;44.5;13;12.6;25.8;0.0;
27/02/2025 11:08:00;100;0;127.03;-4;-19.78;-5.29;784.2;11.70;75483;2837.195;-1800.923;1;136;-130;-133.9;44.3;44.5;11;10.8;25.8;0.0;
27/02/2025 11:08:20;100;0;126.40;-4;-19.31;-6.17;786.5;11.60;75481;2837.193;-1800.920;1;136;-130;-133.9;44.3;44.6;11;10.8;25.8;0.0;
27/02/2025 11:08:40;100;0;130.52;-4;-19.76;-6.13;788.7;11.60;75471;2837.192;-1800.918;1;136;-130;-133.9;44.3;44.5;13;13.1;25.8;0.0;
27/02/2025 11:09:00;100;0;129.10;-4;-19.85;-4.85;791.1;11.60;75459;2837.190;-1800.915;1;136;-130;-133.9;44.3;44.5;13;13.5;25.8;0.0;
27/02/2025 11:09:20;100;0;132.36;-4;-20.34;-4.81;793.5;11.60;75449;2837.188;-1800.913;1;136;-130;-133.9;44.3;44.5;13;13.5;25.8;0.0;
27/02/2025 11:09:40;100;0;132.52;-4;-19.48;-4.89;795.9;11.60;75452;2837.187;-1800.911;1;136;-130;-135.5;44.3;44.6;13;13.1;25.8;0.0;
27/02/2025 11:10:00;100;0;135.06;-4;-20.01;-4.94;798.3;11.50;75447;2837.185;-1800.908;1;136;-130;-133.9;44.3;44.6;13;13.5;25.8;0.0;
27/02/2025 11:10:20;100;0;136.22;-4;-20.05;-4.82;800.6;11.50;75448;2837.183;-1800.906;1;136;-130;-132.3;44.3;44.6;13;13.5;25.8;0.0;
27/02/2025 11:10:40;100;0;136.95;-4;-19.75;-4.78;803.2;11.50;75442;2837.181;-1800.904;1;136;-130;-135.5;44.3;44.6;13;13.1;25.8;0.0;
27/02/2025 11:11:00;100;0;137.00;-4;-19.60;-4.85;805.5;11.50;75450;2837.179;-1800.902;1;136;-130;-133.9;44.3;44.6;13;13.5;25.8;0.0;
27/02/2025 11:11:20;100;0;137.37;-4;-19.50;-4.83;807.9;11.40;75436;2837.177;-1800.900;1;136;-130;-135.5;44.3;44.5;13;13.5;25.8;0.0;
27/02/2025 11:11:40;100;0;136.93;-4;-19.44;-4.89;810.2;11.40;75428;2837.175;-1800.898;1;136;-130;-133.9;44.3;44.5;13;13.5;25.8;0.0;
27/02/2025 11:12:00;100;0;136.06;-4;-19.42;-4.86;812.5;11.40;75421;2837.174;-1800.895;1;136;-130;-133.9;44.3;44.6;13;13.5;25.8;0.0;
27/02/2025 11:12:20;100;0;135.59;-4;-19.69;-4.85;814.7;11.40;75411;2837.172;-1800.893;1;136;-130;-135.5;44.3;44.5;13;13.1;25.8;0.0;
27/02/2025 11:12:40;100;0;136.50;-4;-19.25;-4.74;817.0;11.40;75420;2837.170;-1800.891;1;136;-130;-133.9;44.3;44.6;13;13.1;25.8;0.0;
27/02/2025 11:13:00;100;0;137.77;-4;-19.89;-4.82;819.3;11.30;75416;2837.168;-1800.889;1;136;-130;-133.9;44.3;44.6;13;13.5;25.8;0.0;
27/02/2025 11:13:20;100;0;138.93;-4;-19.75;-4.83;821.7;11.30;75416;2837.166;-1800.887;1;136;-130;-133.9;44.3;44.5;13;13.1;25.8;0.0;
27/02/2025 11:13:40;100;0;138.73;-4;-19.75;-4.83;824.3;11.30;75407;2837.164;-1800.885;1;136;-130;-133.9;44.3;44.6;13;13.5;25.8;0.0;
27/02/2025 11:14:00;100;0;139.83;-4;-19.47;-4.82;826.8;11.30;75401;2837.162;-1800.883;1;136;-130;-133.9;44.3;44.6;13;13.5;25.8;0.0;
27/02/2025 11:14:20;100;0;140.49;-4;-19.41;-4.84;829.2;11.30;75400;2837.160;-1800.881;1;136;-130;-133.9;44.3;44.5;13;13.5;25.8;0.0;
27/02/2025 11:14:40;100;0;139.38;-4;-19.39;-4.81;831.7;11.20;75401;2837.158;-1800.878;1;136;-130;-133.9;44.3;44.5;13;13.1;25.8;0.0;
27/02/2025 11:15:00;100;0;139.49;-4;-19.62;-4.80;834.0;11.20;75390;2837.156;-1800.876;1;136;-130;-133.9;44.3;44.6;13;13.1;25.8;0.0;
27/02/2025 11:15:20;100;0;139.73;-4;-19.47;-4.92;836.7;11.20;75385;2837.154;-1800.874;1;136;-130;-133.9;44.3;44.5;13;13.5;25.8;0.0;
27/02/2025 11:15:40;100;0;140.07;-4;-19.61;-4.91;839.2;11.20;75390;2837.152;-1800.872;1;136;-130;-133.9;44.3;44.5;13;13.5;25.8;0.0;
27/02/2025 11:16:00;100;0;141.15;-4;-19.69;-4.96;841.9;11.10;75374;2837.149;-1800.870;1;136;-130;-133.9;44.3;44.5;15;14.9;25.8;0.0;
27/02/2025 11:16:20;100;0;141.59;-4;-19.77;-4.05;844.6;11.10;75369;2837.147;-1800.868;1;136;-130;-137.1;44.3;44.5;15;14.9;25.8;0.0;
27/02/2025 11:16:40;100;0;142.04;-4;-19.44;-4.01;847.3;11.10;75351;2837.145;-1800.865;1;136;-130;-133.9;44.3;44.5;15;14.9;25.8;0.0;
27/02/2025 11:17:00;100;0;142.56;-4;-19.66;-4.00;850.0;11.10;75366;2837.142;-1800.863;1;136;-130;-133.9;44.3;44.5;15;14.9;25.8;0.0;
27/02/2025 11:17:21;100;0;142.86;-4;-19.69;-4.03;852.8;11.10;75359;2837.140;-1800.861;1;136;-130;-133.9;44.3;44.5;15;15.3;25.8;0.0;
27/02/2025 11:17:41;100;0;142.97;-4;-19.68;-4.03;855.7;11.00;75359;2837.137;-1800.859;1;136;-130;-135.5;44.3;44.6;15;15.3;25.8;0.0;
27/02/2025 11:18:01;100;0;143.70;-4;-19.96;-3.92;858.5;11.00;75358;2837.135;-1800.856;1;136;-130;-133.9;44.3;44.6;15;15.3;25.8;0.0;
27/02/2025 11:18:21;100;0;150.83;-4;-19.33;-3.86;861.4;11.00;75355;2837.132;-1800.855;1;136;-130;-135.5;44.3;44.5;21;21.2;25.8;0.0;
27/02/2025 11:18:41;100;0;150.80;-4;-19.65;-0.77;864.3;11.00;75335;2837.129;-1800.853;1;136;-130;-132.3;44.3;44.6;21;21.7;25.8;0.0;
27/02/2025 11:19:01;100;0;147.82;-4;-19.76;-0.81;867.2;11.00;75332;2837.126;-1800.851;1;136;-130;-132.3;44.3;44.5;18;18.1;25.8;0.0;
27/02/2025 11:19:21;100;0;146.85;-4;-19.53;-2.76;870.0;10.90;75325;2837.123;-1800.849;1;136;-130;-133.9;44.3;44.5;18;17.6;25.8;0.0;
27/02/2025 11:19:41;100;0;146.84;-4;-19.40;-2.81;872.9;10.90;75320;2837.120;-1800.847;1;136;-130;-133.9;44.3;44.5;18;17.6;25.8;0.0;
27/02/2025 11:20:01;100;0;146.92;-4;-19.61;-2.78;875.8;10.90;75317;2837.118;-1800.845;1;136;-130;-133.9;44.3;44.5;18;17.6;25.8;0.0;
27/02/2025 11:20:21;100;0;147.82;-4;-19.53;-2.81;878.7;10.90;75310;2837.115;-1800.843;1;136;-130;-133.9;44.3;44.5;18;18.1;25.8;0.0;
27/02/2025 11:20:41;100;0;149.41;-4;-19.44;-2.83;881.4;10.90;75310;2837.112;-1800.841;1;136;-130;-133.9;44.3;44.6;18;18.1;25.8;0.0;
27/02/2025 11:21:01;100;0;149.14;-4;-19.43;-2.77;884.3;10.80;75300;2837.109;-1800.839;1;136;-130;-133.9;44.3;44.5;18;18.1;25.8;0.0;
27/02/2025 11:21:21;100;0;148.12;-4;-19.47;-2.75;887.2;10.80;75301;2837.106;-1800.837;1;136;-130;-137.1;44.3;44.5;18;18.1;25.8;0.0;
27/02/2025 11:21:41;100;0;144.92;-4;-19.53;-2.80;889.9;10.80;75297;2837.104;-1800.835;1;136;-130;-133.9;44.3;44.6;16;15.8;25.8;0.0;
27/02/2025 11:22:01;100;0;143.81;-4;-19.15;-3.95;892.8;10.80;75292;2837.101;-1800.832;1;136;-130;-135.5;44.3;44.6;16;15.3;25.8;0.0;
27/02/2025 11:22:21;100;0;142.44;-4;-19.15;-3.93;895.5;10.80;75296;2837.099;-1800.830;1;136;-130;-133.9;44.3;44.5;16;15.3;25.8;0.0;
27/02/2025 11:22:41;100;0;140.55;-4;-19.42;-3.97;898.2;10.70;75291;2837.096;-1800.828;1;136;-130;-133.9;44.3;44.6;16;15.3;25.8;0.0;
27/02/2025 11:23:01;100;0;137.27;-4;-19.10;-3.94;900.8;10.70;75289;2837.094;-1800.825;1;136;-130;-133.9;44.3;44.6;16;15.3;25.8;0.0;
27/02/2025 11:23:21;100;0;137.59;-4;-19.06;-4.03;903.4;10.70;75280;2837.092;-1800.823;1;136;-130;-133.9;44.3;44.5;16;15.3;25.8;0.0;
27/02/2025 11:23:41;100;0;136.31;-4;-19.00;-3.98;906.0;10.70;75270;2837.090;-1800.820;1;136;-130;-133.9;44.3;44.6;16;15.3;25.8;0.0;
27/02/2025 11:24:01;100;0;135.24;-4;-19.06;-4.01;908.3;10.70;75260;2837.088;-1800.818;1;136;-130;-132.3;44.3;44.5;16;15.3;25.8;0.0;
27/02/2025 11:24:21;100;0;135.01;-4;-19.21;-3.92;910.8;10.60;75270;2837.086;-1800.816;1;136;-130;-137.1;44.3;44.6;16;15.3;25.8;0.0;
27/02/2025 11:24:41;100;0;133.62;-4;-19.23;-3.99;913.1;10.60;75270;2837.084;-1800.813;1;136;-130;-133.9;44.3;44.5;16;15.3;25.8;0.0;
27/02/2025 11:25:01;100;0;133.76;-4;-19.00;-3.93;915.5;10.60;75260;2837.083;-1800.811;1;136;-130;-135.5;44.3;44.6;16;15.3;25.8;0.0;
27/02/2025 11:25:21;100;0;133.51;-4;-19.10;-3.95;917.7;10.60;75265;2837.081;-1800.809;1;136;-130;-135.5;44.3;44.5;16;15.3;25.8;0.0;
27/02/2025 11:25:41;100;0;133.49;-4;-19.45;-4.04;920.0;10.60;75262;2837.079;-1800.807;1;136;-130;-133.9;44.3;44.5;16;15.3;25.8;0.0;
27/02/2025 11:26:01;100;0;133.27;-4;-19.15;-3.88;922.3;10.50;75244;2837.077;-1800.804;1;136;-130;-135.5;44.3;44.6;16;15.3;25.8;0.0;
27/02/2025 11:26:21;100;0;134.12;-4;-19.22;-3.96;924.5;10.50;75250;2837.076;-1800.802;1;136;-130;-133.9;44.3;44.5;16;15.3;25.8;0.0;
27/02/2025 11:26:41;100;0;134.85;-4;-18.98;-3.93;926.6;10.50;75241;2837.074;-1800.800;1;136;-130;-133.9;44.6;44.6;16;15.3;25.8;0.0;
27/02/2025 11:27:01;100;0;133.46;-4;-19.30;-3.95;928.8;10.50;75242;2837.073;-1800.798;1;136;-130;-133.9;44.6;44.5;14;14.0;25.8;0.0;
27/02/2025 11:27:21;100;0;133.23;-4;-19.19;-4.84;930.9;10.50;75237;2837.071;-1800.796;1;136;-130;-133.9;44.6;44.6;14;13.5;25.8;0.0;
27/02/2025 11:27:41;100;0;133.21;-4;-19.29;-4.87;933.0;10.40;75235;2837.070;-1800.794;1;136;-130;-133.9;44.6;44.6;14;13.5;25.8;0.0;
27/02/2025 11:28:01;100;0;133.90;-4;-19.07;-4.91;935.1;10.40;75230;2837.068;-1800.792;1;136;-130;-133.9;44.6;44.5;14;13.5;25.8;0.0;
27/02/2025 11:28:21;100;0;134.02;-4;-18.93;-4.83;937.0;10.40;75232;2837.067;-1800.790;1;136;-150;-151.6;44.9;44.9;14;13.5;25.8;0.0;
27/02/2025 11:28:41;100;0;135.79;-4;-19.75;-4.73;939.2;10.40;75277;2837.065;-1800.788;1;136;-150;-153.2;44.9;45.1;14;13.5;25.8;0.0;
27/02/2025 11:29:01;100;0;137.31;-4;-19.98;-4.73;941.5;10.40;75264;2837.063;-1800.786;1;136;-150;-153.2;44.9;45.1;14;13.5;25.8;0.0;
27/02/2025 11:29:21;100;0;138.50;-4;-19.90;-4.85;943.9;10.40;75270;2837.061;-1800.784;1;136;-150;-154.8;44.9;45.1;14;13.5;25.8;0.0;
27/02/2025 11:29:41;100;0;139.18;-4;-19.96;-4.78;946.3;10.30;75268;2837.059;-1800.782;1;136;-150;-154.8;44.9;45.1;14;13.5;25.8;0.0;
27/02/2025 11:30:01;100;0;140.66;-4;-19.52;-4.54;948.6;10.30;75256;2837.057;-1800.780;1;136;-150;-153.2;44.9;45.1;14;13.5;25.8;0.0;
27/02/2025 11:30:21;100;0;141.40;-4;-20.15;-4.77;951.0;10.30;75259;2837.055;-1800.778;1;136;-150;-153.2;44.9;45.1;14;13.5;25.8;0.0;
27/02/2025 11:30:41;100;0;140.55;-4;-19.58;-4.70;953.4;10.30;75255;2837.053;-1800.776;1;136;-150;-153.2;44.9;45.1;14;13.5;25.8;0.0;
27/02/2025 11:31:01;100;0;139.96;-4;-20.18;-4.74;955.7;10.30;75251;2837.051;-1800.774;1;136;-150;-153.2;44.9;45.1;14;13.5;25.8;0.0;
27/02/2025 11:31:21;100;0;141.61;-4;-19.76;-4.75;958.1;10.30;75251;2837.049;-1800.772;1;136;-150;-151.6;44.9;45.1;14;13.5;25.8;0.0;
27/02/2025 11:31:41;100;0;144.69;-4;-19.65;-4.72;960.4;10.20;75249;2837.047;-1800.771;1;136;-150;-156.5;44.9;45.1;16;15.8;25.8;0.0;
27/02/2025 11:32:01;100;0;145.03;-4;-19.96;-3.47;962.7;10.20;75251;2837.045;-1800.769;1;136;-150;-153.2;44.9;45.2;16;16.2;25.8;0.0;
27/02/2025 11:32:21;100;0;144.25;-4;-20.15;-3.43;965.0;10.20;75239;2837.043;-1800.767;1;136;-150;-153.2;44.9;45.1;16;16.2;25.8;0.0;
27/02/2025 11:32:41;100;0;142.74;-4;-20.12;-3.51;967.4;10.20;75244;2837.041;-1800.765;1;136;-150;-154.8;44.9;45.1;16;16.2;25.8;0.0;
27/02/2025 11:33:01;100;0;141.94;-4;-20.03;-3.45;969.6;10.20;75238;2837.039;-1800.764;1;136;-150;-153.2;44.9;45.1;16;16.2;25.8;0.0;
27/02/2025 11:33:21;100;0;139.93;-4;-19.75;-3.34;972.0;10.20;75242;2837.038;-1800.762;1;136;-150;-153.2;44.9;45.1;16;16.2;25.8;0.0;
27/02/2025 11:33:41;100;0;137.69;-4;-20.04;-3.46;974.3;10.20;75237;2837.036;-1800.760;1;136;-150;-153.2;44.9;45.2;16;15.8;25.8;0.0;
27/02/2025 11:34:01;100;0;137.42;-4;-20.02;-3.49;976.6;10.10;75233;2837.034;-1800.758;1;136;-150;-153.2;44.9;45.2;16;16.2;25.8;0.0;
27/02/2025 11:34:21;100;0;136.06;-4;-19.99;-3.47;979.0;10.10;75225;2837.032;-1800.755;1;136;-150;-153.2;44.9;45.1;16;16.2;25.8;0.0;
27/02/2025 11:34:41;100;0;135.75;-4;-20.00;-3.42;981.5;10.10;75216;2837.030;-1800.753;1;136;-150;-156.5;44.9;45.1;16;16.2;25.8;0.0;
27/02/2025 11:35:01;100;0;136.60;-4;-19.66;-3.47;983.9;10.10;75217;2837.028;-1800.751;1;136;-150;-153.2;44.9;45.1;16;16.2;25.8;0.0;
27/02/2025 11:35:21;100;0;137.00;-4;-20.90;-3.77;986.3;10.10;75218;2837.026;-1800.749;1;136;-150;-151.6;44.9;45.1;16;16.2;25.8;0.0;
27/02/2025 11:35:41;100;0;137.55;-4;-19.97;-3.47;988.9;10.10;75225;2837.024;-1800.747;1;136;-150;-153.2;44.9;45.1;16;16.2;25.8;0.0;
27/02/2025 11:36:01;100;0;136.27;-4;-20.11;-3.50;991.4;10.00;75209;2837.022;-1800.744;1;136;-150;-153.2;44.9;45.1;16;16.2;25.8;0.0;
27/02/2025 11:36:21;100;0;137.70;-4;-20.03;-3.37;993.6;10.00;75211;2837.021;-1800.742;1;136;-150;-154.8;44.9;45.1;16;16.2;25.8;0.0;
27/02/2025 11:36:41;100;0;136.40;-4;-20.10;-3.45;995.8;10.00;75212;2837.019;-1800.740;1;136;-150;-153.2;44.9;45.1;16;16.2;25.8;0.0;
27/02/2025 11:37:01;100;0;135.93;-4;-19.67;-3.42;998.1;10.00;75210;2837.017;-1800.738;1;136;-150;-154.8;44.9;45.1;16;16.2;25.8;0.0;
27/02/2025 11:37:08;118;0;134.84;-4;-20.12;-3.50;998.7;10.00;75199;2837.017;-1800.738;1;136;450;-151.6;21.6;21.6;7;7.2;25.8;0.0;
27/02/2025 11:37:18;118;0;112.69;-4;-6.28;-8.68;999.7;10.00;75192;2837.016;-1800.736;1;136;450;-24.2;21.6;21.4;7;7.2;24.5;-1.0;
27/02/2025 11:37:28;118;0;95.54;-4;20.49;-8.46;999.4;10.00;74917;2837.017;-1800.736;1;136;450;100.0;21.6;21.8;7;7.2;24.5;-1.0;
27/02/2025 11:37:38;118;0;91.78;-4;29.92;-8.92;998.3;10.00;74665;2837.017;-1800.735;1;136;450;224.2;21.6;21.8;7;7.2;24.4;-1.0;
27/02/2025 11:37:48;118;0;91.45;-4;29.75;-8.83;996.7;10.00;74420;2837.017;-1800.734;1;136;450;346.8;21.6;21.8;7;7.2;24.4;-1.0;
27/02/2025 11:37:58;118;0;91.11;-4;27.50;-8.70;994.9;10.00;74173;2837.017;-1800.732;1;136;450;451.6;21.6;21.8;7;7.2;24.4;-1.0;
27/02/2025 11:38:08;118;0;128.92;-4;24.22;-6.78;992.7;10.00;73956;2837.016;-1800.730;1;136;450;451.6;21.6;21.8;7;7.2;25.8;-1.0;
27/02/2025 11:38:18;118;0;124.56;-4;21.73;-7.49;990.7;10.00;73969;2837.015;-1800.728;1;136;450;450.0;21.6;21.8;7;7.2;25.8;-1.0;
27/02/2025 11:38:38;117;0;117.09;-4;19.77;-7.20;986.9;10.10;73958;2837.013;-1800.723;1;136;450;453.2;21.6;21.9;7;7.2;25.8;-1.0;
27/02/2025 11:38:58;117;0;106.94;-4;19.32;-7.55;983.4;10.20;73970;2837.012;-1800.718;1;136;450;451.6;21.6;21.8;62;61.8;25.8;-1.0;
27/02/2025 11:39:18;117;0;116.61;-4;21.19;21.24;979.9;10.20;73969;2837.010;-1800.714;1;136;450;451.6;21.6;21.9;46;46.0;25.8;-1.0;
27/02/2025 11:39:38;117;0;125.56;-4;22.71;12.18;975.8;10.20;73963;2837.008;-1800.710;1;136;450;451.6;22.4;22.5;33;32.9;25.8;-1.0;
27/02/2025 11:39:58;117;0;126.77;-4;21.62;5.53;971.6;10.20;73957;2837.005;-1800.706;1;136;450;451.6;22.4;22.5;33;32.9;25.8;-1.0;
27/02/2025 11:40:18;117;0;128.31;-4;21.01;5.39;967.7;10.20;73951;2837.003;-1800.702;1;136;450;451.6;22.4;22.5;31;31.1;25.8;-1.0;
27/02/2025 11:40:38;117;0;130.21;-4;21.08;4.41;964.0;10.20;73949;2837.000;-1800.698;1;136;450;451.6;22.4;22.5;31;30.7;25.8;-1.0;
27/02/2025 11:40:58;117;0;131.63;-4;21.07;4.43;960.3;10.20;73948;2836.997;-1800.694;1;136;450;450.0;22.4;22.5;29;28.4;25.8;-1.0;
27/02/2025 11:41:18;117;0;131.99;-4;20.88;3.25;956.4;10.20;73945;2836.995;-1800.690;1;136;450;451.6;22.4;22.5;29;28.4;25.8;-1.0;
27/02/2025 11:41:38;117;0;133.42;-4;20.92;3.18;952.7;10.10;73934;2836.992;-1800.687;1;136;450;451.6;22.4;22.5;29;28.4;25.8;-1.0;
27/02/2025 11:41:58;117;0;133.33;-4;20.88;3.24;948.8;10.10;73936;2836.989;-1800.683;1;136;450;451.6;22.4;22.5;29;28.4;25.8;-1.0;
27/02/2025 11:42:18;117;0;133.39;-4;21.08;3.14;945.2;10.10;73936;2836.986;-1800.680;1;136;450;451.6;22.4;22.7;29;28.4;25.8;-1.0;
27/02/2025 11:42:38;117;0;132.16;-4;20.98;3.43;941.4;10.10;73943;2836.984;-1800.676;1;136;450;451.6;22.4;22.5;29;28.4;25.8;-1.0;
27/02/2025 11:42:58;117;0;131.81;-4;20.72;3.14;937.7;10.10;73927;2836.981;-1800.672;1;136;450;451.6;22.4;22.5;29;28.4;25.8;-1.0;
27/02/2025 11:43:18;117;0;132.21;-4;20.60;2.90;934.1;10.10;73927;2836.978;-1800.669;1;136;450;450.0;22.4;22.5;29;28.4;25.8;-1.0;
27/02/2025 11:43:38;117;0;131.42;-4;20.96;3.36;930.7;10.00;73915;2836.976;-1800.665;1;136;450;451.6;22.4;22.5;29;28.4;25.8;-1.0;
27/02/2025 11:43:58;117;0;130.39;-4;20.49;3.08;927.0;10.00;73912;2836.973;-1800.662;1;136;450;451.6;22.4;22.5;29;28.4;25.8;-1.0;
27/02/2025 11:44:18;117;0;129.48;-4;20.48;3.21;923.5;10.00;73918;2836.971;-1800.658;1;136;450;451.6;22.4;22.5;29;28.4;25.8;-1.0;
27/02/2025 11:44:38;117;0;134.43;-4;20.81;3.04;919.9;10.00;73909;2836.968;-1800.655;1;136;450;451.6;22.4;22.5;29;28.4;25.8;-1.0;
27/02/2025 11:44:58;117;0;135.02;-4;21.18;3.24;916.3;10.00;73909;2836.965;-1800.651;1;136;450;451.6;22.4;22.5;29;28.4;25.8;-1.0;
27/02/2025 11:45:18;117;0;136.47;-4;20.82;3.21;912.7;10.00;73910;2836.962;-1800.648;1;136;450;450.0;22.4;22.5;29;28.4;25.8;-1.0;
27/02/2025 11:45:38;117;0;136.20;-4;20.54;3.24;909.0;10.00;73910;2836.959;-1800.645;1;136;450;451.6;22.4;22.5;29;28.4;25.8;-1.0;
27/02/2025 11:45:58;117;0;135.98;-4;20.44;3.11;905.4;10.00;73916;2836.956;-1800.641;1;136;450;451.6;22.4;22.5;29;28.4;25.8;-1.0;
27/02/2025 11:46:18;117;0;136.20;-4;20.38;3.28;902.2;9.90;73914;2836.954;-1800.638;1;136;450;451.6;22.4;22.5;29;28.4;25.8;-1.0;
27/02/2025 11:46:38;117;0;136.20;-4;20.49;3.12;898.7;9.90;73909;2836.951;-1800.635;1;136;450;450.0;22.4;22.5;29;28.4;25.8;-1.0;
27/02/2025 11:46:58;117;0;135.78;-4;20.55;3.21;895.4;9.90;73910;2836.948;-1800.632;1;136;450;451.6;22.4;22.5;29;28.4;25.8;-1.0;
27/02/2025 11:47:18;117;0;136.72;-4;20.62;3.17;892.0;9.90;73899;2836.946;-1800.629;1;136;450;451.6;22.4;22.5;29;28.4;25.8;-1.0;
27/02/2025 11:47:38;117;0;136.67;-4;20.68;3.24;888.8;9.90;73903;2836.943;-1800.626;1;136;450;451.6;22.4;22.5;29;28.4;25.8;-1.0;
27/02/2025 11:47:58;117;0;136.60;-4;20.74;3.18;885.5;9.90;73905;2836.941;-1800.623;1;136;450;451.6;22.4;22.5;29;28.4;25.8;-1.0;
27/02/2025 11:48:18;117;0;137.07;-4;20.80;3.15;882.1;9.90;73911;2836.938;-1800.620;1;136;450;451.6;22.4;22.5;29;28.0;25.8;-1.0;
27/02/2025 11:48:38;117;0;138.09;-4;20.74;3.17;878.7;9.90;73894;2836.935;-1800.617;1;136;450;450.0;22.4;22.5;29;28.4;25.8;-1.0;
27/02/2025 11:48:58;117;0;138.14;-4;20.62;3.20;875.2;9.90;73899;2836.932;-1800.614;1;136;450;451.6;22.4;22.5;29;28.4;25.8;-1.0;
27/02/2025 11:49:18;117;0;137.59;-4;20.50;3.21;871.8;9.90;73894;2836.930;-1800.611;1;136;450;451.6;22.4;22.5;29;28.4;25.8;-1.0;
27/02/2025 11:49:38;117;0;137.57;-4;20.62;2.93;868.4;9.90;73897;2836.927;-1800.608;1;136;450;448.4;22.4;22.5;29;28.4;25.8;-1.0;
27/02/2025 11:49:58;117;0;137.24;-4;20.63;3.27;865.2;9.90;73903;2836.924;-1800.605;1;136;450;451.6;22.4;22.5;29;28.4;25.8;-1.0;
27/02/2025 11:50:18;117;0;137.08;-4;20.47;3.28;861.7;9.80;73899;2836.921;-1800.602;1;136;450;450.0;22.4;22.5;29;28.4;25.8;-1.0;
27/02/2025 11:50:38;117;0;135.96;-4;20.69;3.13;858.2;9.80;73887;2836.919;-1800.599;1;136;450;451.6;22.4;22.5;29;28.4;25.8;-1.0;
27/02/2025 11:50:58;117;0;136.07;-4;20.80;3.17;854.7;9.80;73899;2836.916;-1800.596;1;136;450;451.6;22.4;22.5;29;28.4;25.8;-1.0;
27/02/2025 11:51:18;117;0;135.92;-4;20.84;3.08;851.2;9.80;73893;2836.913;-1800.592;1;136;450;451.6;22.4;22.5;29;28.4;25.8;-1.0;
27/02/2025 11:51:38;117;0;136.13;-4;20.78;3.10;847.4;9.80;73902;2836.910;-1800.589;1;136;450;451.6;22.4;22.5;29;28.4;25.8;-1.0;
27/02/2025 11:51:58;117;0;135.32;-4;20.45;3.16;843.8;9.80;73899;2836.907;-1800.586;1;136;450;450.0;22.4;22.5;29;28.4;25.8;-1.0;
27/02/2025 11:52:19;117;0;134.74;-4;20.77;3.16;840.2;9.80;73900;2836.904;-1800.582;1;136;450;453.2;22.4;22.5;29;28.4;25.8;-1.0;
27/02/2025 11:52:39;117;0;134.92;-4;20.61;3.19;836.4;9.80;73890;2836.902;-1800.579;1;136;450;451.6;22.4;22.5;29;28.4;25.8;-1.0;
27/02/2025 11:52:59;117;0;136.58;-4;20.51;3.13;832.6;9.80;73897;2836.899;-1800.575;1;136;450;451.6;22.4;22.5;29;28.4;25.8;-1.0;
27/02/2025 11:53:19;117;0;136.25;-4;20.16;3.43;829.0;9.80;73901;2836.896;-1800.572;1;136;450;451.6;22.4;22.5;29;28.4;25.8;-1.0;
27/02/2025 11:53:39;117;0;135.33;-4;20.40;3.13;825.2;9.80;73901;2836.893;-1800.568;1;136;450;451.6;22.4;22.5;29;28.4;25.8;-1.0;
27/02/2025 11:53:59;117;0;135.50;-4;20.71;3.10;821.6;9.80;73904;2836.890;-1800.565;1;136;450;451.6;22.4;22.5;29;28.4;25.8;-1.0;
27/02/2025 11:54:19;117;0;135.05;-4;19.74;3.28;817.9;9.80;73906;2836.887;-1800.561;1;136;450;451.6;22.4;22.5;29;28.4;25.8;-1.0;
