Timestamp;NavState;SecurityLevel;Heading;Declination;Pitch;Roll;Depth;Temperature;Pa;Lat;Lon;DeadReckoning;DesiredH;BallastCmd;BallastPos;LinCmd;LinPos;AngCmd;AngPos;Voltage;Altitude;
05/03/2025 02:39:27;119;0;78.58;-4;-45.72;-15.37;-0.1;17.20;75847;2837.948;-1800.714;0;99;500;504.8;100.0;100.4;0;-0.5;24.8;-1.0;
05/03/2025 02:39:37;116;0;92.52;-4;-59.34;-17.58;0.0;17.30;75856;2837.952;-1800.718;0;99;500;504.8;100.0;100.3;0;0.0;24.8;-1.0;
05/03/2025 02:40:01;116;0;87.18;-4;-57.07;-13.56;-0.0;17.30;75859;2837.954;-1800.720;0;99;500;504.8;100.0;100.4;0;0.0;24.8;-1.0;
05/03/2025 02:40:20;116;0;110.90;-4;-62.28;-8.12;0.0;17.40;75869;2837.954;-1800.721;0;113;500;504.8;100.0;100.4;0;0.0;24.8;-1.0;
05/03/2025 02:40:41;116;0;135.18;-4;-54.04;-11.85;-0.1;17.40;75873;2837.956;-1800.724;0;113;500;503.2;100.0;100.4;0;0.0;24.8;-1.0;
05/03/2025 02:41:01;116;0;88.07;-4;-53.69;-16.33;-0.1;17.50;75881;2837.957;-1800.727;0;113;500;504.8;100.0;100.4;0;0.0;24.8;-1.0;
05/03/2025 02:42:02;116;0;111.07;-4;-49.02;-7.75;-0.1;17.70;75899;2837.964;-1800.736;0;113;500;506.5;100.0;100.4;0;0.0;24.8;-1.0;
05/03/2025 02:43:05;116;0;111.47;-4;-53.89;-6.57;-0.1;17.90;75917;2837.969;-1800.745;0;113;500;506.5;100.0;100.4;0;0.0;24.6;-1.0;
05/03/2025 02:43:19;116;0;101.60;-4;-53.28;-1.26;-0.1;18.00;75920;2837.971;-1800.747;0;113;500;504.8;100.0;100.4;0;0.0;24.8;-1.0;
05/03/2025 02:43:39;110;0;107.86;-4;-54.25;-14.50;0.1;18.10;75923;2837.971;-1800.747;0;113;-110;382.3;100.0;100.4;-7;-7.2;24.8;-1.0;
05/03/2025 02:43:49;110;0;117.38;-4;-56.47;-13.70;0.1;18.10;76289;2837.971;-1800.748;1;113;-110;241.9;100.0;100.4;-7;-7.2;24.7;-1.0;
05/03/2025 02:43:59;110;0;109.79;-4;-53.97;-10.72;0.3;18.10;76519;2837.972;-1800.748;1;113;-110;91.9;100.0;100.4;-7;-7.2;24.8;-1.0;
05/03/2025 02:44:09;110;0;120.49;-4;-71.56;-19.56;0.9;18.20;76829;2837.973;-1800.748;1;113;-110;-66.1;100.0;100.4;-7;-7.2;24.7;-1.0;
05/03/2025 02:44:19;110;0;132.86;-4;-68.87;-18.94;1.3;18.20;77163;2837.974;-1800.748;1;113;-110;-108.1;43.1;56.0;-7;-7.2;24.7;-1.0;
05/03/2025 02:44:29;110;0;135.18;-4;-57.88;-17.37;2.4;18.30;77226;2837.974;-1800.748;1;113;-110;-109.7;43.1;43.2;-7;-7.2;24.7;-1.0;
05/03/2025 02:44:49;100;0;135.13;-4;-21.74;-15.25;5.8;18.30;77225;2837.973;-1800.746;1;113;-110;-104.8;43.1;42.9;-7;-7.2;24.8;-1.0;
05/03/2025 02:45:09;100;0;145.21;-4;-19.26;-15.11;8.5;18.40;77245;2837.972;-1800.745;1;113;-110;-104.8;43.1;42.7;18;18.1;24.8;-1.0;
05/03/2025 02:45:29;100;0;143.52;-4;-22.02;-2.55;10.9;18.40;77246;2837.971;-1800.744;1;113;-110;-104.8;42.5;42.3;15;14.9;24.8;-1.0;
05/03/2025 02:45:49;100;0;146.56;-4;-21.14;-4.47;13.3;18.50;77242;2837.971;-1800.743;1;113;-110;-103.2;42.5;42.3;17;17.1;24.8;0.0;
05/03/2025 02:46:09;100;0;145.46;-4;-20.00;-2.68;16.1;18.50;77255;2837.969;-1800.742;1;113;-110;-103.2;42.5;42.3;20;19.9;24.8;0.0;
05/03/2025 02:46:29;100;0;139.92;-4;-20.33;-1.58;18.6;18.50;77259;2837.969;-1800.740;1;113;-110;-103.2;42.5;42.3;15;14.9;24.8;0.0;
05/03/2025 02:46:49;100;0;137.20;-4;-21.36;-4.23;21.1;18.50;77265;2837.968;-1800.739;1;113;-110;-103.2;42.5;42.3;15;14.4;24.8;0.0;
05/03/2025 02:47:09;100;0;138.86;-4;-20.76;-4.38;23.9;18.60;77275;2837.967;-1800.737;1;113;-110;-103.2;42.5;42.3;15;14.4;24.8;0.0;
05/03/2025 02:47:29;100;0;139.28;-4;-20.35;-4.18;26.5;18.60;77282;2837.967;-1800.736;1;113;-110;-103.2;42.5;42.3;15;14.4;24.8;0.0;
05/03/2025 02:47:49;100;0;135.31;-4;-20.51;-4.44;29.3;18.60;77286;2837.966;-1800.734;1;113;-110;-103.2;42.5;42.4;15;14.4;24.8;0.0;
05/03/2025 02:48:09;100;0;134.81;-4;-19.93;-4.10;32.0;18.60;77275;2837.965;-1800.732;1;113;-110;-103.2;42.5;42.3;15;14.4;24.8;0.0;
05/03/2025 02:48:29;100;0;135.38;-4;-20.98;-4.35;34.7;18.70;77287;2837.965;-1800.730;1;113;-110;-103.2;42.5;42.3;15;14.4;24.8;0.0;
05/03/2025 02:48:49;100;0;135.17;-4;-21.39;-4.02;37.5;18.70;77292;2837.964;-1800.729;1;113;-110;-103.2;42.5;42.3;15;14.4;24.8;0.0;
05/03/2025 02:49:09;100;0;130.95;-4;-20.62;-4.36;40.3;18.70;77297;2837.963;-1800.727;1;113;-110;-103.2;42.5;42.3;15;14.9;24.8;0.0;
05/03/2025 02:49:29;100;0;129.90;-4;-20.20;-4.33;43.1;18.70;77302;2837.963;-1800.724;1;113;-110;-103.2;42.5;42.3;15;14.4;24.8;0.0;
05/03/2025 02:49:49;100;0;129.91;-4;-20.26;-4.28;46.0;18.80;77304;2837.962;-1800.722;1;113;-110;-103.2;42.5;42.3;15;14.4;24.8;0.0;
05/03/2025 02:50:09;100;0;129.52;-4;-20.27;-4.24;48.9;18.80;77301;2837.961;-1800.720;1;113;-110;-103.2;42.5;42.3;15;14.4;24.8;0.0;
05/03/2025 02:50:29;100;0;129.69;-4;-20.07;-4.27;51.7;18.80;77311;2837.961;-1800.718;1;113;-110;-103.2;42.5;42.3;15;14.4;24.8;0.0;
05/03/2025 02:50:49;100;0;128.16;-4;-20.24;-4.27;54.8;18.80;77306;2837.960;-1800.715;1;113;-110;-103.2;42.5;42.3;15;14.9;24.8;0.0;
05/03/2025 02:51:09;100;0;126.66;-4;-20.12;-4.22;57.9;18.80;77318;2837.960;-1800.713;1;113;-110;-103.2;42.5;42.3;15;14.9;24.8;0.0;
05/03/2025 02:51:29;100;0;119.88;-4;-20.24;-4.28;60.8;18.80;77318;2837.959;-1800.710;1;113;-110;-104.8;42.5;42.3;11;10.8;24.8;0.0;
05/03/2025 02:51:49;100;0;112.36;-4;-19.53;-6.48;63.8;18.80;77305;2837.960;-1800.707;1;113;-110;-103.2;42.5;42.3;-1;-1.4;24.8;0.0;
05/03/2025 02:52:09;100;0;113.73;-4;-18.89;-12.36;66.6;18.80;77294;2837.960;-1800.704;1;113;-110;-103.2;42.9;42.9;-1;-1.4;24.8;0.0;
05/03/2025 02:52:29;100;0;115.04;-4;-19.80;-12.33;69.3;18.80;77279;2837.960;-1800.701;1;113;-110;-103.2;42.9;43.2;-1;-1.8;24.8;0.0;
05/03/2025 02:52:49;100;0;115.87;-4;-19.60;-12.44;72.1;18.80;77274;2837.960;-1800.698;1;113;-110;-103.2;42.9;43.0;1;0.9;24.8;0.0;
05/03/2025 02:53:09;100;0;119.13;-4;-19.88;-10.89;75.0;18.80;77245;2837.960;-1800.696;1;113;-110;-103.2;42.9;43.2;8;8.1;24.8;0.0;
05/03/2025 02:53:29;100;0;115.94;-4;-20.39;-7.44;77.5;18.80;77256;2837.961;-1800.693;1;113;-110;-101.6;42.9;43.2;-2;-1.8;24.8;0.0;
05/03/2025 02:53:49;100;0;120.79;-4;-20.14;-12.61;80.2;18.80;77233;2837.961;-1800.691;1;113;-110;-103.2;42.9;43.2;8;8.1;24.8;0.0;
05/03/2025 02:54:09;100;0;125.02;-4;-20.53;-7.40;83.0;18.80;77225;2837.960;-1800.689;1;113;-110;-103.2;42.9;43.2;12;12.2;24.8;0.0;
05/03/2025 02:54:29;100;0;127.22;-4;-20.90;-5.30;85.7;18.80;77220;2837.960;-1800.687;1;113;-110;-101.6;42.9;43.2;12;12.2;24.8;0.0;
05/03/2025 02:54:49;100;0;131.42;-4;-20.83;-5.33;88.6;18.80;77220;2837.959;-1800.685;1;113;-110;-103.2;42.9;43.2;15;14.9;24.8;0.0;
05/03/2025 02:55:09;100;0;133.61;-4;-20.86;-4.01;91.6;18.80;77215;2837.959;-1800.682;1;113;-110;-101.6;42.9;43.2;15;14.9;24.8;0.0;
05/03/2025 02:55:29;100;0;135.25;-4;-20.38;-4.02;94.3;18.80;77207;2837.958;-1800.681;1;113;-110;-103.2;42.9;43.2;15;15.3;24.8;0.0;
05/03/2025 02:55:49;100;0;135.41;-4;-20.64;-3.93;97.3;18.80;77193;2837.957;-1800.679;1;113;-110;-104.8;42.9;43.2;15;15.3;24.8;0.0;
05/03/2025 02:56:09;100;0;136.93;-4;-20.85;-3.91;100.2;18.80;77194;2837.956;-1800.677;1;113;-110;-101.6;42.9;43.2;15;15.3;24.8;0.0;
05/03/2025 02:56:29;100;0;136.81;-4;-20.90;-3.90;103.0;18.80;77194;2837.955;-1800.675;1;113;-110;-103.2;42.9;43.2;15;15.3;24.8;0.0;
05/03/2025 02:56:49;100;0;134.01;-4;-21.12;-3.89;105.8;18.70;77183;2837.955;-1800.673;1;113;-110;-103.2;42.9;43.2;15;15.3;24.8;0.0;
05/03/2025 02:57:09;100;0;133.41;-4;-20.64;-3.96;108.8;18.70;77181;2837.954;-1800.671;1;113;-110;-101.6;42.9;43.2;15;15.3;24.8;0.0;
05/03/2025 02:57:29;100;0;132.06;-4;-20.92;-3.91;111.7;18.70;77188;2837.953;-1800.669;1;113;-110;-101.6;42.9;43.2;15;15.3;24.8;0.0;
05/03/2025 02:57:49;100;0;133.08;-4;-20.42;-3.89;114.5;18.70;77188;2837.953;-1800.667;1;113;-110;-101.6;42.9;43.2;15;15.3;24.8;0.0;
05/03/2025 02:58:09;100;0;137.99;-4;-20.45;-4.02;117.2;18.70;77160;2837.952;-1800.665;1;113;-110;-103.2;42.9;43.3;15;14.9;24.8;0.0;
05/03/2025 02:58:29;100;0;142.46;-4;-20.52;-3.98;119.7;18.70;77137;2837.951;-1800.664;1;113;-110;-101.6;42.9;43.2;15;14.9;24.7;0.0;
05/03/2025 02:58:49;100;0;139.82;-4;-20.38;-3.98;122.2;18.60;77117;2837.950;-1800.663;1;113;-110;-103.2;42.9;43.2;15;15.3;24.8;0.0;
05/03/2025 02:59:09;100;0;138.62;-4;-20.27;-3.97;124.8;18.60;77106;2837.950;-1800.661;1;113;-110;-103.2;42.9;43.2;15;15.3;24.8;0.0;
05/03/2025 02:59:29;100;0;138.57;-4;-19.95;-4.00;127.3;18.60;77094;2837.949;-1800.660;1;113;-110;-101.6;42.9;43.2;15;15.3;24.8;0.0;
05/03/2025 02:59:49;100;0;142.49;-4;-19.82;-4.04;129.7;18.60;77080;2837.948;-1800.659;1;113;-110;-104.8;42.9;43.2;15;15.3;24.8;0.0;
05/03/2025 03:00:09;100;0;145.49;-4;-20.27;-4.02;132.1;18.50;77063;2837.947;-1800.658;1;113;-110;-103.2;42.9;43.2;18;18.1;24.8;0.0;
05/03/2025 03:00:29;100;0;147.60;-4;-20.61;-2.38;134.6;18.50;77058;2837.946;-1800.657;1;113;-110;-103.2;42.9;43.2;18;18.5;24.8;0.0;
05/03/2025 03:00:49;100;0;145.16;-4;-20.99;-2.29;137.3;18.50;77042;2837.946;-1800.655;1;113;-110;-103.2;42.9;43.3;18;18.5;24.8;0.0;
05/03/2025 03:01:09;100;0;143.31;-4;-20.68;-2.32;140.0;18.50;77029;2837.945;-1800.654;1;113;-110;-103.2;42.9;43.2;18;18.1;24.8;0.0;
05/03/2025 03:01:29;100;0;145.38;-4;-20.46;-2.33;142.6;18.40;77021;2837.944;-1800.653;1;113;-110;-103.2;42.9;43.2;18;18.5;24.8;0.0;
05/03/2025 03:01:49;100;0;146.29;-4;-20.77;-2.37;145.4;18.40;77005;2837.942;-1800.652;1;113;-110;-103.2;42.9;43.2;18;18.5;24.8;0.0;
05/03/2025 03:02:09;100;0;145.36;-4;-20.81;-2.35;147.9;18.40;76996;2837.942;-1800.651;1;113;-110;-101.6;42.9;43.2;18;18.5;24.8;0.0;
05/03/2025 03:02:29;100;0;142.59;-4;-21.03;-2.26;150.7;18.30;76986;2837.941;-1800.649;1;113;-110;-103.2;42.9;43.2;18;18.5;24.8;0.0;
05/03/2025 03:02:49;100;0;141.46;-4;-21.01;-2.32;153.4;18.30;76973;2837.940;-1800.648;1;113;-110;-103.2;42.9;43.2;16;15.3;24.8;0.0;
05/03/2025 03:03:09;100;0;134.38;-4;-20.25;-3.68;156.3;18.30;76977;2837.939;-1800.646;1;113;-110;-103.2;42.9;43.2;16;15.3;24.8;0.0;
05/03/2025 03:03:29;100;0;131.23;-4;-20.17;-4.25;158.8;18.20;76957;2837.939;-1800.644;1;113;-110;-103.2;42.9;43.2;16;15.3;24.8;0.0;
05/03/2025 03:03:49;100;0;131.70;-4;-20.65;-3.86;161.3;18.20;76938;2837.938;-1800.642;1;113;-110;-103.2;42.9;43.2;16;15.3;24.8;0.0;
05/03/2025 03:04:09;100;0;130.60;-4;-19.83;-4.09;163.9;18.20;76940;2837.938;-1800.640;1;113;-110;-103.2;42.9;43.2;16;15.3;24.8;0.0;
05/03/2025 03:04:29;100;0;130.65;-4;-18.73;-3.70;166.6;18.10;76930;2837.937;-1800.638;1;113;-110;-103.2;43.2;43.3;16;15.3;24.8;0.0;
05/03/2025 03:04:49;100;0;130.35;-4;-20.13;-3.97;168.9;18.10;76922;2837.937;-1800.637;1;113;-110;-103.2;43.2;43.3;14;14.0;24.8;0.0;
05/03/2025 03:05:09;100;0;130.35;-4;-19.72;-4.75;171.6;18.10;76921;2837.937;-1800.635;1;113;-110;-103.2;43.2;43.2;14;13.5;24.8;0.0;
05/03/2025 03:05:29;100;0;130.52;-4;-19.85;-4.77;174.2;18.10;76934;2837.936;-1800.633;1;113;-110;-103.2;43.2;43.2;14;13.5;24.8;0.0;
05/03/2025 03:05:49;100;0;130.90;-4;-20.13;-4.72;176.7;18.00;76913;2837.936;-1800.631;1;113;-110;-103.2;43.2;43.2;14;14.0;24.8;0.0;
05/03/2025 03:06:09;100;0;130.08;-4;-20.07;-4.88;179.5;18.00;76906;2837.935;-1800.629;1;113;-110;-103.2;43.2;43.2;14;14.0;24.8;0.0;
05/03/2025 03:06:29;100;0;127.96;-4;-20.36;-4.71;182.0;18.00;76899;2837.935;-1800.627;1;113;-110;-103.2;43.2;43.2;14;14.0;24.8;0.0;
05/03/2025 03:06:49;100;0;124.67;-4;-19.60;-4.75;184.4;17.90;76900;2837.935;-1800.625;1;113;-110;-103.2;43.2;43.2;9;8.6;24.8;0.0;
05/03/2025 03:07:09;100;0;124.46;-4;-19.28;-7.48;186.8;17.90;76888;2837.935;-1800.623;1;113;-110;-103.2;43.2;43.2;9;8.6;24.8;0.0;
05/03/2025 03:07:29;100;0;122.70;-4;-19.84;-7.45;189.3;17.80;76874;2837.935;-1800.621;1;113;-110;-106.5;43.2;43.2;7;7.2;24.8;0.0;
05/03/2025 03:07:49;100;0;120.57;-4;-20.42;-8.06;192.0;17.80;76879;2837.935;-1800.619;1;113;-110;-103.2;43.2;43.2;7;7.2;24.8;0.0;
05/03/2025 03:08:09;100;0;123.46;-4;-20.01;-8.06;194.7;17.80;76848;2837.935;-1800.616;1;113;-110;-103.2;43.2;43.2;10;9.9;24.8;0.0;
05/03/2025 03:08:29;100;0;125.96;-4;-19.91;-6.39;197.3;17.80;76843;2837.934;-1800.614;1;113;-110;-103.2;43.2;43.2;12;12.2;24.8;0.0;
05/03/2025 03:08:49;100;0;129.40;-4;-19.79;-5.27;199.8;17.70;76831;2837.934;-1800.612;1;113;-110;-103.2;43.2;43.2;14;14.0;24.8;0.0;
05/03/2025 03:09:09;100;0;132.59;-4;-20.18;-4.45;202.3;17.70;76823;2837.934;-1800.610;1;113;-110;-103.2;43.2;43.3;14;14.4;24.8;0.0;
05/03/2025 03:09:29;100;0;133.70;-4;-20.04;-4.39;205.2;17.60;76813;2837.933;-1800.608;1;113;-110;-103.2;43.2;43.2;14;14.4;24.8;0.0;
05/03/2025 03:09:49;100;0;135.89;-4;-20.34;-4.38;207.6;17.60;76800;2837.932;-1800.607;1;113;-110;-103.2;43.2;43.2;14;14.4;24.8;0.0;
05/03/2025 03:10:09;100;0;138.60;-4;-20.19;-4.39;210.3;17.60;76798;2837.932;-1800.605;1;113;-110;-103.2;43.2;43.2;14;14.4;24.8;0.0;
05/03/2025 03:10:29;100;0;140.35;-4;-20.11;-4.34;212.9;17.60;76780;2837.931;-1800.604;1;113;-110;-103.2;43.2;43.2;14;14.4;24.8;0.0;
05/03/2025 03:10:49;100;0;141.01;-4;-20.17;-4.40;215.5;17.50;76779;2837.930;-1800.602;1;113;-110;-103.2;43.2;43.2;14;14.4;24.8;0.0;
05/03/2025 03:11:09;100;0;143.89;-4;-19.82;-4.34;218.3;17.50;76769;2837.929;-1800.601;1;113;-110;-101.6;43.2;43.2;18;18.1;24.8;0.0;
05/03/2025 03:11:29;100;0;145.56;-4;-20.29;-2.37;220.9;17.40;76760;2837.928;-1800.600;1;113;-110;-103.2;43.2;43.3;18;18.5;24.8;0.0;
05/03/2025 03:11:49;100;0;146.09;-4;-20.38;-2.34;223.5;17.40;76747;2837.927;-1800.599;1;113;-110;-103.2;43.2;43.2;18;18.1;24.8;0.0;
05/03/2025 03:12:09;100;0;148.08;-4;-20.09;-2.37;226.1;17.30;76730;2837.926;-1800.598;1;113;-110;-103.2;43.2;43.2;21;21.2;24.8;0.0;
05/03/2025 03:12:29;100;0;145.22;-4;-20.38;-0.82;228.9;17.30;76725;2837.924;-1800.596;1;113;-110;-103.2;43.2;43.2;19;19.0;24.8;0.0;
05/03/2025 03:12:49;100;0;141.73;-4;-19.73;-2.46;231.5;17.30;76704;2837.924;-1800.595;1;113;-110;-103.2;43.2;43.2;16;15.8;24.8;0.0;
05/03/2025 03:13:09;100;0;138.86;-4;-19.63;-3.98;234.0;17.30;76708;2837.923;-1800.593;1;113;-110;-103.2;43.2;43.2;16;15.3;24.8;0.0;
05/03/2025 03:13:29;100;0;136.79;-4;-19.77;-3.95;236.4;17.20;76700;2837.922;-1800.592;1;113;-110;-101.6;43.2;43.2;16;15.3;24.8;0.0;
05/03/2025 03:13:49;100;0;136.25;-4;-19.80;-3.97;239.0;17.20;76677;2837.922;-1800.590;1;113;-110;-101.6;43.2;43.2;16;15.3;24.8;0.0;
05/03/2025 03:14:09;100;0;136.81;-4;-20.21;-3.91;241.5;17.10;76667;2837.921;-1800.589;1;113;-110;-103.2;43.2;43.2;16;15.3;24.8;0.0;
05/03/2025 03:14:30;100;0;136.12;-4;-19.47;-4.00;244.3;17.10;76663;2837.920;-1800.587;1;113;-110;-103.2;43.2;43.2;16;15.3;24.8;0.0;
05/03/2025 03:14:50;100;0;131.11;-4;-19.68;-3.95;246.9;17.10;76661;2837.920;-1800.585;1;113;-110;-103.2;43.2;43.2;16;15.3;24.8;0.0;
05/03/2025 03:15:10;100;0;127.59;-4;-19.75;-3.98;249.2;17.00;76658;2837.920;-1800.583;1;113;-110;-101.6;43.2;43.2;11;10.8;24.8;0.0;
05/03/2025 03:15:30;100;0;127.08;-4;-19.66;-6.37;252.1;17.00;76640;2837.919;-1800.581;1;113;-110;-103.2;43.2;43.2;14;14.0;24.8;0.0;
05/03/2025 03:15:50;100;0;124.64;-4;-19.85;-4.50;254.9;16.90;76639;2837.919;-1800.578;1;113;-110;-103.2;43.2;43.2;12;12.2;24.8;0.0;
05/03/2025 03:16:10;100;0;121.96;-4;-19.68;-5.85;257.6;16.90;76628;2837.919;-1800.576;1;113;-110;-104.8;43.2;43.2;9;9.0;24.8;0.0;
05/03/2025 03:16:30;100;0;121.12;-4;-19.30;-7.25;260.4;16.90;76618;2837.919;-1800.573;1;113;-110;-103.2;43.2;43.2;9;8.6;24.8;0.0;
05/03/2025 03:16:50;100;0;122.32;-4;-19.08;-7.24;262.9;16.80;76606;2837.919;-1800.571;1;113;-110;-103.2;43.2;43.2;9;8.6;24.8;0.0;
05/03/2025 03:17:10;100;0;122.95;-4;-19.24;-7.25;265.7;16.80;76600;2837.918;-1800.569;1;113;-110;-103.2;43.2;43.2;12;12.2;24.8;0.0;
05/03/2025 03:17:30;100;0;122.87;-4;-19.36;-5.50;268.1;16.70;76591;2837.918;-1800.566;1;113;-110;-103.2;43.2;43.2;7;7.2;24.8;0.0;
05/03/2025 03:17:50;100;0;124.01;-4;-19.27;-8.16;270.7;16.70;76575;2837.918;-1800.564;1;113;-110;-103.2;43.2;43.2;12;12.2;24.8;0.0;
05/03/2025 03:18:10;100;0;120.17;-4;-19.31;-5.47;273.5;16.70;76577;2837.918;-1800.561;1;113;-110;-103.2;43.2;43.2;9;9.0;24.8;0.0;
05/03/2025 03:18:30;100;0;121.17;-4;-19.57;-7.11;276.2;16.60;76562;2837.918;-1800.559;1;113;-110;-103.2;43.2;43.2;9;9.0;24.8;0.0;
05/03/2025 03:18:50;100;0;124.05;-4;-19.85;-7.27;278.9;16.60;76554;2837.918;-1800.557;1;113;-110;-103.2;43.2;43.2;11;10.8;24.8;0.0;
05/03/2025 03:19:10;100;0;127.80;-4;-20.01;-6.21;281.8;16.60;76531;2837.917;-1800.554;1;113;-110;-103.2;43.2;43.2;14;14.0;24.8;0.0;
05/03/2025 03:19:30;100;0;131.48;-4;-19.59;-4.25;284.6;16.50;76530;2837.917;-1800.552;1;113;-110;-103.2;43.2;43.2;14;14.4;24.8;0.0;
05/03/2025 03:19:50;100;0;133.07;-4;-19.67;-4.42;287.3;16.50;76521;2837.916;-1800.550;1;113;-110;-104.8;43.2;43.2;14;14.4;24.8;0.0;
05/03/2025 03:20:10;100;0;135.62;-4;-19.57;-4.41;290.3;16.50;76514;2837.915;-1800.548;1;113;-110;-103.2;43.2;43.2;14;14.4;24.8;0.0;
05/03/2025 03:20:30;100;0;139.49;-4;-19.61;-4.44;292.8;16.40;76495;2837.914;-1800.547;1;113;-110;-103.2;43.2;43.2;14;14.4;24.8;0.0;
05/03/2025 03:20:50;100;0;139.86;-4;-19.60;-4.51;295.7;16.40;76481;2837.913;-1800.545;1;113;-110;-103.2;43.2;43.2;16;15.8;24.8;0.0;
05/03/2025 03:21:10;100;0;141.57;-4;-19.80;-3.59;298.3;16.30;76474;2837.912;-1800.544;1;113;-110;-103.2;43.2;43.2;16;15.8;24.8;0.0;
05/03/2025 03:21:30;100;0;140.60;-4;-19.52;-3.65;301.2;16.30;76476;2837.911;-1800.542;1;113;-110;-103.2;43.2;43.2;16;15.8;24.8;0.0;
05/03/2025 03:21:50;100;0;141.24;-4;-19.61;-3.62;304.0;16.30;76480;2837.910;-1800.540;1;113;-110;-103.2;43.2;43.2;16;16.2;24.8;0.0;
05/03/2025 03:22:10;100;0;142.41;-4;-19.55;-3.59;306.8;16.20;76465;2837.909;-1800.539;1;113;-110;-103.2;43.2;43.2;16;16.2;24.8;0.0;
05/03/2025 03:22:30;100;0;142.98;-4;-19.50;-3.62;309.4;16.20;76462;2837.908;-1800.537;1;113;-110;-103.2;43.2;43.2;16;15.8;24.8;0.0;
05/03/2025 03:22:50;100;0;144.51;-4;-19.57;-3.57;312.3;16.10;76452;2837.907;-1800.536;1;113;-110;-103.2;43.2;43.2;19;19.0;24.8;0.0;
05/03/2025 03:23:10;100;0;144.51;-4;-19.84;-1.83;315.1;16.10;76451;2837.905;-1800.535;1;113;-110;-103.2;43.2;43.2;19;19.4;24.8;0.0;
05/03/2025 03:23:30;100;0;141.55;-4;-19.61;-1.87;317.7;16.10;76438;2837.905;-1800.533;1;113;-110;-103.2;43.2;43.2;16;15.8;24.8;0.0;
05/03/2025 03:23:50;100;0;143.84;-4;-19.71;-3.87;320.6;16.00;76432;2837.903;-1800.532;1;113;-110;-101.6;43.2;43.2;19;19.0;24.8;0.0;
05/03/2025 03:24:10;100;0;143.01;-4;-19.80;-2.05;323.5;16.00;76416;2837.902;-1800.530;1;113;-110;-103.2;43.2;43.2;19;19.0;24.8;0.0;
05/03/2025 03:24:30;100;0;138.67;-4;-19.82;-2.02;326.4;16.00;76416;2837.901;-1800.528;1;113;-110;-103.2;43.2;43.2;16;15.8;24.8;0.0;
05/03/2025 03:24:50;100;0;136.75;-4;-19.44;-3.86;329.2;15.90;76403;2837.900;-1800.526;1;113;-110;-103.2;43.2;43.2;16;15.3;24.8;0.0;
05/03/2025 03:25:10;100;0;136.01;-4;-19.41;-3.87;331.9;15.90;76394;2837.899;-1800.524;1;113;-110;-103.2;43.2;43.2;16;15.3;24.8;0.0;
05/03/2025 03:25:30;100;0;137.54;-4;-19.36;-3.87;334.7;15.90;76396;2837.898;-1800.522;1;113;-110;-103.2;43.2;43.2;16;15.8;24.8;0.0;
05/03/2025 03:25:50;100;0;138.16;-4;-19.35;-3.87;337.5;15.80;76381;2837.897;-1800.521;1;113;-110;-103.2;43.2;43.2;16;15.8;24.8;0.0;
05/03/2025 03:26:10;100;0;137.26;-4;-19.44;-3.82;340.3;15.80;76383;2837.896;-1800.519;1;113;-110;-103.2;43.2;43.2;16;15.3;24.8;0.0;
05/03/2025 03:26:30;100;0;136.30;-4;-19.36;-3.88;343.2;15.80;76377;2837.895;-1800.517;1;113;-110;-103.2;43.2;43.2;16;15.8;24.8;0.0;
05/03/2025 03:26:50;100;0;135.44;-4;-19.32;-3.86;345.6;15.70;76367;2837.895;-1800.515;1;113;-110;-103.2;43.2;43.3;16;15.8;24.8;0.0;
05/03/2025 03:27:10;100;0;134.59;-4;-19.38;-3.87;348.4;15.70;76360;2837.894;-1800.513;1;113;-110;-103.2;43.2;43.2;16;15.8;24.8;0.0;
05/03/2025 03:27:30;100;0;134.85;-4;-19.37;-3.86;351.0;15.60;76362;2837.893;-1800.511;1;113;-110;-103.2;43.2;43.3;16;15.3;24.8;0.0;
05/03/2025 03:27:50;100;0;135.03;-4;-19.35;-3.86;353.6;15.60;76355;2837.892;-1800.509;1;113;-110;-103.2;43.2;43.2;16;15.8;24.8;0.0;
05/03/2025 03:28:10;100;0;135.10;-4;-19.39;-3.85;356.2;15.60;76340;2837.892;-1800.508;1;113;-110;-103.2;43.2;43.2;16;15.8;24.8;0.0;
05/03/2025 03:28:30;100;0;135.33;-4;-19.57;-3.86;358.6;15.50;76334;2837.891;-1800.506;1;113;-110;-103.2;43.2;43.2;16;15.8;24.8;0.0;
05/03/2025 03:28:50;100;0;135.36;-4;-19.66;-3.88;361.4;15.50;76341;2837.890;-1800.504;1;113;-110;-101.6;43.2;43.2;16;15.8;24.8;0.0;
05/03/2025 03:29:10;100;0;133.35;-4;-19.90;-3.84;364.0;15.50;76331;2837.890;-1800.502;1;113;-110;-103.2;43.2;43.2;16;15.3;24.8;0.0;
05/03/2025 03:29:30;100;0;132.10;-4;-19.96;-3.76;366.6;15.50;76324;2837.889;-1800.501;1;113;-110;-103.2;43.2;43.3;16;15.8;24.8;0.0;
05/03/2025 03:29:50;100;0;130.33;-4;-19.86;-3.73;369.4;15.40;76324;2837.889;-1800.498;1;113;-110;-103.2;43.2;43.2;16;15.8;24.8;0.0;
05/03/2025 03:30:10;100;0;129.93;-4;-19.73;-3.83;371.8;15.40;76294;2837.889;-1800.497;1;113;-110;-103.2;43.2;43.2;14;14.0;24.8;0.0;
05/03/2025 03:30:30;100;0;130.17;-4;-19.47;-4.80;374.4;15.40;76305;2837.888;-1800.495;1;113;-110;-101.6;43.2;43.2;14;13.5;24.8;0.0;
05/03/2025 03:30:50;100;0;130.67;-4;-19.42;-4.77;377.0;15.30;76286;2837.888;-1800.493;1;113;-110;-103.2;43.2;43.2;14;13.5;24.8;0.0;
05/03/2025 03:31:10;100;0;132.39;-4;-19.46;-4.77;379.6;15.30;76281;2837.887;-1800.491;1;113;-110;-101.6;43.2;43.2;14;13.5;24.8;0.0;
05/03/2025 03:31:30;100;0;133.71;-4;-19.33;-4.79;382.0;15.30;76277;2837.886;-1800.489;1;113;-110;-101.6;43.2;43.2;14;13.5;24.8;0.0;
05/03/2025 03:31:50;100;0;135.12;-4;-19.32;-4.76;384.6;15.20;76278;2837.886;-1800.487;1;113;-110;-103.2;43.2;43.2;14;13.5;24.8;0.0;
05/03/2025 03:32:10;100;0;135.70;-4;-19.36;-4.80;387.1;15.20;76278;2837.885;-1800.486;1;113;-110;-103.2;43.2;43.2;14;13.5;24.8;0.0;
05/03/2025 03:32:30;100;0;136.92;-4;-19.38;-4.77;389.5;15.20;76273;2837.885;-1800.484;1;113;-110;-103.2;43.2;43.2;14;13.5;24.8;0.0;
05/03/2025 03:32:50;100;0;137.79;-4;-18.90;-4.87;392.1;15.10;76266;2837.884;-1800.482;1;113;-110;-103.2;43.6;43.7;14;14.0;24.8;0.0;
05/03/2025 03:33:10;100;0;139.05;-4;-20.33;-4.76;394.7;15.10;76260;2837.883;-1800.481;1;113;-110;-103.2;43.6;43.9;14;13.5;24.8;0.0;
05/03/2025 03:33:30;100;0;139.18;-4;-20.44;-4.75;397.0;15.10;76259;2837.882;-1800.480;1;113;-110;-103.2;43.6;43.9;14;13.5;24.8;0.0;
05/03/2025 03:33:50;100;0;140.11;-4;-20.43;-4.87;399.6;15.10;76251;2837.882;-1800.478;1;113;-110;-104.8;43.6;43.9;14;13.5;24.8;0.0;
05/03/2025 03:34:10;100;0;139.61;-4;-20.33;-4.83;402.1;15.00;76252;2837.881;-1800.477;1;113;-110;-103.2;43.6;43.9;14;13.5;24.8;0.0;
05/03/2025 03:34:30;100;0;138.12;-4;-20.34;-4.79;404.6;15.00;76244;2837.880;-1800.475;1;113;-110;-103.2;43.6;43.9;14;13.5;24.8;0.0;
05/03/2025 03:34:50;100;0;136.88;-4;-20.56;-4.70;407.0;15.00;76240;2837.880;-1800.474;1;113;-110;-103.2;43.6;43.9;14;13.5;24.8;0.0;
05/03/2025 03:35:10;100;0;133.79;-4;-20.27;-4.79;409.5;15.00;76233;2837.879;-1800.472;1;113;-110;-103.2;43.6;44.0;14;13.5;24.8;0.0;
05/03/2025 03:35:30;100;0;133.91;-4;-20.22;-4.83;411.9;14.90;76223;2837.879;-1800.471;1;113;-110;-103.2;43.6;43.9;14;13.5;24.8;0.0;
05/03/2025 03:35:50;100;0;135.30;-4;-20.33;-4.79;414.4;14.90;76235;2837.879;-1800.469;1;113;-110;-103.2;43.6;43.9;14;13.5;24.8;0.0;
05/03/2025 03:36:10;100;0;135.51;-4;-20.32;-4.79;416.7;14.90;76222;2837.878;-1800.468;1;113;-110;-103.2;43.6;43.7;14;13.5;24.8;0.0;
05/03/2025 03:36:30;100;0;134.63;-4;-20.32;-4.85;419.2;14.80;76215;2837.878;-1800.466;1;113;-110;-103.2;43.6;43.9;14;13.5;24.8;0.0;
05/03/2025 03:36:50;100;0;135.07;-4;-20.47;-4.84;421.5;14.80;76209;2837.877;-1800.465;1;113;-110;-101.6;43.6;43.9;14;13.5;24.8;0.0;
05/03/2025 03:37:10;100;0;136.83;-4;-20.44;-4.78;424.0;14.80;76207;2837.877;-1800.463;1;113;-110;-101.6;43.6;43.9;14;13.5;24.8;0.0;
05/03/2025 03:37:30;100;0;138.76;-4;-20.44;-4.78;426.4;14.80;76208;2837.876;-1800.462;1;113;-110;-103.2;43.6;43.9;14;13.5;24.8;0.0;
05/03/2025 03:37:50;100;0;137.90;-4;-20.51;-4.79;428.8;14.70;76198;2837.876;-1800.461;1;113;-110;-104.8;43.6;43.9;14;13.5;24.8;0.0;
05/03/2025 03:38:10;100;0;137.52;-4;-20.57;-4.81;431.4;14.70;76188;2837.875;-1800.459;1;113;-110;-103.2;43.6;43.9;14;14.0;24.8;0.0;
05/03/2025 03:38:30;100;0;140.24;-4;-20.54;-4.79;433.8;14.70;76187;2837.874;-1800.458;1;113;-110;-101.6;43.6;43.9;14;14.0;24.8;0.0;
05/03/2025 03:38:50;100;0;142.11;-4;-20.24;-4.76;436.3;14.70;76176;2837.874;-1800.457;1;113;-110;-103.2;43.6;43.9;16;15.8;24.8;0.0;
05/03/2025 03:39:10;100;0;143.23;-4;-20.70;-3.48;438.8;14.60;76172;2837.873;-1800.455;1;113;-110;-103.2;43.6;43.9;16;16.2;24.8;0.0;
05/03/2025 03:39:30;100;0;142.89;-4;-20.70;-3.40;441.1;14.60;76171;2837.872;-1800.454;1;113;-110;-103.2;43.6;43.9;16;16.2;24.8;0.0;
05/03/2025 03:39:50;100;0;142.54;-4;-20.74;-3.43;443.5;14.60;76166;2837.872;-1800.453;1;113;-110;-103.2;43.6;43.9;16;16.2;24.8;0.0;
05/03/2025 03:40:10;100;0;142.35;-4;-20.63;-3.45;446.0;14.60;76167;2837.871;-1800.452;1;113;-110;-104.8;43.6;43.9;16;16.2;24.8;0.0;
05/03/2025 03:40:30;100;0;143.09;-4;-20.62;-3.37;448.5;14.50;76155;2837.870;-1800.451;1;113;-110;-103.2;43.6;43.9;16;16.2;24.8;0.0;
05/03/2025 03:40:50;100;0;143.96;-4;-20.60;-3.47;450.9;14.50;76153;2837.870;-1800.450;1;113;-110;-103.2;43.6;43.9;16;16.2;24.8;0.0;
05/03/2025 03:41:10;100;0;145.06;-4;-21.13;-3.43;453.5;14.50;76146;2837.869;-1800.449;1;113;-110;-101.6;43.6;43.9;16;16.2;24.8;0.0;
05/03/2025 03:41:30;100;0;144.30;-4;-21.31;-3.34;456.2;14.50;76145;2837.868;-1800.448;1;113;-110;-103.2;43.6;43.9;18;18.1;24.8;0.0;
05/03/2025 03:41:50;100;0;142.65;-4;-20.72;-2.30;458.6;14.40;76138;2837.867;-1800.447;1;113;-110;-103.2;43.6;43.9;16;15.8;24.8;0.0;
05/03/2025 03:42:10;100;0;142.06;-4;-20.81;-3.89;461.1;14.40;76141;2837.867;-1800.445;1;113;-110;-101.6;43.6;43.9;16;15.8;24.8;0.0;
05/03/2025 03:42:30;100;0;141.26;-4;-22.24;-3.92;463.8;14.40;76124;2837.866;-1800.444;1;113;-110;-103.2;42.9;42.9;16;15.8;24.8;0.0;
05/03/2025 03:42:50;100;0;142.04;-4;-19.48;-3.79;466.4;14.40;76130;2837.865;-1800.443;1;113;-110;-103.2;42.9;42.7;16;15.3;24.8;0.0;
05/03/2025 03:43:10;100;0;141.69;-4;-19.12;-3.82;468.7;14.40;76120;2837.864;-1800.441;1;113;-110;-103.2;42.9;42.7;16;15.8;24.8;0.0;
05/03/2025 03:43:30;100;0;142.07;-4;-19.09;-3.76;471.1;14.30;76121;2837.863;-1800.440;1;113;-110;-101.6;42.9;42.7;16;15.8;24.8;0.0;
05/03/2025 03:43:50;100;0;141.46;-4;-18.91;-3.76;473.3;14.30;76111;2837.863;-1800.439;1;113;-110;-103.2;43.2;43.3;16;15.8;24.8;0.0;
05/03/2025 03:44:10;100;0;140.49;-4;-19.79;-3.80;475.8;14.30;76111;2837.862;-1800.438;1;113;-110;-104.8;43.2;43.4;16;15.8;24.8;0.0;
05/03/2025 03:44:30;100;0;136.01;-4;-19.65;-3.80;478.0;14.30;76111;2837.862;-1800.436;1;113;-110;-103.2;43.2;43.4;16;15.8;24.8;0.0;
05/03/2025 03:44:50;100;0;131.97;-4;-19.70;-3.81;480.2;14.20;76106;2837.862;-1800.435;1;113;-110;-103.2;43.2;43.6;14;14.0;24.8;0.0;
05/03/2025 03:45:10;100;0;130.16;-4;-19.76;-4.82;482.6;14.20;76083;2837.861;-1800.433;1;113;-110;-103.2;43.2;43.4;14;13.5;24.8;0.0;
05/03/2025 03:45:30;100;0;129.11;-4;-19.63;-4.78;484.9;14.20;76087;2837.861;-1800.432;1;113;-110;-103.2;43.2;43.4;12;12.2;24.8;0.0;
05/03/2025 03:45:50;100;0;127.10;-4;-19.61;-5.70;487.1;14.20;76076;2837.861;-1800.430;1;113;-110;-104.8;43.2;43.4;10;9.5;24.7;0.0;
05/03/2025 03:46:10;100;0;128.44;-4;-19.25;-6.87;489.4;14.20;76082;2837.861;-1800.428;1;113;-110;-103.2;43.2;43.6;12;12.2;24.8;0.0;
05/03/2025 03:46:30;100;0;128.08;-4;-19.25;-5.34;491.7;14.10;76067;2837.861;-1800.427;1;113;-110;-103.2;43.2;43.6;12;12.6;24.8;0.0;
05/03/2025 03:46:50;100;0;127.54;-4;-19.31;-5.41;493.7;14.10;76071;2837.861;-1800.425;1;113;-110;-103.2;43.2;43.6;9;9.0;24.8;0.0;
05/03/2025 03:47:10;100;0;128.67;-4;-19.25;-7.27;495.8;14.10;76055;2837.861;-1800.424;1;113;-110;-104.8;43.2;43.6;9;9.0;24.8;0.0;
05/03/2025 03:47:30;100;0;130.10;-4;-19.42;-7.33;498.1;14.00;76050;2837.861;-1800.422;1;113;-110;-103.2;43.2;43.4;13;13.1;24.8;0.0;
05/03/2025 03:47:38;118;0;129.94;-4;-19.46;-4.95;498.9;14.00;76060;2837.861;-1800.421;1;113;450;-98.4;21.3;21.4;7;7.2;24.8;0.0;
05/03/2025 03:47:48;118;0;115.43;-4;-5.49;-9.06;499.7;14.00;76038;2837.861;-1800.421;1;113;450;32.3;21.3;21.1;7;7.2;23.9;-1.0;
05/03/2025 03:47:58;118;0;102.73;-4;21.53;-8.82;499.7;14.00;75761;2837.862;-1800.421;1;113;450;159.7;21.3;21.4;7;6.8;23.8;-1.0;
05/03/2025 03:48:08;118;0;100.22;-4;28.50;-9.06;498.7;14.00;75493;2837.863;-1800.420;1;113;450;283.9;21.3;21.5;7;6.8;23.9;-1.0;
05/03/2025 03:48:19;118;0;99.37;-4;27.37;-8.79;497.4;14.00;75242;2837.863;-1800.419;1;113;450;403.2;21.3;21.5;7;6.8;23.8;-1.0;
05/03/2025 03:48:29;118;0;99.54;-4;24.88;-8.32;495.9;14.00;74997;2837.864;-1800.418;1;113;450;450.0;21.3;21.5;7;6.8;23.9;-1.0;
05/03/2025 03:48:39;118;0;124.42;-4;22.15;-7.77;494.1;14.00;74897;2837.864;-1800.417;1;113;450;450.0;21.3;21.5;7;7.2;24.8;-1.0;
05/03/2025 03:48:59;117;0;118.25;-4;19.52;-7.80;490.4;14.00;74889;2837.863;-1800.413;1;113;450;453.2;21.3;21.5;7;6.8;24.8;-1.0;
05/03/2025 03:49:19;117;0;108.53;-4;18.64;-7.76;486.9;14.00;74884;2837.864;-1800.409;1;113;450;453.2;20.9;21.1;48;47.8;24.8;-1.0;
05/03/2025 03:49:39;117;0;114.83;-4;21.11;13.64;483.3;14.00;74887;2837.863;-1800.405;1;113;450;453.2;20.9;21.1;38;37.5;24.8;-1.0;
05/03/2025 03:49:59;117;0;120.16;-4;22.42;7.93;479.5;14.00;74888;2837.863;-1800.402;1;113;450;451.6;21.6;21.8;31;31.1;24.8;-1.0;
05/03/2025 03:50:19;117;0;122.72;-4;21.25;4.63;475.5;14.00;74889;2837.862;-1800.398;1;113;450;453.2;21.6;21.8;31;31.1;24.8;-1.0;
05/03/2025 03:50:39;117;0;124.81;-4;20.69;4.56;471.6;13.90;74890;2837.861;-1800.394;1;113;450;451.6;21.6;21.8;29;28.9;24.8;-1.0;
05/03/2025 03:50:59;117;0;125.94;-4;20.41;3.20;467.9;13.90;74877;2837.860;-1800.391;1;113;450;453.2;21.6;21.8;29;28.4;24.8;-1.0;
05/03/2025 03:51:19;117;0;126.69;-4;20.49;3.12;464.5;13.90;74881;2837.859;-1800.388;1;113;450;453.2;21.6;21.9;29;28.4;24.8;-1.0;
05/03/2025 03:51:39;117;0;127.53;-4;20.46;3.27;460.9;13.90;74879;2837.858;-1800.385;1;113;450;453.2;21.6;21.8;29;28.4;24.8;-1.0;
05/03/2025 03:51:59;117;0;128.73;-4;20.09;3.18;457.5;13.90;74871;2837.857;-1800.382;1;113;450;453.2;21.6;21.8;29;28.4;24.8;-1.0;
05/03/2025 03:52:19;117;0;128.58;-4;20.59;2.96;453.9;13.90;74877;2837.856;-1800.379;1;113;450;453.2;21.6;21.8;29;28.4;24.8;-1.0;
05/03/2025 03:52:39;117;0;128.62;-4;20.36;3.15;450.4;13.80;74879;2837.855;-1800.376;1;113;450;453.2;21.6;21.8;29;28.4;24.8;-1.0;
05/03/2025 03:52:59;117;0;129.28;-4;20.61;3.21;446.6;13.80;74880;2837.854;-1800.373;1;113;450;453.2;21.6;21.8;29;28.4;24.8;-1.0;
05/03/2025 03:53:19;117;0;129.21;-4;20.52;3.17;443.0;13.80;74877;2837.853;-1800.370;1;113;450;453.2;21.6;21.8;29;28.4;24.8;-1.0;
05/03/2025 03:53:39;117;0;128.49;-4;20.30;3.29;439.5;13.80;74868;2837.852;-1800.367;1;113;450;450.0;21.6;21.8;29;28.4;24.8;-1.0;
05/03/2025 03:53:59;117;0;127.60;-4;20.15;3.29;436.1;13.80;74868;2837.851;-1800.364;1;113;450;454.8;21.6;21.8;29;28.4;24.8;-1.0;
05/03/2025 03:54:19;117;0;127.02;-4;20.24;3.29;432.6;13.80;74872;2837.850;-1800.361;1;113;450;453.2;21.6;21.8;29;28.4;24.8;-1.0;
05/03/2025 03:54:39;117;0;126.64;-4;20.21;3.23;429.1;13.80;74872;2837.849;-1800.358;1;113;450;454.8;21.6;21.8;29;28.4;24.8;-1.0;
05/03/2025 03:54:59;117;0;126.69;-4;20.12;3.18;425.7;13.70;74862;2837.848;-1800.354;1;113;450;453.2;21.6;21.8;29;28.4;24.8;-1.0;
05/03/2025 03:55:19;117;0;126.13;-4;20.15;3.23;422.5;13.70;74869;2837.847;-1800.352;1;113;450;453.2;21.6;21.8;29;28.4;24.8;-1.0;
05/03/2025 03:55:39;117;0;125.85;-4;20.10;3.26;419.3;13.70;74861;2837.847;-1800.349;1;113;450;451.6;21.6;21.8;29;28.4;24.8;-1.0;
05/03/2025 03:55:59;117;0;125.58;-4;20.08;3.22;416.2;13.70;74863;2837.846;-1800.346;1;113;450;453.2;21.6;21.8;29;28.4;24.8;-1.0;
05/03/2025 03:56:19;117;0;125.65;-4;20.21;3.20;413.1;13.70;74856;2837.845;-1800.343;1;113;450;453.2;21.6;21.8;29;28.4;24.8;-1.0;
05/03/2025 03:56:39;117;0;126.09;-4;20.27;3.37;409.9;13.70;74862;2837.845;-1800.341;1;113;450;451.6;21.6;21.8;29;28.9;24.8;-1.0;
05/03/2025 03:56:59;117;0;125.88;-4;20.13;3.22;406.8;13.70;74868;2837.844;-1800.338;1;113;450;453.2;21.6;21.8;29;28.4;24.8;-1.0;
05/03/2025 03:57:19;117;0;124.20;-4;20.12;3.22;403.7;13.70;74868;2837.844;-1800.335;1;113;450;453.2;21.6;21.8;31;31.1;24.8;-1.0;
05/03/2025 03:57:39;117;0;125.40;-4;20.15;4.78;400.7;13.60;74873;2837.843;-1800.333;1;113;450;453.2;21.6;21.8;31;31.6;24.8;-1.0;
05/03/2025 03:57:59;117;0;126.60;-4;20.23;4.73;397.5;13.60;74873;2837.843;-1800.330;1;113;450;451.6;21.6;21.8;31;31.6;24.8;-1.0;
05/03/2025 03:58:19;117;0;128.39;-4;20.31;4.89;394.6;13.60;74867;2837.842;-1800.327;1;113;450;453.2;21.6;21.8;31;31.6;24.8;-1.0;
05/03/2025 03:58:39;117;0;130.32;-4;20.34;4.70;391.4;13.60;74864;2837.841;-1800.325;1;113;450;453.2;21.6;21.8;31;31.6;24.8;-1.0;
05/03/2025 03:58:59;117;0;132.26;-4;20.45;4.85;388.3;13.60;74870;2837.840;-1800.322;1;113;450;453.2;21.6;21.8;31;31.1;24.8;-1.0;
05/03/2025 03:59:19;117;0;133.58;-4;20.36;4.71;385.2;13.60;74867;2837.839;-1800.320;1;113;450;453.2;21.6;21.9;31;31.1;24.8;-1.0;
05/03/2025 03:59:39;117;0;135.33;-4;20.17;4.77;382.1;13.60;74866;2837.838;-1800.318;1;113;450;453.2;21.6;21.8;31;31.1;24.8;-1.0;
05/03/2025 03:59:59;117;0;136.02;-4;20.22;4.73;379.1;13.60;74866;2837.837;-1800.316;1;113;450;453.2;21.6;21.8;29;28.9;24.8;-1.0;
05/03/2025 04:00:19;117;0;135.90;-4;20.23;3.45;376.0;13.60;74866;2837.836;-1800.314;1;113;450;453.2;21.6;21.8;29;28.9;24.8;-1.0;
05/03/2025 04:00:39;117;0;135.41;-4;20.20;3.42;373.1;13.60;74868;2837.835;-1800.312;1;113;450;453.2;21.6;21.8;29;28.9;24.8;-1.0;
05/03/2025 04:00:59;117;0;135.52;-4;20.26;3.46;369.9;13.60;74858;2837.834;-1800.309;1;113;450;454.8;21.6;21.8;29;28.9;24.8;-1.0;
05/03/2025 04:01:19;117;0;134.71;-4;20.31;3.49;366.9;13.60;74863;2837.833;-1800.307;1;113;450;451.6;21.6;21.8;29;28.9;24.8;-1.0;
05/03/2025 04:01:39;117;0;136.19;-4;20.31;3.44;363.8;13.60;74866;2837.832;-1800.305;1;113;450;454.8;21.6;21.8;29;28.9;24.8;-1.0;
05/03/2025 04:01:59;117;0;136.34;-4;20.38;3.46;360.7;13.60;74880;2837.831;-1800.303;1;113;450;453.2;21.6;21.8;29;28.9;24.8;-1.0;
05/03/2025 04:02:19;117;0;135.33;-4;20.29;3.41;357.6;13.60;74880;2837.829;-1800.301;1;113;450;451.6;21.6;21.8;29;28.9;24.8;-1.0;
05/03/2025 04:02:39;117;0;134.81;-4;20.17;3.36;354.4;13.60;74880;2837.828;-1800.298;1;113;450;453.2;21.6;21.8;29;28.9;24.8;-1.0;
05/03/2025 04:02:59;117;0;134.51;-4;20.16;3.40;351.3;13.60;74892;2837.827;-1800.296;1;113;450;454.8;21.6;21.8;29;28.9;24.8;-1.0;
05/03/2025 04:03:19;117;0;134.88;-4;20.16;3.48;347.9;13.60;74888;2837.826;-1800.293;1;113;450;453.2;21.6;21.8;29;28.9;24.8;-1.0;
05/03/2025 04:03:39;117;0;135.81;-4;20.14;3.48;344.8;13.60;74888;2837.825;-1800.291;1;113;450;453.2;21.6;21.9;29;28.9;24.8;-1.0;
05/03/2025 04:03:59;117;0;137.00;-4;20.04;3.46;341.6;13.60;74890;2837.824;-1800.289;1;113;450;453.2;21.6;21.8;29;28.9;24.8;-1.0;
05/03/2025 04:04:19;117;0;138.51;-4;19.94;3.33;338.4;13.60;74894;2837.822;-1800.287;1;113;450;453.2;21.6;21.8;29;28.9;24.8;-1.0;
05/03/2025 04:04:39;117;0;139.71;-4;19.91;3.38;335.4;13.60;74899;2837.821;-1800.285;1;113;450;453.2;21.6;21.8;29;28.9;24.8;-1.0;
05/03/2025 04:04:59;117;0;140.83;-4;19.96;3.36;332.3;13.60;74911;2837.820;-1800.283;1;113;450;453.2;21.6;21.9;27;27.1;24.8;-1.0;
05/03/2025 04:05:19;117;0;139.77;-4;19.96;2.39;329.5;13.60;74915;2837.819;-1800.282;1;113;450;453.2;21.6;21.8;27;26.6;24.8;-1.0;
05/03/2025 04:05:39;117;0;137.88;-4;19.71;2.43;326.6;13.60;74923;2837.818;-1800.280;1;113;450;453.2;21.6;21.8;29;28.9;24.8;-1.0;
05/03/2025 04:05:59;117;0;137.65;-4;19.82;3.86;323.8;13.60;74925;2837.817;-1800.278;1;113;450;454.8;21.6;21.9;29;29.3;24.8;-1.0;
05/03/2025 04:06:19;117;0;137.26;-4;19.87;3.78;321.0;13.60;74920;2837.816;-1800.276;1;113;450;453.2;21.6;21.9;29;29.3;24.8;-1.0;
05/03/2025 04:06:39;117;0;137.74;-4;19.84;3.74;318.2;13.70;74932;2837.815;-1800.274;1;113;450;453.2;21.6;21.8;29;29.3;24.8;-1.0;
05/03/2025 04:06:59;117;0;137.95;-4;20.29;3.68;315.3;13.70;74930;2837.814;-1800.272;1;113;450;454.8;21.6;21.8;29;29.3;24.8;-1.0;
05/03/2025 04:07:19;117;0;138.49;-4;20.09;3.88;312.7;13.70;74930;2837.813;-1800.271;1;113;450;453.2;21.6;21.8;29;28.9;24.8;-1.0;
05/03/2025 04:07:39;117;0;139.38;-4;20.12;3.72;309.7;13.70;74926;2837.812;-1800.269;1;113;450;454.8;21.6;21.9;29;29.3;24.8;-1.0;
05/03/2025 04:07:59;117;0;138.50;-4;19.89;3.77;306.8;13.70;74932;2837.811;-1800.267;1;113;450;454.8;21.6;21.9;29;28.9;24.8;-1.0;
05/03/2025 04:08:19;117;0;137.65;-4;20.17;3.80;304.1;13.70;74937;2837.810;-1800.265;1;113;450;453.2;21.6;21.9;29;29.3;24.8;-1.0;
05/03/2025 04:08:39;117;0;136.97;-4;20.13;3.79;301.3;13.70;74937;2837.809;-1800.264;1;113;450;454.8;21.6;21.8;29;29.3;24.8;-1.0;
05/03/2025 04:08:59;117;0;135.69;-4;20.03;3.93;298.5;13.70;74944;2837.808;-1800.262;1;113;450;454.8;21.6;21.8;29;29.3;24.8;-1.0;
05/03/2025 04:09:19;117;0;135.55;-4;19.99;3.82;295.6;13.70;74956;2837.807;-1800.260;1;113;450;454.8;21.6;21.8;29;29.3;24.8;-1.0;
05/03/2025 04:09:39;117;0;136.60;-4;20.47;3.84;292.6;13.70;74942;2837.806;-1800.258;1;113;450;453.2;21.6;21.8;29;29.3;24.8;-1.0;
05/03/2025 04:09:59;117;0;136.05;-4;20.00;3.86;289.8;13.70;74950;2837.806;-1800.256;1;113;450;454.8;21.6;21.8;29;29.3;24.8;-1.0;
05/03/2025 04:10:19;117;0;135.82;-4;20.03;3.66;287.0;13.70;74960;2837.805;-1800.254;1;113;450;454.8;21.6;21.8;29;29.3;24.8;-1.0;
05/03/2025 04:10:39;117;0;135.46;-4;20.06;3.74;284.1;13.70;74959;2837.804;-1800.252;1;113;450;453.2;21.6;21.8;29;28.9;24.8;-1.0;
05/03/2025 04:10:59;117;0;136.95;-4;20.00;3.81;281.2;13.80;74980;2837.803;-1800.250;1;113;450;454.8;21.6;21.8;29;29.3;24.8;-1.0;
05/03/2025 04:11:19;117;0;139.14;-4;19.84;3.73;278.3;13.80;74983;2837.802;-1800.248;1;113;450;454.8;21.6;21.8;29;28.9;24.8;-1.0;
05/03/2025 04:11:39;117;0;141.22;-4;19.79;3.79;275.4;13.80;74994;2837.801;-1800.247;1;113;450;454.8;21.6;21.8;27;27.1;24.8;-1.0;
05/03/2025 04:11:59;117;0;142.67;-4;19.67;2.39;272.8;13.80;75009;2837.800;-1800.245;1;113;450;454.8;21.6;21.8;27;26.6;24.8;-1.0;
05/03/2025 04:12:19;117;0;143.34;-4;19.62;2.31;269.9;13.80;75014;2837.799;-1800.244;1;113;450;454.8;21.6;21.8;27;26.6;24.8;-1.0;
05/03/2025 04:12:39;117;0;144.97;-4;19.63;2.30;267.3;13.80;75032;2837.798;-1800.242;1;113;450;456.5;21.6;21.8;27;26.6;24.8;-1.0;
05/03/2025 04:12:59;117;0;144.08;-4;19.80;2.31;264.5;13.80;75021;2837.796;-1800.241;1;113;450;454.8;21.6;21.8;27;26.6;24.8;-1.0;
05/03/2025 04:13:19;117;0;143.57;-4;19.71;2.38;261.8;13.80;75023;2837.795;-1800.240;1;113;450;454.8;21.6;21.9;27;26.6;24.8;-1.0;
05/03/2025 04:13:39;117;0;142.19;-4;19.71;2.37;259.2;13.90;75035;2837.794;-1800.238;1;113;450;454.8;21.6;21.8;27;26.6;24.8;-1.0;
05/03/2025 04:13:59;117;0;141.44;-4;19.64;2.37;256.4;13.90;75042;2837.793;-1800.237;1;113;450;451.6;21.6;21.8;27;26.6;24.8;-1.0;
05/03/2025 04:14:19;117;0;143.15;-4;19.69;2.31;253.7;13.90;75050;2837.792;-1800.235;1;113;450;456.5;21.6;21.8;27;26.6;24.8;-1.0;
05/03/2025 04:14:39;117;0;144.83;-4;19.73;2.33;250.9;13.90;75064;2837.791;-1800.234;1;113;450;454.8;21.6;21.8;25;24.8;24.8;-1.0;
05/03/2025 04:14:59;117;0;141.65;-4;19.49;1.11;248.2;13.90;75065;2837.790;-1800.232;1;113;450;454.8;21.6;21.8;27;27.1;24.8;-1.0;
05/03/2025 04:15:19;117;0;141.36;-4;19.36;2.96;245.4;14.00;75073;2837.789;-1800.231;1;113;450;454.8;21.6;21.8;27;27.5;24.8;-1.0;
05/03/2025 04:15:39;117;0;139.55;-4;19.68;2.93;242.6;14.00;75086;2837.788;-1800.229;1;113;450;454.8;21.6;21.8;27;27.5;24.8;-1.0;
05/03/2025 04:15:59;117;0;138.19;-4;19.76;2.92;239.8;14.00;75102;2837.787;-1800.227;1;113;450;454.8;21.6;21.8;27;27.5;24.8;-1.0;
05/03/2025 04:16:19;117;0;137.16;-4;19.73;2.85;236.9;14.00;75101;2837.786;-1800.225;1;113;450;453.2;21.6;21.9;27;27.5;24.8;-1.0;
05/03/2025 04:16:39;117;0;137.23;-4;19.74;2.81;233.9;14.10;75113;2837.785;-1800.223;1;113;450;454.8;21.6;21.8;27;27.5;24.8;-1.0;
05/03/2025 04:16:59;117;0;136.76;-4;19.70;2.88;230.9;14.10;75120;2837.784;-1800.221;1;113;450;453.2;21.6;21.8;27;27.5;24.8;-1.0;
05/03/2025 04:17:19;117;0;135.05;-4;19.60;2.96;227.8;14.10;75124;2837.783;-1800.219;1;113;450;454.8;21.6;21.8;27;27.5;24.8;-1.0;
05/03/2025 04:17:39;117;0;134.20;-4;19.71;2.85;224.7;14.10;75148;2837.782;-1800.217;1;113;450;454.8;21.6;21.8;27;27.5;24.8;-1.0;
05/03/2025 04:17:59;117;0;131.88;-4;19.70;2.96;221.7;14.20;75147;2837.781;-1800.214;1;113;450;454.8;21.6;21.8;27;27.5;24.8;-1.0;
05/03/2025 04:18:19;117;0;129.73;-4;19.52;2.92;218.4;14.20;75147;2837.780;-1800.212;1;113;450;454.8;21.6;21.8;27;27.5;24.8;-1.0;
05/03/2025 04:18:39;117;0;128.30;-4;19.57;2.91;215.3;14.20;75148;2837.779;-1800.209;1;113;450;454.8;21.6;21.8;29;28.9;24.8;-1.0;
05/03/2025 04:18:59;117;0;126.11;-4;19.63;3.82;212.0;14.20;75156;2837.779;-1800.206;1;113;450;453.2;21.6;21.8;29;29.3;24.8;-1.0;
05/03/2025 04:19:19;117;0;125.50;-4;19.58;3.74;208.8;14.30;75166;2837.778;-1800.203;1;113;450;454.8;21.6;21.8;29;28.9;24.8;-1.0;
05/03/2025 04:19:39;117;0;126.62;-4;19.64;3.68;205.7;14.30;75176;2837.777;-1800.201;1;113;450;454.8;21.6;21.8;29;29.3;24.8;-1.0;
05/03/2025 04:19:59;117;0;127.64;-4;19.53;3.65;202.6;14.30;75180;2837.777;-1800.198;1;113;450;451.6;21.6;21.8;29;29.3;24.8;-1.0;
05/03/2025 04:20:19;117;0;131.15;-4;19.66;3.66;199.6;14.30;75185;2837.776;-1800.196;1;113;450;454.8;21.6;21.8;29;29.3;24.8;-1.0;
05/03/2025 04:20:39;117;0;133.47;-4;19.45;3.75;196.6;14.40;75209;2837.775;-1800.193;1;113;450;454.8;21.6;21.8;29;29.3;24.8;-1.0;
05/03/2025 04:20:59;117;0;134.23;-4;19.32;3.78;193.8;14.40;75217;2837.774;-1800.191;1;113;450;454.8;21.6;21.8;29;29.3;24.8;-1.0;
05/03/2025 04:21:19;117;0;134.17;-4;19.25;3.79;190.8;14.40;75239;2837.773;-1800.189;1;113;450;454.8;21.6;21.8;29;29.3;24.8;-1.0;
05/03/2025 04:21:39;117;0;135.43;-4;19.32;3.67;188.1;14.40;75244;2837.772;-1800.187;1;113;450;454.8;21.6;21.8;29;29.3;24.8;-1.0;
05/03/2025 04:21:59;117;0;136.57;-4;19.45;3.76;185.3;14.50;75260;2837.771;-1800.185;1;113;450;456.5;21.6;21.8;29;29.3;24.8;-1.0;
05/03/2025 04:22:19;117;0;138.42;-4;19.48;3.70;182.3;14.50;75262;2837.770;-1800.183;1;113;450;454.8;21.6;21.8;29;29.3;24.8;-1.0;
05/03/2025 04:22:40;117;0;141.84;-4;19.42;3.81;179.4;14.50;75267;2837.769;-1800.181;1;113;450;454.8;21.6;21.8;25;24.8;24.8;-1.0;
05/03/2025 04:23:00;117;0;142.63;-4;19.51;1.19;176.4;14.60;75272;2837.767;-1800.180;1;113;450;454.8;21.6;21.8;25;24.4;24.8;-1.0;
05/03/2025 04:23:20;117;0;142.78;-4;19.49;1.31;173.4;14.60;75289;2837.766;-1800.178;1;113;450;454.8;21.6;21.8;25;24.4;24.8;-1.0;
05/03/2025 04:23:40;117;0;142.59;-4;19.50;1.24;170.1;14.60;75308;2837.764;-1800.176;1;113;450;454.8;21.6;21.8;23;23.0;24.8;-1.0;
05/03/2025 04:24:00;117;0;140.56;-4;18.62;0.16;166.9;14.70;75321;2837.763;-1800.174;1;113;450;454.8;21.2;21.2;25;25.3;24.8;-1.0;
05/03/2025 04:24:20;117;0;139.40;-4;20.20;1.49;163.7;14.70;75333;2837.761;-1800.172;1;113;450;454.8;21.2;20.8;25;25.3;24.8;-1.0;
05/03/2025 04:24:40;117;0;137.17;-4;20.65;1.59;160.3;14.70;75331;2837.760;-1800.170;1;113;450;456.5;21.2;20.6;28;28.0;24.8;-1.0;
05/03/2025 04:25:00;117;0;135.75;-4;20.89;3.24;156.7;14.80;75344;2837.758;-1800.167;1;113;450;454.8;21.2;20.6;28;28.4;24.8;-1.0;
05/03/2025 04:25:20;117;0;135.28;-4;21.30;3.27;153.2;14.80;75351;2837.757;-1800.164;1;113;450;456.5;21.2;20.6;28;28.4;24.8;-1.0;
05/03/2025 04:25:40;117;0;132.81;-4;21.31;3.32;149.5;14.80;75368;2837.756;-1800.161;1;113;450;456.5;21.2;20.6;28;28.4;24.8;-1.0;
05/03/2025 04:26:00;117;0;129.86;-4;21.21;3.20;145.8;14.90;75369;2837.754;-1800.158;1;113;450;454.8;21.2;20.6;28;28.4;24.8;-1.0;
05/03/2025 04:26:20;117;0;127.16;-4;21.24;3.27;141.9;14.90;75385;2837.753;-1800.155;1;113;450;456.5;21.2;20.6;28;28.4;24.8;-1.0;
05/03/2025 04:26:40;117;0;124.36;-4;21.26;3.34;138.0;15.00;75393;2837.752;-1800.151;1;113;450;454.8;21.2;20.6;28;28.4;24.8;-1.0;
05/03/2025 04:27:00;117;0;125.80;-4;21.40;3.16;134.1;15.00;75416;2837.751;-1800.148;1;113;450;454.8;21.2;20.6;28;28.4;24.8;-1.0;
05/03/2025 04:27:20;117;0;125.28;-4;21.55;3.15;129.9;15.00;75437;2837.750;-1800.144;1;113;450;454.8;21.2;20.6;28;28.4;24.8;-1.0;
05/03/2025 04:27:40;117;0;127.00;-4;20.98;3.32;126.0;15.10;75466;2837.749;-1800.141;1;113;450;454.8;21.2;20.6;28;28.4;24.8;-1.0;
05/03/2025 04:28:00;117;0;125.15;-4;20.80;3.30;122.3;15.10;75490;2837.748;-1800.138;1;113;450;453.2;21.2;20.6;28;28.0;24.8;-1.0;
05/03/2025 04:28:20;117;0;119.84;-4;20.66;3.23;118.6;15.20;75510;2837.748;-1800.134;1;113;450;456.5;21.2;20.6;31;31.1;24.8;-1.0;
05/03/2025 04:28:40;117;0;118.87;-4;20.78;4.91;115.1;15.20;75538;2837.747;-1800.131;1;113;450;456.5;21.2;20.6;31;31.1;24.8;-1.0;
05/03/2025 04:29:00;117;0;120.23;-4;21.09;4.93;111.4;15.30;75555;2837.747;-1800.127;1;113;450;454.8;21.2;20.6;31;31.6;24.8;-1.0;
05/03/2025 04:29:20;117;0;121.88;-4;21.21;4.84;107.9;15.30;75566;2837.746;-1800.124;1;113;450;456.5;21.2;20.6;31;31.1;24.8;-1.0;
05/03/2025 04:29:40;117;0;122.66;-4;21.12;4.82;104.1;15.40;75595;2837.745;-1800.120;1;113;450;456.5;21.2;20.6;29;28.9;24.8;-1.0;
05/03/2025 04:30:00;117;0;122.18;-4;20.83;3.36;100.7;15.40;75594;2837.745;-1800.117;1;113;450;456.5;21.2;20.6;29;28.4;24.8;-1.0;
05/03/2025 04:30:20;117;0;122.23;-4;20.92;3.48;97.0;15.50;75606;2837.744;-1800.114;1;113;450;454.8;21.2;20.6;29;28.4;24.8;-1.0;
05/03/2025 04:30:40;117;0;118.88;-4;20.94;3.47;93.5;15.50;75616;2837.744;-1800.111;1;113;450;456.5;21.2;20.6;33;32.9;24.8;-1.0;
05/03/2025 04:31:00;117;0;119.88;-4;20.90;5.82;90.1;15.60;75621;2837.743;-1800.107;1;113;450;456.5;21.2;20.6;33;33.4;24.8;-1.0;
05/03/2025 04:31:20;117;0;122.09;-4;21.29;5.79;86.7;15.60;75646;2837.743;-1800.104;1;113;450;454.8;21.2;20.6;30;29.8;24.8;-1.0;
05/03/2025 04:31:40;117;0;118.43;-4;21.08;3.87;83.4;15.70;75660;2837.743;-1800.101;1;113;450;458.1;21.2;21.5;34;33.8;24.8;-1.0;
05/03/2025 04:32:00;117;0;118.69;-4;20.29;6.47;79.9;15.70;75685;2837.742;-1800.098;1;113;450;454.8;21.2;21.5;34;34.3;24.8;-1.0;
05/03/2025 04:32:20;117;0;120.81;-4;20.03;6.29;76.7;15.80;75691;2837.742;-1800.095;1;113;450;456.5;21.2;21.5;32;32.0;24.8;-1.0;
05/03/2025 04:32:40;117;0;123.37;-4;19.98;4.84;73.6;15.90;75710;2837.741;-1800.092;1;113;450;458.1;21.2;21.5;30;29.8;24.8;-1.0;
05/03/2025 04:33:00;117;0;125.30;-4;19.83;3.77;70.5;15.90;75748;2837.741;-1800.089;1;113;450;456.5;21.2;21.5;30;28.9;24.8;-1.0;
05/03/2025 04:33:20;117;0;126.87;-4;19.59;3.65;67.3;16.00;75767;2837.740;-1800.086;1;113;450;456.5;21.2;21.5;30;29.3;24.8;-1.0;
05/03/2025 04:33:40;117;0;128.42;-4;19.67;3.73;64.3;16.00;75776;2837.740;-1800.084;1;113;450;454.8;21.2;21.5;30;29.3;24.8;-1.0;
05/03/2025 04:34:00;117;0;128.70;-4;19.80;3.73;61.3;16.10;75796;2837.739;-1800.081;1;113;450;456.5;21.2;21.5;30;29.3;24.8;-1.0;
05/03/2025 04:34:20;117;0;128.07;-4;19.81;3.69;58.4;16.20;75809;2837.738;-1800.079;1;113;450;458.1;21.2;21.5;30;29.3;24.8;-1.0;
05/03/2025 04:34:40;117;0;128.55;-4;19.69;3.76;55.3;16.20;75824;2837.738;-1800.076;1;113;450;456.5;21.2;21.5;30;29.3;24.8;-1.0;
05/03/2025 04:35:00;117;0;130.35;-4;19.86;3.67;52.2;16.30;75834;2837.737;-1800.074;1;113;450;456.5;21.2;21.5;30;29.3;24.8;-1.0;
05/03/2025 04:35:20;117;0;129.77;-4;19.75;3.76;49.2;16.30;75837;2837.736;-1800.072;1;113;450;454.8;21.2;21.5;30;29.3;24.8;-1.0;
05/03/2025 04:35:40;117;0;130.48;-4;19.72;3.73;46.1;16.40;75855;2837.735;-1800.069;1;113;450;456.5;21.2;21.6;30;29.3;24.8;-1.0;
05/03/2025 04:36:00;117;0;130.13;-4;19.61;3.81;43.0;16.40;75868;2837.734;-1800.067;1;113;450;456.5;21.2;21.5;30;29.3;24.8;-1.0;
05/03/2025 04:36:20;117;0;130.13;-4;19.59;3.72;40.1;16.50;75881;2837.734;-1800.064;1;113;450;458.1;21.2;21.5;30;29.3;24.8;-1.0;
05/03/2025 04:36:40;117;0;131.27;-4;19.78;3.77;36.9;16.60;75882;2837.733;-1800.062;1;113;450;456.5;21.2;21.5;30;29.3;24.8;-1.0;
05/03/2025 04:37:00;117;0;131.59;-4;19.50;3.73;34.0;16.60;75892;2837.732;-1800.059;1;113;450;456.5;21.2;21.4;30;29.3;24.7;-1.0;
05/03/2025 04:37:20;117;0;131.77;-4;19.67;3.79;30.8;16.70;75895;2837.731;-1800.057;1;113;450;458.1;21.2;21.5;30;29.3;24.8;-1.0;
05/03/2025 04:37:40;117;0;132.33;-4;19.54;3.64;27.7;16.70;75911;2837.730;-1800.055;1;113;450;458.1;21.2;21.5;30;29.3;24.8;-1.0;
05/03/2025 04:38:00;117;0;131.99;-4;19.78;3.83;24.6;16.80;75926;2837.729;-1800.052;1;113;450;454.8;21.2;21.5;30;29.3;24.8;-1.0;
05/03/2025 04:38:20;117;0;133.23;-4;19.66;3.69;21.5;16.80;75932;2837.728;-1800.050;1;113;450;456.5;21.2;21.5;30;29.3;24.8;-1.0;
05/03/2025 04:38:40;117;0;134.15;-4;19.34;3.71;18.5;16.90;75927;2837.727;-1800.048;1;113;450;456.5;21.2;21.5;30;29.3;24.8;-1.0;
05/03/2025 04:39:00;117;0;138.01;-4;18.54;4.16;15.5;16.90;75940;2837.726;-1800.045;1;113;450;454.8;20.8;20.6;28;27.1;24.8;-1.0;
05/03/2025 04:39:20;117;0;134.53;-4;21.00;2.78;12.3;17.00;75952;2837.725;-1800.043;1;113;450;456.5;20.8;20.5;28;27.1;24.8;-1.0;
05/03/2025 04:39:40;117;0;132.88;-4;20.19;2.30;9.0;17.00;75947;2837.724;-1800.041;1;113;450;456.5;20.8;20.5;28;27.1;24.8;-1.0;
05/03/2025 04:40:00;117;0;131.99;-4;21.15;2.50;5.7;17.10;75953;2837.723;-1800.038;1;113;450;456.5;20.8;20.3;28;27.1;24.8;-1.0;
05/03/2025 04:40:17;115;0;129.88;-4;22.77;2.68;2.6;17.10;75960;2837.722;-1800.036;1;113;500;459.7;100.0;56.6;0;0.0;24.8;-1.0;
05/03/2025 04:40:27;115;0;116.40;-4;8.85;-11.05;1.2;17.10;75936;2837.722;-1800.034;1;113;500;506.5;100.0;100.0;0;0.0;24.5;-1.0;
05/03/2025 04:40:37;115;0;123.71;-4;-56.76;-9.56;1.6;17.20;75850;2837.722;-1800.034;1;113;500;506.5;100.0;100.6;0;0.0;24.8;-1.0;
05/03/2025 04:40:57;119;0;137.60;-4;-54.77;-6.37;0.3;17.20;75868;2837.722;-1800.034;1;113;500;504.8;100.0;100.6;0;0.0;24.8;-1.0;
05/03/2025 04:41:07;119;0;109.07;-4;-54.78;-13.81;0.1;17.30;75864;2837.232;-1759.843;0;113;500;506.5;100.0;100.4;0;-0.5;24.8;-1.0;
