Timestamp;NavState;SecurityLevel;Heading;Declination;Pitch;Roll;Depth;Temperature;Pa;Lat;Lon;DeadReckoning;DesiredH;BallastCmd;BallastPos;LinCmd;LinPos;AngCmd;AngPos;Voltage;Altitude;
24/02/2025 17:29:34;119;0;273.15;-4;-53.61;-10.86;0.1;17.10;75644;2835.339;-1759.314;0;318;500;508.1;100.0;100.6;0;-0.5;26.5;-1.0;
24/02/2025 17:29:44;116;0;273.02;-4;-52.19;-12.56;0.0;17.20;75649;2835.335;-1759.323;0;318;500;506.5;100.0;100.6;0;0.0;26.5;-1.0;
24/02/2025 17:30:16;116;0;285.62;-4;-56.03;-3.67;0.1;17.30;75663;2835.337;-1759.324;0;318;500;504.8;100.0;100.6;0;-0.5;26.5;-1.0;
24/02/2025 17:30:35;116;0;300.54;-4;-49.81;-17.27;0.0;17.40;75676;2835.337;-1759.325;0;319;500;508.1;100.0;100.6;0;0.0;26.5;-1.0;
24/02/2025 17:30:54;116;0;306.13;-4;-51.12;-10.45;-0.1;17.40;75674;2835.339;-1759.326;0;319;500;508.1;100.0;100.7;0;-0.5;26.5;-1.0;
24/02/2025 17:31:14;116;0;287.45;-4;-53.99;-6.79;0.1;17.50;75687;2835.340;-1759.327;0;319;500;508.1;100.0;100.6;0;-0.5;26.5;-1.0;
24/02/2025 17:31:26;116;0;290.43;-4;-50.09;-19.00;-0.0;17.50;75689;2835.340;-1759.328;0;319;500;506.5;100.0;100.6;0;0.0;26.5;-1.0;
24/02/2025 17:31:46;110;0;299.26;-4;-45.94;-9.66;0.0;17.50;75692;2835.340;-1759.328;0;319;-70;390.3;100.0;99.9;-6;-5.9;26.6;-1.0;
24/02/2025 17:31:56;110;0;268.98;-4;-49.30;-5.32;0.2;17.60;76048;2835.340;-1759.328;1;319;-70;243.5;100.0;99.9;-6;-5.9;26.5;-1.0;
24/02/2025 17:32:06;110;0;270.28;-4;-55.94;-15.49;0.6;17.60;76303;2835.340;-1759.328;1;319;-70;82.3;100.0;99.9;-6;-6.3;26.5;-1.0;
24/02/2025 17:32:16;110;0;269.95;-4;-73.97;-12.02;1.0;17.60;76614;2835.340;-1759.328;1;319;-70;-69.4;100.0;99.9;-6;-5.9;26.5;-1.0;
24/02/2025 17:32:26;110;0;283.93;-4;-63.14;-9.66;1.3;17.60;76935;2835.340;-1759.328;1;319;-70;-69.4;43.0;43.0;-6;-5.9;26.5;-1.0;
24/02/2025 17:32:46;100;0;300.32;-4;-28.19;-14.69;4.3;17.70;76902;2835.342;-1759.331;1;319;-70;-66.1;43.0;42.6;-6;-5.9;26.5;-1.0;
24/02/2025 17:33:06;100;0;312.23;-4;-20.56;-14.87;6.9;17.80;76910;2835.344;-1759.334;1;319;-70;-62.9;43.0;42.6;15;14.9;26.5;-1.0;
24/02/2025 17:33:26;100;0;309.32;-4;-20.79;-4.18;9.2;17.80;76918;2835.346;-1759.336;1;319;-70;-64.5;43.0;42.6;15;14.9;26.6;-1.0;
24/02/2025 17:33:46;100;0;314.03;-4;-20.07;-3.94;11.8;17.80;76917;2835.348;-1759.339;1;319;-70;-62.9;43.0;42.6;15;15.3;26.6;-1.0;
24/02/2025 17:34:06;100;0;317.96;-4;-21.47;-4.20;14.1;17.90;76930;2835.350;-1759.341;1;319;-70;-62.9;43.0;42.6;15;15.3;26.5;0.0;
24/02/2025 17:34:26;100;0;315.95;-4;-21.25;-4.14;16.6;17.90;76934;2835.352;-1759.343;1;319;-70;-64.5;43.0;42.6;15;15.3;26.5;0.0;
24/02/2025 17:34:46;100;0;317.33;-4;-21.20;-4.07;19.1;17.90;76939;2835.355;-1759.345;1;319;-70;-62.9;43.0;42.6;15;15.3;26.5;0.0;
24/02/2025 17:35:06;100;0;315.62;-4;-20.53;-4.05;21.8;17.90;76954;2835.357;-1759.348;1;319;-70;-64.5;43.0;42.6;15;15.3;26.5;0.0;
24/02/2025 17:35:26;100;0;318.81;-4;-21.83;-4.06;24.5;18.00;76947;2835.359;-1759.350;1;319;-70;-64.5;43.0;42.6;15;15.3;26.6;0.0;
24/02/2025 17:35:46;100;0;323.24;-4;-21.69;-3.98;27.2;18.00;76966;2835.362;-1759.352;1;319;-70;-64.5;43.0;42.6;15;15.3;26.5;0.0;
24/02/2025 17:36:06;100;0;323.33;-4;-20.62;-4.01;30.1;18.00;76973;2835.365;-1759.354;1;319;-70;-64.5;43.0;42.6;15;15.3;26.5;0.0;
24/02/2025 17:36:26;100;0;322.67;-4;-20.84;-4.03;32.8;18.00;76970;2835.367;-1759.357;1;319;-70;-62.9;43.0;42.6;15;14.9;26.5;0.0;
24/02/2025 17:36:46;100;0;323.39;-4;-20.32;-4.02;35.7;18.00;76971;2835.370;-1759.359;1;319;-70;-66.1;43.0;42.6;15;15.3;26.5;0.0;
24/02/2025 17:37:06;100;0;322.21;-4;-20.65;-4.03;38.3;18.10;76970;2835.373;-1759.361;1;319;-70;-62.9;43.0;42.6;15;14.9;26.5;0.0;
24/02/2025 17:37:26;100;0;321.82;-4;-20.97;-4.01;41.0;18.10;76983;2835.376;-1759.363;1;319;-70;-64.5;43.0;42.6;15;15.3;26.5;0.0;
24/02/2025 17:37:46;100;0;320.15;-4;-21.06;-4.03;43.6;18.10;76985;2835.378;-1759.365;1;319;-70;-62.9;43.0;42.6;15;15.3;26.5;0.0;
24/02/2025 17:38:06;100;0;319.56;-4;-20.67;-4.04;46.2;18.10;76987;2835.380;-1759.368;1;319;-70;-62.9;43.0;42.6;15;15.3;26.5;0.0;
24/02/2025 17:38:26;100;0;318.36;-4;-20.48;-4.08;48.7;18.20;76983;2835.383;-1759.370;1;319;-70;-62.9;43.0;42.6;15;15.3;26.5;0.0;
24/02/2025 17:38:46;100;0;317.64;-4;-20.37;-3.98;51.2;18.20;77002;2835.385;-1759.372;1;319;-70;-64.5;43.0;42.7;15;15.3;26.6;0.0;
24/02/2025 17:39:06;100;0;317.37;-4;-20.20;-4.10;53.6;18.20;77006;2835.387;-1759.375;1;319;-70;-64.5;43.0;42.6;15;15.3;26.5;0.0;
24/02/2025 17:39:26;100;0;318.44;-4;-20.30;-4.06;56.1;18.20;77000;2835.390;-1759.377;1;319;-70;-64.5;43.0;42.6;15;15.3;26.5;0.0;
24/02/2025 17:39:46;100;0;318.34;-4;-20.67;-4.04;58.6;18.20;76994;2835.392;-1759.379;1;319;-70;-62.9;43.0;42.6;15;14.9;26.5;0.0;
24/02/2025 17:40:06;100;0;317.90;-4;-20.57;-4.04;61.0;18.30;77015;2835.394;-1759.381;1;319;-70;-62.9;43.0;42.6;15;15.3;26.5;0.0;
24/02/2025 17:40:26;100;0;317.05;-4;-20.51;-4.04;63.5;18.30;77015;2835.397;-1759.383;1;319;-70;-64.5;43.0;42.6;15;15.3;26.5;0.0;
24/02/2025 17:40:46;100;0;315.87;-4;-20.67;-4.06;66.0;18.30;77025;2835.399;-1759.386;1;319;-70;-64.5;43.0;42.6;15;15.3;26.5;0.0;
24/02/2025 17:41:06;100;0;316.32;-4;-20.47;-4.10;68.5;18.30;77027;2835.401;-1759.388;1;319;-70;-62.9;43.0;42.6;15;15.3;26.5;0.0;
24/02/2025 17:41:26;100;0;317.42;-4;-20.07;-4.04;71.0;18.30;77023;2835.403;-1759.390;1;319;-70;-62.9;43.0;42.6;15;15.3;26.5;0.0;
24/02/2025 17:41:46;100;0;318.22;-4;-20.14;-3.99;73.4;18.40;77031;2835.406;-1759.393;1;319;-70;-66.1;43.0;42.6;15;15.3;26.6;0.0;
24/02/2025 17:42:06;100;0;319.05;-4;-20.17;-4.00;75.7;18.40;77033;2835.408;-1759.395;1;319;-70;-62.9;43.0;42.6;15;14.9;26.5;0.0;
24/02/2025 17:42:26;100;0;322.03;-4;-20.54;-4.01;78.1;18.40;77038;2835.410;-1759.397;1;319;-70;-62.9;43.0;42.6;15;15.3;26.5;0.0;
24/02/2025 17:42:46;100;0;321.54;-4;-20.82;-4.04;80.6;18.40;77021;2835.413;-1759.399;1;319;-70;-64.5;43.0;42.6;15;15.3;26.5;0.0;
24/02/2025 17:43:06;100;0;319.38;-4;-20.72;-4.00;83.1;18.40;77015;2835.415;-1759.401;1;319;-70;-62.9;43.0;42.6;15;15.3;26.5;0.0;
24/02/2025 17:43:26;100;0;317.50;-4;-20.99;-3.99;85.6;18.40;77012;2835.417;-1759.403;1;319;-70;-64.5;43.0;42.6;15;15.3;26.5;0.0;
24/02/2025 17:43:46;100;0;318.17;-4;-20.87;-3.97;88.2;18.40;77006;2835.420;-1759.405;1;319;-70;-64.5;43.0;42.6;15;15.3;26.5;0.0;
24/02/2025 17:44:06;100;0;320.90;-4;-20.66;-4.04;90.7;18.40;76998;2835.422;-1759.407;1;319;-70;-62.9;43.0;42.6;15;15.3;26.5;0.0;
24/02/2025 17:44:26;100;0;323.47;-4;-20.16;-4.01;93.1;18.40;76992;2835.424;-1759.409;1;319;-70;-62.9;43.0;42.6;17;17.1;26.5;0.0;
24/02/2025 17:44:46;100;0;324.93;-4;-20.22;-2.96;95.3;18.40;76986;2835.427;-1759.411;1;319;-70;-62.9;43.0;42.6;17;17.1;26.5;0.0;
24/02/2025 17:45:06;100;0;324.26;-4;-20.31;-2.97;97.6;18.40;76980;2835.429;-1759.413;1;319;-70;-62.9;43.0;42.6;17;17.6;26.5;0.0;
24/02/2025 17:45:26;100;0;324.89;-4;-20.03;-2.99;99.8;18.40;76980;2835.431;-1759.415;1;319;-70;-66.1;43.0;42.6;17;17.6;26.5;0.0;
24/02/2025 17:45:46;100;0;323.35;-4;-20.18;-2.96;101.9;18.40;76977;2835.434;-1759.416;1;319;-70;-62.9;43.0;42.7;17;17.6;26.5;0.0;
24/02/2025 17:46:06;100;0;319.94;-4;-20.16;-2.98;104.1;18.40;76966;2835.436;-1759.418;1;319;-70;-62.9;43.0;42.6;17;17.1;26.5;0.0;
24/02/2025 17:46:26;100;0;318.83;-4;-19.81;-2.98;106.2;18.40;76952;2835.438;-1759.420;1;319;-70;-62.9;43.0;42.6;17;17.6;26.5;0.0;
24/02/2025 17:46:46;100;0;316.92;-4;-20.13;-3.00;108.3;18.40;76960;2835.440;-1759.422;1;319;-70;-61.3;43.0;42.6;17;17.6;26.5;0.0;
24/02/2025 17:47:06;100;0;313.82;-4;-20.03;-2.98;110.4;18.40;76944;2835.442;-1759.424;1;319;-70;-62.9;43.0;42.6;17;17.1;26.5;0.0;
24/02/2025 17:47:26;100;0;311.51;-4;-20.28;-2.95;112.4;18.40;76937;2835.443;-1759.426;1;319;-70;-64.5;43.0;42.6;15;14.9;26.5;0.0;
24/02/2025 17:47:46;100;0;309.61;-4;-20.01;-4.40;114.7;18.40;76919;2835.445;-1759.429;1;319;-70;-62.9;43.0;42.6;15;14.9;26.5;0.0;
24/02/2025 17:48:06;100;0;305.33;-4;-19.77;-4.42;116.9;18.40;76910;2835.447;-1759.431;1;319;-70;-64.5;43.0;42.6;11;10.8;26.6;0.0;
24/02/2025 17:48:26;100;0;304.42;-4;-19.79;-6.56;119.0;18.40;76902;2835.448;-1759.433;1;319;-70;-64.5;43.0;42.7;11;10.4;26.5;0.0;
24/02/2025 17:48:46;100;0;302.19;-4;-19.94;-6.54;121.1;18.40;76899;2835.450;-1759.436;1;319;-70;-62.9;43.0;42.6;7;7.2;26.5;0.0;
24/02/2025 17:49:06;100;0;304.40;-4;-19.56;-8.31;123.4;18.40;76873;2835.451;-1759.439;1;319;-70;-62.9;43.0;42.6;10;9.9;26.5;0.0;
24/02/2025 17:49:26;100;0;305.24;-4;-19.35;-6.50;125.6;18.30;76857;2835.453;-1759.441;1;319;-70;-62.9;43.0;42.6;10;10.4;26.6;0.0;
24/02/2025 17:49:46;100;0;304.59;-4;-19.27;-6.52;127.7;18.30;76852;2835.455;-1759.444;1;319;-70;-62.9;43.0;42.6;10;9.9;26.5;0.0;
24/02/2025 17:50:06;100;0;306.00;-4;-19.71;-6.53;129.8;18.30;76866;2835.456;-1759.446;1;319;-70;-62.9;43.0;42.6;12;12.2;26.5;0.0;
24/02/2025 17:50:26;100;0;307.70;-4;-19.54;-5.38;132.0;18.30;76845;2835.458;-1759.448;1;319;-70;-62.9;43.0;42.6;12;12.6;26.5;0.0;
24/02/2025 17:50:46;100;0;309.52;-4;-19.49;-5.37;134.2;18.30;76838;2835.460;-1759.451;1;319;-70;-62.9;43.0;42.6;14;14.0;26.5;0.0;
24/02/2025 17:51:06;100;0;309.80;-4;-19.54;-4.30;136.3;18.30;76841;2835.461;-1759.453;1;319;-70;-62.9;43.0;42.6;14;14.9;26.5;0.0;
24/02/2025 17:51:26;100;0;308.33;-4;-19.64;-4.39;138.6;18.20;76820;2835.463;-1759.455;1;319;-70;-62.9;43.0;42.6;14;14.9;26.5;0.0;
24/02/2025 17:51:46;100;0;307.96;-4;-19.97;-4.37;140.9;18.20;76832;2835.465;-1759.458;1;319;-70;-62.9;43.0;42.6;14;14.9;26.5;0.0;
24/02/2025 17:52:06;100;0;308.18;-4;-20.26;-4.32;143.3;18.20;76820;2835.467;-1759.461;1;319;-70;-62.9;43.0;42.6;14;14.4;26.5;0.0;
24/02/2025 17:52:26;100;0;308.55;-4;-20.60;-4.35;145.8;18.20;76810;2835.469;-1759.463;1;319;-70;-64.5;43.0;42.6;14;14.9;26.5;0.0;
24/02/2025 17:52:46;100;0;309.44;-4;-20.00;-4.26;148.6;18.20;76806;2835.471;-1759.466;1;319;-70;-62.9;43.0;42.6;14;14.9;26.5;0.0;
24/02/2025 17:53:06;100;0;308.49;-4;-19.88;-4.25;151.3;18.20;76792;2835.473;-1759.469;1;319;-70;-66.1;43.0;42.6;14;14.9;26.5;0.0;
24/02/2025 17:53:26;100;0;306.51;-4;-19.86;-4.29;153.9;18.10;76779;2835.475;-1759.472;1;319;-70;-64.5;43.0;42.6;11;10.8;26.5;0.0;
24/02/2025 17:53:46;100;0;309.33;-4;-19.66;-6.52;156.5;18.10;76771;2835.477;-1759.475;1;319;-70;-62.9;43.0;42.7;13;13.1;26.5;0.0;
24/02/2025 17:54:06;100;0;314.92;-4;-19.83;-4.96;159.2;18.10;76763;2835.480;-1759.477;1;319;-70;-62.9;43.0;42.6;15;14.9;26.5;0.0;
24/02/2025 17:54:26;100;0;315.95;-4;-19.80;-4.01;161.9;18.10;76759;2835.482;-1759.480;1;319;-70;-62.9;43.0;42.6;15;15.3;26.6;0.0;
24/02/2025 17:54:46;100;0;311.71;-4;-19.60;-3.98;164.6;18.00;76749;2835.485;-1759.483;1;319;-70;-62.9;43.0;42.6;15;15.3;26.5;0.0;
24/02/2025 17:55:06;100;0;310.18;-4;-19.71;-4.03;167.3;18.00;76733;2835.487;-1759.486;1;319;-70;-64.5;43.0;42.6;15;15.3;26.5;0.0;
24/02/2025 17:55:26;100;0;308.95;-4;-19.59;-4.01;169.9;18.00;76734;2835.489;-1759.489;1;319;-70;-64.5;43.0;42.6;13;13.1;26.5;0.0;
24/02/2025 17:55:46;100;0;308.73;-4;-19.64;-5.47;172.5;18.00;76725;2835.491;-1759.491;1;319;-70;-64.5;43.0;42.6;13;12.6;26.5;0.0;
24/02/2025 17:56:06;100;0;309.26;-4;-19.62;-5.44;175.2;17.90;76705;2835.493;-1759.494;1;319;-70;-64.5;43.0;42.6;13;12.6;26.5;0.0;
24/02/2025 17:56:26;100;0;312.20;-4;-19.55;-5.48;177.9;17.90;76703;2835.495;-1759.497;1;319;-70;-62.9;43.0;42.6;13;12.6;26.5;0.0;
24/02/2025 17:56:46;100;0;314.88;-4;-19.35;-5.48;180.4;17.90;76692;2835.498;-1759.500;1;319;-70;-61.3;43.0;42.6;15;14.9;26.5;0.0;
24/02/2025 17:57:06;100;0;315.52;-4;-19.31;-4.11;182.9;17.90;76677;2835.500;-1759.502;1;319;-70;-62.9;43.0;42.6;15;14.9;26.5;0.0;
24/02/2025 17:57:26;100;0;317.35;-4;-19.38;-4.17;185.4;17.80;76653;2835.502;-1759.504;1;319;-70;-64.5;43.0;42.6;15;15.3;26.5;0.0;
24/02/2025 17:57:46;100;0;317.34;-4;-19.37;-4.14;187.7;17.80;76655;2835.505;-1759.507;1;319;-70;-64.5;43.0;42.6;15;14.9;26.5;0.0;
24/02/2025 17:58:06;100;0;317.08;-4;-19.24;-4.23;190.0;17.80;76645;2835.507;-1759.509;1;319;-70;-64.5;43.0;42.6;15;15.3;26.5;0.0;
24/02/2025 17:58:26;100;0;316.58;-4;-19.25;-4.25;192.4;17.70;76635;2835.509;-1759.511;1;319;-70;-62.9;43.0;42.6;15;15.3;26.5;0.0;
24/02/2025 17:58:46;100;0;315.61;-4;-19.19;-4.11;194.7;17.70;76629;2835.511;-1759.514;1;319;-70;-62.9;43.0;42.6;15;15.3;26.5;0.0;
24/02/2025 17:59:06;100;0;314.70;-4;-19.34;-4.14;197.0;17.70;76620;2835.514;-1759.516;1;319;-70;-64.5;43.0;42.6;15;14.9;26.5;0.0;
24/02/2025 17:59:26;100;0;315.73;-4;-19.44;-4.19;199.2;17.60;76619;2835.516;-1759.518;1;319;-70;-62.9;43.0;42.6;15;14.9;26.5;0.0;
24/02/2025 17:59:46;100;0;318.62;-4;-19.69;-4.09;201.4;17.60;76609;2835.518;-1759.520;1;319;-70;-62.9;43.0;42.6;15;14.9;26.6;0.0;
24/02/2025 18:00:06;100;0;319.69;-4;-19.60;-4.14;203.7;17.60;76610;2835.520;-1759.522;1;319;-70;-62.9;43.0;42.6;15;15.3;26.5;0.0;
24/02/2025 18:00:26;100;0;319.41;-4;-19.46;-4.05;206.0;17.60;76608;2835.522;-1759.524;1;319;-70;-62.9;43.0;42.6;15;15.3;26.5;0.0;
24/02/2025 18:00:46;100;0;318.95;-4;-19.51;-4.14;208.1;17.50;76590;2835.524;-1759.526;1;319;-70;-64.5;43.0;42.6;15;14.9;26.5;0.0;
24/02/2025 18:01:06;100;0;319.00;-4;-19.35;-4.17;210.2;17.50;76594;2835.526;-1759.528;1;319;-70;-66.1;43.0;42.6;15;15.3;26.6;0.0;
24/02/2025 18:01:26;100;0;320.41;-4;-19.41;-4.10;212.3;17.50;76590;2835.529;-1759.530;1;319;-70;-62.9;43.0;42.6;15;14.9;26.5;0.0;
24/02/2025 18:01:46;100;0;318.69;-4;-19.32;-4.15;214.4;17.50;76580;2835.531;-1759.532;1;319;-70;-62.9;43.0;42.6;15;14.9;26.5;0.0;
24/02/2025 18:02:06;100;0;319.11;-4;-19.72;-4.08;216.6;17.40;76568;2835.533;-1759.534;1;319;-70;-62.9;43.0;42.6;15;15.3;26.5;0.0;
24/02/2025 18:02:26;100;0;323.95;-4;-18.99;-3.92;218.7;17.40;76566;2835.535;-1759.536;1;319;-70;-64.5;43.3;43.4;15;15.3;26.5;0.0;
24/02/2025 18:02:46;100;0;323.63;-4;-20.44;-4.09;220.7;17.40;76542;2835.537;-1759.537;1;319;-70;-64.5;43.3;43.6;15;15.3;26.5;0.0;
24/02/2025 18:03:06;100;0;321.41;-4;-20.45;-4.10;222.8;17.30;76530;2835.539;-1759.539;1;319;-70;-62.9;43.3;43.7;15;15.3;26.5;0.0;
24/02/2025 18:03:26;100;0;323.07;-4;-20.30;-4.10;224.8;17.30;76525;2835.541;-1759.541;1;319;-90;-91.9;43.3;43.6;15;15.3;26.5;0.0;
24/02/2025 18:03:46;100;0;325.37;-4;-19.65;-3.99;226.9;17.20;76590;2835.543;-1759.542;1;319;-90;-91.9;43.3;43.6;17;17.1;26.5;0.0;
24/02/2025 18:04:06;100;0;324.17;-4;-20.08;-2.83;229.2;17.20;76574;2835.546;-1759.544;1;319;-90;-91.9;43.3;43.6;17;17.6;26.5;0.0;
24/02/2025 18:04:26;100;0;323.37;-4;-20.35;-2.75;231.6;17.20;76572;2835.548;-1759.546;1;319;-90;-93.5;43.3;43.6;17;17.6;26.5;0.0;
24/02/2025 18:04:47;100;0;321.49;-4;-20.42;-2.75;234.0;17.20;76561;2835.551;-1759.548;1;319;-90;-91.9;43.3;43.6;17;17.6;26.5;0.0;
24/02/2025 18:05:07;100;0;320.54;-4;-20.82;-2.76;236.6;17.10;76549;2835.553;-1759.550;1;319;-90;-93.5;43.3;43.7;15;14.9;26.5;0.0;
24/02/2025 18:05:27;100;0;321.56;-4;-20.60;-4.12;239.3;17.10;76548;2835.556;-1759.552;1;319;-90;-93.5;43.3;43.7;15;14.4;26.5;0.0;
24/02/2025 18:05:47;100;0;320.32;-4;-20.49;-4.18;241.9;17.10;76529;2835.558;-1759.555;1;319;-90;-91.9;43.3;43.6;15;14.4;26.5;0.0;
24/02/2025 18:06:07;100;0;321.58;-4;-20.52;-4.19;244.6;17.00;76522;2835.561;-1759.557;1;319;-90;-93.5;43.3;43.7;15;14.9;26.5;0.0;
24/02/2025 18:06:27;100;0;321.79;-4;-20.48;-4.13;247.3;17.00;76518;2835.564;-1759.559;1;319;-90;-93.5;43.3;43.6;15;14.4;26.5;0.0;
24/02/2025 18:06:47;100;0;320.15;-4;-20.27;-4.18;250.0;16.90;76511;2835.566;-1759.562;1;319;-90;-93.5;43.3;43.6;15;14.4;26.5;0.0;
24/02/2025 18:07:07;100;0;318.20;-4;-20.00;-4.24;252.8;16.90;76498;2835.569;-1759.564;1;319;-90;-93.5;43.3;43.6;15;14.4;26.5;0.0;
24/02/2025 18:07:27;100;0;318.54;-4;-19.95;-4.25;255.5;16.90;76489;2835.571;-1759.567;1;319;-90;-91.9;43.3;43.6;15;14.9;26.5;0.0;
24/02/2025 18:07:47;100;0;322.01;-4;-20.04;-4.24;258.1;16.90;76490;2835.574;-1759.569;1;319;-90;-91.9;43.3;43.6;15;14.4;26.5;0.0;
24/02/2025 18:08:07;100;0;324.59;-4;-20.13;-4.14;261.0;16.80;76484;2835.577;-1759.571;1;319;-90;-93.5;43.3;43.6;15;14.9;26.5;0.0;
24/02/2025 18:08:27;100;0;325.18;-4;-19.85;-4.23;263.7;16.80;76479;2835.580;-1759.573;1;319;-90;-93.5;43.3;43.6;17;17.1;26.5;0.0;
24/02/2025 18:08:47;100;0;321.55;-4;-19.92;-2.60;266.4;16.80;76452;2835.583;-1759.576;1;319;-90;-93.5;43.3;43.6;17;17.6;26.5;0.0;
24/02/2025 18:09:07;100;0;317.12;-4;-20.13;-2.65;269.2;16.70;76454;2835.585;-1759.578;1;319;-90;-91.9;43.3;43.6;17;17.6;26.5;0.0;
24/02/2025 18:09:27;100;0;313.75;-4;-20.18;-2.70;272.0;16.70;76452;2835.588;-1759.581;1;319;-90;-93.5;43.3;43.6;15;14.4;26.5;0.0;
24/02/2025 18:09:47;100;0;310.70;-4;-19.97;-4.33;274.8;16.60;76447;2835.590;-1759.584;1;319;-90;-93.5;43.3;43.7;15;14.4;26.5;0.0;
24/02/2025 18:10:07;100;0;311.38;-4;-19.85;-4.42;277.5;16.60;76431;2835.592;-1759.587;1;319;-90;-91.9;43.3;43.6;15;14.4;26.5;0.0;
24/02/2025 18:10:27;100;0;310.81;-4;-19.96;-4.34;280.3;16.60;76427;2835.595;-1759.590;1;319;-90;-93.5;43.3;43.7;15;14.4;26.5;0.0;
24/02/2025 18:10:47;100;0;309.28;-4;-19.87;-4.32;283.0;16.50;76423;2835.597;-1759.593;1;319;-90;-93.5;43.3;43.6;13;13.1;26.5;0.0;
24/02/2025 18:11:07;100;0;312.63;-4;-19.88;-5.21;285.7;16.50;76419;2835.599;-1759.595;1;319;-90;-91.9;43.3;43.6;15;15.3;26.5;0.0;
24/02/2025 18:11:27;100;0;313.42;-4;-20.05;-3.73;288.5;16.50;76412;2835.602;-1759.598;1;319;-90;-91.9;43.3;43.7;15;15.3;26.5;0.0;
24/02/2025 18:11:47;100;0;313.00;-4;-20.03;-3.72;291.2;16.40;76414;2835.604;-1759.601;1;319;-90;-93.5;43.3;43.6;15;15.3;26.5;0.0;
24/02/2025 18:12:07;100;0;312.48;-4;-19.93;-3.72;294.0;16.40;76398;2835.606;-1759.604;1;319;-90;-93.5;43.3;43.7;15;15.8;26.5;0.0;
24/02/2025 18:12:27;100;0;309.69;-4;-19.84;-3.71;296.7;16.40;76390;2835.609;-1759.607;1;319;-90;-93.5;43.3;43.7;13;13.1;26.5;0.0;
24/02/2025 18:12:47;100;0;307.95;-4;-19.52;-5.13;299.4;16.30;76375;2835.611;-1759.610;1;319;-90;-93.5;43.3;43.7;13;12.6;26.5;0.0;
24/02/2025 18:13:07;100;0;306.50;-4;-19.82;-5.20;302.0;16.30;76379;2835.613;-1759.613;1;319;-90;-91.9;43.3;43.7;11;10.4;26.5;0.0;
24/02/2025 18:13:27;100;0;305.69;-4;-19.54;-6.42;304.6;16.30;76378;2835.615;-1759.616;1;319;-90;-93.5;43.3;43.6;11;10.4;26.5;0.0;
24/02/2025 18:13:47;100;0;305.78;-4;-19.66;-6.46;307.1;16.30;76365;2835.616;-1759.618;1;319;-90;-93.5;43.3;43.6;11;10.4;26.5;0.0;
24/02/2025 18:14:07;100;0;306.01;-4;-19.67;-6.43;309.7;16.20;76364;2835.618;-1759.621;1;319;-90;-93.5;43.3;43.6;11;10.4;26.5;0.0;
24/02/2025 18:14:27;100;0;307.18;-4;-19.86;-6.41;312.2;16.20;76363;2835.620;-1759.624;1;319;-90;-93.5;43.3;43.6;11;10.4;26.5;0.0;
24/02/2025 18:14:47;100;0;308.21;-4;-19.91;-6.40;314.7;16.20;76358;2835.622;-1759.627;1;319;-90;-93.5;43.3;43.7;13;13.1;26.5;0.0;
24/02/2025 18:15:07;100;0;309.75;-4;-20.11;-4.60;317.4;16.10;76332;2835.625;-1759.630;1;319;-90;-93.5;43.3;43.6;13;13.5;26.5;0.0;
24/02/2025 18:15:27;100;0;310.52;-4;-19.76;-4.65;320.0;16.10;76328;2835.627;-1759.632;1;319;-90;-93.5;43.3;43.6;13;13.5;26.5;0.0;
24/02/2025 18:15:47;100;0;311.73;-4;-19.85;-4.71;322.6;16.10;76318;2835.629;-1759.635;1;319;-90;-93.5;43.3;43.7;13;13.5;26.5;0.0;
24/02/2025 18:16:07;100;0;312.96;-4;-20.11;-4.61;325.2;16.00;76314;2835.631;-1759.638;1;319;-90;-93.5;43.3;43.6;13;13.5;26.5;0.0;
24/02/2025 18:16:27;100;0;313.28;-4;-19.64;-4.69;327.8;16.00;76302;2835.633;-1759.640;1;319;-90;-93.5;43.3;43.6;13;13.5;26.5;0.0;
24/02/2025 18:16:47;100;0;312.99;-4;-20.14;-4.65;330.3;16.00;76300;2835.636;-1759.643;1;319;-90;-93.5;43.3;43.6;15;15.3;26.5;0.0;
24/02/2025 18:17:07;100;0;312.00;-4;-20.21;-3.69;333.1;15.90;76296;2835.638;-1759.646;1;319;-90;-93.5;43.3;43.6;15;15.3;26.5;0.0;
24/02/2025 18:17:27;100;0;310.84;-4;-19.87;-3.67;335.8;15.90;76297;2835.640;-1759.649;1;319;-90;-95.2;43.3;43.7;15;15.8;26.5;0.0;
24/02/2025 18:17:47;100;0;308.56;-4;-20.10;-3.71;338.4;15.90;76285;2835.642;-1759.652;1;319;-90;-93.5;43.3;43.6;12;12.2;26.5;0.0;
24/02/2025 18:18:07;100;0;309.21;-4;-19.90;-5.56;341.2;15.80;76270;2835.645;-1759.654;1;319;-90;-93.5;43.3;43.6;12;11.7;26.5;0.0;
24/02/2025 18:18:27;100;0;308.97;-4;-19.81;-5.60;343.9;15.80;76261;2835.647;-1759.657;1;319;-90;-95.2;43.3;43.6;12;11.7;26.5;0.0;
24/02/2025 18:18:47;100;0;307.21;-4;-19.82;-5.63;346.6;15.80;76251;2835.649;-1759.660;1;319;-90;-93.5;43.3;43.6;12;11.7;26.5;0.0;
24/02/2025 18:19:07;100;0;306.59;-4;-19.87;-5.61;349.3;15.70;76253;2835.651;-1759.663;1;319;-90;-93.5;43.3;43.6;10;9.9;26.5;0.0;
24/02/2025 18:19:27;100;0;308.03;-4;-19.43;-6.60;351.9;15.70;76240;2835.653;-1759.666;1;319;-90;-91.9;43.3;43.6;10;9.9;26.5;0.0;
24/02/2025 18:19:47;100;0;310.67;-4;-19.26;-6.69;354.5;15.70;76241;2835.655;-1759.669;1;319;-90;-91.9;43.3;43.6;13;13.5;26.5;0.0;
24/02/2025 18:20:07;100;0;311.21;-4;-19.37;-4.68;357.1;15.60;76230;2835.657;-1759.672;1;319;-90;-93.5;43.3;43.6;13;13.5;26.5;0.0;
24/02/2025 18:20:27;100;0;312.63;-4;-19.43;-4.66;359.5;15.60;76222;2835.660;-1759.675;1;319;-90;-93.5;43.3;43.6;13;13.5;26.5;0.0;
24/02/2025 18:20:47;100;0;313.32;-4;-19.35;-4.67;362.0;15.60;76204;2835.662;-1759.677;1;319;-90;-93.5;43.3;43.7;13;13.5;26.5;0.0;
24/02/2025 18:21:07;100;0;314.04;-4;-19.52;-4.60;364.5;15.50;76211;2835.664;-1759.680;1;319;-90;-93.5;43.3;43.7;13;13.5;26.5;0.0;
24/02/2025 18:21:27;100;0;315.61;-4;-19.54;-4.58;367.1;15.50;76204;2835.666;-1759.682;1;319;-90;-93.5;43.3;43.6;13;13.5;26.5;0.0;
24/02/2025 18:21:47;100;0;316.67;-4;-19.31;-4.64;369.6;15.50;76199;2835.669;-1759.685;1;319;-90;-93.5;43.3;43.6;13;13.5;26.5;0.0;
24/02/2025 18:22:07;100;0;316.49;-4;-19.12;-4.66;372.1;15.40;76196;2835.671;-1759.687;1;319;-90;-93.5;43.3;43.7;13;13.5;26.5;0.0;
24/02/2025 18:22:27;100;0;319.28;-4;-19.44;-4.66;374.5;15.40;76188;2835.674;-1759.689;1;319;-90;-91.9;43.3;43.6;13;13.5;26.5;0.0;
24/02/2025 18:22:47;100;0;320.34;-4;-19.56;-4.65;377.0;15.40;76189;2835.676;-1759.692;1;319;-90;-93.5;43.3;43.6;15;14.9;26.5;0.0;
24/02/2025 18:23:07;100;0;319.86;-4;-19.86;-3.86;379.7;15.40;76171;2835.679;-1759.694;1;319;-90;-93.5;43.3;43.6;15;15.3;26.5;0.0;
24/02/2025 18:23:27;100;0;319.79;-4;-19.94;-3.80;382.4;15.30;76163;2835.681;-1759.696;1;319;-90;-93.5;43.3;43.7;15;15.3;26.5;0.0;
24/02/2025 18:23:47;100;0;317.98;-4;-19.83;-3.88;385.0;15.30;76156;2835.684;-1759.699;1;319;-90;-93.5;43.3;43.7;15;15.3;26.5;0.0;
24/02/2025 18:24:07;100;0;315.39;-4;-19.51;-3.90;387.8;15.30;76157;2835.686;-1759.701;1;319;-90;-93.5;43.3;43.6;15;15.3;26.5;0.0;
24/02/2025 18:24:27;100;0;313.29;-4;-19.55;-3.88;390.4;15.20;76152;2835.689;-1759.704;1;319;-90;-93.5;43.3;43.6;15;15.3;26.6;0.0;
24/02/2025 18:24:47;100;0;309.81;-4;-19.78;-3.85;393.0;15.20;76143;2835.691;-1759.707;1;319;-90;-93.5;43.3;43.6;13;13.1;26.5;0.0;
24/02/2025 18:25:07;100;0;308.18;-4;-19.49;-5.28;395.7;15.20;76137;2835.693;-1759.710;1;319;-90;-93.5;43.3;43.6;11;10.8;26.5;0.0;
24/02/2025 18:25:27;100;0;306.64;-4;-19.46;-6.30;398.4;15.10;76125;2835.695;-1759.713;1;319;-90;-93.5;43.3;43.6;11;10.8;26.5;0.0;
24/02/2025 18:25:47;100;0;307.29;-4;-19.77;-6.23;400.9;15.10;76123;2835.697;-1759.716;1;319;-90;-93.5;43.3;43.7;11;10.8;26.5;0.0;
24/02/2025 18:26:07;100;0;309.76;-4;-19.50;-6.20;403.7;15.10;76114;2835.699;-1759.719;1;319;-90;-93.5;43.3;43.7;11;10.8;26.6;0.0;
24/02/2025 18:26:27;100;0;312.90;-4;-19.27;-6.26;406.4;15.00;76112;2835.702;-1759.722;1;319;-90;-93.5;43.3;43.7;14;14.0;26.5;0.0;
24/02/2025 18:26:47;100;0;314.84;-4;-19.44;-4.20;409.0;15.00;76102;2835.704;-1759.724;1;319;-90;-93.5;43.3;43.6;14;14.4;26.5;0.0;
24/02/2025 18:27:07;100;0;318.84;-4;-19.38;-4.25;411.7;15.00;76106;2835.707;-1759.727;1;319;-90;-93.5;43.3;43.6;14;14.4;26.5;0.0;
24/02/2025 18:27:27;100;0;320.58;-4;-19.52;-4.29;414.4;15.00;76091;2835.710;-1759.729;1;319;-90;-93.5;43.3;43.6;14;14.4;26.5;0.0;
24/02/2025 18:27:47;100;0;321.34;-4;-19.65;-4.23;417.1;15.00;76097;2835.712;-1759.732;1;319;-90;-95.2;43.3;43.6;14;14.4;26.5;0.0;
24/02/2025 18:28:07;100;0;321.07;-4;-19.56;-4.22;419.9;14.90;76085;2835.715;-1759.734;1;319;-90;-93.5;43.3;43.6;14;14.4;26.5;0.0;
24/02/2025 18:28:27;100;0;321.15;-4;-19.45;-4.25;422.6;14.90;76086;2835.718;-1759.737;1;319;-90;-93.5;43.3;43.7;14;14.4;26.5;0.0;
24/02/2025 18:28:47;100;0;321.32;-4;-19.58;-4.25;425.3;14.90;76088;2835.721;-1759.739;1;319;-90;-96.8;43.3;43.7;14;14.4;26.5;0.0;
24/02/2025 18:29:07;100;0;321.66;-4;-19.35;-4.26;428.0;14.80;76081;2835.723;-1759.741;1;319;-90;-93.5;43.3;43.7;14;14.4;26.5;0.0;
24/02/2025 18:29:27;100;0;322.29;-4;-19.47;-4.23;430.6;14.80;76058;2835.726;-1759.744;1;319;-90;-93.5;43.3;43.6;14;14.4;26.5;0.0;
24/02/2025 18:29:47;100;0;324.02;-4;-19.48;-4.20;433.2;14.80;76062;2835.729;-1759.746;1;319;-90;-93.5;43.3;43.6;14;14.4;26.5;0.0;
24/02/2025 18:30:07;100;0;325.21;-4;-19.44;-4.31;435.8;14.70;76063;2835.732;-1759.748;1;319;-90;-93.5;43.3;43.6;16;15.8;26.5;0.0;
24/02/2025 18:30:27;100;0;326.68;-4;-19.28;-3.32;438.4;14.70;76058;2835.735;-1759.750;1;319;-90;-93.5;43.3;43.6;16;16.2;26.5;0.0;
24/02/2025 18:30:47;100;0;327.18;-4;-19.55;-3.43;440.9;14.70;76060;2835.737;-1759.752;1;319;-90;-91.9;43.3;43.7;18;18.1;26.5;0.0;
24/02/2025 18:31:07;100;0;327.29;-4;-19.84;-2.48;443.4;14.70;76055;2835.740;-1759.753;1;319;-90;-93.5;43.3;43.7;18;18.1;26.5;0.0;
24/02/2025 18:31:27;100;0;326.64;-4;-19.59;-2.35;446.0;14.60;76048;2835.743;-1759.755;1;319;-90;-91.9;43.3;43.6;18;18.1;26.5;0.0;
24/02/2025 18:31:47;100;0;326.94;-4;-19.83;-2.45;448.5;14.60;76041;2835.745;-1759.757;1;319;-90;-91.9;43.3;43.7;18;18.1;26.5;0.0;
24/02/2025 18:32:07;100;0;326.75;-4;-18.96;-2.30;451.0;14.60;76043;2835.748;-1759.759;1;319;-90;-93.5;43.6;43.6;18;18.1;26.5;0.0;
24/02/2025 18:32:27;100;0;328.06;-4;-18.90;-2.49;453.3;14.60;76030;2835.751;-1759.761;1;319;-90;-93.5;44.0;44.2;18;18.1;26.5;0.0;
24/02/2025 18:32:47;100;0;328.98;-4;-20.98;-2.42;455.7;14.50;76035;2835.753;-1759.763;1;319;-90;-93.5;44.0;44.3;20;19.9;26.5;0.0;
24/02/2025 18:33:07;100;0;327.34;-4;-21.36;-1.62;458.3;14.50;76030;2835.756;-1759.764;1;319;-90;-95.2;44.0;44.5;18;18.1;26.5;0.0;
24/02/2025 18:33:27;100;0;329.27;-4;-19.64;-2.69;461.0;14.50;76028;2835.759;-1759.766;1;319;-90;-93.5;44.0;44.5;18;18.1;26.5;0.0;
24/02/2025 18:33:47;100;0;327.47;-4;-21.40;-2.64;463.5;14.50;76017;2835.762;-1759.768;1;319;-90;-93.5;44.0;44.5;18;18.1;26.6;0.0;
24/02/2025 18:34:07;100;0;323.11;-4;-21.61;-2.61;466.1;14.40;76008;2835.764;-1759.770;1;319;-90;-93.5;44.0;44.5;16;15.8;26.5;0.0;
24/02/2025 18:34:27;100;0;322.39;-4;-21.39;-3.77;468.9;14.40;76007;2835.767;-1759.772;1;319;-90;-93.5;44.0;44.5;16;15.3;26.5;0.0;
24/02/2025 18:34:47;100;0;320.30;-4;-21.38;-3.83;471.9;14.40;75995;2835.770;-1759.775;1;319;-90;-93.5;44.0;44.5;16;15.8;26.5;0.0;
24/02/2025 18:35:07;100;0;318.34;-4;-20.96;-3.83;474.7;14.40;75995;2835.772;-1759.777;1;319;-90;-93.5;44.0;44.5;16;15.3;26.5;0.0;
24/02/2025 18:35:27;100;0;315.74;-4;-20.97;-3.82;477.4;14.30;75983;2835.775;-1759.780;1;319;-90;-93.5;44.0;44.5;16;15.3;26.5;0.0;
24/02/2025 18:35:47;100;0;314.57;-4;-20.87;-3.94;480.2;14.30;75982;2835.777;-1759.782;1;319;-90;-93.5;44.0;44.5;16;15.3;26.5;0.0;
24/02/2025 18:36:07;100;0;313.27;-4;-21.12;-3.84;482.9;14.30;75976;2835.779;-1759.785;1;319;-90;-93.5;44.0;44.5;16;15.8;26.5;0.0;
24/02/2025 18:36:27;100;0;312.62;-4;-21.30;-3.74;485.8;14.30;75980;2835.782;-1759.788;1;319;-90;-93.5;44.0;44.5;14;14.0;26.5;0.0;
24/02/2025 18:36:47;100;0;310.59;-4;-21.09;-4.59;488.7;14.20;75965;2835.784;-1759.791;1;319;-90;-93.5;44.0;44.3;14;14.0;26.5;0.0;
24/02/2025 18:37:07;100;0;309.62;-4;-20.92;-4.60;491.6;14.20;75968;2835.786;-1759.794;1;319;-90;-93.5;44.0;44.5;14;14.0;26.5;0.0;
24/02/2025 18:37:27;100;0;307.82;-4;-20.89;-4.61;494.4;14.20;75963;2835.788;-1759.797;1;319;-90;-95.2;44.0;44.5;11;10.8;26.5;0.0;
24/02/2025 18:37:47;100;0;308.26;-4;-20.85;-6.31;497.2;14.20;75970;2835.790;-1759.800;1;319;-90;-93.5;44.0;44.5;11;10.4;26.5;0.0;
24/02/2025 18:38:07;100;0;311.17;-4;-20.64;-6.31;500.0;14.10;75958;2835.793;-1759.803;1;319;-90;-93.5;44.0;44.5;14;14.0;26.5;0.0;
24/02/2025 18:38:27;100;0;312.86;-4;-20.78;-4.36;502.8;14.10;75953;2835.795;-1759.805;1;319;-90;-91.9;44.0;44.5;14;14.4;26.5;0.0;
24/02/2025 18:38:47;100;0;312.58;-4;-20.65;-4.43;505.5;14.10;75948;2835.797;-1759.808;1;319;-90;-93.5;44.0;44.3;14;14.4;26.5;0.0;
24/02/2025 18:39:08;100;0;313.04;-4;-20.90;-4.40;508.2;14.10;75944;2835.800;-1759.811;1;319;-90;-93.5;44.0;44.5;14;14.4;26.5;0.0;
24/02/2025 18:39:28;100;0;310.71;-4;-20.94;-4.39;511.1;14.10;75942;2835.802;-1759.814;1;319;-90;-93.5;44.0;44.5;14;14.0;26.5;0.0;
24/02/2025 18:39:48;100;0;308.82;-4;-20.92;-4.37;513.9;14.00;75935;2835.804;-1759.817;1;319;-90;-93.5;44.0;44.5;12;12.2;26.5;0.0;
24/02/2025 18:40:08;100;0;308.45;-4;-21.40;-5.70;516.7;14.00;75930;2835.806;-1759.820;1;319;-90;-93.5;44.0;44.5;12;11.7;26.5;0.0;
24/02/2025 18:40:28;100;0;305.96;-4;-20.80;-5.74;519.6;14.00;75937;2835.808;-1759.823;1;319;-90;-93.5;44.0;44.5;9;9.0;26.5;0.0;
24/02/2025 18:40:48;100;0;305.16;-4;-20.38;-7.21;522.4;14.00;75925;2835.810;-1759.826;1;319;-90;-91.9;44.0;44.5;9;8.6;26.5;0.0;
24/02/2025 18:41:08;100;0;306.32;-4;-20.07;-7.12;525.1;13.90;75923;2835.812;-1759.829;1;319;-90;-93.5;44.0;44.5;9;8.6;26.5;0.0;
24/02/2025 18:41:28;100;0;306.83;-4;-20.51;-7.26;527.7;13.90;75913;2835.814;-1759.832;1;319;-90;-93.5;44.0;44.5;11;10.8;26.5;0.0;
24/02/2025 18:41:48;100;0;305.36;-4;-20.58;-5.94;530.4;13.90;75925;2835.816;-1759.835;1;319;-90;-96.8;44.0;44.5;8;8.1;26.5;0.0;
24/02/2025 18:42:08;100;0;308.18;-4;-20.70;-7.55;533.1;13.90;75909;2835.818;-1759.837;1;319;-90;-93.5;44.0;44.5;11;10.8;26.5;0.0;
24/02/2025 18:42:28;100;0;309.08;-4;-20.52;-5.87;535.8;13.90;75899;2835.820;-1759.840;1;319;-90;-93.5;44.0;44.5;11;11.3;26.5;0.0;
24/02/2025 18:42:48;100;0;309.91;-4;-20.65;-5.87;538.4;13.80;75892;2835.822;-1759.843;1;319;-90;-93.5;44.0;44.5;13;13.1;26.5;0.0;
24/02/2025 18:43:08;100;0;308.07;-4;-20.53;-5.06;541.1;13.80;75898;2835.825;-1759.846;1;319;-90;-91.9;44.0;44.5;11;10.8;26.5;0.0;
24/02/2025 18:43:28;100;0;306.73;-4;-20.34;-6.22;543.8;13.80;75883;2835.827;-1759.849;1;319;-90;-91.9;44.0;44.3;11;10.8;26.5;0.0;
24/02/2025 18:43:48;100;0;304.51;-4;-20.38;-6.29;546.4;13.80;75885;2835.828;-1759.852;1;319;-90;-93.5;44.0;44.5;7;7.2;26.5;0.0;
24/02/2025 18:44:08;100;0;306.61;-4;-20.34;-8.02;549.0;13.70;75878;2835.830;-1759.855;1;319;-90;-93.5;44.0;44.5;10;9.9;26.5;0.0;
24/02/2025 18:44:28;100;0;307.52;-4;-20.47;-6.29;551.6;13.70;75881;2835.832;-1759.858;1;319;-90;-93.5;44.0;44.5;10;10.4;26.5;0.0;
24/02/2025 18:44:48;100;0;309.93;-4;-20.50;-6.26;554.2;13.70;75877;2835.834;-1759.860;1;319;-90;-95.2;44.0;44.5;13;13.1;26.5;0.0;
24/02/2025 18:45:08;100;0;312.44;-4;-20.62;-4.95;556.7;13.70;75867;2835.837;-1759.863;1;319;-90;-91.9;44.0;44.5;13;13.1;26.5;0.0;
24/02/2025 18:45:28;100;0;313.57;-4;-20.72;-4.93;559.2;13.70;75859;2835.839;-1759.865;1;319;-90;-93.5;44.0;44.5;13;13.5;26.5;0.0;
24/02/2025 18:45:48;100;0;315.36;-4;-20.87;-4.86;561.8;13.60;75852;2835.841;-1759.867;1;319;-90;-93.5;44.0;44.5;13;13.5;26.5;0.0;
24/02/2025 18:46:08;100;0;316.97;-4;-20.75;-4.82;564.2;13.60;75864;2835.843;-1759.870;1;319;-90;-93.5;44.0;44.5;13;13.5;26.5;0.0;
24/02/2025 18:46:28;100;0;318.47;-4;-20.75;-4.93;566.7;13.60;75865;2835.845;-1759.872;1;319;-90;-93.5;44.0;44.5;13;13.5;26.5;0.0;
24/02/2025 18:46:48;100;0;319.67;-4;-20.83;-4.92;569.2;13.60;75853;2835.848;-1759.874;1;319;-90;-93.5;44.0;44.5;13;13.5;26.5;0.0;
24/02/2025 18:47:08;100;0;321.50;-4;-20.56;-4.85;571.7;13.60;75856;2835.850;-1759.876;1;319;-90;-95.2;44.0;44.5;13;13.1;26.5;0.0;
24/02/2025 18:47:28;100;0;325.91;-4;-20.72;-4.88;574.1;13.50;75843;2835.853;-1759.878;1;319;-90;-93.5;44.0;44.5;16;15.8;26.5;0.0;
24/02/2025 18:47:48;100;0;327.51;-4;-20.97;-3.51;576.6;13.50;75847;2835.855;-1759.880;1;319;-90;-93.5;44.0;44.5;18;18.1;26.5;0.0;
24/02/2025 18:48:08;100;0;325.99;-4;-20.48;-2.38;579.0;13.50;75838;2835.858;-1759.881;1;319;-90;-93.5;44.0;44.5;16;15.3;26.5;0.0;
24/02/2025 18:48:28;100;0;325.42;-4;-20.43;-4.08;581.4;13.50;75833;2835.860;-1759.883;1;319;-90;-93.5;44.0;44.5;16;15.3;26.5;0.0;
24/02/2025 18:48:48;100;0;325.77;-4;-20.47;-4.01;583.7;13.40;75825;2835.863;-1759.885;1;319;-90;-93.5;44.0;44.5;16;15.3;26.5;0.0;
24/02/2025 18:49:08;100;0;327.29;-4;-20.46;-4.03;586.0;13.40;75831;2835.865;-1759.887;1;319;-90;-93.5;44.0;44.5;16;15.3;26.5;0.0;
24/02/2025 18:49:28;100;0;328.81;-4;-20.49;-4.01;588.3;13.40;75827;2835.868;-1759.888;1;319;-90;-93.5;44.0;44.5;19;19.4;26.5;0.0;
24/02/2025 18:49:48;100;0;328.78;-4;-20.59;-1.82;590.7;13.40;75820;2835.870;-1759.890;1;319;-90;-93.5;44.0;44.5;19;19.4;26.5;0.0;
24/02/2025 18:50:08;100;0;327.20;-4;-20.46;-1.86;593.0;13.40;75820;2835.873;-1759.892;1;319;-90;-93.5;44.0;44.5;19;19.4;26.5;0.0;
24/02/2025 18:50:28;100;0;326.56;-4;-20.57;-1.87;595.4;13.40;75810;2835.875;-1759.893;1;319;-90;-93.5;44.0;44.5;17;17.1;26.5;0.0;
24/02/2025 18:50:48;100;0;325.38;-4;-20.74;-3.28;597.8;13.30;75800;2835.878;-1759.895;1;319;-90;-93.5;44.0;44.5;17;16.7;26.5;0.0;
24/02/2025 18:51:08;100;0;325.40;-4;-20.44;-3.36;600.2;13.30;75802;2835.880;-1759.897;1;319;-90;-93.5;44.0;44.5;17;16.7;26.5;0.0;
24/02/2025 18:51:28;100;0;325.12;-4;-20.26;-3.30;602.6;13.30;75805;2835.883;-1759.899;1;319;-90;-96.8;44.0;44.5;17;16.7;26.5;0.0;
24/02/2025 18:51:48;100;0;325.41;-4;-20.54;-3.28;605.1;13.30;75789;2835.885;-1759.901;1;319;-90;-93.5;44.0;44.5;17;16.7;26.5;0.0;
24/02/2025 18:52:08;100;0;325.70;-4;-20.38;-3.24;607.5;13.30;75793;2835.888;-1759.902;1;319;-90;-93.5;44.0;44.5;17;16.7;26.5;0.0;
24/02/2025 18:52:28;100;0;325.63;-4;-20.61;-3.24;609.9;13.20;75783;2835.890;-1759.904;1;319;-90;-93.5;44.0;44.5;17;16.7;26.5;0.0;
24/02/2025 18:52:48;100;0;323.73;-4;-20.58;-3.22;612.5;13.20;75771;2835.893;-1759.906;1;319;-90;-93.5;44.0;44.5;17;16.7;26.5;0.0;
24/02/2025 18:53:08;100;0;322.70;-4;-20.62;-3.23;615.0;13.20;75774;2835.895;-1759.908;1;319;-90;-93.5;44.0;44.5;15;14.9;26.5;0.0;
24/02/2025 18:53:28;100;0;323.78;-4;-20.70;-4.20;617.5;13.20;75770;2835.898;-1759.910;1;319;-90;-93.5;44.0;44.5;15;14.9;26.5;0.0;
24/02/2025 18:53:48;100;0;321.62;-4;-20.56;-4.23;619.9;13.20;75770;2835.900;-1759.912;1;319;-90;-91.9;44.0;44.5;15;14.9;26.5;0.0;
24/02/2025 18:54:08;100;0;321.17;-4;-20.15;-4.20;622.3;13.10;75760;2835.902;-1759.914;1;319;-90;-95.2;44.0;44.5;15;14.9;26.5;0.0;
24/02/2025 18:54:28;100;0;320.31;-4;-20.44;-4.21;624.6;13.10;75760;2835.905;-1759.916;1;319;-90;-93.5;44.0;44.6;15;14.4;26.5;0.0;
24/02/2025 18:54:48;100;0;319.27;-4;-20.39;-4.26;627.1;13.10;75748;2835.907;-1759.918;1;319;-90;-95.2;44.0;44.5;15;14.9;26.5;0.0;
24/02/2025 18:55:08;100;0;316.39;-4;-20.67;-4.29;629.6;13.10;75757;2835.909;-1759.921;1;319;-90;-93.5;44.0;44.5;15;14.9;26.5;0.0;
24/02/2025 18:55:28;100;0;312.93;-4;-20.33;-4.19;632.0;13.00;75748;2835.911;-1759.923;1;319;-90;-93.5;44.0;44.5;15;14.9;26.5;0.0;
24/02/2025 18:55:48;100;0;309.65;-4;-20.56;-4.22;634.5;13.00;75744;2835.913;-1759.926;1;319;-90;-93.5;44.0;44.5;13;13.1;26.5;0.0;
24/02/2025 18:56:08;100;0;307.81;-4;-20.59;-5.19;636.9;13.00;75736;2835.915;-1759.928;1;319;-90;-93.5;44.0;44.5;13;12.6;26.5;0.0;
24/02/2025 18:56:28;100;0;306.06;-4;-20.60;-5.19;639.3;13.00;75727;2835.917;-1759.931;1;319;-90;-93.5;44.0;44.5;11;10.4;26.5;0.0;
24/02/2025 18:56:48;100;0;306.83;-4;-19.86;-6.40;641.8;13.00;75722;2835.919;-1759.934;1;319;-90;-95.2;44.0;44.6;11;10.4;26.5;0.0;
24/02/2025 18:57:08;100;0;310.23;-4;-20.12;-6.44;644.2;13.00;75724;2835.921;-1759.936;1;319;-90;-93.5;44.0;44.5;13;13.1;26.5;0.0;
24/02/2025 18:57:28;100;0;313.74;-4;-20.33;-4.76;646.6;12.90;75705;2835.923;-1759.938;1;319;-90;-93.5;44.0;44.5;13;13.5;26.5;0.0;
24/02/2025 18:57:48;100;0;318.15;-4;-20.12;-4.78;649.2;12.90;75710;2835.925;-1759.941;1;319;-90;-93.5;44.0;44.5;13;13.5;26.5;0.0;
24/02/2025 18:58:08;100;0;322.39;-4;-20.10;-4.81;651.6;12.90;75703;2835.928;-1759.943;1;319;-90;-93.5;44.0;44.5;15;14.9;26.5;0.0;
24/02/2025 18:58:28;100;0;326.01;-4;-20.32;-3.82;654.3;12.90;75705;2835.931;-1759.945;1;319;-90;-93.5;44.0;44.5;15;15.3;26.6;0.0;
24/02/2025 18:58:48;100;0;329.60;-4;-20.25;-3.84;656.8;12.80;75687;2835.933;-1759.947;1;319;-90;-93.5;44.0;44.3;20;19.9;26.5;0.0;
24/02/2025 18:59:08;100;0;331.27;-4;-20.48;-1.57;659.4;12.80;75690;2835.936;-1759.948;1;319;-90;-93.5;44.0;44.6;20;20.3;26.5;0.0;
24/02/2025 18:59:28;100;0;331.84;-4;-19.96;-1.62;661.9;12.80;75683;2835.939;-1759.950;1;319;-90;-93.5;44.0;44.5;23;23.0;26.5;0.0;
24/02/2025 18:59:48;100;0;332.59;-4;-20.60;0.10;664.4;12.80;75675;2835.942;-1759.951;1;319;-90;-93.5;44.0;44.5;23;23.5;26.5;0.0;
24/02/2025 19:00:08;100;0;333.33;-4;-20.54;0.05;666.9;12.80;75666;2835.944;-1759.953;1;319;-90;-93.5;44.0;44.5;25;25.3;26.5;0.0;
24/02/2025 19:00:28;100;0;326.67;-4;-19.88;1.05;669.4;12.70;75661;2835.947;-1759.955;1;319;-90;-93.5;44.0;44.5;18;18.1;26.5;0.0;
24/02/2025 19:00:48;100;0;324.16;-4;-20.11;-2.88;671.7;12.70;75653;2835.949;-1759.956;1;319;-90;-93.5;44.0;44.5;16;15.8;26.5;0.0;
24/02/2025 19:01:08;100;0;323.10;-4;-20.22;-3.85;674.3;12.70;75637;2835.952;-1759.959;1;319;-90;-95.2;44.0;44.5;16;15.8;26.5;0.0;
24/02/2025 19:01:28;100;0;322.46;-4;-20.32;-3.81;676.9;12.70;75623;2835.955;-1759.961;1;319;-90;-93.5;44.0;44.5;16;15.8;26.5;0.0;
24/02/2025 19:01:48;100;0;321.83;-4;-20.34;-3.85;679.5;12.60;75620;2835.957;-1759.963;1;319;-90;-93.5;44.0;44.5;16;15.8;26.5;0.0;
24/02/2025 19:02:08;100;0;320.97;-4;-20.25;-3.86;682.1;12.60;75621;2835.960;-1759.965;1;319;-90;-91.9;44.0;44.5;16;15.8;26.5;0.0;
24/02/2025 19:02:28;100;0;319.43;-4;-20.27;-3.79;684.7;12.60;75606;2835.962;-1759.968;1;319;-90;-93.5;44.0;44.5;16;15.8;26.5;0.0;
24/02/2025 19:02:48;100;0;316.88;-4;-20.17;-3.87;687.4;12.60;75609;2835.965;-1759.970;1;319;-90;-93.5;44.0;44.5;16;15.8;26.5;0.0;
24/02/2025 19:03:08;100;0;315.09;-4;-20.14;-3.83;690.0;12.60;75599;2835.967;-1759.973;1;319;-90;-96.8;44.0;44.5;16;15.8;26.5;0.0;
24/02/2025 19:03:28;100;0;313.83;-4;-20.27;-3.85;692.6;12.50;75600;2835.970;-1759.975;1;319;-90;-95.2;44.0;44.5;16;15.8;26.5;0.0;
24/02/2025 19:03:48;100;0;312.47;-4;-20.27;-3.85;695.3;12.50;75596;2835.972;-1759.978;1;319;-90;-93.5;44.0;44.5;14;14.0;26.5;0.0;
24/02/2025 19:04:08;100;0;311.23;-4;-20.11;-4.58;698.1;12.50;75585;2835.974;-1759.981;1;319;-90;-91.9;44.0;44.5;14;14.0;26.5;0.0;
24/02/2025 19:04:28;100;0;310.02;-4;-19.77;-4.59;700.7;12.50;75579;2835.976;-1759.984;1;319;-90;-93.5;44.0;44.5;14;14.0;26.5;0.0;
24/02/2025 19:04:48;100;0;308.75;-4;-19.90;-4.61;703.2;12.40;75579;2835.978;-1759.986;1;319;-90;-93.5;44.0;44.6;14;14.0;26.5;0.0;
24/02/2025 19:05:08;100;0;307.03;-4;-19.58;-4.62;705.7;12.40;75572;2835.980;-1759.989;1;319;-90;-93.5;44.0;44.5;12;12.2;26.5;0.0;
24/02/2025 19:05:28;100;0;305.70;-4;-19.58;-5.88;708.3;12.40;75552;2835.982;-1759.992;1;319;-90;-95.2;44.0;44.5;9;9.0;26.5;0.0;
24/02/2025 19:05:48;100;0;308.22;-4;-19.64;-7.28;710.7;12.30;75540;2835.984;-1759.995;1;319;-90;-93.5;44.0;44.5;12;12.2;26.5;0.0;
24/02/2025 19:06:08;100;0;310.06;-4;-19.69;-5.41;713.3;12.30;75546;2835.986;-1759.998;1;319;-90;-93.5;44.0;44.5;12;12.2;26.5;0.0;
24/02/2025 19:06:28;100;0;311.81;-4;-19.68;-5.41;715.9;12.30;75538;2835.989;-1800.000;1;319;-90;-93.5;44.0;44.5;14;14.0;26.5;0.0;
24/02/2025 19:06:48;100;0;313.29;-4;-19.79;-4.27;718.4;12.30;75532;2835.991;-1800.003;1;319;-90;-93.5;44.0;44.5;14;14.4;26.5;0.0;
24/02/2025 19:07:08;100;0;314.20;-4;-19.72;-4.27;721.0;12.30;75537;2835.993;-1800.005;1;319;-90;-93.5;44.0;44.5;14;14.4;26.5;0.0;
24/02/2025 19:07:28;100;0;313.76;-4;-19.74;-4.27;723.6;12.30;75539;2835.995;-1800.008;1;319;-90;-93.5;44.0;44.5;14;14.4;26.5;0.0;
24/02/2025 19:07:48;100;0;313.87;-4;-19.62;-4.31;726.0;12.20;75537;2835.998;-1800.010;1;319;-90;-93.5;44.0;44.5;14;14.4;26.5;0.0;
24/02/2025 19:08:08;100;0;315.31;-4;-19.72;-4.23;728.6;12.20;75520;2836.000;-1800.013;1;319;-90;-95.2;44.0;44.5;14;14.4;26.5;0.0;
24/02/2025 19:08:28;100;0;315.29;-4;-19.76;-4.26;731.1;12.20;75513;2836.002;-1800.015;1;319;-90;-93.5;44.0;44.5;14;14.4;26.5;0.0;
24/02/2025 19:08:48;100;0;317.09;-4;-19.70;-4.24;733.7;12.20;75508;2836.004;-1800.018;1;319;-90;-93.5;44.0;44.5;14;14.4;26.5;0.0;
24/02/2025 19:09:08;100;0;319.21;-4;-19.91;-4.32;736.3;12.10;75512;2836.007;-1800.020;1;319;-90;-93.5;44.0;44.5;14;14.4;26.5;0.0;
24/02/2025 19:09:28;100;0;322.51;-4;-19.69;-4.26;738.9;12.10;75505;2836.010;-1800.022;1;319;-90;-91.9;44.0;44.5;14;14.4;26.5;0.0;
24/02/2025 19:09:48;100;0;325.46;-4;-19.58;-4.28;741.4;12.10;75496;2836.012;-1800.024;1;319;-90;-93.5;44.0;44.5;16;15.8;26.5;0.0;
24/02/2025 19:10:08;100;0;328.39;-4;-19.72;-3.40;744.0;12.10;75489;2836.015;-1800.026;1;319;-90;-93.5;44.0;44.5;18;18.1;26.5;0.0;
24/02/2025 19:10:28;100;0;328.15;-4;-19.95;-2.55;746.6;12.00;75482;2836.018;-1800.028;1;319;-90;-93.5;44.0;44.5;18;18.1;26.5;0.0;
24/02/2025 19:10:48;100;0;327.63;-4;-20.01;-2.48;749.3;12.00;75474;2836.021;-1800.030;1;319;-90;-91.9;44.0;44.5;18;18.1;26.5;0.0;
24/02/2025 19:11:08;100;0;327.56;-4;-19.98;-2.55;751.8;12.00;75482;2836.024;-1800.032;1;319;-90;-93.5;44.0;44.5;18;18.1;26.5;0.0;
24/02/2025 19:11:28;100;0;326.48;-4;-20.08;-2.57;754.5;12.00;75471;2836.026;-1800.034;1;319;-90;-91.9;44.0;44.5;18;18.1;26.5;0.0;
24/02/2025 19:11:48;100;0;324.71;-4;-20.10;-2.54;757.1;12.00;75469;2836.029;-1800.036;1;319;-90;-95.2;44.0;44.5;16;15.8;26.5;0.0;
24/02/2025 19:12:08;100;0;325.09;-4;-19.79;-3.82;759.7;11.90;75452;2836.032;-1800.038;1;319;-90;-93.5;44.0;44.5;16;15.3;26.5;0.0;
24/02/2025 19:12:28;100;0;325.72;-4;-20.69;-3.85;762.3;11.90;75456;2836.035;-1800.040;1;319;-90;-93.5;44.0;44.5;16;15.8;26.5;0.0;
24/02/2025 19:12:48;100;0;324.63;-4;-20.11;-3.81;765.1;11.90;75448;2836.037;-1800.042;1;319;-90;-93.5;44.0;44.5;16;15.8;26.5;0.0;
24/02/2025 19:13:08;100;0;323.46;-4;-19.97;-3.79;767.5;11.90;75446;2836.040;-1800.044;1;319;-90;-93.5;44.0;44.5;16;15.3;26.5;0.0;
24/02/2025 19:13:29;100;0;322.59;-4;-20.18;-3.84;770.1;11.80;75428;2836.043;-1800.046;1;319;-90;-93.5;44.0;44.5;16;15.3;26.5;0.0;
24/02/2025 19:13:49;100;0;321.54;-4;-20.69;-3.83;772.7;11.80;75437;2836.045;-1800.048;1;319;-90;-96.8;44.0;44.5;16;15.8;26.5;0.0;
24/02/2025 19:14:09;100;0;316.67;-4;-20.12;-3.97;775.1;11.80;75422;2836.047;-1800.050;1;319;-90;-93.5;44.0;44.3;16;15.3;26.5;0.0;
24/02/2025 19:14:29;100;0;313.39;-4;-20.06;-3.82;777.7;11.80;75422;2836.050;-1800.053;1;319;-90;-93.5;44.0;44.5;14;14.0;26.5;0.0;
24/02/2025 19:14:49;100;0;310.88;-4;-19.39;-4.76;780.2;11.80;75421;2836.052;-1800.056;1;319;-90;-93.5;44.0;44.5;14;13.5;26.5;0.0;
24/02/2025 19:15:09;100;0;306.51;-4;-20.18;-4.86;782.6;11.70;75411;2836.054;-1800.058;1;319;-90;-93.5;44.0;44.5;11;10.8;26.5;0.0;
24/02/2025 19:15:29;100;0;303.39;-4;-19.47;-6.22;785.0;11.70;75399;2836.055;-1800.061;1;319;-90;-93.5;44.0;44.5;8;8.1;26.5;0.0;
24/02/2025 19:15:49;100;0;303.61;-4;-19.28;-7.70;787.5;11.70;75400;2836.057;-1800.064;1;319;-90;-93.5;44.0;44.5;8;7.7;26.5;0.0;
24/02/2025 19:16:09;100;0;306.96;-4;-19.33;-7.72;790.0;11.70;75391;2836.059;-1800.067;1;319;-90;-93.5;44.0;44.5;11;10.8;26.5;0.0;
24/02/2025 19:16:29;100;0;306.81;-4;-19.36;-6.11;792.3;11.60;75381;2836.061;-1800.070;1;319;-90;-93.5;44.0;44.5;11;10.8;26.5;0.0;
24/02/2025 19:16:49;100;0;307.25;-4;-19.57;-6.13;794.8;11.60;75374;2836.063;-1800.073;1;319;-90;-93.5;44.0;44.5;11;11.3;26.5;0.0;
24/02/2025 19:17:09;100;0;305.22;-4;-19.65;-6.02;797.2;11.60;75366;2836.065;-1800.075;1;319;-90;-93.5;44.0;44.5;11;10.8;26.5;0.0;
24/02/2025 19:17:29;100;0;305.78;-4;-19.27;-6.00;799.8;11.60;75371;2836.067;-1800.078;1;319;-90;-93.5;44.0;44.5;9;9.0;26.5;0.0;
24/02/2025 19:17:49;100;0;308.00;-4;-19.04;-7.32;802.3;11.50;75366;2836.069;-1800.081;1;319;-90;-95.2;44.0;44.5;12;12.6;26.5;0.0;
24/02/2025 19:18:09;100;0;309.55;-4;-19.95;-5.18;804.7;11.50;75348;2836.071;-1800.084;1;319;-90;-91.9;44.0;44.5;12;12.6;26.5;0.0;
24/02/2025 19:18:29;100;0;307.95;-4;-19.78;-5.18;807.4;11.50;75354;2836.073;-1800.087;1;319;-90;-95.2;44.0;44.5;12;12.6;26.5;0.0;
24/02/2025 19:18:49;100;0;307.25;-4;-19.61;-5.24;810.0;11.50;75350;2836.075;-1800.090;1;319;-90;-91.9;44.0;44.5;12;12.6;26.5;0.0;
24/02/2025 19:19:09;100;0;309.04;-4;-19.18;-5.19;812.8;11.40;75334;2836.077;-1800.093;1;319;-90;-93.5;44.0;44.5;12;12.6;26.5;0.0;
24/02/2025 19:19:29;100;0;311.23;-4;-19.25;-5.29;815.3;11.40;75326;2836.079;-1800.096;1;319;-90;-93.5;44.0;44.5;12;12.6;26.5;0.0;
24/02/2025 19:19:49;100;0;313.42;-4;-19.06;-5.28;817.9;11.40;75331;2836.082;-1800.098;1;319;-90;-93.5;44.0;44.5;14;14.0;26.5;0.0;
24/02/2025 19:20:09;100;0;314.84;-4;-19.48;-4.31;820.4;11.40;75317;2836.084;-1800.101;1;319;-90;-93.5;44.0;44.5;14;14.4;26.5;0.0;
24/02/2025 19:20:29;100;0;314.95;-4;-19.04;-4.45;823.0;11.30;75320;2836.086;-1800.103;1;319;-90;-93.5;44.0;44.5;14;14.4;26.5;0.0;
24/02/2025 19:20:49;100;0;323.26;-4;-20.59;-4.84;825.4;11.30;75316;2836.089;-1800.105;1;319;-90;-91.9;44.0;44.5;14;14.4;26.5;0.0;
24/02/2025 19:21:09;100;0;319.51;-4;-20.09;-4.51;828.0;11.30;75307;2836.091;-1800.108;1;319;-90;-93.5;44.0;44.5;14;14.4;26.5;0.0;
24/02/2025 19:21:29;100;0;324.02;-4;-19.57;-4.07;830.7;11.30;75301;2836.094;-1800.110;1;319;-90;-93.5;44.0;44.5;14;14.4;26.5;0.0;
24/02/2025 19:21:49;100;0;327.24;-4;-19.96;-4.37;833.0;11.20;75292;2836.096;-1800.111;1;319;-90;-93.5;44.0;44.5;18;18.1;26.5;0.0;
24/02/2025 19:22:09;100;0;326.40;-4;-20.13;-2.39;835.4;11.20;75290;2836.099;-1800.113;1;319;-90;-93.5;44.0;44.5;18;18.5;26.5;0.0;
24/02/2025 19:22:29;100;0;325.22;-4;-19.58;-2.40;837.9;11.20;75291;2836.102;-1800.115;1;319;-90;-93.5;44.0;44.5;16;15.8;26.5;0.0;
24/02/2025 19:22:49;100;0;325.88;-4;-18.80;-3.81;840.6;11.20;75284;2836.105;-1800.117;1;319;-90;-93.5;44.3;44.3;16;15.8;26.5;0.0;
24/02/2025 19:23:09;100;0;328.94;-4;-19.41;-3.95;842.9;11.20;75288;2836.107;-1800.119;1;319;-90;-93.5;44.3;44.3;19;19.0;26.5;0.0;
24/02/2025 19:23:29;100;0;332.02;-4;-19.72;-1.81;845.4;11.10;75287;2836.110;-1800.121;1;319;-90;-93.5;44.3;44.3;23;23.0;26.5;0.0;
24/02/2025 19:23:49;100;0;332.61;-4;-19.48;-0.02;847.9;11.10;75276;2836.113;-1800.122;1;319;-90;-93.5;44.3;44.3;23;23.0;26.5;0.0;
24/02/2025 19:24:09;100;0;329.11;-4;-19.27;0.03;850.3;11.10;75261;2836.116;-1800.124;1;319;-90;-93.5;44.3;44.3;20;19.9;26.5;0.0;
24/02/2025 19:24:29;100;0;326.33;-4;-19.13;-1.81;852.8;11.10;75252;2836.118;-1800.126;1;319;-90;-93.5;44.3;44.3;17;17.1;26.5;0.0;
24/02/2025 19:24:49;100;0;327.52;-4;-19.07;-3.43;855.0;11.10;75259;2836.121;-1800.127;1;319;-90;-93.5;44.3;44.3;17;17.1;26.5;0.0;
24/02/2025 19:25:09;100;0;326.67;-4;-19.02;-3.28;857.3;11.00;75248;2836.123;-1800.129;1;319;-90;-93.5;44.3;44.3;17;17.1;26.5;0.0;
24/02/2025 19:25:29;100;0;324.61;-4;-19.38;-3.30;859.4;11.00;75236;2836.126;-1800.131;1;319;-90;-93.5;44.3;44.3;17;17.1;26.5;0.0;
24/02/2025 19:25:49;100;0;323.68;-4;-19.11;-3.28;861.6;11.00;75237;2836.128;-1800.133;1;319;-90;-93.5;44.3;44.3;17;17.1;26.5;0.0;
24/02/2025 19:26:09;100;0;323.69;-4;-19.21;-3.24;863.7;11.00;75232;2836.130;-1800.134;1;319;-90;-93.5;44.3;44.3;17;16.7;26.5;0.0;
24/02/2025 19:26:29;100;0;323.18;-4;-19.10;-3.19;865.8;11.00;75238;2836.132;-1800.136;1;319;-90;-93.5;44.3;44.3;17;17.1;26.5;0.0;
24/02/2025 19:26:49;100;0;322.21;-4;-19.40;-3.37;867.8;10.90;75228;2836.135;-1800.138;1;319;-90;-93.5;44.3;44.3;15;14.4;26.5;0.0;
24/02/2025 19:27:09;100;0;321.96;-4;-19.06;-4.48;869.8;10.90;75220;2836.137;-1800.140;1;319;-90;-93.5;44.3;44.3;15;14.4;26.5;0.0;
24/02/2025 19:27:29;100;0;321.87;-4;-18.83;-4.49;871.7;10.90;75205;2836.139;-1800.141;1;319;-110;-109.7;44.7;44.6;15;14.4;26.5;0.0;
24/02/2025 19:27:49;100;0;321.92;-4;-19.08;-4.37;873.5;10.80;75258;2836.141;-1800.143;1;319;-130;-130.6;44.7;44.8;15;14.4;26.5;0.0;
24/02/2025 19:28:09;100;0;323.38;-4;-18.93;-4.28;875.4;10.80;75295;2836.142;-1800.144;1;319;-150;-148.4;45.0;45.1;15;14.4;26.5;0.0;
24/02/2025 19:28:29;100;0;324.27;-4;-19.93;-4.34;877.4;10.80;75325;2836.145;-1800.146;1;319;-150;-150.0;45.0;45.4;15;14.4;26.5;0.0;
24/02/2025 19:28:49;100;0;325.39;-4;-20.33;-4.29;879.5;10.80;75331;2836.147;-1800.148;1;319;-150;-150.0;45.0;45.4;17;17.1;26.5;0.0;
24/02/2025 19:29:09;100;0;325.09;-4;-20.51;-2.57;881.6;10.80;75330;2836.149;-1800.149;1;319;-150;-151.6;45.0;45.4;17;17.6;26.5;0.0;
24/02/2025 19:29:29;100;0;325.57;-4;-21.56;-2.54;883.9;10.80;75322;2836.151;-1800.151;1;319;-150;-151.6;45.0;45.4;17;17.6;26.5;0.0;
24/02/2025 19:29:49;100;0;326.01;-4;-21.33;-2.55;886.6;10.70;75320;2836.154;-1800.153;1;319;-150;-153.2;45.0;45.4;17;17.6;26.5;0.0;
24/02/2025 19:30:09;100;0;324.20;-4;-21.29;-2.48;889.4;10.70;75329;2836.157;-1800.155;1;319;-150;-153.2;45.0;45.4;17;17.6;26.5;0.0;
24/02/2025 19:30:29;100;0;319.31;-4;-20.80;-2.63;892.2;10.70;75322;2836.159;-1800.157;1;319;-150;-153.2;45.0;45.4;15;14.4;26.5;0.0;
24/02/2025 19:30:49;100;0;319.29;-4;-21.14;-4.11;895.1;10.70;75320;2836.162;-1800.160;1;319;-150;-153.2;45.0;45.4;15;14.4;26.5;0.0;
24/02/2025 19:31:09;100;0;317.79;-4;-20.66;-4.17;898.0;10.70;75299;2836.165;-1800.162;1;319;-150;-153.2;45.0;45.4;15;14.4;26.5;0.0;
24/02/2025 19:31:29;100;0;314.28;-4;-21.17;-4.24;901.0;10.60;75312;2836.167;-1800.165;1;319;-150;-153.2;45.0;45.4;15;14.4;26.5;0.0;
24/02/2025 19:31:49;100;0;315.14;-4;-20.43;-4.04;903.8;10.60;75296;2836.170;-1800.168;1;319;-150;-153.2;45.0;45.4;15;14.4;26.5;0.0;
24/02/2025 19:32:09;100;0;311.25;-4;-21.12;-4.19;906.5;10.60;75305;2836.172;-1800.171;1;319;-150;-151.6;45.0;45.4;15;14.4;26.5;0.0;
24/02/2025 19:32:29;100;0;311.12;-4;-20.81;-4.18;909.5;10.60;75303;2836.174;-1800.174;1;319;-150;-153.2;45.0;45.4;15;14.4;26.5;0.0;
24/02/2025 19:32:49;100;0;310.10;-4;-20.17;-3.89;912.6;10.60;75295;2836.177;-1800.177;1;319;-150;-153.2;45.0;45.4;13;13.1;26.5;0.0;
24/02/2025 19:33:09;100;0;308.56;-4;-20.74;-4.99;915.3;10.60;75299;2836.179;-1800.180;1;319;-150;-153.2;45.0;45.4;13;12.6;26.5;0.0;
24/02/2025 19:33:29;100;0;307.16;-4;-20.23;-5.04;918.2;10.50;75290;2836.181;-1800.183;1;319;-150;-153.2;45.0;45.4;11;10.8;26.5;0.0;
24/02/2025 19:33:49;100;0;310.68;-4;-20.41;-5.58;921.2;10.50;75288;2836.184;-1800.186;1;319;-150;-154.8;45.0;45.4;14;14.0;26.5;0.0;
24/02/2025 19:34:09;100;0;307.29;-4;-20.37;-4.23;924.3;10.50;75291;2836.186;-1800.190;1;319;-150;-153.2;45.0;45.4;11;10.4;26.5;0.0;
24/02/2025 19:34:29;100;0;305.49;-4;-21.94;-6.18;927.5;10.50;75292;2836.188;-1800.193;1;319;-150;-153.2;45.0;45.4;9;9.0;26.5;0.0;
24/02/2025 19:34:49;100;0;306.03;-4;-20.55;-6.96;931.1;10.40;75279;2836.191;-1800.197;1;319;-150;-153.2;45.0;45.4;9;8.6;26.5;0.0;
24/02/2025 19:35:09;100;0;307.72;-4;-19.98;-7.19;934.4;10.40;75283;2836.193;-1800.201;1;319;-150;-156.5;45.0;45.4;11;10.8;26.5;0.0;
24/02/2025 19:35:29;100;0;308.01;-4;-19.18;-5.55;937.7;10.40;75281;2836.196;-1800.205;1;319;-150;-153.2;45.0;45.4;11;11.3;26.5;0.0;
24/02/2025 19:35:49;100;0;310.69;-4;-20.60;-5.48;940.5;10.40;75280;2836.198;-1800.208;1;319;-150;-153.2;45.0;45.4;13;13.1;26.5;0.0;
24/02/2025 19:36:09;100;0;310.11;-4;-20.03;-4.34;943.5;10.40;75269;2836.201;-1800.211;1;319;-150;-151.6;45.0;45.4;13;13.5;26.5;0.0;
24/02/2025 19:36:29;100;0;312.77;-4;-21.82;-4.16;946.5;10.40;75265;2836.203;-1800.214;1;319;-150;-153.2;45.0;45.4;13;13.5;26.5;0.0;
24/02/2025 19:36:49;100;0;312.96;-4;-20.89;-4.66;949.6;10.30;75266;2836.206;-1800.217;1;319;-150;-153.2;45.0;45.4;13;13.5;26.5;0.0;
24/02/2025 19:37:09;100;0;311.22;-4;-19.74;-4.84;952.8;10.30;75267;2836.209;-1800.220;1;319;-150;-153.2;45.0;45.4;13;13.5;26.5;0.0;
24/02/2025 19:37:29;100;0;309.73;-4;-20.16;-4.51;955.8;10.30;75259;2836.211;-1800.223;1;319;-150;-153.2;45.0;45.4;13;13.5;26.5;0.0;
24/02/2025 19:37:49;100;0;310.59;-4;-20.19;-4.75;958.9;10.30;75253;2836.214;-1800.227;1;319;-150;-151.6;45.0;45.4;13;13.5;26.5;0.0;
24/02/2025 19:38:09;100;0;310.38;-4;-20.72;-5.00;962.0;10.30;75260;2836.216;-1800.230;1;319;-150;-153.2;45.0;45.4;13;13.5;26.5;0.0;
24/02/2025 19:38:29;100;0;313.45;-4;-19.87;-4.54;965.1;10.30;75254;2836.219;-1800.233;1;319;-150;-153.2;45.0;45.4;13;13.5;26.5;0.0;
24/02/2025 19:38:49;100;0;315.95;-4;-20.42;-4.68;968.1;10.20;75255;2836.222;-1800.236;1;319;-150;-153.2;45.0;45.4;13;13.5;26.5;0.0;
24/02/2025 19:39:09;100;0;315.94;-4;-20.65;-4.61;971.2;10.20;75250;2836.224;-1800.239;1;319;-150;-154.8;45.0;45.4;13;13.5;26.5;0.0;
24/02/2025 19:39:29;100;0;316.36;-4;-20.41;-4.59;974.4;10.20;75249;2836.227;-1800.242;1;319;-150;-154.8;45.0;45.4;13;13.5;26.5;0.0;
24/02/2025 19:39:49;100;0;318.33;-4;-20.06;-4.81;977.5;10.20;75252;2836.230;-1800.245;1;319;-150;-153.2;45.0;45.4;13;13.5;26.5;0.0;
24/02/2025 19:40:09;100;0;319.15;-4;-20.59;-4.52;980.7;10.20;75245;2836.233;-1800.247;1;319;-150;-153.2;45.0;45.4;13;13.5;26.5;0.0;
24/02/2025 19:40:29;100;0;321.36;-4;-20.85;-4.54;983.7;10.20;75237;2836.236;-1800.250;1;319;-150;-153.2;45.0;45.4;15;14.9;26.5;0.0;
24/02/2025 19:40:49;100;0;322.63;-4;-20.29;-3.93;987.0;10.10;75244;2836.239;-1800.253;1;319;-150;-153.2;45.0;45.4;15;15.3;26.5;0.0;
24/02/2025 19:41:09;100;0;323.42;-4;-20.37;-3.69;990.3;10.10;75246;2836.243;-1800.255;1;319;-150;-153.2;45.0;45.5;15;15.3;26.5;0.0;
24/02/2025 19:41:29;100;0;322.62;-4;-20.41;-3.46;993.4;10.10;75232;2836.246;-1800.258;1;319;-150;-153.2;45.0;45.4;15;15.3;26.5;0.0;
24/02/2025 19:41:49;100;0;320.03;-4;-21.13;-3.94;996.6;10.10;75227;2836.249;-1800.261;1;319;-150;-153.2;45.0;45.4;15;15.3;26.5;0.0;
24/02/2025 19:42:03;118;0;318.91;-4;-19.74;-3.78;999.0;10.10;75232;2836.251;-1800.263;1;319;450;-150.0;22.5;22.5;7;7.2;26.5;0.0;
24/02/2025 19:42:13;118;0;49.23;-4;-6.23;-8.64;1000.0;10.10;75206;2836.252;-1800.261;1;319;450;-24.2;22.5;22.4;7;7.2;25.2;-1.0;
24/02/2025 19:42:23;118;0;39.38;-4;19.43;-8.71;1000.3;10.10;74950;2836.253;-1800.261;1;319;450;100.0;22.5;22.7;7;7.2;25.1;-1.0;
24/02/2025 19:42:33;118;0;34.52;-4;27.87;-9.10;999.6;10.10;74689;2836.253;-1800.261;1;319;450;224.2;22.5;22.7;7;7.2;25.2;-1.0;
24/02/2025 19:42:43;118;0;35.01;-4;28.06;-8.83;998.4;10.10;74442;2836.254;-1800.260;1;319;450;346.8;22.5;22.7;7;7.2;24.9;-1.0;
24/02/2025 19:42:53;118;0;35.78;-4;25.83;-8.55;997.2;10.10;74204;2836.255;-1800.259;1;319;450;453.2;22.5;22.7;7;7.2;25.1;-1.0;
24/02/2025 19:43:03;118;0;319.76;-4;23.16;-7.32;995.4;10.10;73974;2836.257;-1800.260;1;319;450;451.6;22.5;22.8;7;7.2;26.4;-1.0;
24/02/2025 19:43:13;118;0;314.98;-4;20.61;-7.64;993.8;10.10;73982;2836.258;-1800.262;1;319;450;453.2;22.5;22.7;7;7.2;26.5;-1.0;
24/02/2025 19:43:33;117;0;308.96;-4;18.55;-7.75;990.8;10.20;73988;2836.261;-1800.265;1;319;450;453.2;22.5;22.7;7;7.2;26.5;-1.0;
24/02/2025 19:43:53;117;0;301.07;-4;17.99;-7.33;987.9;10.20;73983;2836.263;-1800.269;1;319;450;453.2;21.9;21.5;40;40.2;26.5;-1.0;
24/02/2025 19:44:13;117;0;304.77;-4;22.76;9.43;984.8;10.20;73974;2836.265;-1800.272;1;319;450;451.6;22.8;23.0;35;34.7;26.5;-1.0;
24/02/2025 19:44:33;117;0;308.16;-4;20.84;7.69;981.1;10.30;73981;2836.267;-1800.276;1;319;450;453.2;22.8;23.0;31;31.1;26.5;-1.0;
24/02/2025 19:44:53;117;0;309.68;-4;20.99;4.47;977.8;10.30;73981;2836.270;-1800.280;1;319;450;453.2;22.8;23.0;31;31.1;26.5;-1.0;
24/02/2025 19:45:13;117;0;311.24;-4;20.85;4.61;974.5;10.20;73974;2836.273;-1800.283;1;319;450;453.2;22.8;23.0;29;28.4;26.5;-1.0;
24/02/2025 19:45:33;117;0;310.20;-4;20.62;3.45;971.0;10.30;73976;2836.276;-1800.286;1;319;450;453.2;22.8;23.0;29;28.9;26.5;-1.0;
24/02/2025 19:45:53;117;0;310.14;-4;20.28;3.22;967.7;10.30;73973;2836.278;-1800.290;1;319;450;453.2;22.8;23.0;29;28.4;26.5;-1.0;
24/02/2025 19:46:14;117;0;308.66;-4;19.68;3.36;964.7;10.20;73960;2836.281;-1800.293;1;319;450;453.2;22.8;23.0;31;31.1;26.5;-1.0;
24/02/2025 19:46:34;117;0;312.24;-4;20.09;4.70;962.0;10.20;73972;2836.283;-1800.296;1;319;450;450.0;22.8;23.0;29;28.9;26.5;-1.0;
24/02/2025 19:46:54;117;0;313.02;-4;21.70;3.66;959.0;10.20;73959;2836.285;-1800.299;1;319;450;451.6;22.8;23.0;29;28.9;26.5;-1.0;
24/02/2025 19:47:14;117;0;311.56;-4;21.32;3.68;955.7;10.20;73960;2836.288;-1800.302;1;319;450;451.6;22.8;23.0;29;28.9;26.5;-1.0;
24/02/2025 19:47:34;117;0;311.69;-4;20.43;3.51;952.0;10.20;73961;2836.291;-1800.306;1;319;450;451.6;22.8;23.0;29;28.9;26.5;-1.0;
24/02/2025 19:47:54;117;0;312.01;-4;20.18;3.60;948.5;10.20;73949;2836.294;-1800.310;1;319;450;451.6;22.8;23.0;29;28.9;26.5;-1.0;
24/02/2025 19:48:14;117;0;312.91;-4;21.02;3.28;945.0;10.10;73940;2836.297;-1800.313;1;319;450;451.6;22.8;23.1;29;28.9;26.5;-1.0;
24/02/2025 19:48:34;117;0;313.64;-4;19.69;3.57;941.6;10.10;73940;2836.300;-1800.317;1;319;450;453.2;22.8;23.0;29;28.9;26.5;-1.0;
24/02/2025 19:48:54;117;0;315.18;-4;20.14;3.53;938.3;10.10;73936;2836.303;-1800.320;1;319;450;450.0;22.8;23.0;29;28.9;26.5;-1.0;
24/02/2025 19:49:14;117;0;316.41;-4;19.99;3.50;935.0;10.10;73941;2836.306;-1800.323;1;319;450;453.2;22.8;23.0;29;29.3;26.5;-1.0;
24/02/2025 19:49:34;117;0;317.67;-4;20.23;3.44;931.8;10.10;73934;2836.309;-1800.326;1;319;450;451.6;22.8;23.0;29;28.9;26.5;-1.0;
24/02/2025 19:49:54;117;0;319.05;-4;20.54;3.53;928.4;10.10;73935;2836.312;-1800.329;1;319;450;453.2;22.8;23.0;29;28.9;26.5;-1.0;
24/02/2025 19:50:14;117;0;320.76;-4;20.26;3.21;924.9;10.10;73935;2836.316;-1800.332;1;319;450;451.6;22.8;23.0;29;28.9;26.5;-1.0;
24/02/2025 19:50:34;117;0;322.17;-4;20.41;3.43;921.6;10.10;73941;2836.319;-1800.335;1;319;450;453.2;22.8;23.0;29;28.9;26.5;-1.0;
24/02/2025 19:50:54;117;0;324.06;-4;20.70;3.51;918.0;10.00;73923;2836.323;-1800.338;1;319;450;451.6;22.8;23.0;29;28.9;26.5;-1.0;
24/02/2025 19:51:14;117;0;324.49;-4;20.04;3.36;914.5;10.00;73925;2836.326;-1800.341;1;319;450;450.0;22.8;23.0;29;28.9;26.5;-1.0;
24/02/2025 19:51:34;117;0;326.04;-4;20.97;3.18;911.2;10.00;73923;2836.330;-1800.343;1;319;450;451.6;22.8;23.0;27;26.2;26.5;-1.0;
24/02/2025 19:51:54;117;0;327.17;-4;20.17;2.99;907.7;10.00;73921;2836.333;-1800.346;1;319;450;453.2;22.8;23.0;27;28.0;26.5;-1.0;
24/02/2025 19:52:14;117;0;327.22;-4;20.09;3.16;904.2;10.00;73920;2836.337;-1800.348;1;319;450;453.2;22.8;23.0;27;28.0;26.5;-1.0;
24/02/2025 19:52:34;117;0;328.22;-4;20.08;2.97;900.8;10.00;73909;2836.341;-1800.351;1;319;450;451.6;22.8;23.0;25;24.8;26.5;-1.0;
24/02/2025 19:52:54;117;0;326.86;-4;20.41;0.94;897.5;10.00;73899;2836.345;-1800.353;1;319;450;453.2;22.8;23.0;25;24.4;26.5;-1.0;
24/02/2025 19:53:14;117;0;327.63;-4;20.04;1.16;894.0;10.00;73907;2836.348;-1800.356;1;319;450;453.2;22.8;23.1;25;24.4;26.5;-1.0;
24/02/2025 19:53:34;117;0;326.61;-4;20.15;1.21;890.5;10.00;73910;2836.352;-1800.359;1;319;450;451.6;22.8;23.0;25;24.4;26.5;-1.0;
24/02/2025 19:53:54;117;0;325.30;-4;20.16;1.08;886.9;9.90;73903;2836.356;-1800.362;1;319;450;451.6;22.8;23.0;27;27.1;26.5;-1.0;
24/02/2025 19:54:14;117;0;324.45;-4;19.49;2.91;883.3;9.90;73903;2836.360;-1800.365;1;319;450;453.2;22.8;23.1;27;28.0;26.5;-1.0;
24/02/2025 19:54:34;117;0;324.65;-4;20.04;3.27;880.0;9.90;73898;2836.363;-1800.367;1;319;450;453.2;22.8;23.0;27;28.0;26.5;-1.0;
24/02/2025 19:54:54;117;0;324.69;-4;20.10;2.85;876.7;9.90;73907;2836.367;-1800.370;1;319;450;451.6;22.8;23.0;27;28.0;26.5;-1.0;
24/02/2025 19:55:14;117;0;324.82;-4;19.77;2.85;873.4;9.90;73902;2836.370;-1800.372;1;319;450;451.6;22.8;23.0;27;28.0;26.5;-1.0;
24/02/2025 19:55:34;117;0;325.14;-4;19.99;3.07;870.3;9.90;73891;2836.373;-1800.375;1;319;450;454.8;22.8;23.0;27;28.0;26.5;-1.0;
24/02/2025 19:55:54;117;0;325.50;-4;20.40;2.90;867.1;9.90;73874;2836.377;-1800.377;1;319;450;453.2;22.8;23.0;27;28.0;26.5;-1.0;
24/02/2025 19:56:14;117;0;325.42;-4;20.27;3.21;864.0;9.90;73883;2836.380;-1800.380;1;319;450;453.2;22.8;23.0;27;28.0;26.5;-1.0;
24/02/2025 19:56:34;117;0;326.39;-4;20.58;2.97;860.7;9.90;73885;2836.383;-1800.382;1;319;450;451.6;22.8;23.0;27;28.0;26.5;-1.0;
24/02/2025 19:56:54;117;0;326.22;-4;20.22;3.01;857.2;9.90;73889;2836.387;-1800.385;1;319;450;451.6;22.8;23.0;27;28.0;26.5;-1.0;
24/02/2025 19:57:14;117;0;324.82;-4;20.57;2.99;853.7;9.90;73894;2836.391;-1800.388;1;319;450;451.6;22.8;23.0;27;28.0;26.5;-1.0;
24/02/2025 19:57:34;117;0;323.53;-4;19.45;2.73;850.1;9.90;73894;2836.394;-1800.391;1;319;450;454.8;22.8;23.0;27;28.0;26.5;-1.0;
24/02/2025 19:57:54;117;0;324.20;-4;19.42;2.98;846.5;9.80;73903;2836.398;-1800.394;1;319;450;451.6;22.8;23.0;27;28.0;26.5;-1.0;
24/02/2025 19:58:14;117;0;323.67;-4;19.56;3.00;843.2;9.80;73903;2836.402;-1800.397;1;319;450;453.2;22.8;23.0;27;28.0;26.5;-1.0;
24/02/2025 19:58:34;117;0;324.27;-4;19.80;3.03;839.9;9.80;73896;2836.405;-1800.399;1;319;450;453.2;22.8;23.0;27;28.0;26.5;-1.0;
24/02/2025 19:58:54;117;0;324.43;-4;20.35;2.88;836.3;9.80;73909;2836.409;-1800.402;1;319;450;451.6;22.8;23.0;27;28.0;26.5;-1.0;
24/02/2025 19:59:14;117;0;323.45;-4;20.61;3.04;832.9;9.80;73897;2836.412;-1800.405;1;319;450;453.2;22.8;23.0;27;28.0;26.5;-1.0;
24/02/2025 19:59:34;117;0;321.39;-4;19.34;2.92;829.4;9.80;73890;2836.416;-1800.408;1;319;450;451.6;22.8;23.0;27;28.0;26.5;-1.0;
24/02/2025 19:59:54;117;0;321.39;-4;19.15;3.49;825.9;9.80;73889;2836.419;-1800.411;1;319;450;453.2;22.8;23.0;27;28.0;26.5;-1.0;
24/02/2025 20:00:14;117;0;321.15;-4;20.01;3.11;822.5;9.80;73894;2836.423;-1800.414;1;319;450;453.2;22.8;23.0;27;28.0;26.5;-1.0;
24/02/2025 20:00:34;117;0;320.91;-4;20.21;2.96;818.9;9.80;73889;2836.426;-1800.417;1;319;450;453.2;22.8;23.0;27;28.0;26.5;-1.0;
