Timestamp;NavState;SecurityLevel;Heading;Declination;Pitch;Roll;Depth;Temperature;Pa;Lat;Lon;DeadReckoning;DesiredH;BallastCmd;BallastPos;LinCmd;LinPos;AngCmd;AngPos;Voltage;Altitude;
18/02/2025 23:42:59;119;0;91.96;-4;-55.23;-7.25;0.1;17.40;75699;2836.505;-1758.410;0;4;500;508.1;100.0;100.7;0;-0.5;27.8;-1.0;
18/02/2025 23:43:09;116;0;101.53;-4;-55.72;-10.55;0.4;17.40;75706;2836.509;-1758.414;0;4;500;506.5;100.0;100.7;0;-0.5;27.8;-1.0;
18/02/2025 23:43:35;116;0;67.48;-4;-54.56;-5.90;0.2;17.50;75713;2836.513;-1758.419;0;4;500;506.5;100.0;100.7;0;0.0;27.8;-1.0;
18/02/2025 23:44:04;116;0;78.42;-4;-49.67;-9.44;-0.1;17.60;75715;2836.511;-1758.420;0;-9999;500;508.1;100.0;100.7;0;-0.5;27.8;-1.0;
18/02/2025 23:44:24;116;0;106.35;-4;-53.19;-13.21;-0.0;17.60;75725;2836.512;-1758.424;0;5;500;506.5;100.0;100.7;0;-0.5;27.8;-1.0;
18/02/2025 23:44:44;116;0;90.88;-4;-47.44;-15.67;-0.1;17.60;75730;2836.509;-1758.427;0;5;500;506.5;100.0;100.7;0;-0.5;27.8;-1.0;
18/02/2025 23:45:04;116;0;81.70;-4;-49.50;-5.45;-0.1;17.70;75730;2836.510;-1758.427;0;5;500;506.5;100.0;100.7;0;-0.5;27.8;-1.0;
18/02/2025 23:45:15;116;0;87.50;-4;-67.04;-8.08;0.2;17.70;75744;2836.511;-1758.428;0;5;500;508.1;100.0;100.7;0;-0.5;27.8;-1.0;
18/02/2025 23:46:18;116;0;78.49;-4;-49.18;-3.31;0.0;18.00;75771;2836.516;-1758.432;0;5;500;508.1;100.0;100.7;0;-0.5;27.8;-1.0;
18/02/2025 23:47:12;116;0;99.05;-4;-57.05;-18.83;0.1;18.20;75782;2836.521;-1758.436;0;6;500;506.5;100.0;100.9;0;-0.5;27.8;-1.0;
18/02/2025 23:47:23;116;0;86.32;-4;-62.80;-4.05;-0.1;18.20;75788;2836.522;-1758.437;0;6;500;508.1;100.0;100.7;0;0.0;27.8;-1.0;
18/02/2025 23:47:43;110;0;112.63;-4;-64.75;-3.38;0.0;18.30;75795;2836.522;-1758.437;0;6;-70;388.7;100.0;99.9;-8;-8.1;27.8;-1.0;
18/02/2025 23:47:53;110;0;119.23;-4;-59.76;-19.18;0.6;18.40;76152;2836.522;-1758.437;1;6;-70;232.3;100.0;99.7;-8;-8.6;27.8;-1.0;
18/02/2025 23:48:03;110;0;109.23;-4;-60.08;-12.50;0.6;18.40;76408;2836.522;-1758.437;1;6;-70;80.6;100.0;99.9;-8;-8.6;27.8;-1.0;
18/02/2025 23:48:13;110;0;95.22;-4;-68.92;-17.78;0.8;18.40;76715;2836.522;-1758.437;1;6;-70;-69.4;100.0;99.7;-8;-8.6;27.8;-1.0;
18/02/2025 23:48:23;110;0;74.08;-4;-62.18;-14.95;1.5;18.50;77024;2836.522;-1758.436;1;6;-70;-69.4;43.7;43.7;-8;-8.6;27.8;-1.0;
18/02/2025 23:48:43;100;0;82.16;-4;-29.21;-16.86;4.9;18.50;76998;2836.522;-1758.433;1;6;-70;-64.5;43.7;43.3;-8;-8.6;27.8;-1.0;
18/02/2025 23:49:03;100;0;86.28;-4;-21.59;-16.28;8.5;18.60;77007;2836.522;-1758.428;1;6;-70;-62.9;43.7;43.2;70;70.4;27.8;-1.0;
18/02/2025 23:49:23;100;0;83.12;-4;-25.12;24.60;11.4;18.60;77024;2836.522;-1758.425;1;5;-70;-62.9;42.2;42.3;70;70.4;27.8;-1.0;
18/02/2025 23:49:43;100;0;73.12;-4;-23.13;23.53;14.7;18.60;77032;2836.523;-1758.421;1;5;-70;-62.9;41.3;41.2;70;70.4;27.8;0.0;
18/02/2025 23:50:03;100;0;63.37;-4;-20.19;23.53;17.7;18.60;77020;2836.525;-1758.417;1;5;-70;-62.9;41.3;41.1;70;70.4;27.8;0.0;
18/02/2025 23:50:23;100;0;51.96;-4;-19.16;23.90;20.7;18.70;77039;2836.527;-1758.413;1;4;-70;-61.3;41.3;41.1;70;70.4;27.8;0.0;
18/02/2025 23:50:43;100;0;42.33;-4;-18.06;23.65;23.3;18.70;77046;2836.530;-1758.411;1;4;-70;-62.9;41.8;42.1;57;56.4;27.8;0.0;
18/02/2025 23:51:03;100;0;30.81;-4;-19.06;16.16;25.7;18.70;77057;2836.532;-1758.409;1;4;-70;-62.9;41.8;42.1;40;39.7;27.8;0.0;
18/02/2025 23:51:23;100;0;24.88;-4;-19.24;7.94;28.2;18.70;77050;2836.535;-1758.407;1;4;-70;-62.9;41.8;42.1;29;28.4;27.8;0.0;
18/02/2025 23:51:43;100;0;18.73;-4;-18.19;2.24;30.5;18.80;77072;2836.538;-1758.406;1;4;-70;-62.9;42.4;42.7;20;19.9;27.8;0.0;
18/02/2025 23:52:03;100;0;16.09;-4;-20.49;-2.22;32.9;18.80;77062;2836.541;-1758.405;1;4;-70;-62.9;42.4;42.7;17;17.1;27.8;0.0;
18/02/2025 23:52:23;100;0;13.41;-4;-19.08;-3.41;35.2;18.80;77077;2836.544;-1758.405;1;4;-70;-62.9;42.4;42.9;15;14.4;27.8;0.0;
18/02/2025 23:52:43;100;0;15.77;-4;-19.02;-4.86;37.4;18.80;77076;2836.546;-1758.404;1;3;-70;-61.3;42.4;42.7;18;18.1;27.8;0.0;
18/02/2025 23:53:03;100;0;16.53;-4;-20.87;-2.49;39.6;18.90;77095;2836.549;-1758.403;1;3;-70;-62.9;42.4;42.7;18;18.5;27.8;0.0;
18/02/2025 23:53:23;100;0;16.38;-4;-19.86;-2.47;41.9;18.80;77078;2836.552;-1758.402;1;3;-70;-62.9;42.4;42.9;18;18.5;27.8;0.0;
18/02/2025 23:53:43;100;0;15.30;-4;-20.13;-2.57;44.2;18.90;77082;2836.554;-1758.401;1;3;-70;-62.9;42.4;42.9;18;18.5;27.9;0.0;
18/02/2025 23:54:03;100;0;16.68;-4;-19.97;-2.39;46.7;18.90;77090;2836.557;-1758.400;1;3;-70;-62.9;42.4;42.9;18;18.5;27.8;0.0;
18/02/2025 23:54:23;100;0;16.70;-4;-19.59;-2.43;49.0;18.90;77089;2836.560;-1758.399;1;3;-70;-62.9;42.4;42.9;18;18.5;27.8;0.0;
18/02/2025 23:54:43;100;0;12.54;-4;-20.20;-2.50;51.3;18.90;77097;2836.563;-1758.399;1;3;-70;-62.9;42.4;42.7;15;14.9;27.8;0.0;
18/02/2025 23:55:03;100;0;11.56;-4;-19.80;-4.64;53.6;19.00;77090;2836.565;-1758.398;1;3;-70;-59.7;42.4;42.7;15;14.4;27.8;0.0;
18/02/2025 23:55:23;100;0;9.28;-4;-19.68;-4.58;56.1;19.00;77096;2836.568;-1758.397;1;3;-70;-62.9;42.4;42.9;15;14.4;27.8;0.0;
18/02/2025 23:55:43;100;0;6.97;-4;-19.71;-4.55;58.6;19.00;77101;2836.571;-1758.397;1;3;-70;-62.9;42.4;42.9;13;13.1;27.8;0.0;
18/02/2025 23:56:03;100;0;4.70;-4;-19.13;-5.34;61.0;19.00;77095;2836.574;-1758.397;1;3;-70;-62.9;42.4;42.7;13;12.6;27.8;0.0;
18/02/2025 23:56:23;100;0;6.40;-4;-19.78;-5.36;63.5;19.00;77098;2836.577;-1758.397;1;3;-70;-62.9;42.4;42.9;13;12.6;27.8;0.0;
18/02/2025 23:56:43;100;0;8.08;-4;-19.36;-5.38;66.1;19.00;77097;2836.581;-1758.396;1;3;-70;-62.9;42.4;42.9;13;13.1;27.8;0.0;
18/02/2025 23:57:03;100;0;9.79;-4;-19.60;-5.31;68.8;19.00;77092;2836.584;-1758.395;1;3;-70;-64.5;42.4;42.7;13;13.1;27.8;0.0;
18/02/2025 23:57:23;100;0;9.05;-4;-19.69;-5.32;71.5;19.00;77102;2836.587;-1758.395;1;3;-70;-62.9;42.4;42.7;13;13.1;27.8;0.0;
18/02/2025 23:57:43;100;0;7.38;-4;-19.04;-5.32;74.1;19.00;77105;2836.591;-1758.394;1;3;-70;-62.9;42.4;42.9;13;12.6;27.8;0.0;
18/02/2025 23:58:03;100;0;7.54;-4;-19.07;-5.41;76.7;19.00;77102;2836.594;-1758.394;1;3;-70;-61.3;42.4;42.9;13;12.6;27.8;0.0;
18/02/2025 23:58:23;100;0;7.69;-4;-19.28;-5.36;79.3;19.00;77109;2836.597;-1758.394;1;3;-70;-62.9;42.4;42.9;13;13.1;27.8;0.0;
18/02/2025 23:58:43;100;0;7.31;-4;-19.42;-5.40;81.9;19.00;77101;2836.600;-1758.393;1;3;-70;-62.9;42.4;42.7;13;13.1;27.8;0.0;
18/02/2025 23:59:03;100;0;8.64;-4;-19.47;-5.34;84.7;19.00;77082;2836.604;-1758.393;1;3;-70;-61.3;42.4;42.7;13;13.1;27.8;0.0;
18/02/2025 23:59:23;100;0;7.68;-4;-19.02;-5.43;87.4;19.00;77073;2836.607;-1758.392;1;3;-70;-62.9;42.4;42.7;13;12.6;27.8;0.0;
18/02/2025 23:59:43;100;0;5.44;-4;-18.90;-5.42;90.1;19.00;77070;2836.611;-1758.392;1;3;-70;-62.9;42.7;42.7;13;12.6;27.8;0.0;
19/02/2025 00:00:03;100;0;2.76;-4;-19.31;-5.21;92.7;19.00;77065;2836.614;-1758.392;1;3;-70;-62.9;42.7;42.9;13;13.1;27.8;0.0;
19/02/2025 00:00:23;100;0;359.93;-4;-18.99;-5.34;95.3;19.00;77039;2836.617;-1758.392;1;3;-70;-62.9;43.0;43.2;13;12.6;27.8;0.0;
19/02/2025 00:00:43;100;0;358.04;-4;-19.86;-5.43;97.8;19.00;77043;2836.621;-1758.392;1;3;-70;-61.3;43.0;43.3;13;13.1;27.8;0.0;
19/02/2025 00:01:03;100;0;356.12;-4;-20.10;-5.34;100.3;19.00;77031;2836.624;-1758.392;1;3;-70;-62.9;43.0;43.4;13;13.1;27.8;0.0;
19/02/2025 00:01:23;100;0;354.60;-4;-20.27;-5.38;102.8;19.00;77040;2836.627;-1758.393;1;3;-70;-62.9;43.0;43.3;11;10.8;27.8;0.0;
19/02/2025 00:01:43;100;0;353.91;-4;-20.30;-6.55;105.3;19.00;77041;2836.630;-1758.393;1;3;-70;-62.9;43.0;43.3;11;10.8;27.8;0.0;
19/02/2025 00:02:04;100;0;353.52;-4;-20.14;-6.53;107.8;19.00;77029;2836.633;-1758.393;1;3;-70;-61.3;43.0;43.4;11;10.4;27.8;0.0;
19/02/2025 00:02:24;100;0;352.03;-4;-20.50;-6.44;110.4;19.00;77030;2836.636;-1758.394;1;3;-70;-61.3;43.0;43.4;8;8.1;27.8;0.0;
19/02/2025 00:02:44;100;0;350.69;-4;-20.98;-7.86;112.9;19.00;77022;2836.639;-1758.395;1;3;-70;-62.9;43.0;43.4;8;7.7;27.8;0.0;
19/02/2025 00:03:04;100;0;353.15;-4;-20.47;-7.89;115.7;18.90;77016;2836.642;-1758.395;1;3;-70;-62.9;43.0;43.4;8;7.7;27.8;0.0;
19/02/2025 00:03:24;100;0;354.47;-4;-20.86;-7.79;118.5;18.90;77010;2836.645;-1758.396;1;3;-70;-62.9;43.0;43.4;10;9.9;27.8;0.0;
19/02/2025 00:03:44;100;0;359.00;-4;-18.90;-6.16;121.2;18.90;77002;2836.649;-1758.396;1;3;-70;-61.3;43.3;43.4;13;13.5;27.8;0.0;
19/02/2025 00:04:04;100;0;359.05;-4;-21.00;-4.99;123.8;18.90;76995;2836.652;-1758.396;1;3;-70;-62.9;43.3;43.4;13;13.5;27.8;0.0;
19/02/2025 00:04:24;100;0;3.70;-4;-19.55;-4.93;126.3;18.90;76989;2836.655;-1758.396;1;3;-70;-62.9;43.3;43.4;13;13.5;27.8;0.0;
19/02/2025 00:04:44;100;0;4.02;-4;-19.69;-4.90;128.7;18.90;76976;2836.658;-1758.396;1;3;-70;-61.3;43.3;43.4;13;13.5;27.8;0.0;
19/02/2025 00:05:04;100;0;5.38;-4;-20.40;-4.91;131.0;18.90;76973;2836.661;-1758.395;1;3;-70;-62.9;43.3;43.4;13;13.5;27.8;0.0;
19/02/2025 00:05:24;100;0;4.80;-4;-20.20;-4.96;133.6;18.80;76963;2836.664;-1758.395;1;3;-70;-62.9;43.3;43.4;13;13.5;27.8;0.0;
19/02/2025 00:05:44;100;0;4.77;-4;-19.97;-4.93;136.1;18.80;76946;2836.667;-1758.395;1;3;-70;-62.9;43.3;43.4;13;13.5;27.8;0.0;
19/02/2025 00:06:04;100;0;3.52;-4;-20.17;-4.89;138.6;18.80;76932;2836.670;-1758.395;1;3;-70;-62.9;43.3;43.4;13;13.5;27.8;0.0;
19/02/2025 00:06:24;100;0;3.47;-4;-19.83;-4.93;141.1;18.80;76924;2836.673;-1758.395;1;3;-70;-62.9;43.3;43.4;13;13.5;27.8;0.0;
19/02/2025 00:06:44;100;0;4.13;-4;-20.11;-4.87;143.5;18.80;76934;2836.676;-1758.394;1;3;-70;-62.9;43.3;43.3;13;13.5;27.8;0.0;
19/02/2025 00:07:04;100;0;3.07;-4;-20.04;-5.01;146.1;18.70;76913;2836.679;-1758.394;1;3;-70;-61.3;43.3;43.4;13;13.5;27.8;0.0;
19/02/2025 00:07:24;100;0;2.57;-4;-20.20;-4.96;148.5;18.70;76921;2836.682;-1758.394;1;3;-70;-62.9;43.3;43.4;13;13.5;27.8;0.0;
19/02/2025 00:07:44;100;0;2.80;-4;-19.69;-4.93;151.0;18.70;76914;2836.685;-1758.394;1;3;-70;-61.3;43.3;43.4;13;13.5;27.8;0.0;
19/02/2025 00:08:04;100;0;5.92;-4;-19.96;-5.01;153.5;18.70;76890;2836.688;-1758.394;1;3;-70;-62.9;43.3;43.4;13;14.0;27.8;0.0;
19/02/2025 00:08:24;100;0;10.74;-4;-20.20;-4.91;156.0;18.60;76890;2836.691;-1758.393;1;3;-70;-62.9;43.3;43.4;13;13.5;27.8;0.0;
19/02/2025 00:08:44;100;0;10.65;-4;-20.46;-4.84;158.6;18.60;76886;2836.695;-1758.392;1;3;-70;-61.3;43.3;43.4;13;13.5;27.8;0.0;
19/02/2025 00:09:04;100;0;11.93;-4;-20.58;-4.82;161.3;18.60;76879;2836.698;-1758.392;1;3;-70;-61.3;43.3;43.4;15;14.9;27.8;0.0;
19/02/2025 00:09:24;100;0;13.51;-4;-20.65;-4.06;164.1;18.60;76875;2836.701;-1758.391;1;3;-70;-62.9;43.3;43.4;15;15.3;27.8;0.0;
19/02/2025 00:09:44;100;0;12.43;-4;-20.21;-4.07;166.9;18.50;76865;2836.704;-1758.390;1;3;-70;-62.9;43.3;43.4;15;15.3;27.8;0.0;
19/02/2025 00:10:04;100;0;9.20;-4;-19.93;-4.14;169.6;18.50;76846;2836.708;-1758.389;1;3;-70;-61.3;43.3;43.4;15;15.3;27.8;0.0;
19/02/2025 00:10:24;100;0;6.46;-4;-19.54;-4.25;172.1;18.50;76840;2836.711;-1758.389;1;3;-70;-61.3;43.3;43.4;13;13.1;27.8;0.0;
19/02/2025 00:10:44;100;0;9.27;-4;-19.52;-5.47;174.5;18.50;76826;2836.713;-1758.389;1;3;-70;-61.3;43.3;43.4;13;12.6;27.8;0.0;
19/02/2025 00:11:04;100;0;11.65;-4;-19.37;-5.67;176.9;18.40;76813;2836.716;-1758.388;1;3;-70;-62.9;43.3;43.4;15;14.9;27.8;0.0;
19/02/2025 00:11:24;100;0;12.79;-4;-19.74;-4.14;179.4;18.40;76815;2836.719;-1758.387;1;3;-70;-61.3;43.3;43.4;15;15.3;27.8;0.0;
19/02/2025 00:11:44;100;0;13.15;-4;-20.00;-4.12;181.8;18.40;76805;2836.722;-1758.386;1;3;-70;-62.9;43.3;43.4;15;15.3;27.8;0.0;
19/02/2025 00:12:04;100;0;12.49;-4;-19.85;-4.07;184.3;18.30;76804;2836.725;-1758.386;1;3;-70;-62.9;43.3;43.4;15;15.3;27.8;0.0;
19/02/2025 00:12:24;100;0;11.57;-4;-20.70;-4.00;186.7;18.30;76785;2836.728;-1758.385;1;3;-70;-61.3;43.3;43.4;15;15.3;27.8;0.0;
19/02/2025 00:12:44;100;0;9.61;-4;-20.38;-4.01;189.3;18.30;76773;2836.731;-1758.385;1;3;-70;-61.3;43.3;43.4;15;15.3;27.8;0.0;
19/02/2025 00:13:04;100;0;8.80;-4;-20.05;-4.03;191.9;18.20;76760;2836.734;-1758.384;1;3;-70;-62.9;43.3;43.4;15;15.3;27.8;0.0;
19/02/2025 00:13:24;100;0;7.19;-4;-20.36;-3.98;194.4;18.20;76752;2836.737;-1758.384;1;2;-70;-62.9;43.3;43.4;15;15.3;27.8;0.0;
19/02/2025 00:13:44;100;0;6.34;-4;-20.10;-4.03;196.8;18.20;76743;2836.740;-1758.383;1;2;-70;-61.3;43.3;43.3;15;15.8;27.8;0.0;
19/02/2025 00:14:04;100;0;6.11;-4;-19.92;-4.03;199.1;18.20;76738;2836.743;-1758.383;1;2;-70;-62.9;43.3;43.4;15;15.8;27.8;0.0;
19/02/2025 00:14:24;100;0;2.24;-4;-19.68;-4.10;201.4;18.10;76737;2836.746;-1758.383;1;2;-70;-62.9;43.3;43.4;15;15.3;27.8;0.0;
19/02/2025 00:14:44;100;0;0.72;-4;-19.62;-4.04;203.6;18.10;76721;2836.749;-1758.383;1;2;-70;-62.9;43.3;43.4;13;12.6;27.8;0.0;
19/02/2025 00:15:04;100;0;359.64;-4;-19.91;-5.60;205.8;18.00;76720;2836.751;-1758.383;1;2;-70;-62.9;43.3;43.4;13;12.6;27.8;0.0;
19/02/2025 00:15:24;100;0;356.56;-4;-19.88;-5.60;207.9;18.00;76710;2836.754;-1758.383;1;3;-70;-62.9;43.3;43.3;13;12.6;27.8;0.0;
19/02/2025 00:15:44;100;0;355.90;-4;-19.97;-5.54;210.1;18.00;76714;2836.756;-1758.384;1;3;-70;-62.9;43.3;43.4;13;12.2;27.8;0.0;
19/02/2025 00:16:04;100;0;355.39;-4;-19.85;-5.51;212.3;18.00;76687;2836.759;-1758.384;1;3;-70;-62.9;43.3;43.4;11;10.8;27.8;0.0;
19/02/2025 00:16:24;100;0;353.64;-4;-20.49;-6.02;214.4;17.90;76687;2836.762;-1758.384;1;3;-70;-61.3;43.3;43.4;11;11.3;27.8;0.0;
19/02/2025 00:16:44;100;0;353.71;-4;-20.12;-6.18;216.6;17.90;76677;2836.764;-1758.385;1;3;-70;-62.9;43.3;43.4;11;11.3;27.8;0.0;
19/02/2025 00:17:04;100;0;351.64;-4;-19.85;-6.26;218.8;17.90;76667;2836.767;-1758.385;1;3;-70;-62.9;43.3;43.6;8;8.1;27.8;0.0;
19/02/2025 00:17:24;100;0;351.55;-4;-20.59;-7.97;221.0;17.80;76663;2836.770;-1758.386;1;3;-70;-61.3;43.3;43.4;8;7.7;27.8;0.0;
19/02/2025 00:17:44;100;0;350.47;-4;-20.02;-8.01;223.3;17.80;76645;2836.772;-1758.386;1;3;-70;-62.9;43.3;43.3;6;5.9;27.8;0.0;
19/02/2025 00:18:04;100;0;350.69;-4;-19.78;-9.09;225.6;17.80;76649;2836.775;-1758.387;1;3;-70;-61.3;43.3;43.4;6;5.4;27.8;0.0;
19/02/2025 00:18:24;100;0;350.99;-4;-19.61;-9.09;227.8;17.70;76646;2836.778;-1758.388;1;3;-70;-62.9;43.3;43.4;6;5.4;27.8;0.0;
19/02/2025 00:18:44;100;0;353.18;-4;-19.49;-9.12;230.0;17.70;76628;2836.781;-1758.388;1;4;-70;-62.9;43.3;43.3;8;8.1;27.8;0.0;
19/02/2025 00:19:04;100;0;353.91;-4;-19.71;-7.45;232.4;17.70;76624;2836.783;-1758.388;1;4;-70;-61.3;43.3;43.4;8;8.6;27.8;0.0;
19/02/2025 00:19:24;100;0;356.99;-4;-19.59;-7.45;234.7;17.60;76614;2836.786;-1758.389;1;4;-70;-62.9;43.3;43.4;11;11.3;27.8;0.0;
19/02/2025 00:19:44;100;0;358.71;-4;-19.39;-5.85;237.0;17.60;76610;2836.789;-1758.389;1;4;-70;-62.9;43.3;43.4;11;11.7;27.8;0.0;
19/02/2025 00:20:04;100;0;2.13;-4;-19.36;-5.97;239.4;17.60;76606;2836.792;-1758.389;1;4;-70;-61.3;43.3;43.4;13;13.1;27.8;0.0;
19/02/2025 00:20:24;100;0;5.04;-4;-19.54;-5.19;241.6;17.50;76602;2836.795;-1758.389;1;4;-70;-61.3;43.3;43.4;13;13.1;27.8;0.0;
19/02/2025 00:20:44;100;0;5.58;-4;-19.61;-5.25;244.0;17.50;76575;2836.798;-1758.388;1;4;-70;-61.3;43.3;43.4;13;13.1;27.8;0.0;
19/02/2025 00:21:04;100;0;8.10;-4;-19.66;-5.26;246.5;17.50;76583;2836.801;-1758.388;1;4;-70;-62.9;43.3;43.4;13;13.1;27.8;0.0;
19/02/2025 00:21:24;100;0;10.43;-4;-19.48;-5.15;248.9;17.40;76571;2836.804;-1758.387;1;4;-70;-64.5;43.3;43.4;13;13.1;27.8;0.0;
19/02/2025 00:21:44;100;0;11.63;-4;-19.67;-5.14;251.3;17.40;76566;2836.807;-1758.387;1;4;-70;-62.9;43.3;43.4;13;13.5;27.8;0.0;
19/02/2025 00:22:04;100;0;13.57;-4;-19.43;-5.19;253.9;17.40;76556;2836.810;-1758.386;1;4;-70;-62.9;43.3;43.4;15;14.9;27.8;0.0;
19/02/2025 00:22:24;100;0;13.95;-4;-19.22;-4.10;256.3;17.30;76563;2836.813;-1758.385;1;3;-70;-62.9;43.3;43.4;15;15.3;27.8;0.0;
19/02/2025 00:22:44;100;0;12.24;-4;-19.71;-4.16;258.7;17.30;76554;2836.816;-1758.384;1;3;-70;-61.3;43.3;43.4;15;15.3;27.8;0.0;
19/02/2025 00:23:04;100;0;9.42;-4;-19.86;-4.20;261.3;17.30;76555;2836.819;-1758.384;1;3;-70;-62.9;43.3;43.4;15;15.3;27.8;0.0;
19/02/2025 00:23:24;100;0;5.87;-4;-19.75;-4.17;263.8;17.20;76548;2836.822;-1758.383;1;3;-70;-61.3;43.3;43.4;13;13.1;27.9;0.0;
19/02/2025 00:23:44;100;0;6.32;-4;-19.52;-5.45;266.4;17.20;76544;2836.825;-1758.383;1;3;-70;-62.9;43.3;43.4;13;12.6;27.8;0.0;
19/02/2025 00:24:04;100;0;8.19;-4;-19.52;-5.55;269.0;17.20;76535;2836.828;-1758.383;1;3;-70;-62.9;43.3;43.4;13;12.6;27.8;0.0;
19/02/2025 00:24:24;100;0;10.42;-4;-19.07;-5.49;271.6;17.10;76526;2836.832;-1758.382;1;3;-70;-62.9;43.3;43.4;13;12.6;27.8;0.0;
19/02/2025 00:24:44;100;0;8.83;-4;-19.51;-5.42;274.1;17.10;76529;2836.835;-1758.381;1;3;-70;-62.9;43.3;43.4;13;12.6;27.8;0.0;
19/02/2025 00:25:04;100;0;8.78;-4;-19.70;-5.42;276.7;17.10;76522;2836.838;-1758.381;1;3;-70;-62.9;43.3;43.4;13;12.6;27.8;0.0;
19/02/2025 00:25:24;100;0;8.72;-4;-19.39;-5.44;279.3;17.00;76518;2836.841;-1758.380;1;3;-70;-62.9;43.3;43.3;13;12.6;27.8;0.0;
19/02/2025 00:25:44;100;0;9.70;-4;-18.90;-5.49;281.8;17.00;76511;2836.844;-1758.380;1;3;-70;-62.9;43.7;43.7;13;12.6;27.8;0.0;
19/02/2025 00:26:04;100;0;11.45;-4;-20.51;-5.49;284.2;17.00;76504;2836.847;-1758.379;1;3;-70;-61.3;43.7;44.0;15;14.9;27.8;0.0;
19/02/2025 00:26:24;100;0;13.05;-4;-21.03;-3.99;286.8;16.90;76490;2836.850;-1758.378;1;3;-70;-62.9;43.7;44.0;15;15.3;27.8;0.0;
19/02/2025 00:26:44;100;0;12.36;-4;-20.98;-4.04;289.4;16.90;76488;2836.853;-1758.378;1;2;-70;-62.9;43.7;44.0;15;15.3;27.8;0.0;
19/02/2025 00:27:04;100;0;11.58;-4;-21.02;-3.99;292.2;16.90;76479;2836.856;-1758.377;1;2;-70;-62.9;43.7;44.0;15;15.3;27.8;0.0;
19/02/2025 00:27:24;100;0;10.15;-4;-20.96;-3.96;294.8;16.90;76475;2836.859;-1758.376;1;2;-70;-62.9;43.7;44.0;15;15.3;27.8;0.0;
19/02/2025 00:27:44;100;0;8.79;-4;-21.03;-4.00;297.4;16.80;76471;2836.862;-1758.376;1;2;-70;-62.9;43.7;44.0;15;15.3;27.8;0.0;
19/02/2025 00:28:04;100;0;7.52;-4;-21.06;-3.95;300.1;16.80;76472;2836.865;-1758.375;1;2;-70;-64.5;43.7;44.0;15;15.3;27.8;0.0;
19/02/2025 00:28:24;100;0;7.30;-4;-21.13;-3.98;302.6;16.80;76461;2836.868;-1758.375;1;2;-70;-62.9;43.7;44.0;15;15.3;27.8;0.0;
19/02/2025 00:28:44;100;0;6.87;-4;-21.16;-3.98;305.2;16.80;76463;2836.871;-1758.375;1;2;-70;-62.9;43.7;44.0;15;15.3;27.8;0.0;
19/02/2025 00:29:04;100;0;6.01;-4;-20.91;-3.98;307.8;16.70;76457;2836.874;-1758.374;1;2;-70;-62.9;43.7;44.0;15;15.3;27.8;0.0;
19/02/2025 00:29:24;100;0;6.96;-4;-21.99;-3.96;310.3;16.70;76442;2836.877;-1758.374;1;2;-70;-62.9;43.7;44.0;15;15.3;27.8;0.0;
19/02/2025 00:29:44;100;0;8.67;-4;-21.83;-3.78;313.0;16.70;76429;2836.880;-1758.373;1;2;-70;-62.9;43.7;44.0;15;15.3;27.8;0.0;
19/02/2025 00:30:04;100;0;8.06;-4;-21.27;-3.97;315.7;16.60;76420;2836.883;-1758.373;1;2;-70;-61.3;43.7;44.0;15;15.3;27.8;0.0;
19/02/2025 00:30:24;100;0;7.46;-4;-21.28;-3.94;318.2;16.60;76412;2836.886;-1758.373;1;2;-70;-62.9;43.7;44.0;15;15.3;27.8;0.0;
19/02/2025 00:30:44;100;0;5.42;-4;-21.13;-3.96;320.6;16.60;76402;2836.889;-1758.372;1;1;-70;-62.9;43.7;44.0;15;15.3;27.8;0.0;
19/02/2025 00:31:04;100;0;2.87;-4;-20.90;-3.97;323.2;16.50;76398;2836.892;-1758.372;1;1;-70;-62.9;43.7;44.0;15;15.3;27.8;0.0;
19/02/2025 00:31:24;100;0;359.37;-4;-20.59;-4.03;325.5;16.50;76396;2836.895;-1758.372;1;2;-70;-62.9;43.7;44.0;15;15.3;27.8;0.0;
19/02/2025 00:31:44;100;0;356.53;-4;-21.17;-4.00;327.9;16.50;76390;2836.898;-1758.373;1;2;-70;-62.9;43.7;44.0;13;13.1;27.8;0.0;
19/02/2025 00:32:04;100;0;352.61;-4;-20.96;-5.20;330.2;16.40;76386;2836.901;-1758.373;1;2;-70;-62.9;43.7;44.0;10;9.5;27.8;0.0;
19/02/2025 00:32:24;100;0;351.62;-4;-20.69;-7.09;332.6;16.40;76387;2836.903;-1758.374;1;2;-70;-61.3;43.7;44.0;10;9.5;27.8;0.0;
19/02/2025 00:32:44;100;0;352.51;-4;-20.37;-7.25;334.9;16.40;76379;2836.906;-1758.374;1;2;-70;-62.9;43.7;44.0;10;9.5;27.8;0.0;
19/02/2025 00:33:04;100;0;352.93;-4;-20.05;-7.14;337.1;16.30;76355;2836.909;-1758.375;1;2;-70;-62.9;43.7;44.0;10;9.5;27.8;0.0;
19/02/2025 00:33:24;100;0;353.10;-4;-20.44;-7.16;339.3;16.30;76356;2836.911;-1758.375;1;2;-70;-62.9;43.7;44.0;10;9.5;27.8;0.0;
19/02/2025 00:33:44;100;0;353.99;-4;-20.49;-7.15;341.5;16.30;76340;2836.914;-1758.375;1;3;-70;-62.9;43.7;44.0;10;9.5;27.8;0.0;
19/02/2025 00:34:04;100;0;353.73;-4;-20.71;-7.15;343.7;16.30;76350;2836.917;-1758.376;1;3;-70;-62.9;43.7;44.0;10;9.0;27.8;0.0;
19/02/2025 00:34:24;100;0;354.09;-4;-20.61;-7.14;346.1;16.20;76338;2836.919;-1758.376;1;3;-70;-62.9;43.7;44.0;10;9.0;27.8;0.0;
19/02/2025 00:34:44;100;0;356.10;-4;-20.33;-7.16;348.4;16.20;76333;2836.922;-1758.377;1;3;-70;-61.3;43.7;44.0;12;12.2;27.8;0.0;
19/02/2025 00:35:04;100;0;357.93;-4;-20.49;-5.44;350.7;16.20;76327;2836.925;-1758.377;1;3;-70;-62.9;43.7;44.0;12;12.6;27.8;0.0;
19/02/2025 00:35:24;100;0;359.21;-4;-19.65;-5.64;353.0;16.10;76327;2836.928;-1758.377;1;3;-70;-61.3;43.7;44.0;12;12.6;27.8;0.0;
19/02/2025 00:35:44;100;0;0.23;-4;-20.74;-5.50;355.1;16.10;76304;2836.930;-1758.377;1;3;-70;-64.5;43.7;44.0;12;12.2;27.8;0.0;
19/02/2025 00:36:05;100;0;1.09;-4;-20.53;-5.59;357.4;16.10;76316;2836.933;-1758.377;1;4;-70;-62.9;43.7;44.0;12;12.6;27.8;0.0;
19/02/2025 00:36:25;100;0;2.03;-4;-20.61;-5.45;359.6;16.10;76307;2836.936;-1758.377;1;4;-70;-61.3;43.7;44.0;12;12.6;27.8;0.0;
19/02/2025 00:36:45;100;0;2.05;-4;-20.72;-5.44;361.8;16.00;76306;2836.938;-1758.377;1;4;-70;-62.9;43.7;44.0;12;12.2;27.8;0.0;
19/02/2025 00:37:05;100;0;1.23;-4;-20.17;-5.68;364.0;16.00;76296;2836.941;-1758.377;1;4;-70;-62.9;43.7;44.0;12;12.6;27.8;0.0;
19/02/2025 00:37:25;100;0;1.28;-4;-20.20;-5.61;366.2;16.00;76286;2836.944;-1758.377;1;4;-70;-62.9;43.7;44.0;12;12.6;27.8;0.0;
19/02/2025 00:37:45;100;0;1.73;-4;-20.38;-5.62;368.4;15.90;76293;2836.946;-1758.377;1;4;-70;-62.9;43.7;44.0;12;12.6;27.8;0.0;
19/02/2025 00:38:05;100;0;359.86;-4;-20.48;-5.60;370.7;15.90;76288;2836.949;-1758.377;1;4;-70;-62.9;43.7;44.0;12;12.6;27.8;0.0;
19/02/2025 00:38:25;100;0;359.82;-4;-20.77;-5.53;372.9;15.90;76265;2836.952;-1758.377;1;4;-70;-61.3;43.7;44.2;12;12.6;27.8;0.0;
19/02/2025 00:38:45;100;0;359.50;-4;-20.93;-5.45;375.2;15.90;76255;2836.954;-1758.377;1;4;-70;-61.3;43.7;44.2;12;12.2;27.8;0.0;
19/02/2025 00:39:05;100;0;358.73;-4;-20.81;-5.44;377.5;15.80;76244;2836.957;-1758.377;1;4;-70;-62.9;43.7;44.0;12;12.6;27.8;0.0;
19/02/2025 00:39:25;100;0;357.94;-4;-20.93;-5.51;380.0;15.80;76241;2836.960;-1758.377;1;5;-70;-62.9;43.7;44.0;12;12.6;27.8;0.0;
19/02/2025 00:39:45;100;0;356.28;-4;-20.47;-5.49;382.4;15.80;76239;2836.963;-1758.378;1;5;-70;-61.3;43.7;44.0;10;9.9;27.8;0.0;
19/02/2025 00:40:05;100;0;355.72;-4;-20.46;-6.90;384.6;15.70;76232;2836.966;-1758.378;1;5;-70;-61.3;43.7;44.0;10;9.5;27.8;0.0;
19/02/2025 00:40:25;100;0;355.86;-4;-20.49;-7.00;387.0;15.70;76235;2836.969;-1758.378;1;5;-70;-62.9;43.7;44.0;10;9.9;27.8;0.0;
19/02/2025 00:40:45;100;0;356.51;-4;-20.49;-6.96;389.3;15.70;76229;2836.971;-1758.379;1;6;-70;-62.9;43.7;44.0;10;9.5;27.8;0.0;
19/02/2025 00:41:05;100;0;354.49;-4;-20.36;-6.91;391.5;15.60;76222;2836.974;-1758.379;1;6;-70;-62.9;43.7;44.0;7;7.2;27.8;0.0;
19/02/2025 00:41:25;100;0;354.92;-4;-19.93;-8.30;393.8;15.60;76217;2836.977;-1758.379;1;6;-70;-61.3;43.7;44.0;7;6.8;27.8;0.0;
19/02/2025 00:41:45;100;0;354.33;-4;-20.45;-8.35;396.0;15.60;76212;2836.979;-1758.380;1;7;-70;-61.3;43.7;44.0;7;6.8;27.8;0.0;
19/02/2025 00:42:05;100;0;355.76;-4;-20.22;-8.35;398.4;15.60;76212;2836.982;-1758.380;1;7;-70;-62.9;43.7;44.0;7;6.8;27.8;0.0;
19/02/2025 00:42:25;100;0;358.67;-4;-19.94;-8.36;400.9;15.50;76208;2836.985;-1758.380;1;7;-70;-62.9;43.7;44.0;10;9.9;27.8;0.0;
19/02/2025 00:42:45;100;0;1.09;-4;-20.14;-6.48;403.2;15.50;76204;2836.988;-1758.380;1;8;-70;-61.3;43.7;44.2;10;10.8;27.8;0.0;
19/02/2025 00:43:05;100;0;1.42;-4;-20.26;-6.49;405.6;15.50;76185;2836.991;-1758.380;1;8;-70;-61.3;43.7;44.0;10;10.8;27.8;0.0;
19/02/2025 00:43:25;100;0;4.26;-4;-20.34;-6.42;407.9;15.50;76186;2836.994;-1758.380;1;8;-70;-62.9;43.7;44.0;12;12.2;27.8;0.0;
19/02/2025 00:43:45;100;0;5.62;-4;-20.30;-5.40;410.3;15.40;76190;2836.997;-1758.380;1;8;-70;-62.9;43.7;44.0;12;12.6;27.8;0.0;
19/02/2025 00:44:05;100;0;5.56;-4;-20.28;-5.47;412.7;15.40;76186;2837.000;-1758.379;1;8;-70;-62.9;43.7;44.0;12;12.6;27.8;0.0;
19/02/2025 00:44:25;100;0;7.23;-4;-20.27;-5.46;415.1;15.40;76173;2837.003;-1758.379;1;8;-70;-62.9;43.7;44.0;12;12.6;27.8;0.0;
19/02/2025 00:44:45;100;0;7.78;-4;-20.45;-5.52;417.5;15.30;76172;2837.006;-1758.379;1;8;-70;-62.9;43.7;44.0;12;12.6;27.8;0.0;
19/02/2025 00:45:05;100;0;8.19;-4;-20.28;-5.42;419.9;15.30;76168;2837.009;-1758.378;1;8;-70;-62.9;43.7;44.0;12;12.6;27.8;0.0;
19/02/2025 00:45:25;100;0;9.44;-4;-20.25;-5.45;422.3;15.30;76155;2837.011;-1758.378;1;8;-70;-62.9;43.7;44.0;12;12.6;27.8;0.0;
19/02/2025 00:45:45;100;0;10.50;-4;-20.21;-5.46;424.6;15.30;76150;2837.014;-1758.377;1;8;-70;-61.3;43.7;44.2;12;12.6;27.8;0.0;
19/02/2025 00:46:05;100;0;11.35;-4;-20.34;-5.41;426.9;15.20;76144;2837.017;-1758.376;1;8;-70;-62.9;43.7;44.0;12;12.6;27.8;0.0;
19/02/2025 00:46:25;100;0;12.91;-4;-20.07;-5.47;429.2;15.20;76147;2837.020;-1758.376;1;8;-70;-62.9;43.7;44.0;12;12.6;27.8;0.0;
19/02/2025 00:46:45;100;0;11.50;-4;-20.30;-5.47;431.4;15.20;76143;2837.022;-1758.375;1;8;-70;-61.3;43.7;44.0;12;12.6;27.8;0.0;
19/02/2025 00:47:05;100;0;11.95;-4;-20.29;-5.50;433.7;15.20;76143;2837.025;-1758.375;1;8;-70;-62.9;43.7;44.0;12;12.6;27.8;0.0;
19/02/2025 00:47:25;100;0;12.43;-4;-20.36;-5.48;436.0;15.20;76139;2837.028;-1758.374;1;7;-70;-61.3;43.7;44.0;12;12.6;27.8;0.0;
19/02/2025 00:47:45;100;0;13.02;-4;-20.40;-5.50;438.2;15.10;76136;2837.030;-1758.373;1;7;-70;-61.3;43.7;44.0;12;12.6;27.8;0.0;
19/02/2025 00:48:05;100;0;14.22;-4;-20.26;-5.32;440.4;15.10;76135;2837.033;-1758.373;1;7;-70;-62.9;43.7;44.0;14;14.0;27.8;0.0;
19/02/2025 00:48:25;100;0;14.82;-4;-20.21;-4.48;442.7;15.10;76127;2837.036;-1758.372;1;6;-70;-62.9;43.7;44.0;14;14.4;27.8;0.0;
19/02/2025 00:48:45;100;0;13.51;-4;-20.36;-4.53;444.9;15.00;76124;2837.038;-1758.371;1;6;-70;-62.9;43.7;44.0;14;14.9;27.8;0.0;
19/02/2025 00:49:05;100;0;11.54;-4;-19.99;-4.43;447.0;15.00;76114;2837.041;-1758.370;1;5;-70;-62.9;43.7;44.0;14;14.4;27.8;0.0;
19/02/2025 00:49:25;100;0;12.34;-4;-19.95;-4.55;449.1;15.00;76114;2837.043;-1758.370;1;5;-70;-62.9;43.7;44.2;14;14.9;27.8;0.0;
19/02/2025 00:49:45;100;0;15.85;-4;-20.02;-4.55;451.2;15.00;76107;2837.046;-1758.369;1;4;-70;-62.9;43.7;44.2;17;17.1;27.8;0.0;
19/02/2025 00:50:05;100;0;17.86;-4;-20.33;-2.97;453.3;15.00;76111;2837.048;-1758.368;1;2;-70;-62.9;43.7;44.0;22;22.1;27.8;0.0;
19/02/2025 00:50:25;100;0;18.40;-4;-20.81;-0.47;455.4;14.90;76095;2837.051;-1758.367;1;1;-70;-62.9;43.7;44.2;24;24.4;27.8;0.0;
19/02/2025 00:50:45;100;0;15.41;-4;-20.56;0.46;457.6;14.90;76090;2837.053;-1758.367;1;359;-70;-62.9;43.7;44.0;22;22.1;27.8;0.0;
19/02/2025 00:51:05;100;0;12.31;-4;-21.00;-1.32;459.9;14.90;76083;2837.056;-1758.366;1;357;-70;-61.3;43.7;44.0;22;21.7;27.8;0.0;
19/02/2025 00:51:25;100;0;11.16;-4;-20.35;-0.87;462.2;14.90;76073;2837.058;-1758.365;1;355;-70;-61.3;43.7;44.2;22;21.7;27.8;0.0;
19/02/2025 00:51:45;100;0;6.93;-4;-20.90;-1.16;464.4;14.80;76063;2837.061;-1758.365;1;353;-70;-61.3;43.7;44.0;18;18.1;27.8;0.0;
19/02/2025 00:52:05;100;0;4.00;-4;-20.24;-2.90;466.7;14.80;76063;2837.064;-1758.365;1;350;-70;-61.3;43.7;44.0;18;17.6;27.8;0.0;
19/02/2025 00:52:25;100;0;2.18;-4;-20.59;-2.93;468.8;14.80;76049;2837.066;-1758.365;1;346;-70;-62.9;43.7;44.0;21;21.7;27.8;0.0;
19/02/2025 00:52:45;100;0;0.10;-4;-20.71;-0.87;470.9;14.80;76047;2837.069;-1758.365;1;341;-70;-62.9;43.7;44.0;25;24.8;27.8;0.0;
19/02/2025 00:53:05;100;0;356.84;-4;-20.89;0.89;473.0;14.70;76041;2837.071;-1758.365;1;330;-70;-59.7;43.7;44.0;37;37.0;27.8;0.0;
19/02/2025 00:53:25;100;0;351.16;-4;-21.06;6.73;475.2;14.70;76031;2837.074;-1758.366;1;285;-70;-62.9;43.7;44.0;70;69.9;27.8;0.0;
19/02/2025 00:53:45;100;0;343.44;-4;-23.21;23.57;477.5;14.70;76042;2837.076;-1758.367;1;189;-70;-62.9;42.7;42.7;70;70.4;27.8;0.0;
19/02/2025 00:54:05;100;0;333.04;-4;-21.09;23.61;479.8;14.70;76030;2837.079;-1758.368;1;167;-70;-64.5;42.7;42.4;70;70.4;27.8;0.0;
19/02/2025 00:54:25;100;0;322.97;-4;-20.45;23.50;481.9;14.60;76033;2837.081;-1758.370;1;158;-70;-62.9;42.7;42.4;70;70.4;27.8;0.0;
19/02/2025 00:54:45;100;0;313.89;-4;-20.81;23.46;484.0;14.60;76030;2837.082;-1758.372;1;151;-70;-62.9;42.7;42.6;70;70.4;27.8;0.0;
19/02/2025 00:55:05;100;0;301.94;-4;-20.21;23.48;486.1;14.60;76013;2837.083;-1758.375;1;144;-70;-61.3;42.7;42.4;70;70.4;27.8;0.0;
19/02/2025 00:55:25;100;0;291.91;-4;-20.30;23.47;488.2;14.50;76003;2837.084;-1758.378;1;137;-70;-61.3;42.7;42.6;70;70.4;27.8;0.0;
19/02/2025 00:55:45;100;0;280.73;-4;-20.55;23.60;490.3;14.50;76011;2837.085;-1758.381;1;131;-70;-61.3;42.7;42.4;70;70.4;27.8;0.0;
19/02/2025 00:56:05;100;0;271.93;-4;-20.39;23.22;492.5;14.50;75997;2837.085;-1758.384;1;125;-70;-62.9;42.7;42.4;70;70.4;27.8;0.0;
19/02/2025 00:56:25;100;0;260.14;-4;-20.53;23.58;494.6;14.50;75998;2837.084;-1758.387;1;120;-70;-61.3;42.7;42.6;70;70.4;27.8;0.0;
19/02/2025 00:56:45;100;0;248.28;-4;-19.73;23.46;496.9;14.40;75991;2837.083;-1758.390;1;113;-70;-62.9;42.7;42.6;70;70.4;27.8;0.0;
19/02/2025 00:57:05;100;0;236.31;-4;-20.64;22.82;499.0;14.40;75979;2837.081;-1758.393;1;108;-70;-62.9;42.7;42.4;70;70.4;27.8;0.0;
19/02/2025 00:57:25;100;0;223.66;-4;-20.45;23.49;501.2;14.40;75991;2837.079;-1758.395;1;102;-70;-62.9;42.7;42.6;70;70.4;27.8;0.0;
19/02/2025 00:57:45;100;0;212.81;-4;-20.40;23.30;503.5;14.40;75979;2837.076;-1758.397;1;95;-70;-62.9;42.7;42.4;70;70.4;27.8;0.0;
19/02/2025 00:58:05;100;0;201.82;-4;-20.12;23.53;505.8;14.40;75971;2837.074;-1758.398;1;89;-70;-62.9;42.7;42.6;70;70.4;27.8;0.0;
19/02/2025 00:58:25;100;0;190.43;-4;-20.26;23.51;508.1;14.30;75973;2837.071;-1758.399;1;83;-70;-62.9;42.7;42.4;70;70.4;27.8;0.0;
19/02/2025 00:58:45;100;0;178.42;-4;-20.11;23.42;510.4;14.30;75971;2837.067;-1758.399;1;77;-70;-62.9;42.7;42.4;70;70.4;27.8;0.0;
19/02/2025 00:59:05;100;0;165.63;-4;-20.08;23.44;512.6;14.30;75961;2837.065;-1758.398;1;71;-70;-62.9;42.7;42.6;70;70.4;27.8;0.0;
19/02/2025 00:59:25;100;0;153.53;-4;-19.74;23.50;515.0;14.30;75946;2837.062;-1758.397;1;65;-70;-62.9;42.7;42.6;70;70.4;27.8;0.0;
19/02/2025 00:59:45;100;0;141.17;-4;-20.06;23.32;517.2;14.20;75952;2837.059;-1758.395;1;59;-70;-62.9;42.7;42.4;70;70.4;27.8;0.0;
19/02/2025 01:00:05;100;0;129.88;-4;-19.68;23.37;519.5;14.20;75943;2837.057;-1758.392;1;53;-70;-61.3;42.7;42.4;70;70.4;27.8;0.0;
19/02/2025 01:00:25;100;0;117.69;-4;-19.86;23.50;521.7;14.20;75941;2837.056;-1758.389;1;47;-70;-62.9;42.7;42.4;70;70.4;27.8;0.0;
19/02/2025 01:00:45;100;0;108.07;-4;-18.32;23.03;523.9;14.20;75939;2837.055;-1758.386;1;41;-70;-61.3;43.2;43.2;70;70.4;27.8;0.0;
19/02/2025 01:01:05;100;0;97.27;-4;-20.81;23.47;525.9;14.10;75929;2837.054;-1758.383;1;36;-70;-61.3;43.2;43.4;70;70.4;27.8;0.0;
19/02/2025 01:01:25;100;0;85.07;-4;-21.03;23.47;528.1;14.10;75919;2837.054;-1758.380;1;31;-70;-61.3;43.2;43.3;70;70.4;27.8;0.0;
19/02/2025 01:01:45;100;0;76.35;-4;-21.54;23.42;530.2;14.10;75923;2837.055;-1758.378;1;26;-70;-62.9;43.2;43.4;70;70.4;27.8;0.0;
19/02/2025 01:02:05;100;0;67.02;-4;-20.57;23.49;532.5;14.10;75904;2837.056;-1758.375;1;21;-70;-62.9;43.2;43.4;68;67.7;27.8;0.0;
19/02/2025 01:02:25;100;0;57.75;-4;-20.51;21.58;534.7;14.10;75905;2837.057;-1758.372;1;15;-70;-61.3;43.2;43.4;64;63.6;27.8;0.0;
19/02/2025 01:02:45;100;0;48.41;-4;-19.05;19.55;536.7;14.00;75891;2837.059;-1758.370;1;10;-90;-90.3;43.2;43.4;57;56.9;27.8;0.0;
19/02/2025 01:03:05;100;0;39.97;-4;-19.04;16.26;538.5;14.00;75949;2837.061;-1758.368;1;5;-110;-111.3;43.2;43.4;53;52.8;27.8;0.0;
19/02/2025 01:03:25;100;0;31.28;-4;-17.70;14.23;540.5;14.00;75999;2837.063;-1758.367;1;359;-110;-112.9;43.9;44.2;49;48.7;27.8;0.0;
19/02/2025 01:03:45;100;0;24.85;-4;-19.83;12.47;542.4;13.90;76006;2837.065;-1758.366;1;353;-130;-132.3;43.9;44.3;47;46.5;27.8;0.0;
19/02/2025 01:04:05;100;0;15.99;-4;-19.54;11.32;544.9;13.90;76038;2837.068;-1758.365;1;342;-130;-135.5;43.9;44.2;50;50.1;27.8;0.0;
19/02/2025 01:04:25;100;0;3.96;-4;-19.53;13.56;547.8;13.90;76042;2837.071;-1758.365;1;320;-130;-137.1;43.9;44.2;63;63.2;27.8;0.0;
19/02/2025 01:04:45;100;0;351.97;-4;-21.64;20.06;550.7;13.90;76035;2837.075;-1758.365;1;250;-130;-138.7;43.9;44.2;70;69.9;27.8;0.0;
19/02/2025 01:05:05;100;0;337.85;-4;-18.80;23.46;553.6;13.80;76036;2837.078;-1758.367;1;182;-130;-140.3;44.3;44.3;70;70.4;27.8;0.0;
19/02/2025 01:05:25;100;0;324.09;-4;-20.31;23.34;556.2;13.80;76037;2837.081;-1758.369;1;164;-130;-138.7;44.3;44.3;70;70.4;27.8;0.0;
19/02/2025 01:05:45;100;0;311.92;-4;-19.24;23.51;558.8;13.80;76035;2837.083;-1758.372;1;153;-130;-140.3;44.3;44.2;70;70.4;27.8;0.0;
19/02/2025 01:06:05;100;0;302.06;-4;-20.77;23.48;561.6;13.80;76028;2837.084;-1758.375;1;145;-130;-141.9;44.3;44.2;70;70.4;27.8;0.0;
19/02/2025 01:06:25;100;0;286.03;-4;-20.18;23.60;564.3;13.80;76021;2837.085;-1758.379;1;136;-130;-140.3;44.3;44.2;70;70.4;27.8;0.0;
19/02/2025 01:06:45;100;0;273.78;-4;-19.21;23.42;567.0;13.70;76016;2837.085;-1758.384;1;128;-130;-141.9;44.3;44.2;70;70.4;27.8;0.0;
19/02/2025 01:07:05;100;0;258.62;-4;-19.95;23.69;569.6;13.70;76020;2837.085;-1758.387;1;121;-130;-140.3;44.3;44.2;70;70.4;27.8;0.0;
19/02/2025 01:07:25;100;0;242.08;-4;-20.31;23.55;572.4;13.70;76016;2837.083;-1758.391;1;113;-130;-141.9;44.3;44.2;70;70.4;27.8;0.0;
19/02/2025 01:07:45;100;0;228.47;-4;-19.98;23.32;575.4;13.70;76003;2837.080;-1758.394;1;104;-130;-140.3;44.3;44.2;70;70.4;27.8;0.0;
19/02/2025 01:08:05;100;0;213.10;-4;-20.08;23.49;578.3;13.60;76007;2837.077;-1758.397;1;96;-130;-140.3;44.3;44.2;70;70.4;27.8;0.0;
19/02/2025 01:08:25;100;0;198.36;-4;-20.14;23.23;581.1;13.60;75988;2837.073;-1758.398;1;89;-130;-141.9;44.3;44.2;70;70.4;27.8;0.0;
19/02/2025 01:08:45;100;0;182.36;-4;-18.74;23.08;584.1;13.60;76006;2837.069;-1758.398;1;80;-130;-141.9;44.6;44.6;70;70.4;27.8;0.0;
19/02/2025 01:09:05;100;0;170.41;-4;-20.43;23.63;586.9;13.60;76001;2837.066;-1758.398;1;73;-130;-141.9;44.6;44.9;70;70.4;27.8;0.0;
19/02/2025 01:09:25;100;0;156.67;-4;-21.42;23.58;589.8;13.60;76000;2837.062;-1758.396;1;65;-130;-140.3;44.6;44.9;70;70.4;27.8;0.0;
19/02/2025 01:09:45;100;0;142.32;-4;-20.39;23.25;592.7;13.50;75986;2837.059;-1758.394;1;57;-130;-141.9;44.6;44.9;70;70.4;27.8;0.0;
19/02/2025 01:10:05;100;0;129.67;-4;-21.46;23.52;595.6;13.50;75994;2837.057;-1758.391;1;50;-130;-140.3;44.6;44.8;70;70.4;27.8;0.0;
19/02/2025 01:10:26;100;0;116.03;-4;-21.38;23.50;598.4;13.50;75983;2837.055;-1758.387;1;43;-130;-141.9;44.6;44.9;70;70.4;27.8;0.0;
19/02/2025 01:10:46;100;0;102.75;-4;-21.37;23.69;601.3;13.50;75975;2837.054;-1758.383;1;35;-130;-140.3;44.6;44.9;70;70.4;27.8;0.0;
19/02/2025 01:11:06;100;0;89.97;-4;-21.50;23.49;604.1;13.50;75978;2837.054;-1758.379;1;28;-130;-140.3;44.6;44.9;70;70.4;27.8;0.0;
19/02/2025 01:11:26;100;0;76.52;-4;-21.23;23.67;607.0;13.50;75983;2837.055;-1758.375;1;21;-130;-138.7;44.6;44.9;70;70.4;27.8;0.0;
19/02/2025 01:11:46;100;0;64.00;-4;-21.78;23.72;610.0;13.40;75973;2837.056;-1758.372;1;13;-130;-143.5;44.6;44.9;70;70.4;27.8;0.0;
19/02/2025 01:12:06;100;0;52.07;-4;-21.82;23.76;613.0;13.40;75974;2837.058;-1758.369;1;5;-130;-143.5;44.6;44.9;68;67.7;27.8;0.0;
19/02/2025 01:12:26;100;0;39.14;-4;-21.56;21.85;616.1;13.40;75963;2837.061;-1758.366;1;356;-130;-140.3;44.6;44.9;64;64.1;27.8;0.0;
19/02/2025 01:12:46;100;0;25.45;-4;-21.66;19.77;619.2;13.40;75961;2837.064;-1758.364;1;347;-130;-141.9;44.6;44.9;58;58.2;27.8;0.0;
19/02/2025 01:13:06;100;0;13.77;-4;-21.29;17.36;622.3;13.40;75957;2837.068;-1758.363;1;333;-130;-140.3;44.6;44.9;58;57.8;27.8;0.0;
19/02/2025 01:13:26;100;0;359.47;-4;-20.56;17.10;625.3;13.30;75947;2837.071;-1758.363;1;312;-130;-141.9;44.6;44.9;68;68.1;27.8;0.0;
19/02/2025 01:13:46;100;0;349.01;-4;-21.67;22.66;628.3;13.30;75939;2837.075;-1758.364;1;256;-130;-141.9;44.6;44.9;70;69.9;27.8;0.0;
19/02/2025 01:14:06;100;0;336.28;-4;-20.99;23.64;631.3;13.30;75943;2837.078;-1758.366;1;193;-130;-140.3;44.6;44.9;70;70.4;27.8;0.0;
19/02/2025 01:14:26;100;0;323.97;-4;-21.55;23.75;634.4;13.30;75927;2837.081;-1758.369;1;169;-130;-141.9;44.6;44.9;70;70.4;27.8;0.0;
19/02/2025 01:14:46;100;0;311.65;-4;-22.53;23.61;637.7;13.30;75939;2837.083;-1758.372;1;155;-130;-140.3;43.9;43.9;70;70.4;27.8;0.0;
19/02/2025 01:15:06;100;0;296.95;-4;-19.69;23.54;640.6;13.20;75935;2837.085;-1758.376;1;144;-130;-141.9;43.9;43.9;70;70.4;27.8;0.0;
19/02/2025 01:15:26;100;0;282.68;-4;-20.55;23.31;643.6;13.20;75927;2837.085;-1758.380;1;135;-130;-141.9;43.9;43.7;70;69.9;27.8;0.0;
19/02/2025 01:15:46;100;0;270.99;-4;-19.24;23.09;646.5;13.20;75914;2837.085;-1758.384;1;127;-130;-140.3;43.9;43.7;70;70.4;27.8;0.0;
19/02/2025 01:16:06;100;0;263.25;-4;-20.74;23.50;649.4;13.20;75915;2837.085;-1758.388;1;119;-130;-140.3;43.9;43.7;70;70.4;27.8;0.0;
19/02/2025 01:16:26;100;0;246.87;-4;-19.67;23.14;652.4;13.10;75889;2837.083;-1758.393;1;112;-130;-141.9;43.9;43.7;70;70.4;27.8;0.0;
19/02/2025 01:16:46;100;0;230.80;-4;-16.73;22.98;655.3;13.10;75892;2837.080;-1758.396;1;104;-130;-141.9;44.9;44.9;70;70.4;27.8;0.0;
19/02/2025 01:17:06;100;0;217.44;-4;-19.54;23.24;657.9;13.10;75884;2837.078;-1758.399;1;97;-130;-141.9;44.9;45.2;70;70.4;27.8;0.0;
19/02/2025 01:17:26;100;0;199.36;-4;-22.32;22.81;660.6;13.10;75876;2837.074;-1758.400;1;91;-130;-140.3;44.2;44.0;70;70.4;27.8;0.0;
19/02/2025 01:17:46;100;0;180.31;-4;-19.73;23.25;663.8;13.10;75874;2837.070;-1758.400;1;82;-130;-141.9;44.2;43.9;70;70.4;27.8;0.0;
19/02/2025 01:18:06;100;0;160.78;-4;-18.83;23.15;666.4;13.00;75872;2837.067;-1758.399;1;75;-130;-140.3;44.5;44.5;70;70.4;27.8;0.0;
19/02/2025 01:18:26;100;0;147.57;-4;-20.85;22.92;668.8;13.00;75862;2837.064;-1758.397;1;69;-130;-141.9;44.5;44.5;70;70.4;27.8;0.0;
19/02/2025 01:18:46;100;0;134.05;-4;-20.32;23.29;671.2;13.00;75864;2837.062;-1758.394;1;63;-130;-141.9;44.5;44.6;70;70.4;27.8;0.0;
19/02/2025 01:19:06;100;0;120.30;-4;-20.63;23.35;674.1;13.00;75849;2837.060;-1758.391;1;56;-130;-141.9;44.5;44.6;70;70.4;27.8;0.0;
19/02/2025 01:19:26;100;0;106.41;-4;-20.78;23.21;677.0;13.00;75852;2837.059;-1758.387;1;49;-130;-141.9;44.5;44.6;70;70.4;27.8;0.0;
19/02/2025 01:19:46;100;0;91.81;-4;-20.25;23.33;679.8;12.90;75834;2837.058;-1758.383;1;42;-130;-141.9;44.5;44.6;70;70.4;27.8;0.0;
19/02/2025 01:20:06;100;0;77.69;-4;-19.33;23.56;682.9;12.90;75829;2837.059;-1758.379;1;35;-130;-141.9;44.5;44.6;64;64.1;27.8;0.0;
19/02/2025 01:20:26;100;0;64.47;-4;-19.37;20.25;685.2;12.90;75825;2837.060;-1758.376;1;29;-130;-140.3;44.5;44.6;55;54.6;27.8;0.0;
19/02/2025 01:20:46;100;0;51.66;-4;-19.27;15.20;687.5;12.80;75812;2837.062;-1758.373;1;23;-130;-140.3;44.5;44.6;45;45.1;27.8;0.0;
19/02/2025 01:21:06;100;0;42.26;-4;-19.70;10.58;689.6;12.80;75816;2837.064;-1758.371;1;19;-130;-141.9;44.5;44.6;36;36.1;27.8;0.0;
19/02/2025 01:21:26;100;0;33.31;-4;-19.62;5.82;691.9;12.80;75803;2837.066;-1758.369;1;13;-130;-140.3;44.5;44.6;31;31.1;27.8;0.0;
19/02/2025 01:21:46;100;0;306.68;-4;-20.46;3.95;694.0;12.80;75798;2837.068;-1758.372;1;34;-130;-141.9;44.5;44.5;-70;-69.9;27.8;42.4;
19/02/2025 01:22:06;100;0;30.71;-4;-17.13;-45.27;696.3;12.80;75799;2837.070;-1758.370;1;35;-130;-140.3;45.4;45.8;13;13.1;27.8;0.0;
19/02/2025 01:22:26;100;0;31.64;-4;-21.46;-4.66;698.7;12.70;75797;2837.073;-1758.368;1;40;-130;-140.3;45.4;45.8;13;13.5;27.8;34.8;
19/02/2025 01:22:29;118;0;33.03;-4;-24.15;-4.94;699.1;12.70;75795;2837.073;-1758.368;1;43;390;-138.7;24.1;24.2;8;7.7;27.8;34.5;
19/02/2025 01:22:39;118;0;66.12;-4;-9.48;-8.16;700.3;12.80;75785;2837.074;-1758.366;1;274;390;-11.3;24.1;24.0;8;7.7;26.8;-1.0;
19/02/2025 01:22:49;118;0;58.89;-4;14.36;-8.18;700.4;12.70;75499;2837.074;-1758.366;1;275;390;114.5;24.1;23.6;8;7.7;26.9;-1.0;
19/02/2025 01:22:59;118;0;54.75;-4;23.75;-9.18;699.5;12.70;75240;2837.074;-1758.365;1;258;390;240.3;24.1;24.2;8;7.7;26.8;-1.0;
19/02/2025 01:23:09;118;0;55.48;-4;23.26;-8.49;698.3;12.70;74982;2837.075;-1758.364;1;250;390;361.3;24.1;24.3;8;7.7;26.9;-1.0;
19/02/2025 01:23:19;118;0;55.86;-4;19.95;-7.93;697.1;12.70;74734;2837.076;-1758.362;1;246;390;393.5;24.1;24.3;8;7.7;26.8;-1.0;
19/02/2025 01:23:29;118;0;26.11;-4;20.67;-7.48;695.6;12.70;74678;2837.078;-1758.361;1;235;390;393.5;24.1;24.3;8;7.7;27.8;-1.0;
19/02/2025 01:23:49;117;0;18.12;-4;17.36;-7.23;692.3;12.80;74680;2837.082;-1758.360;1;219;390;393.5;24.1;24.3;8;7.7;27.8;-1.0;
19/02/2025 01:24:09;117;0;17.73;-4;16.92;-7.29;689.2;12.80;74685;2837.086;-1758.358;1;213;390;393.5;23.2;23.4;-70;-69.9;27.8;-1.0;
19/02/2025 01:24:29;117;0;359.93;-4;7.93;-46.65;686.2;12.80;74675;2837.091;-1758.358;1;204;390;393.5;19.6;19.6;-70;-69.9;27.8;-1.0;
19/02/2025 01:24:49;117;0;350.05;-4;14.22;-47.05;683.8;12.80;74680;2837.095;-1758.359;1;199;390;391.9;17.8;17.8;-70;-69.9;27.8;-1.0;
19/02/2025 01:25:09;117;0;338.98;-4;19.99;-46.46;680.5;12.80;74669;2837.098;-1758.361;1;192;390;393.5;17.8;17.1;-70;-69.9;27.8;-1.0;
19/02/2025 01:25:29;117;0;327.39;-4;22.68;-46.78;676.4;12.70;74671;2837.102;-1758.364;1;186;390;393.5;18.6;18.7;-70;-69.9;27.8;-1.0;
19/02/2025 01:25:49;117;0;315.68;-4;17.44;-46.83;672.4;12.70;74667;2837.106;-1758.368;1;178;390;391.9;17.9;17.8;-70;-69.9;27.8;-1.0;
19/02/2025 01:26:09;117;0;305.40;-4;19.80;-46.07;668.7;12.70;74669;2837.109;-1758.373;1;172;390;393.5;17.9;17.5;-70;-70.4;27.8;-1.0;
19/02/2025 01:26:29;117;0;293.64;-4;21.80;-48.23;664.9;12.70;74659;2837.110;-1758.378;1;166;390;391.9;17.9;17.4;-70;-69.9;27.8;-1.0;
19/02/2025 01:26:49;117;0;281.20;-4;20.68;-46.68;660.6;12.70;74655;2837.111;-1758.384;1;159;390;393.5;17.9;17.4;-70;-69.9;27.8;-1.0;
19/02/2025 01:27:09;117;0;270.19;-4;19.11;-47.21;656.6;12.70;74661;2837.111;-1758.390;1;152;390;393.5;17.9;17.4;-70;-69.9;27.8;-1.0;
19/02/2025 01:27:29;117;0;264.48;-4;19.78;-46.25;652.7;12.70;74662;2837.110;-1758.396;1;146;390;393.5;17.9;17.4;-70;-69.9;27.8;-1.0;
19/02/2025 01:27:49;117;0;253.98;-4;20.46;-47.01;648.9;12.70;74662;2837.109;-1758.401;1;140;390;393.5;17.9;17.4;-70;-69.9;27.8;-1.0;
19/02/2025 01:28:09;117;0;239.67;-4;20.13;-47.23;644.9;12.60;74662;2837.106;-1758.406;1;133;390;391.9;17.9;17.2;-70;-69.9;27.8;-1.0;
19/02/2025 01:28:29;117;0;228.99;-4;19.90;-47.05;641.1;12.60;74660;2837.103;-1758.410;1;127;390;393.5;17.9;17.4;-70;-69.9;27.8;-1.0;
19/02/2025 01:28:49;117;0;215.78;-4;20.35;-46.66;637.2;12.60;74666;2837.099;-1758.414;1;121;390;393.5;17.9;17.4;-70;-69.9;27.8;-1.0;
19/02/2025 01:29:09;117;0;204.39;-4;20.31;-46.85;633.4;12.60;74670;2837.094;-1758.416;1;115;390;393.5;17.9;17.4;-70;-69.9;27.8;-1.0;
19/02/2025 01:29:29;117;0;190.67;-4;20.33;-46.86;629.7;12.60;74663;2837.089;-1758.417;1;109;390;393.5;17.9;17.4;-70;-69.9;27.8;-1.0;
19/02/2025 01:29:49;117;0;180.74;-4;20.39;-46.06;625.9;12.60;74672;2837.084;-1758.417;1;103;390;391.9;17.9;17.4;-67;-66.8;27.8;-1.0;
19/02/2025 01:30:09;117;0;165.79;-4;20.76;-45.58;622.0;12.60;74672;2837.080;-1758.416;1;97;390;393.5;17.9;17.4;-57;-56.9;27.8;-1.0;
19/02/2025 01:30:29;117;0;151.97;-4;20.63;-39.21;618.1;12.60;74666;2837.075;-1758.413;1;92;390;391.9;17.9;17.4;-46;-46.0;27.8;-1.0;
19/02/2025 01:30:49;117;0;140.43;-4;23.23;-34.60;614.3;12.60;74685;2837.072;-1758.410;1;87;390;391.9;18.8;19.0;-38;-37.9;27.8;-1.0;
19/02/2025 01:31:09;117;0;126.40;-4;21.74;-29.71;610.4;12.60;74678;2837.069;-1758.406;1;81;390;393.5;18.8;19.0;-28;-28.0;27.8;-1.0;
19/02/2025 01:31:29;117;0;112.30;-4;22.87;-25.05;606.8;12.60;74691;2837.067;-1758.402;1;77;390;393.5;19.7;20.0;-16;-15.8;27.8;-1.0;
19/02/2025 01:31:49;117;0;99.79;-4;22.80;-18.57;603.0;12.50;74681;2837.066;-1758.397;1;74;390;393.5;20.5;20.8;-2;-1.8;27.8;-1.0;
19/02/2025 01:32:09;117;0;88.66;-4;23.04;-11.94;599.4;12.50;74680;2837.066;-1758.392;1;71;390;393.5;21.4;21.5;12;12.2;27.8;-1.0;
19/02/2025 01:32:29;117;0;80.40;-4;23.53;-5.19;595.9;12.50;74695;2837.067;-1758.388;1;69;390;391.9;22.5;22.7;22;22.1;27.8;-1.0;
19/02/2025 01:32:49;117;0;77.49;-4;22.86;-0.07;592.4;12.50;74685;2837.067;-1758.384;1;66;390;391.9;23.4;23.4;22;22.1;27.8;-1.0;
19/02/2025 01:33:09;117;0;74.53;-4;21.21;-0.16;589.0;12.50;74688;2837.068;-1758.379;1;63;390;391.9;23.4;23.6;22;22.1;27.8;-1.0;
19/02/2025 01:33:29;117;0;70.53;-4;20.04;0.17;585.8;12.50;74687;2837.070;-1758.375;1;58;390;393.5;23.4;23.6;22;22.6;27.8;-1.0;
19/02/2025 01:33:49;117;0;68.21;-4;20.33;0.05;582.9;12.50;74694;2837.071;-1758.371;1;48;390;395.2;23.4;23.6;9;9.0;27.8;-1.0;
19/02/2025 01:34:09;117;0;63.18;-4;19.39;-6.99;580.1;12.50;74697;2837.072;-1758.367;1;8;390;393.5;23.4;23.6;-37;-37.0;27.8;-1.0;
19/02/2025 01:34:29;117;0;44.86;-4;12.97;-30.38;577.6;12.50;74686;2837.075;-1758.364;1;247;390;393.5;21.2;21.1;-70;-69.9;27.8;-1.0;
19/02/2025 01:34:49;117;0;31.92;-4;12.15;-46.96;575.2;12.50;74692;2837.078;-1758.362;1;228;390;391.9;18.9;18.7;-70;-70.4;27.8;-1.0;
19/02/2025 01:35:09;117;0;21.64;-4;15.89;-47.44;572.8;12.50;74688;2837.081;-1758.361;1;218;390;393.5;17.7;17.7;-70;-70.4;27.8;-1.0;
19/02/2025 01:35:29;117;0;14.93;-4;21.03;-47.40;569.7;12.50;74678;2837.085;-1758.360;1;211;390;393.5;17.7;17.2;-70;-70.4;27.8;-1.0;
19/02/2025 01:35:49;117;0;4.78;-4;20.49;-47.13;566.1;12.50;74690;2837.089;-1758.359;1;204;390;391.9;17.7;17.1;-70;-70.4;27.8;-1.0;
19/02/2025 01:36:09;117;0;354.45;-4;20.41;-46.71;562.8;12.50;74678;2837.093;-1758.360;1;198;390;391.9;17.7;17.1;-70;-70.4;27.8;-1.0;
19/02/2025 01:36:29;117;0;343.79;-4;20.64;-46.34;559.6;12.50;74689;2837.097;-1758.361;1;193;390;393.5;17.7;17.1;-70;-70.4;27.8;-1.0;
19/02/2025 01:36:49;117;0;332.33;-4;20.54;-47.28;556.3;12.50;74685;2837.100;-1758.363;1;187;390;393.5;17.7;17.2;-70;-70.4;27.8;-1.0;
19/02/2025 01:37:09;117;0;321.71;-4;19.46;-47.25;553.1;12.50;74680;2837.103;-1758.366;1;181;390;395.2;17.7;17.1;-70;-70.4;27.8;-1.0;
19/02/2025 01:37:29;117;0;311.76;-4;19.68;-46.46;549.9;12.50;74678;2837.106;-1758.370;1;175;390;393.5;17.7;17.1;-70;-70.4;27.8;-1.0;
19/02/2025 01:37:49;117;0;301.65;-4;20.40;-47.19;546.9;12.50;74683;2837.108;-1758.374;1;170;390;393.5;17.7;17.1;-70;-70.4;27.8;-1.0;
19/02/2025 01:38:09;117;0;290.93;-4;20.62;-47.29;543.8;12.50;74676;2837.109;-1758.378;1;165;390;391.9;17.7;17.1;-70;-70.4;27.8;-1.0;
19/02/2025 01:38:29;117;0;279.03;-4;20.72;-46.79;540.8;12.50;74678;2837.110;-1758.382;1;159;390;393.5;17.7;17.1;-70;-70.4;27.8;-1.0;
19/02/2025 01:38:49;117;0;266.38;-4;19.25;-47.10;537.7;12.50;74672;2837.109;-1758.387;1;154;390;391.9;17.7;17.1;-70;-70.4;27.8;-1.0;
19/02/2025 01:39:09;117;0;254.42;-4;19.42;-46.47;534.6;12.50;74681;2837.108;-1758.392;1;148;390;393.5;17.7;17.1;-70;-70.4;27.8;-1.0;
19/02/2025 01:39:29;117;0;240.68;-4;20.14;-46.83;531.5;12.50;74665;2837.106;-1758.396;1;142;390;390.3;17.7;17.1;-70;-70.4;27.8;-1.0;
19/02/2025 01:39:49;117;0;229.88;-4;20.36;-46.56;528.4;12.50;74676;2837.103;-1758.399;1;136;390;393.5;17.7;17.1;-70;-70.4;27.8;-1.0;
19/02/2025 01:40:09;117;0;217.56;-4;19.67;-46.98;525.4;12.50;74680;2837.100;-1758.402;1;130;390;393.5;17.7;17.1;-70;-70.4;27.8;-1.0;
19/02/2025 01:40:29;117;0;205.97;-4;19.41;-47.36;522.5;12.50;74680;2837.096;-1758.404;1;125;390;393.5;17.7;17.1;-70;-70.4;27.8;-1.0;
19/02/2025 01:40:49;117;0;195.99;-4;20.94;-47.03;519.7;12.50;74680;2837.093;-1758.405;1;120;390;393.5;17.7;17.7;-65;-64.5;27.8;-1.0;
19/02/2025 01:41:09;117;0;183.49;-4;20.99;-44.26;516.6;12.50;74683;2837.089;-1758.405;1;114;390;393.5;17.7;17.7;-58;-57.8;27.8;-1.0;
19/02/2025 01:41:29;117;0;170.47;-4;21.22;-40.52;513.4;12.40;74676;2837.085;-1758.405;1;108;390;393.5;17.7;17.7;-49;-48.7;27.8;-1.0;
19/02/2025 01:41:49;117;0;156.30;-4;22.17;-35.68;510.3;12.50;74678;2837.081;-1758.403;1;103;390;393.5;18.3;18.6;-38;-37.9;27.8;-1.0;
19/02/2025 01:42:09;117;0;143.06;-4;22.86;-30.21;507.0;12.50;74685;2837.078;-1758.400;1;98;390;393.5;19.2;19.4;-28;-27.5;27.8;-1.0;
19/02/2025 01:42:29;117;0;127.90;-4;22.45;-24.70;503.7;12.50;74692;2837.076;-1758.397;1;94;390;393.5;19.9;20.0;-14;-14.0;27.8;-1.0;
19/02/2025 01:42:49;117;0;114.19;-4;23.07;-18.09;500.4;12.50;74688;2837.074;-1758.393;1;90;390;395.2;20.8;21.1;1;0.9;27.8;-1.0;
19/02/2025 01:43:09;117;0;103.20;-4;22.86;-10.77;497.0;12.50;74695;2837.073;-1758.389;1;87;390;395.2;21.7;21.8;14;14.4;27.8;-1.0;
19/02/2025 01:43:29;117;0;97.12;-4;23.09;-4.25;493.6;12.50;74688;2837.072;-1758.384;1;84;390;393.5;22.6;23.0;19;19.0;27.8;-1.0;
19/02/2025 01:43:49;117;0;90.48;-4;21.79;-1.58;490.3;12.50;74688;2837.072;-1758.380;1;81;390;393.5;22.6;23.0;24;23.9;27.8;-1.0;
19/02/2025 01:44:09;117;0;88.22;-4;21.65;0.94;487.1;12.50;74697;2837.072;-1758.376;1;76;390;393.5;22.6;23.0;20;19.9;27.8;-1.0;
19/02/2025 01:44:29;117;0;83.79;-4;21.49;-1.49;483.9;12.50;74700;2837.072;-1758.371;1;67;390;393.5;22.6;23.0;13;13.1;27.8;-1.0;
19/02/2025 01:44:49;117;0;77.47;-4;20.51;-5.21;480.7;12.50;74705;2837.073;-1758.367;1;7;390;393.5;22.6;22.8;-55;-55.1;27.8;-1.0;
19/02/2025 01:45:09;117;0;60.59;-4;12.63;-39.06;477.6;12.50;74720;2837.075;-1758.362;1;252;390;391.9;20.4;20.3;-70;-69.9;27.8;-1.0;
19/02/2025 01:45:29;117;0;48.28;-4;12.71;-46.89;475.0;12.50;74722;2837.078;-1758.359;1;241;390;393.5;18.2;18.1;-70;-69.9;27.8;-1.0;
19/02/2025 01:45:49;117;0;37.13;-4;17.86;-47.16;472.1;12.50;74722;2837.081;-1758.356;1;233;390;393.5;17.6;17.5;-70;-70.4;27.8;-1.0;
19/02/2025 01:46:09;117;0;26.78;-4;19.29;-46.56;468.8;12.50;74717;2837.085;-1758.354;1;226;390;391.9;17.6;17.5;-70;-69.9;27.8;-1.0;
19/02/2025 01:46:29;117;0;15.86;-4;19.45;-46.97;465.2;12.50;74718;2837.089;-1758.353;1;220;390;393.5;17.6;17.5;-70;-69.9;27.8;-1.0;
19/02/2025 01:46:49;117;0;5.37;-4;19.31;-47.53;461.7;12.50;74724;2837.094;-1758.352;1;213;390;395.2;17.6;17.5;-70;-70.4;27.8;-1.0;
19/02/2025 01:47:09;117;0;355.63;-4;19.28;-46.82;458.2;12.50;74721;2837.098;-1758.353;1;207;390;393.5;17.6;17.5;-70;-70.4;27.8;-1.0;
19/02/2025 01:47:29;117;0;345.28;-4;19.47;-47.06;454.7;12.50;74729;2837.102;-1758.354;1;201;390;393.5;17.6;17.5;-70;-70.4;27.8;-1.0;
19/02/2025 01:47:49;117;0;334.76;-4;19.49;-47.12;451.3;12.50;74737;2837.106;-1758.357;1;196;390;393.5;17.6;17.4;-70;-69.9;27.8;-1.0;
19/02/2025 01:48:09;117;0;325.01;-4;19.87;-46.93;447.9;12.50;74731;2837.110;-1758.359;1;190;390;393.5;17.6;17.5;-70;-69.9;27.8;-1.0;
19/02/2025 01:48:29;117;0;314.12;-4;19.89;-47.16;444.3;12.50;74753;2837.113;-1758.363;1;185;390;393.5;17.6;17.5;-70;-70.4;27.8;-1.0;
19/02/2025 01:48:49;117;0;303.44;-4;19.07;-46.65;440.7;12.50;74747;2837.115;-1758.368;1;179;390;393.5;17.6;17.5;-70;-70.4;27.8;-1.0;
19/02/2025 01:49:09;117;0;293.87;-4;19.51;-46.96;437.3;12.60;74754;2837.117;-1758.372;1;174;390;393.5;17.6;17.5;-70;-70.4;27.8;-1.0;
19/02/2025 01:49:29;117;0;282.61;-4;19.51;-47.25;433.8;12.60;74750;2837.118;-1758.378;1;168;390;393.5;17.6;17.5;-70;-69.9;27.8;-1.0;
19/02/2025 01:49:49;117;0;271.06;-4;18.98;-47.10;430.3;12.60;74762;2837.118;-1758.383;1;162;390;393.5;17.3;17.1;-70;-70.4;27.8;-1.0;
19/02/2025 01:50:09;117;0;259.57;-4;21.43;-47.07;426.7;12.60;74762;2837.117;-1758.388;1;157;390;395.2;17.3;16.5;-70;-70.4;27.8;-1.0;
19/02/2025 01:50:30;117;0;247.51;-4;21.11;-47.04;422.9;12.60;74773;2837.115;-1758.393;1;151;390;393.5;17.3;16.5;-70;-69.9;27.8;-1.0;
19/02/2025 01:50:50;117;0;235.47;-4;21.21;-47.24;419.2;12.60;74777;2837.112;-1758.397;1;145;390;393.5;17.3;16.6;-70;-70.4;27.8;-1.0;
19/02/2025 01:51:10;117;0;223.23;-4;21.55;-46.97;415.4;12.60;74784;2837.109;-1758.401;1;139;390;395.2;17.3;16.5;-70;-70.4;27.8;-1.0;
19/02/2025 01:51:30;117;0;210.73;-4;21.08;-47.28;411.6;12.60;74784;2837.105;-1758.404;1;134;390;393.5;17.3;17.4;-67;-66.8;27.8;-1.0;
19/02/2025 01:51:50;117;0;197.59;-4;20.82;-44.99;407.8;12.60;74781;2837.100;-1758.405;1;128;390;395.2;17.3;17.4;-58;-58.2;27.8;-1.0;
19/02/2025 01:52:10;117;0;183.80;-4;21.25;-40.56;404.2;12.70;74791;2837.095;-1758.406;1;122;390;395.2;17.3;17.4;-49;-49.2;27.8;-1.0;
19/02/2025 01:52:30;117;0;169.92;-4;22.40;-35.99;400.6;12.70;74796;2837.091;-1758.405;1;117;390;395.2;18.0;18.1;-38;-37.5;27.8;-1.0;
19/02/2025 01:52:50;117;0;156.57;-4;23.01;-30.02;396.9;12.70;74801;2837.087;-1758.403;1;112;390;395.2;18.9;19.1;-28;-28.0;27.8;-1.0;
19/02/2025 01:53:10;117;0;142.64;-4;22.71;-24.82;393.4;12.70;74803;2837.084;-1758.400;1;108;390;395.2;19.7;19.9;-15;-14.9;27.8;-1.0;
19/02/2025 01:53:30;117;0;130.33;-4;22.85;-18.43;389.9;12.70;74805;2837.081;-1758.397;1;105;390;395.2;20.6;20.8;-1;-0.9;27.8;-1.0;
19/02/2025 01:53:50;117;0;118.53;-4;22.74;-11.70;386.4;12.70;74809;2837.079;-1758.393;1;102;390;395.2;21.4;21.5;14;14.0;27.8;-1.0;
19/02/2025 01:54:10;117;0;113.68;-4;23.15;-4.37;382.8;12.70;74825;2837.077;-1758.389;1;99;390;393.5;22.3;22.4;17;17.1;27.8;-1.0;
19/02/2025 01:54:30;117;0;107.75;-4;21.88;-2.92;379.4;12.80;74836;2837.076;-1758.384;1;97;390;395.2;22.3;22.5;22;22.1;27.8;-1.0;
19/02/2025 01:54:50;117;0;102.93;-4;21.55;-0.13;376.1;12.80;74846;2837.075;-1758.380;1;94;390;393.5;22.3;22.5;24;23.9;27.8;-1.0;
19/02/2025 01:55:10;117;0;100.88;-4;22.04;0.92;372.9;12.80;74842;2837.074;-1758.376;1;89;390;393.5;22.9;23.1;20;19.9;27.8;-1.0;
19/02/2025 01:55:30;117;0;96.66;-4;20.89;-1.57;369.7;12.80;74845;2837.073;-1758.372;1;80;390;395.2;22.9;23.1;13;13.1;27.8;-1.0;
19/02/2025 01:55:50;117;0;89.77;-4;20.23;-5.12;366.8;12.80;74849;2837.073;-1758.367;1;19;390;393.5;22.9;23.1;-57;-56.9;27.8;-1.0;
19/02/2025 01:56:10;117;0;71.17;-4;11.05;-39.88;364.0;12.80;74860;2837.074;-1758.363;1;264;390;395.2;20.3;20.2;-70;-69.9;27.8;-1.0;
19/02/2025 01:56:30;117;0;60.24;-4;13.82;-46.54;361.3;12.90;74859;2837.076;-1758.359;1;252;390;395.2;18.4;18.4;-70;-69.9;27.8;-1.0;
19/02/2025 01:56:50;117;0;46.91;-4;14.69;-46.16;358.9;12.90;74864;2837.079;-1758.356;1;244;390;393.5;16.8;16.6;-70;-69.9;27.8;-1.0;
19/02/2025 01:57:10;117;0;34.77;-4;22.44;-46.80;356.1;12.90;74857;2837.081;-1758.354;1;238;390;395.2;17.5;17.7;-70;-69.9;27.8;-1.0;
19/02/2025 01:57:30;117;0;22.38;-4;20.44;-47.49;352.5;12.90;74876;2837.085;-1758.352;1;229;390;395.2;17.5;17.8;-70;-69.9;27.8;-1.0;
19/02/2025 01:57:50;117;0;10.15;-4;19.32;-47.18;349.3;12.90;74872;2837.089;-1758.351;1;222;390;395.2;17.5;17.8;-70;-69.9;27.8;-1.0;
19/02/2025 01:58:10;117;0;0.05;-4;19.08;-46.71;346.3;13.00;74890;2837.093;-1758.351;1;216;390;393.5;17.5;17.8;-70;-69.9;27.8;-1.0;
19/02/2025 01:58:30;117;0;350.17;-4;19.43;-47.12;343.2;13.00;74898;2837.097;-1758.352;1;209;390;393.5;17.5;17.8;-70;-69.9;27.8;-1.0;
19/02/2025 01:58:50;117;0;340.02;-4;19.31;-46.87;340.1;13.00;74903;2837.101;-1758.354;1;203;390;395.2;17.5;17.8;-70;-69.9;27.8;-1.0;
19/02/2025 01:59:10;117;0;330.01;-4;19.48;-47.49;337.1;13.00;74912;2837.104;-1758.356;1;197;390;393.5;17.5;17.7;-70;-69.9;27.8;-1.0;
19/02/2025 01:59:30;117;0;319.49;-4;19.74;-47.07;333.9;13.00;74924;2837.107;-1758.359;1;192;390;395.2;17.5;17.8;-70;-69.9;27.8;-1.0;
19/02/2025 01:59:50;117;0;309.31;-4;19.01;-46.70;330.7;13.10;74925;2837.110;-1758.363;1;185;390;393.5;17.5;17.7;-70;-69.9;27.8;-1.0;
19/02/2025 02:00:10;117;0;299.59;-4;19.18;-46.99;327.7;13.10;74939;2837.112;-1758.367;1;180;390;395.2;17.5;17.8;-70;-69.9;27.8;-1.0;
19/02/2025 02:00:30;117;0;289.65;-4;19.20;-46.95;324.6;13.10;74942;2837.113;-1758.372;1;174;390;393.5;17.5;17.7;-70;-69.9;27.8;-1.0;
19/02/2025 02:00:50;117;0;278.21;-4;18.86;-47.14;321.7;13.10;74951;2837.113;-1758.376;1;169;390;395.2;17.2;17.2;-70;-69.9;27.8;-1.0;
19/02/2025 02:01:10;117;0;268.60;-4;20.50;-47.02;318.6;13.20;74955;2837.113;-1758.380;1;163;390;393.5;17.2;16.9;-70;-69.9;27.8;-1.0;
19/02/2025 02:01:30;117;0;257.60;-4;21.54;-47.07;315.5;13.20;74962;2837.112;-1758.385;1;158;390;395.2;17.2;16.8;-70;-69.9;27.8;-1.0;
19/02/2025 02:01:50;117;0;244.35;-4;21.25;-47.18;312.1;13.20;74983;2837.110;-1758.389;1;152;390;395.2;17.2;16.8;-70;-69.9;27.8;-1.0;
19/02/2025 02:02:10;117;0;232.20;-4;20.47;-47.14;308.8;13.20;74995;2837.107;-1758.393;1;146;390;395.2;17.2;16.8;-70;-69.9;27.8;-1.0;
19/02/2025 02:02:30;117;0;219.02;-4;20.52;-47.23;305.6;13.30;75004;2837.104;-1758.396;1;140;390;395.2;17.2;16.8;-70;-69.9;27.8;-1.0;
19/02/2025 02:02:50;117;0;206.50;-4;20.72;-47.49;302.3;13.30;75006;2837.100;-1758.398;1;134;390;393.5;17.2;16.8;-62;-61.4;27.8;-1.0;
19/02/2025 02:03:10;117;0;192.42;-4;21.02;-42.22;299.1;13.30;75008;2837.096;-1758.399;1;129;390;395.2;17.2;16.8;-51;-51.0;27.8;-1.0;
19/02/2025 02:03:30;117;0;176.37;-4;22.13;-36.98;295.9;13.30;75019;2837.092;-1758.399;1;124;390;395.2;17.8;18.0;-37;-37.0;27.8;-1.0;
19/02/2025 02:03:50;117;0;160.89;-4;22.39;-29.59;292.8;13.40;75028;2837.089;-1758.397;1;119;390;393.5;18.6;18.9;-25;-24.8;27.8;-1.0;
19/02/2025 02:04:10;117;0;144.40;-4;22.85;-23.34;289.6;13.40;75027;2837.086;-1758.395;1;116;390;393.5;19.4;19.6;-6;-5.4;27.8;-1.0;
19/02/2025 02:04:30;117;0;130.06;-4;24.10;-14.12;286.6;13.40;75026;2837.083;-1758.392;1;113;390;393.5;20.6;20.8;11;10.8;27.8;-1.0;
19/02/2025 02:04:50;117;0;118.47;-4;24.17;-6.11;283.3;13.40;75030;2837.082;-1758.389;1;112;390;395.2;21.9;22.2;26;26.2;27.8;-1.0;
19/02/2025 02:05:10;117;0;116.88;-4;23.12;2.17;280.2;13.50;75040;2837.080;-1758.385;1;110;390;395.2;22.8;23.0;26;26.6;27.8;-1.0;
19/02/2025 02:05:30;117;0;115.85;-4;21.83;2.19;277.2;13.50;75048;2837.078;-1758.381;1;108;390;393.5;22.8;23.3;26;26.6;27.8;-1.0;
19/02/2025 02:05:50;117;0;114.64;-4;21.22;2.18;274.4;13.50;75057;2837.077;-1758.378;1;105;390;395.2;22.8;23.1;23;22.6;27.8;-1.0;
19/02/2025 02:06:10;117;0;113.55;-4;20.85;-0.10;271.7;13.50;75067;2837.075;-1758.374;1;99;390;393.5;22.8;23.1;16;15.3;27.8;-1.0;
19/02/2025 02:06:30;117;0;109.69;-4;20.16;-3.92;268.9;13.60;75074;2837.074;-1758.371;1;86;390;395.2;22.8;23.1;1;0.9;27.8;-1.0;
19/02/2025 02:06:50;117;0;99.77;-4;18.23;-11.45;266.3;13.60;75086;2837.073;-1758.367;1;349;390;393.5;22.3;22.5;-70;-69.9;27.8;-1.0;
19/02/2025 02:07:10;117;0;84.01;-4;10.56;-47.32;263.9;13.60;75096;2837.073;-1758.363;1;282;390;395.2;19.5;19.4;-70;-69.9;27.8;-1.0;
19/02/2025 02:07:30;117;0;71.61;-4;14.07;-47.14;261.6;13.70;75117;2837.074;-1758.359;1;268;390;395.2;17.7;17.7;-70;-69.9;27.8;-1.0;
19/02/2025 02:07:50;117;0;59.81;-4;18.13;-47.08;258.8;13.70;75110;2837.076;-1758.355;1;259;390;395.2;17.1;17.1;-70;-69.9;27.8;-1.0;
19/02/2025 02:08:10;117;0;48.56;-4;19.84;-47.35;255.6;13.70;75114;2837.079;-1758.352;1;251;390;393.5;17.1;17.1;-70;-69.9;27.8;-1.0;
19/02/2025 02:08:30;117;0;36.74;-4;19.78;-46.93;252.2;13.80;75117;2837.082;-1758.349;1;243;390;395.2;17.1;17.1;-70;-69.9;27.8;-1.0;
19/02/2025 02:08:50;117;0;24.21;-4;18.93;-47.08;248.8;13.80;75136;2837.086;-1758.347;1;236;390;395.2;16.8;16.5;-70;-69.9;27.8;-1.0;
19/02/2025 02:09:10;117;0;13.50;-4;21.39;-47.49;245.4;13.80;75137;2837.090;-1758.346;1;230;390;395.2;16.8;16.1;-70;-69.9;27.8;-1.0;
19/02/2025 02:09:30;117;0;4.05;-4;21.60;-46.31;241.6;13.90;75158;2837.094;-1758.346;1;223;390;393.5;16.8;16.2;-70;-69.9;27.8;-1.0;
19/02/2025 02:09:50;117;0;355.48;-4;21.74;-46.49;238.1;13.90;75175;2837.098;-1758.346;1;217;390;395.2;16.8;16.1;-70;-69.9;27.8;-1.0;
19/02/2025 02:10:10;117;0;343.31;-4;22.39;-47.81;234.3;13.90;75179;2837.102;-1758.348;1;211;390;395.2;17.5;17.5;-70;-69.9;27.8;-1.0;
19/02/2025 02:10:30;117;0;335.16;-4;19.84;-47.17;230.6;14.00;75185;2837.107;-1758.350;1;205;390;395.2;17.5;17.8;-70;-69.9;27.8;-1.0;
19/02/2025 02:10:50;117;0;325.42;-4;19.65;-46.70;227.1;14.00;75203;2837.110;-1758.353;1;199;390;395.2;17.5;17.7;-70;-69.9;27.8;-1.0;
19/02/2025 02:11:10;117;0;318.51;-4;19.57;-47.36;223.6;14.00;75210;2837.113;-1758.356;1;193;390;395.2;17.5;17.7;-70;-69.9;27.8;-1.0;
19/02/2025 02:11:30;117;0;307.66;-4;19.74;-46.87;220.1;14.10;75207;2837.116;-1758.360;1;188;390;395.2;17.5;17.7;-70;-69.9;27.8;-1.0;
19/02/2025 02:11:50;117;0;299.83;-4;19.40;-46.45;216.7;14.10;75225;2837.118;-1758.365;1;182;390;395.2;17.5;17.7;-70;-69.9;27.8;-1.0;
19/02/2025 02:12:10;117;0;288.26;-4;19.51;-47.45;213.3;14.10;75228;2837.119;-1758.370;1;177;390;395.2;17.5;17.5;-70;-69.9;27.8;-1.0;
19/02/2025 02:12:30;117;0;276.97;-4;19.34;-47.19;209.9;14.20;75250;2837.120;-1758.375;1;171;390;395.2;17.5;17.7;-70;-69.9;27.8;-1.0;
19/02/2025 02:12:50;117;0;265.17;-4;19.13;-47.10;206.4;14.20;75261;2837.119;-1758.380;1;166;390;395.2;17.5;17.7;-70;-69.9;27.8;-1.0;
19/02/2025 02:13:10;117;0;254.42;-4;19.37;-46.63;203.1;14.30;75266;2837.118;-1758.385;1;160;390;395.2;17.5;17.7;-70;-69.9;27.8;-1.0;
19/02/2025 02:13:30;117;0;242.59;-4;19.28;-47.19;199.4;14.30;75274;2837.116;-1758.390;1;154;390;395.2;17.5;17.7;-70;-69.9;27.8;-1.0;
19/02/2025 02:13:50;117;0;230.93;-4;19.05;-47.30;195.9;14.30;75299;2837.112;-1758.394;1;148;390;395.2;17.5;17.7;-70;-69.9;27.8;-1.0;
19/02/2025 02:14:10;117;0;218.68;-4;19.04;-47.29;192.4;14.40;75301;2837.109;-1758.398;1;142;390;395.2;17.5;17.5;-67;-66.8;27.8;-1.0;
19/02/2025 02:14:30;117;0;205.74;-4;19.48;-45.25;189.0;14.40;75307;2837.104;-1758.400;1;136;390;395.2;17.5;17.7;-59;-59.1;27.8;-1.0;
19/02/2025 02:14:50;117;0;192.20;-4;20.05;-41.31;185.5;14.40;75319;2837.100;-1758.401;1;131;390;395.2;17.5;17.7;-48;-47.8;27.8;-1.0;
19/02/2025 02:15:10;117;0;179.41;-4;21.58;-35.26;182.0;14.50;75325;2837.096;-1758.401;1;126;390;395.2;17.5;17.7;-39;-38.4;27.8;-1.0;
19/02/2025 02:15:30;117;0;167.01;-4;23.09;-30.42;178.4;14.50;75335;2837.091;-1758.400;1;121;390;396.8;18.4;18.6;-30;-29.8;27.8;-1.0;
19/02/2025 02:15:50;117;0;154.07;-4;22.73;-26.12;174.7;14.60;75345;2837.088;-1758.398;1;116;390;395.2;19.3;19.6;-20;-19.9;27.8;-1.0;
19/02/2025 02:16:10;117;0;140.70;-4;22.35;-20.71;171.1;14.60;75353;2837.084;-1758.395;1;112;390;395.2;20.0;20.3;-7;-7.2;27.8;-1.0;
