Timestamp;NavState;SecurityLevel;Heading;Declination;Pitch;Roll;Depth;Temperature;Pa;Lat;Lon;DeadReckoning;DesiredH;BallastCmd;BallastPos;LinCmd;LinPos;AngCmd;AngPos;Voltage;Altitude;
16/02/2025 17:24:15;119;0;356.37;-4;-52.53;-13.89;-0.2;19.50;76551;2838.398;-1801.699;0;160;500;508.1;100.0;100.6;0;-0.5;28.4;-1.0;
16/02/2025 17:24:25;116;0;333.82;-4;-49.76;-18.17;-0.2;19.50;76545;2838.400;-1801.700;0;160;500;509.7;100.0;100.6;0;-0.5;28.4;-1.0;
16/02/2025 17:24:50;116;0;334.58;-4;-56.01;-10.01;-0.2;19.60;76561;2838.401;-1801.702;0;160;500;508.1;100.0;100.7;0;-0.5;28.4;-1.0;
16/02/2025 17:25:16;116;0;328.33;-4;-59.98;4.28;0.0;19.70;76581;2838.401;-1801.702;0;160;500;509.7;100.0;100.7;0;-0.5;28.4;-1.0;
16/02/2025 17:25:37;116;0;342.57;-4;-53.93;-9.78;-0.2;19.70;76572;2838.400;-1801.703;0;160;500;509.7;100.0;100.7;0;-0.9;28.4;-1.0;
16/02/2025 17:25:57;116;0;347.48;-4;-49.22;-20.03;-0.1;19.70;76585;2838.400;-1801.703;0;160;500;509.7;100.0;100.7;0;-0.5;28.4;-1.0;
16/02/2025 17:26:50;116;0;313.58;-4;-58.29;-18.67;-0.2;19.80;76599;2838.400;-1801.706;0;159;500;509.7;100.0;100.7;0;-0.5;28.4;-1.0;
16/02/2025 17:27:37;116;0;317.35;-4;-53.23;-2.90;-0.1;20.00;76617;2838.400;-1801.707;0;159;500;509.7;100.0;100.6;0;-0.5;28.4;-1.0;
16/02/2025 17:27:48;116;0;327.16;-4;-52.37;-10.45;-0.1;20.00;76616;2838.400;-1801.708;0;159;500;508.1;100.0;100.7;0;-0.5;28.4;-1.0;
16/02/2025 17:28:08;110;0;316.52;-4;-63.62;-15.49;-0.1;20.10;76627;2838.400;-1801.708;0;159;-50;396.8;100.0;99.6;-14;-14.0;28.4;-1.0;
16/02/2025 17:28:18;110;0;320.38;-4;-50.68;-22.03;0.1;20.10;76968;2838.400;-1801.708;1;159;-50;250.0;100.0;99.7;-14;-14.4;28.3;-1.0;
16/02/2025 17:28:28;110;0;315.37;-4;-55.51;-19.58;0.7;20.10;77222;2838.400;-1801.709;1;159;-50;87.1;100.0;99.7;-14;-14.0;28.3;-1.0;
16/02/2025 17:28:38;110;0;345.43;-4;-70.73;-19.46;1.0;20.20;77563;2838.401;-1801.709;1;159;-50;-50.0;100.0;99.9;-14;-14.0;28.3;-1.0;
16/02/2025 17:28:48;110;0;346.76;-4;-66.68;-15.18;1.3;20.20;77843;2838.401;-1801.709;1;159;-50;-50.0;48.4;48.5;-14;-14.0;28.4;-1.0;
16/02/2025 17:29:08;100;0;1.11;-4;-31.98;-19.66;4.3;20.30;77803;2838.404;-1801.709;1;159;-50;-46.8;48.4;48.2;-14;-14.4;28.4;-1.0;
16/02/2025 17:29:28;100;0;11.75;-4;-31.01;-18.94;7.8;20.30;77795;2838.407;-1801.709;1;159;-50;-46.8;48.4;48.0;-70;-69.9;28.4;-1.0;
16/02/2025 17:29:48;100;0;20.59;-4;-32.05;-46.15;11.4;20.40;77798;2838.411;-1801.708;1;159;-50;-43.5;47.8;47.9;-70;-70.4;28.4;-1.0;
16/02/2025 17:30:08;100;0;29.54;-4;-29.41;-44.93;15.2;20.40;77794;2838.414;-1801.706;1;160;-50;-45.2;47.8;47.7;-70;-70.4;28.4;0.0;
16/02/2025 17:30:28;100;0;43.59;-4;-30.10;-45.52;18.9;20.40;77795;2838.417;-1801.704;1;160;-50;-46.8;47.8;47.7;-70;-70.4;28.3;0.0;
16/02/2025 17:30:48;100;0;52.68;-4;-29.72;-45.78;22.7;20.40;77783;2838.419;-1801.701;1;160;-50;-45.2;47.8;47.7;-70;-70.4;28.4;0.0;
16/02/2025 17:31:08;100;0;62.98;-4;-30.06;-45.85;26.6;20.50;77793;2838.421;-1801.698;1;160;-50;-46.8;47.8;47.7;-70;-70.4;28.4;0.0;
16/02/2025 17:31:28;100;0;69.64;-4;-30.31;-45.16;30.4;20.50;77784;2838.423;-1801.695;1;160;-50;-45.2;47.8;47.7;-70;-70.8;28.4;0.0;
16/02/2025 17:31:48;100;0;83.08;-4;-28.74;-45.63;34.3;20.50;77783;2838.424;-1801.691;1;161;-50;-45.2;48.2;48.3;-70;-70.4;28.4;0.0;
16/02/2025 17:32:08;100;0;95.75;-4;-30.57;-45.92;38.2;20.50;77789;2838.424;-1801.688;1;161;-50;-45.2;48.2;48.5;-65;-65.0;28.4;0.0;
16/02/2025 17:32:28;100;0;108.08;-4;-29.80;-42.03;42.2;20.50;77785;2838.423;-1801.684;1;161;-50;-45.2;48.2;48.5;-51;-51.0;28.4;0.0;
16/02/2025 17:32:48;100;0;116.80;-4;-30.48;-35.29;46.2;20.50;77778;2838.422;-1801.681;1;161;-50;-45.2;48.2;48.5;-40;-40.2;28.4;0.0;
16/02/2025 17:33:08;100;0;124.07;-4;-30.07;-30.14;50.1;20.50;77769;2838.420;-1801.678;1;161;-50;-45.2;48.2;48.5;-30;-29.8;28.4;0.0;
16/02/2025 17:33:28;100;0;130.24;-4;-29.76;-25.00;54.1;20.50;77778;2838.419;-1801.675;1;161;-50;-45.2;48.2;48.6;-21;-21.2;28.4;0.0;
16/02/2025 17:33:48;100;0;136.28;-4;-29.54;-20.77;58.2;20.50;77788;2838.416;-1801.672;1;161;-50;-45.2;48.2;48.6;-11;-10.8;28.4;0.0;
16/02/2025 17:34:08;100;0;138.60;-4;-30.48;-16.26;62.1;20.50;77776;2838.414;-1801.670;1;161;-50;-43.5;48.2;48.6;-7;-7.2;28.4;0.0;
16/02/2025 17:34:28;100;0;142.68;-4;-30.05;-14.47;66.1;20.50;77776;2838.412;-1801.668;1;162;-50;-45.2;48.2;48.6;-2;-1.4;28.4;0.0;
16/02/2025 17:34:48;100;0;146.57;-4;-30.92;-11.89;70.1;20.50;77771;2838.409;-1801.666;1;162;-50;-43.5;48.2;48.7;4;4.1;28.4;0.0;
16/02/2025 17:35:08;100;0;147.84;-4;-31.19;-9.29;74.1;20.50;77765;2838.407;-1801.664;1;162;-50;-45.2;48.2;48.6;4;4.5;28.4;0.0;
16/02/2025 17:35:28;100;0;148.61;-4;-30.99;-9.23;78.4;20.50;77765;2838.404;-1801.662;1;162;-50;-45.2;48.2;48.6;6;5.9;28.4;0.0;
16/02/2025 17:35:48;100;0;147.79;-4;-30.66;-8.42;82.4;20.50;77759;2838.402;-1801.661;1;162;-50;-45.2;48.2;48.6;6;6.3;28.4;0.0;
16/02/2025 17:36:08;100;0;145.95;-4;-29.81;-8.48;86.3;20.50;77763;2838.399;-1801.659;1;162;-50;-45.2;48.2;48.6;3;3.2;28.4;0.0;
16/02/2025 17:36:28;100;0;145.75;-4;-30.37;-10.46;89.9;20.50;77746;2838.397;-1801.657;1;162;-50;-45.2;48.2;48.7;3;2.7;28.4;0.0;
16/02/2025 17:36:48;100;0;152.79;-4;-30.50;-10.47;93.6;20.40;77736;2838.395;-1801.656;1;162;-50;-45.2;48.2;48.6;9;9.0;28.4;0.0;
16/02/2025 17:37:08;100;0;152.63;-4;-30.82;-7.05;97.5;20.40;77728;2838.392;-1801.654;1;162;-50;-45.2;48.2;48.7;9;9.0;28.4;0.0;
16/02/2025 17:37:28;100;0;151.62;-4;-31.91;-7.29;101.3;20.40;77706;2838.390;-1801.653;1;162;-50;-45.2;48.2;48.7;9;9.5;28.4;0.0;
16/02/2025 17:37:48;100;0;149.74;-4;-31.39;-6.87;105.6;20.40;77689;2838.387;-1801.651;1;162;-50;-45.2;48.2;48.7;7;7.2;28.4;0.0;
16/02/2025 17:38:08;100;0;148.10;-4;-30.86;-8.13;109.6;20.40;77671;2838.384;-1801.649;1;162;-50;-48.4;48.2;48.7;5;5.0;28.4;0.0;
16/02/2025 17:38:28;100;0;147.55;-4;-31.76;-9.32;113.6;20.30;77657;2838.382;-1801.647;1;162;-50;-45.2;48.2;48.7;5;4.5;28.4;0.0;
16/02/2025 17:38:48;100;0;156.13;-4;-30.99;-9.14;117.9;20.30;77652;2838.379;-1801.646;1;162;-50;-45.2;48.2;48.6;10;9.9;28.4;0.0;
16/02/2025 17:39:08;100;0;159.76;-4;-31.23;-6.59;122.0;20.30;77625;2838.376;-1801.645;1;162;-50;-45.2;48.2;48.6;10;10.4;28.4;0.0;
16/02/2025 17:39:28;100;0;157.65;-4;-29.45;-6.70;125.8;20.30;77608;2838.373;-1801.644;1;162;-50;-45.2;48.2;48.6;10;10.4;28.4;0.0;
16/02/2025 17:39:48;100;0;155.08;-4;-29.55;-6.41;129.3;20.20;77592;2838.371;-1801.643;1;162;-50;-45.2;48.2;48.7;10;10.4;28.4;0.0;
16/02/2025 17:40:08;100;0;153.57;-4;-29.94;-6.61;132.8;20.20;77579;2838.369;-1801.641;1;162;-50;-45.2;48.2;48.7;10;10.4;28.4;0.0;
16/02/2025 17:40:28;100;0;151.36;-4;-30.19;-6.54;136.4;20.20;77560;2838.366;-1801.640;1;162;-50;-45.2;48.2;48.7;8;8.1;28.4;0.0;
16/02/2025 17:40:48;100;0;147.82;-4;-30.18;-7.84;140.0;20.20;77550;2838.364;-1801.638;1;162;-50;-45.2;48.2;48.6;5;5.0;28.4;0.0;
16/02/2025 17:41:08;100;0;142.45;-4;-30.00;-9.78;143.7;20.10;77538;2838.362;-1801.636;1;162;-50;-45.2;48.2;48.7;-3;-3.2;28.4;0.0;
16/02/2025 17:41:28;100;0;153.51;-4;-29.65;-13.48;147.3;20.10;77517;2838.359;-1801.635;1;162;-50;-45.2;48.2;48.6;9;9.0;28.4;0.0;
16/02/2025 17:41:48;100;0;157.51;-4;-30.71;-6.80;151.1;20.00;77503;2838.357;-1801.634;1;162;-50;-43.5;48.2;48.7;9;9.5;28.4;0.0;
16/02/2025 17:42:08;100;0;160.68;-4;-30.39;-6.88;155.0;20.00;77479;2838.354;-1801.633;1;162;-50;-45.2;48.2;48.6;9;9.5;28.4;0.0;
16/02/2025 17:42:28;100;0;160.82;-4;-30.40;-6.95;158.8;20.00;77486;2838.351;-1801.632;1;162;-50;-45.2;48.2;48.7;9;9.5;28.4;0.0;
16/02/2025 17:42:48;100;0;161.15;-4;-30.66;-6.89;162.6;19.90;77471;2838.349;-1801.631;1;162;-50;-43.5;48.2;48.7;9;9.5;28.4;0.0;
16/02/2025 17:43:08;100;0;159.38;-4;-31.14;-6.84;166.4;19.90;77466;2838.346;-1801.630;1;162;-50;-45.2;48.2;48.7;9;9.5;28.4;0.0;
16/02/2025 17:43:28;100;0;156.48;-4;-30.84;-6.74;170.4;19.90;77448;2838.343;-1801.629;1;162;-50;-45.2;48.2;48.7;9;9.5;28.4;0.0;
16/02/2025 17:43:48;100;0;153.48;-4;-29.41;-6.97;174.1;19.80;77428;2838.341;-1801.627;1;162;-50;-45.2;48.2;48.7;9;9.5;28.4;0.0;
16/02/2025 17:44:08;100;0;154.85;-4;-29.66;-6.89;177.7;19.80;77406;2838.338;-1801.626;1;162;-50;-45.2;48.2;48.7;9;9.5;28.4;0.0;
16/02/2025 17:44:28;100;0;150.95;-4;-29.74;-6.92;181.1;19.70;77403;2838.336;-1801.625;1;162;-50;-45.2;48.2;48.6;7;7.2;28.4;0.0;
16/02/2025 17:44:48;100;0;153.21;-4;-29.06;-8.31;184.4;19.70;77390;2838.334;-1801.623;1;162;-50;-45.2;48.2;48.6;9;9.0;28.4;0.0;
16/02/2025 17:45:08;100;0;158.07;-4;-30.41;-7.06;187.9;19.70;77362;2838.331;-1801.622;1;162;-50;-45.2;48.2;48.6;9;9.5;28.4;0.0;
16/02/2025 17:45:28;100;0;161.73;-4;-30.15;-6.91;191.5;19.60;77352;2838.329;-1801.621;1;162;-50;-45.2;48.2;48.7;9;9.5;28.4;0.0;
16/02/2025 17:45:48;100;0;164.34;-4;-30.18;-7.00;195.2;19.60;77329;2838.326;-1801.621;1;162;-50;-45.2;48.2;48.7;9;9.5;28.4;0.0;
16/02/2025 17:46:08;100;0;163.33;-4;-30.19;-6.87;198.9;19.50;77312;2838.323;-1801.620;1;162;-50;-43.5;48.2;48.6;9;9.5;28.4;0.0;
16/02/2025 17:46:11;118;0;162.83;-4;-29.89;-6.96;199.4;19.50;77301;2838.323;-1801.620;1;162;210;-40.3;21.3;21.4;14;14.0;28.4;0.0;
16/02/2025 17:46:21;118;0;140.63;-4;-15.94;-5.45;200.9;19.50;77276;2838.321;-1801.618;1;162;210;90.3;21.3;21.1;14;14.0;28.0;-1.0;
16/02/2025 17:46:31;118;0;135.81;-4;12.31;-5.12;201.1;19.50;77006;2838.321;-1801.618;1;162;210;212.9;21.3;21.4;14;14.0;28.0;-1.0;
16/02/2025 17:46:41;118;0;159.49;-4;24.80;-4.97;200.4;19.50;76746;2838.321;-1801.618;1;162;210;212.9;21.3;21.5;14;14.4;28.4;-1.0;
16/02/2025 17:46:51;118;0;162.52;-4;28.02;-5.21;199.1;19.40;76750;2838.320;-1801.618;1;162;210;214.5;21.3;21.4;14;14.4;28.4;-1.0;
16/02/2025 17:47:11;117;0;159.78;-4;28.34;-5.15;196.4;19.40;76747;2838.318;-1801.617;1;162;210;212.9;21.3;21.5;14;14.4;28.4;-1.0;
16/02/2025 17:47:31;117;0;154.00;-4;28.68;-5.12;193.6;19.30;76746;2838.316;-1801.616;1;162;210;214.5;20.9;20.8;38;37.9;28.3;-1.0;
16/02/2025 17:47:51;117;0;153.27;-4;31.69;7.79;190.8;19.30;76726;2838.314;-1801.615;1;162;210;214.5;20.9;20.8;38;38.4;28.4;-1.0;
16/02/2025 17:48:11;117;0;151.30;-4;32.08;7.78;187.7;19.20;76734;2838.312;-1801.614;1;162;210;214.5;21.6;21.6;38;38.4;28.4;-1.0;
16/02/2025 17:48:31;117;0;149.51;-4;30.86;7.78;184.8;19.20;76730;2838.311;-1801.613;1;163;210;214.5;21.6;21.8;41;41.1;28.4;-1.0;
16/02/2025 17:48:51;117;0;146.46;-4;31.56;9.55;181.9;19.20;76732;2838.309;-1801.612;1;163;210;214.5;21.6;21.8;45;45.1;28.4;-1.0;
16/02/2025 17:49:11;117;0;147.45;-4;31.97;11.97;178.7;19.10;76731;2838.307;-1801.610;1;163;210;214.5;21.6;21.6;43;42.9;28.4;-1.0;
16/02/2025 17:49:31;117;0;151.08;-4;31.32;9.93;175.5;19.10;76735;2838.305;-1801.609;1;163;210;214.5;21.6;21.8;40;39.7;28.4;-1.0;
16/02/2025 17:49:51;117;0;148.17;-4;31.53;8.46;172.3;19.00;76739;2838.303;-1801.608;1;163;210;212.9;21.6;21.8;43;43.3;28.4;-1.0;
16/02/2025 17:50:11;117;0;148.88;-4;31.66;10.78;169.0;19.00;76743;2838.301;-1801.607;1;163;210;212.9;21.6;21.8;43;43.3;28.4;-1.0;
16/02/2025 17:50:31;117;0;151.65;-4;30.63;10.60;165.7;19.00;76753;2838.299;-1801.605;1;163;210;214.5;21.6;21.8;40;40.2;28.4;-1.0;
16/02/2025 17:50:51;117;0;154.30;-4;30.17;8.38;162.7;19.00;76758;2838.297;-1801.604;1;163;210;214.5;21.6;21.8;40;39.7;28.4;-1.0;
16/02/2025 17:51:11;117;0;156.13;-4;30.53;8.40;159.8;18.90;76753;2838.296;-1801.604;1;163;210;214.5;21.6;21.8;38;37.9;28.4;-1.0;
16/02/2025 17:51:31;117;0;155.87;-4;30.27;7.06;156.9;18.90;76766;2838.294;-1801.603;1;163;210;214.5;21.6;21.8;38;37.0;28.4;-1.0;
16/02/2025 17:51:51;117;0;155.56;-4;30.50;7.00;154.0;18.90;76758;2838.292;-1801.602;1;163;210;214.5;21.6;21.6;38;37.0;28.4;-1.0;
16/02/2025 17:52:11;117;0;154.34;-4;30.49;7.02;151.0;18.90;76773;2838.290;-1801.601;1;163;210;214.5;21.6;21.6;38;37.0;28.4;-1.0;
16/02/2025 17:52:31;117;0;151.67;-4;30.01;7.04;148.1;18.90;76765;2838.288;-1801.600;1;163;210;212.9;21.6;21.8;40;40.6;28.3;-1.0;
16/02/2025 17:52:51;117;0;149.47;-4;30.51;9.34;145.3;18.80;76769;2838.286;-1801.599;1;163;210;212.9;21.6;21.8;42;42.0;28.4;-1.0;
16/02/2025 17:53:11;117;0;143.15;-4;30.93;10.12;142.3;18.80;76776;2838.285;-1801.597;1;163;210;212.9;21.6;21.8;50;50.1;28.4;-1.0;
16/02/2025 17:53:31;117;0;149.63;-4;31.37;14.71;139.1;18.80;76779;2838.283;-1801.596;1;163;210;212.9;21.6;21.8;42;42.0;28.4;-1.0;
16/02/2025 17:53:51;117;0;151.93;-4;30.81;9.32;135.9;18.80;76786;2838.281;-1801.595;1;163;210;214.5;21.6;21.8;40;39.7;28.4;-1.0;
16/02/2025 17:54:11;117;0;153.65;-4;30.25;8.39;132.8;18.80;76790;2838.279;-1801.594;1;163;210;212.9;21.6;21.6;40;39.7;28.4;-1.0;
16/02/2025 17:54:31;117;0;155.93;-4;30.38;8.35;129.6;18.80;76796;2838.276;-1801.592;1;163;210;214.5;21.6;21.8;40;39.7;28.4;-1.0;
16/02/2025 17:54:51;117;0;158.35;-4;30.69;8.39;126.4;18.80;76805;2838.274;-1801.592;1;163;210;214.5;21.6;21.8;38;37.9;28.4;-1.0;
16/02/2025 17:55:11;117;0;161.41;-4;30.65;7.42;123.1;18.80;76807;2838.272;-1801.591;1;163;210;212.9;21.6;21.8;38;37.5;28.4;-1.0;
16/02/2025 17:55:31;117;0;161.32;-4;30.47;7.39;119.9;18.70;76809;2838.270;-1801.590;1;163;210;212.9;21.6;21.8;38;37.5;28.4;-1.0;
16/02/2025 17:55:51;117;0;157.46;-4;29.79;7.37;116.7;18.70;76829;2838.268;-1801.589;1;163;210;212.9;21.6;21.8;38;37.5;28.4;-1.0;
16/02/2025 17:56:11;117;0;154.84;-4;30.12;7.33;113.6;18.70;76835;2838.266;-1801.588;1;163;210;214.5;21.6;21.8;38;37.5;28.4;-1.0;
16/02/2025 17:56:31;117;0;149.74;-4;30.07;7.27;110.7;18.70;76844;2838.264;-1801.587;1;163;210;212.9;21.6;21.8;42;42.0;28.4;-1.0;
16/02/2025 17:56:51;117;0;148.03;-4;30.13;10.04;107.7;18.70;76863;2838.262;-1801.586;1;163;210;214.5;21.6;21.8;42;42.4;28.4;-1.0;
16/02/2025 17:57:11;117;0;152.08;-4;30.01;10.21;104.6;18.80;76882;2838.260;-1801.585;1;163;210;216.1;21.6;21.8;40;40.2;28.4;-1.0;
16/02/2025 17:57:31;117;0;153.41;-4;29.96;8.39;101.8;18.80;76879;2838.258;-1801.584;1;163;210;214.5;21.6;21.8;40;39.7;28.4;-1.0;
16/02/2025 17:57:51;117;0;153.07;-4;29.75;8.49;98.8;18.80;76887;2838.256;-1801.582;1;163;210;212.9;21.6;21.8;40;39.7;28.4;-1.0;
16/02/2025 17:58:11;117;0;154.15;-4;29.51;8.43;95.8;18.80;76889;2838.254;-1801.581;1;163;210;212.9;21.6;21.8;40;39.7;28.3;-1.0;
16/02/2025 17:58:31;117;0;158.18;-4;29.60;8.38;93.0;18.80;76895;2838.252;-1801.581;1;163;210;212.9;21.6;21.6;40;39.7;28.4;-1.0;
16/02/2025 17:58:51;117;0;162.14;-4;29.92;8.28;90.3;18.80;76915;2838.250;-1801.580;1;163;210;214.5;21.6;21.6;38;37.9;28.4;-1.0;
16/02/2025 17:59:11;117;0;162.65;-4;29.89;7.04;87.6;18.80;76925;2838.248;-1801.580;1;163;210;214.5;21.6;21.8;38;37.0;28.4;-1.0;
16/02/2025 17:59:32;117;0;162.65;-4;29.88;7.04;84.7;18.80;76946;2838.246;-1801.579;1;163;210;214.5;21.6;21.8;38;37.0;28.4;-1.0;
16/02/2025 17:59:52;117;0;159.62;-4;29.74;7.08;82.0;18.80;76958;2838.245;-1801.578;1;163;210;214.5;21.6;21.8;38;37.0;28.4;-1.0;
16/02/2025 18:00:12;117;0;157.26;-4;30.04;7.09;79.2;18.80;76983;2838.243;-1801.578;1;163;210;214.5;21.6;21.8;38;37.0;28.4;-1.0;
16/02/2025 18:00:32;117;0;155.62;-4;29.57;7.06;76.4;18.90;76990;2838.241;-1801.577;1;163;210;214.5;21.6;21.8;38;37.0;28.4;-1.0;
16/02/2025 18:00:52;117;0;157.29;-4;30.06;7.06;73.7;18.90;77004;2838.239;-1801.576;1;163;210;212.9;21.6;21.8;38;37.0;28.4;-1.0;
16/02/2025 18:01:12;117;0;159.90;-4;30.48;7.11;71.0;18.90;77007;2838.237;-1801.575;1;163;210;214.5;21.6;21.8;38;37.0;28.4;-1.0;
16/02/2025 18:01:32;117;0;161.75;-4;29.89;7.04;68.3;18.90;77015;2838.235;-1801.575;1;163;210;214.5;21.6;21.8;38;37.0;28.4;-1.0;
16/02/2025 18:01:52;117;0;161.25;-4;29.04;7.04;65.5;18.90;77028;2838.233;-1801.574;1;163;210;214.5;21.6;21.8;38;37.0;28.4;-1.0;
16/02/2025 18:02:12;117;0;161.75;-4;29.36;6.97;62.9;19.00;77039;2838.232;-1801.574;1;163;210;214.5;21.6;21.8;38;37.0;28.4;-1.0;
16/02/2025 18:02:32;117;0;160.13;-4;30.30;7.16;60.3;19.00;77043;2838.230;-1801.573;1;163;210;212.9;21.6;21.6;38;37.0;28.4;-1.0;
16/02/2025 18:02:52;117;0;161.79;-4;29.85;7.10;57.7;19.00;77043;2838.228;-1801.572;1;163;210;216.1;21.6;21.6;38;37.0;28.3;-1.0;
16/02/2025 18:03:12;117;0;163.24;-4;29.30;6.96;55.1;19.00;77048;2838.226;-1801.572;1;163;210;214.5;21.6;21.8;38;37.0;28.4;-1.0;
16/02/2025 18:03:32;117;0;164.45;-4;29.17;7.04;52.6;19.00;77055;2838.224;-1801.572;1;163;210;214.5;21.6;21.8;38;37.0;28.4;-1.0;
16/02/2025 18:03:52;117;0;165.69;-4;29.53;7.03;50.1;19.10;77075;2838.223;-1801.571;1;163;210;214.5;21.6;21.6;38;37.0;28.4;-1.0;
16/02/2025 18:04:12;117;0;166.86;-4;29.57;7.02;47.6;19.10;77074;2838.221;-1801.571;1;163;210;214.5;21.6;21.8;38;37.0;28.4;-1.0;
16/02/2025 18:04:32;117;0;167.91;-4;29.38;7.06;45.1;19.10;77074;2838.219;-1801.571;1;163;210;214.5;21.6;21.8;38;37.0;28.4;-1.0;
16/02/2025 18:04:52;117;0;169.93;-4;28.99;6.97;42.7;19.10;77077;2838.217;-1801.571;1;163;210;214.5;21.3;21.1;35;34.7;28.4;-1.0;
16/02/2025 18:05:12;117;0;172.17;-4;30.88;5.68;40.1;19.10;77078;2838.216;-1801.570;1;163;210;214.5;21.3;21.1;33;32.9;28.4;-1.0;
16/02/2025 18:05:32;117;0;172.45;-4;30.46;4.35;37.7;19.10;77092;2838.214;-1801.570;1;163;210;214.5;21.3;20.9;33;32.0;28.4;-1.0;
16/02/2025 18:05:52;117;0;171.28;-4;30.03;4.40;35.0;19.20;77100;2838.212;-1801.570;1;163;210;214.5;21.3;20.9;33;32.5;28.4;-1.0;
16/02/2025 18:06:12;117;0;168.52;-4;31.41;4.37;32.4;19.20;77104;2838.210;-1801.570;1;163;210;214.5;21.3;21.1;36;36.1;28.4;-1.0;
16/02/2025 18:06:32;117;0;167.16;-4;31.12;6.75;29.8;19.20;77100;2838.208;-1801.570;1;163;210;214.5;21.3;20.9;36;36.6;28.4;-1.0;
16/02/2025 18:06:52;117;0;166.19;-4;30.32;6.88;27.1;19.20;77102;2838.206;-1801.569;1;163;210;214.5;21.3;21.1;36;36.6;28.4;-1.0;
16/02/2025 18:07:12;117;0;166.56;-4;30.92;6.91;24.3;19.30;77115;2838.205;-1801.569;1;163;210;214.5;21.3;20.9;36;36.6;28.4;-1.0;
16/02/2025 18:07:32;117;0;167.92;-4;31.98;7.21;21.6;19.30;77109;2838.203;-1801.569;1;163;210;216.1;21.3;20.9;36;36.6;28.4;-1.0;
16/02/2025 18:07:52;117;0;169.04;-4;30.63;6.80;18.9;19.30;77105;2838.201;-1801.569;1;163;210;214.5;21.3;20.9;36;36.6;28.4;-1.0;
16/02/2025 18:08:12;117;0;169.46;-4;30.10;6.92;16.3;19.30;77130;2838.199;-1801.569;1;163;210;211.3;21.3;21.1;36;36.6;28.4;-1.0;
16/02/2025 18:08:32;117;0;168.97;-4;30.78;6.93;13.7;19.30;77122;2838.197;-1801.568;1;163;210;214.5;21.3;21.1;36;36.6;28.4;-1.0;
16/02/2025 18:08:52;117;0;168.46;-4;30.02;6.84;11.1;19.40;77135;2838.195;-1801.568;1;163;210;216.1;21.3;20.9;36;36.6;28.4;-1.0;
16/02/2025 18:09:12;117;0;167.75;-4;30.73;6.84;8.3;19.40;77128;2838.193;-1801.568;1;163;210;216.1;21.3;21.1;36;36.6;28.4;-1.0;
16/02/2025 18:09:32;117;0;166.81;-4;30.89;7.31;5.6;19.40;77136;2838.192;-1801.567;1;163;210;212.9;21.3;20.9;36;37.0;28.4;-1.0;
16/02/2025 18:09:51;115;0;166.76;-4;28.96;7.36;3.0;19.40;77140;2838.190;-1801.567;1;163;500;222.6;100.0;64.2;0;-0.9;28.4;-1.0;
16/02/2025 18:10:01;115;0;149.58;-4;12.57;-12.54;2.0;19.40;77115;2838.189;-1801.566;1;163;500;340.3;100.0;100.0;0;-0.9;28.1;-1.0;
16/02/2025 18:10:11;115;0;148.62;-4;-67.71;-13.97;2.4;19.50;76850;2838.189;-1801.566;1;163;500;456.5;100.0;100.6;0;-0.5;28.1;-1.0;
16/02/2025 18:10:21;115;0;108.01;-4;-73.08;-5.29;2.1;19.50;76595;2838.189;-1801.566;1;163;500;508.1;100.0;100.6;0;-0.5;28.1;-1.0;
16/02/2025 18:10:31;115;0;85.33;-4;-37.96;-8.63;-0.8;19.50;76508;2838.189;-1801.564;1;163;500;508.1;100.0;100.6;0;-0.9;28.4;-1.0;
16/02/2025 18:10:51;119;0;40.26;-4;-55.01;-8.85;-0.6;19.50;76531;2838.189;-1801.564;1;163;500;509.7;100.0;100.7;0;-0.5;28.4;-1.0;
16/02/2025 18:11:01;119;0;7.34;-4;-53.11;-12.53;-0.4;19.50;76530;2838.223;-1801.569;0;163;500;509.7;100.0;100.7;0;-0.9;28.4;-1.0;
