Timestamp;NavState;SecurityLevel;Heading;Declination;Pitch;Roll;Depth;Temperature;Pa;Lat;Lon;DeadReckoning;DesiredH;BallastCmd;BallastPos;LinCmd;LinPos;AngCmd;AngPos;Voltage;Altitude;
24/02/2025 09:13:37;119;0;138.10;-4;-48.03;-7.73;0.1;17.00;75623;2835.504;-1758.431;0;132;500;506.5;100.0;100.6;0;-0.5;26.7;-1.0;
24/02/2025 09:13:47;116;0;141.25;-4;-59.78;-16.74;0.3;17.10;75630;2835.522;-1758.434;0;132;500;508.1;100.0;100.6;0;-0.5;26.7;-1.0;
24/02/2025 09:14:13;116;0;154.88;-4;-54.87;-4.89;0.2;17.10;75643;2835.524;-1758.431;0;132;500;508.1;100.0;100.6;0;-0.5;26.7;-1.0;
24/02/2025 09:14:39;116;0;182.89;-4;-59.55;-5.60;0.1;17.20;75636;2835.523;-1758.432;0;132;500;504.8;100.0;100.6;0;-0.5;26.6;-1.0;
24/02/2025 09:14:59;116;0;215.20;-4;-54.90;-17.49;0.2;17.30;75654;2835.524;-1758.431;0;151;500;506.5;100.0;100.6;0;-0.5;26.7;-1.0;
24/02/2025 09:15:11;116;0;225.24;-4;-53.63;-12.78;0.2;17.30;75656;2835.525;-1758.430;0;151;500;508.1;100.0;100.6;0;-0.5;26.7;-1.0;
24/02/2025 09:16:13;116;0;284.15;-4;-55.01;-16.41;0.2;17.50;75684;2835.532;-1758.430;0;151;500;506.5;100.0;100.7;0;-0.5;26.7;-1.0;
24/02/2025 09:17:51;116;0;268.92;-4;-51.59;-13.65;0.2;17.90;75717;2835.551;-1758.433;0;151;500;508.1;100.0;100.6;0;-0.5;26.7;-1.0;
24/02/2025 09:18:08;116;0;258.78;-4;-57.53;-8.50;0.2;18.00;75725;2835.551;-1758.432;0;151;500;508.1;100.0;100.6;0;-0.5;26.7;-1.0;
24/02/2025 09:18:27;116;0;264.80;-4;-54.54;-13.30;0.1;18.10;75729;2835.554;-1758.432;0;151;500;506.5;100.0;100.6;0;-0.5;26.7;-1.0;
24/02/2025 09:19:32;116;0;277.87;-4;-58.44;-8.23;0.2;18.30;75750;2835.564;-1758.434;0;151;500;508.1;100.0;100.7;0;-0.5;26.7;-1.0;
24/02/2025 09:20:58;116;0;270.78;-4;-57.05;-9.74;0.1;18.60;75779;2835.577;-1758.436;0;151;500;506.5;100.0;100.6;0;-0.5;26.7;-1.0;
24/02/2025 09:21:09;116;0;267.56;-4;-55.07;-14.55;0.1;18.70;75783;2835.578;-1758.436;0;151;500;506.5;100.0;100.6;0;-0.5;26.7;-1.0;
24/02/2025 09:21:29;110;0;280.72;-4;-57.65;-3.12;0.1;18.70;75785;2835.578;-1758.436;0;151;-70;391.9;100.0;99.9;-7;-7.2;26.7;-1.0;
24/02/2025 09:21:39;110;0;298.08;-4;-55.71;-28.39;0.3;18.80;76143;2835.579;-1758.436;1;151;-70;240.3;100.0;100.0;-7;-7.7;26.7;-1.0;
24/02/2025 09:21:49;110;0;297.83;-4;-60.65;-16.43;0.7;18.80;76378;2835.580;-1758.437;1;151;-70;80.6;100.0;100.0;-7;-7.7;26.6;-1.0;
24/02/2025 09:21:59;110;0;296.69;-4;-66.32;-10.36;1.0;18.80;76706;2835.580;-1758.437;1;151;-70;-67.7;100.0;99.9;-7;-7.7;26.6;-1.0;
24/02/2025 09:22:09;110;0;301.56;-4;-65.95;-13.83;1.4;18.90;77007;2835.581;-1758.437;1;151;-70;-67.7;41.7;41.5;-7;-7.7;26.7;-1.0;
24/02/2025 09:22:29;100;0;315.12;-4;-30.21;-15.23;5.0;19.00;76975;2835.584;-1758.440;1;151;-70;-64.5;41.7;41.2;-7;-7.7;26.7;-1.0;
24/02/2025 09:22:49;100;0;318.76;-4;-18.39;-15.46;8.0;19.00;76978;2835.589;-1758.444;1;151;-70;-59.7;42.2;42.6;70;69.9;26.7;-1.0;
24/02/2025 09:23:09;100;0;314.42;-4;-21.26;23.65;10.5;19.00;76995;2835.592;-1758.447;1;151;-70;-61.3;42.2;42.7;70;69.9;26.7;-1.0;
24/02/2025 09:23:29;100;0;301.05;-4;-21.57;23.76;13.3;19.00;76995;2835.595;-1758.450;1;151;-70;-61.3;42.2;42.7;70;69.9;26.7;0.0;
24/02/2025 09:23:49;100;0;287.52;-4;-21.39;23.68;15.9;19.00;76995;2835.598;-1758.454;1;151;-70;-61.3;42.2;42.6;70;69.9;26.7;0.0;
24/02/2025 09:24:09;100;0;275.73;-4;-21.37;23.63;18.7;19.00;76998;2835.599;-1758.458;1;151;-70;-59.7;42.2;42.6;70;69.9;26.7;0.0;
24/02/2025 09:24:29;100;0;264.61;-4;-21.32;23.80;21.3;19.00;77008;2835.600;-1758.462;1;151;-70;-59.7;42.2;42.6;70;69.9;26.7;0.0;
24/02/2025 09:24:49;100;0;253.51;-4;-21.18;23.73;24.2;19.00;77009;2835.600;-1758.466;1;151;-70;-59.7;42.2;42.6;70;69.9;26.7;0.0;
24/02/2025 09:25:09;100;0;240.06;-4;-21.20;23.90;27.0;19.00;77020;2835.600;-1758.470;1;151;-70;-61.3;42.2;42.7;70;69.9;26.7;0.0;
24/02/2025 09:25:29;100;0;228.63;-4;-20.68;23.86;29.7;19.00;77017;2835.599;-1758.473;1;151;-70;-61.3;42.2;42.7;70;69.9;26.7;0.0;
24/02/2025 09:25:49;100;0;217.20;-4;-21.17;23.63;32.3;19.00;77018;2835.598;-1758.476;1;151;-70;-61.3;42.2;42.6;70;69.9;26.7;0.0;
24/02/2025 09:26:09;100;0;203.80;-4;-21.00;23.76;35.0;19.00;77031;2835.596;-1758.478;1;151;-70;-61.3;42.2;42.6;70;69.9;26.7;0.0;
24/02/2025 09:26:29;100;0;191.44;-4;-21.11;23.80;37.7;19.00;77028;2835.594;-1758.479;1;151;-70;-61.3;42.2;42.6;55;54.6;26.7;0.0;
24/02/2025 09:26:49;100;0;180.40;-4;-20.59;15.45;40.4;19.10;77039;2835.592;-1758.479;1;151;-70;-59.7;42.2;42.6;38;37.5;26.7;0.0;
24/02/2025 09:27:09;100;0;173.44;-4;-20.19;6.96;43.1;19.10;77035;2835.590;-1758.479;1;151;-70;-61.3;42.2;42.7;26;26.2;26.7;0.0;
24/02/2025 09:27:29;100;0;166.91;-4;-19.56;1.33;45.6;19.10;77041;2835.588;-1758.479;1;151;-70;-59.7;42.2;42.7;18;17.6;26.7;0.0;
24/02/2025 09:27:49;100;0;163.86;-4;-19.27;-2.97;48.2;19.10;77051;2835.586;-1758.478;1;151;-70;-59.7;42.2;42.7;16;15.8;26.7;0.0;
24/02/2025 09:28:09;100;0;163.50;-4;-19.26;-4.02;50.7;19.10;77054;2835.584;-1758.477;1;151;-70;-59.7;42.2;42.7;16;15.3;26.7;0.0;
24/02/2025 09:28:29;100;0;163.93;-4;-19.27;-4.08;53.3;19.10;77058;2835.582;-1758.476;1;151;-70;-61.3;42.2;42.7;16;15.3;26.7;0.0;
24/02/2025 09:28:49;100;0;164.66;-4;-19.12;-4.04;55.9;19.10;77060;2835.580;-1758.476;1;151;-70;-61.3;42.2;42.7;16;15.3;26.7;0.0;
24/02/2025 09:29:09;100;0;165.88;-4;-19.23;-4.05;58.4;19.10;77063;2835.578;-1758.475;1;151;-70;-61.3;42.2;42.6;18;18.1;26.7;0.0;
24/02/2025 09:29:29;100;0;165.40;-4;-19.34;-2.43;61.1;19.20;77074;2835.575;-1758.474;1;151;-70;-59.7;42.2;42.7;18;18.5;26.7;0.0;
24/02/2025 09:29:49;100;0;164.17;-4;-19.25;-2.42;63.7;19.20;77074;2835.573;-1758.474;1;151;-70;-61.3;42.2;42.7;18;18.5;26.7;0.0;
24/02/2025 09:30:09;100;0;161.74;-4;-19.18;-2.33;66.5;19.20;77068;2835.571;-1758.473;1;151;-70;-61.3;42.2;42.7;16;15.8;26.7;0.0;
24/02/2025 09:30:29;100;0;160.94;-4;-18.69;-3.93;69.0;19.20;77074;2835.569;-1758.472;1;151;-70;-61.3;42.6;42.6;16;14.9;26.7;0.0;
24/02/2025 09:30:49;100;0;160.55;-4;-18.06;-4.01;71.6;19.20;77082;2835.567;-1758.471;1;151;-70;-61.3;43.2;43.2;16;15.3;26.7;0.0;
24/02/2025 09:31:09;100;0;160.23;-4;-20.15;-3.91;74.2;19.20;77071;2835.565;-1758.470;1;151;-70;-59.7;43.2;43.3;16;15.3;26.7;0.0;
24/02/2025 09:31:29;100;0;157.99;-4;-20.31;-4.05;76.7;19.20;77081;2835.563;-1758.469;1;151;-70;-59.7;43.2;43.4;16;14.9;26.7;0.0;
24/02/2025 09:31:49;100;0;155.60;-4;-20.84;-4.00;79.3;19.20;77079;2835.562;-1758.468;1;151;-70;-59.7;43.2;43.3;16;15.3;26.7;0.0;
24/02/2025 09:32:09;100;0;152.13;-4;-20.19;-4.15;82.0;19.20;77081;2835.560;-1758.466;1;151;-70;-62.9;43.2;43.4;16;14.9;26.7;0.0;
24/02/2025 09:32:29;100;0;150.75;-4;-20.57;-4.04;84.7;19.20;77081;2835.558;-1758.464;1;151;-70;-62.9;43.2;43.4;16;15.3;26.7;0.0;
24/02/2025 09:32:49;100;0;150.05;-4;-20.20;-4.27;87.3;19.20;77081;2835.557;-1758.463;1;151;-70;-59.7;43.2;43.4;14;14.0;26.7;0.0;
24/02/2025 09:33:09;100;0;150.18;-4;-19.76;-4.93;89.8;19.20;77073;2835.555;-1758.461;1;151;-70;-59.7;43.2;43.4;14;13.5;26.7;0.0;
24/02/2025 09:33:29;100;0;147.50;-4;-19.96;-4.93;92.2;19.20;77056;2835.554;-1758.460;1;151;-70;-59.7;43.2;43.4;12;11.7;26.7;0.0;
24/02/2025 09:33:49;100;0;149.28;-4;-20.10;-6.03;94.6;19.20;77059;2835.552;-1758.458;1;151;-70;-59.7;43.2;43.4;14;14.0;26.7;0.0;
24/02/2025 09:34:09;100;0;150.59;-4;-20.25;-4.37;97.2;19.20;77051;2835.551;-1758.457;1;151;-70;-61.3;43.2;43.4;14;14.4;26.7;0.0;
24/02/2025 09:34:29;100;0;153.08;-4;-19.79;-4.32;99.7;19.20;77043;2835.549;-1758.456;1;151;-70;-61.3;43.2;43.4;14;14.4;26.7;0.0;
24/02/2025 09:34:49;100;0;151.37;-4;-20.32;-4.38;102.2;19.10;77035;2835.548;-1758.454;1;151;-70;-61.3;43.2;43.4;14;14.4;26.7;0.0;
24/02/2025 09:35:09;100;0;145.81;-4;-20.19;-4.37;104.6;19.10;77011;2835.546;-1758.452;1;151;-70;-59.7;43.2;43.6;11;10.8;26.7;0.0;
24/02/2025 09:35:29;100;0;142.31;-4;-20.14;-6.37;107.1;19.10;76995;2835.545;-1758.451;1;151;-70;-59.7;43.2;43.4;7;7.2;26.7;0.0;
24/02/2025 09:35:49;100;0;141.50;-4;-19.92;-8.20;109.6;19.10;76988;2835.544;-1758.449;1;151;-70;-59.7;43.2;43.4;7;7.2;26.7;0.0;
24/02/2025 09:36:09;100;0;140.02;-4;-19.87;-8.20;112.0;19.10;76976;2835.543;-1758.447;1;151;-70;-59.7;43.2;43.4;2;1.8;26.7;0.0;
24/02/2025 09:36:29;100;0;146.06;-4;-19.45;-10.79;114.4;19.10;76963;2835.541;-1758.445;1;151;-70;-61.3;43.2;43.3;10;9.9;26.7;0.0;
24/02/2025 09:36:49;100;0;151.95;-4;-19.71;-6.41;116.7;19.00;76951;2835.540;-1758.444;1;151;-70;-59.7;43.2;43.4;14;14.0;26.7;0.0;
24/02/2025 09:37:09;100;0;156.29;-4;-20.05;-4.36;119.0;19.00;76932;2835.538;-1758.443;1;151;-70;-59.7;43.2;43.4;14;14.4;26.7;0.0;
24/02/2025 09:37:29;100;0;159.43;-4;-20.30;-4.36;121.4;19.00;76927;2835.537;-1758.442;1;151;-70;-61.3;43.2;43.4;14;14.4;26.7;0.0;
24/02/2025 09:37:49;100;0;159.67;-4;-20.22;-4.37;123.6;19.00;76923;2835.535;-1758.441;1;151;-70;-59.7;43.2;43.4;14;14.4;26.7;0.0;
24/02/2025 09:38:09;100;0;159.28;-4;-20.10;-4.40;126.0;18.90;76917;2835.534;-1758.440;1;151;-70;-59.7;43.2;43.6;14;14.4;26.7;0.0;
24/02/2025 09:38:29;100;0;160.49;-4;-20.11;-4.39;128.4;18.90;76916;2835.532;-1758.439;1;151;-70;-59.7;43.2;43.4;14;14.4;26.7;0.0;
24/02/2025 09:38:49;100;0;159.75;-4;-20.08;-4.45;130.8;18.90;76909;2835.531;-1758.438;1;151;-70;-59.7;43.2;43.4;14;14.4;26.7;0.0;
24/02/2025 09:39:09;100;0;161.05;-4;-19.60;-4.40;133.0;18.90;76895;2835.529;-1758.438;1;151;-70;-61.3;43.2;43.4;14;14.4;26.7;0.0;
24/02/2025 09:39:29;100;0;159.96;-4;-20.08;-4.44;135.3;18.80;76872;2835.528;-1758.437;1;151;-70;-61.3;43.2;43.4;14;14.4;26.7;0.0;
24/02/2025 09:39:49;100;0;161.21;-4;-20.22;-4.41;137.8;18.80;76867;2835.526;-1758.436;1;151;-70;-61.3;43.2;43.4;14;14.4;26.7;0.0;
24/02/2025 09:40:09;100;0;162.43;-4;-20.16;-4.41;140.2;18.80;76854;2835.524;-1758.435;1;151;-70;-61.3;43.2;43.4;14;14.4;26.7;0.0;
24/02/2025 09:40:29;100;0;165.69;-4;-20.06;-4.32;142.8;18.80;76840;2835.522;-1758.435;1;151;-70;-61.3;43.2;43.6;17;17.1;26.7;0.0;
24/02/2025 09:40:49;100;0;166.65;-4;-20.24;-2.94;145.4;18.70;76835;2835.520;-1758.434;1;151;-70;-61.3;43.2;43.4;17;17.1;26.7;0.0;
24/02/2025 09:41:09;100;0;164.45;-4;-20.30;-2.90;148.0;18.70;76829;2835.518;-1758.433;1;151;-70;-59.7;43.2;43.4;17;17.1;26.7;0.0;
24/02/2025 09:41:29;100;0;161.08;-4;-20.03;-2.86;150.7;18.70;76821;2835.516;-1758.433;1;151;-70;-61.3;43.2;43.4;15;14.9;26.7;0.0;
24/02/2025 09:41:49;100;0;158.62;-4;-19.71;-4.45;153.3;18.60;76806;2835.514;-1758.431;1;151;-70;-59.7;43.2;43.4;15;14.4;26.7;0.0;
24/02/2025 09:42:09;100;0;155.80;-4;-19.76;-4.45;155.7;18.60;76798;2835.513;-1758.430;1;151;-70;-61.3;43.2;43.4;15;14.4;26.7;0.0;
24/02/2025 09:42:29;100;0;152.58;-4;-19.89;-4.45;158.2;18.60;76786;2835.511;-1758.429;1;151;-70;-59.7;43.2;43.4;15;14.4;26.7;0.0;
24/02/2025 09:42:49;100;0;150.69;-4;-19.85;-4.43;160.8;18.50;76776;2835.509;-1758.427;1;151;-70;-61.3;43.2;43.4;15;14.4;26.7;0.0;
24/02/2025 09:43:09;100;0;148.45;-4;-19.88;-4.39;163.3;18.50;76771;2835.508;-1758.426;1;151;-70;-61.3;43.2;43.4;13;12.6;26.7;0.0;
24/02/2025 09:43:29;100;0;147.87;-4;-19.57;-5.47;165.9;18.50;76768;2835.506;-1758.424;1;151;-70;-59.7;43.2;43.4;13;12.2;26.7;0.0;
24/02/2025 09:43:49;100;0;150.37;-4;-19.60;-5.44;168.5;18.40;76755;2835.505;-1758.423;1;151;-70;-59.7;43.2;43.4;13;12.6;26.7;0.0;
24/02/2025 09:44:09;100;0;153.28;-4;-19.73;-5.47;171.1;18.40;76739;2835.503;-1758.421;1;151;-70;-59.7;43.2;43.4;15;14.9;26.7;0.0;
24/02/2025 09:44:29;100;0;154.58;-4;-19.82;-3.87;173.9;18.40;76735;2835.501;-1758.420;1;151;-70;-59.7;43.2;43.4;15;15.3;26.7;0.0;
24/02/2025 09:44:49;100;0;151.87;-4;-19.85;-3.86;176.5;18.30;76725;2835.499;-1758.418;1;151;-70;-61.3;43.2;43.4;15;15.3;26.7;0.0;
24/02/2025 09:45:09;100;0;150.26;-4;-19.50;-3.91;179.3;18.30;76714;2835.498;-1758.417;1;151;-70;-59.7;43.2;43.4;15;15.3;26.7;0.0;
24/02/2025 09:45:29;100;0;151.71;-4;-19.51;-3.94;181.9;18.30;76717;2835.496;-1758.415;1;151;-70;-61.3;43.2;43.4;15;15.3;26.7;0.0;
24/02/2025 09:45:49;100;0;150.50;-4;-19.77;-3.92;184.6;18.20;76700;2835.494;-1758.414;1;151;-70;-61.3;43.2;43.4;15;15.3;26.7;0.0;
24/02/2025 09:46:09;100;0;148.42;-4;-20.13;-3.87;187.4;18.20;76688;2835.492;-1758.412;1;151;-70;-62.9;43.2;43.4;13;13.1;26.7;0.0;
24/02/2025 09:46:29;100;0;149.06;-4;-19.88;-5.26;190.4;18.10;76678;2835.490;-1758.410;1;151;-70;-61.3;43.2;43.4;13;12.6;26.7;0.0;
24/02/2025 09:46:49;100;0;150.49;-4;-19.80;-5.36;193.4;18.10;76671;2835.488;-1758.408;1;151;-70;-61.3;43.2;43.4;13;12.6;26.7;0.0;
24/02/2025 09:47:09;100;0;153.44;-4;-19.66;-5.42;196.4;18.10;76664;2835.486;-1758.406;1;151;-70;-59.7;43.2;43.4;15;14.9;26.7;0.0;
24/02/2025 09:47:29;100;0;153.79;-4;-20.33;-3.92;199.3;18.00;76663;2835.484;-1758.405;1;151;-70;-61.3;43.2;43.4;15;15.3;26.7;0.0;
24/02/2025 09:47:49;100;0;157.26;-4;-19.55;-4.00;202.3;18.00;76661;2835.482;-1758.404;1;151;-70;-59.7;43.2;43.4;15;15.3;26.7;0.0;
24/02/2025 09:48:09;100;0;160.80;-4;-19.81;-4.19;205.1;18.00;76655;2835.479;-1758.403;1;151;-70;-59.7;43.2;43.4;15;15.3;26.7;0.0;
24/02/2025 09:48:29;100;0;163.60;-4;-19.61;-4.18;207.8;17.90;76640;2835.477;-1758.402;1;151;-70;-61.3;43.2;43.4;15;15.3;26.7;0.0;
24/02/2025 09:48:49;100;0;161.14;-4;-19.70;-3.98;210.6;17.90;76631;2835.475;-1758.401;1;151;-70;-61.3;43.2;43.4;15;15.3;26.7;0.0;
24/02/2025 09:49:09;100;0;157.95;-4;-19.85;-4.01;213.1;17.90;76619;2835.473;-1758.400;1;151;-70;-62.9;43.2;43.4;15;15.3;26.7;0.0;
24/02/2025 09:49:29;100;0;155.66;-4;-19.71;-3.98;215.8;17.80;76617;2835.472;-1758.398;1;151;-70;-61.3;43.2;43.4;15;15.3;26.7;0.0;
24/02/2025 09:49:49;100;0;154.69;-4;-19.76;-3.94;218.5;17.80;76611;2835.470;-1758.397;1;151;-70;-61.3;43.2;43.4;15;15.3;26.7;0.0;
24/02/2025 09:50:09;100;0;152.04;-4;-19.49;-3.96;221.2;17.80;76596;2835.468;-1758.395;1;151;-70;-61.3;43.2;43.4;15;15.3;26.7;0.0;
24/02/2025 09:50:30;100;0;150.97;-4;-19.53;-3.96;223.9;17.70;76595;2835.466;-1758.394;1;151;-70;-59.7;43.2;43.4;15;15.3;26.7;0.0;
24/02/2025 09:50:50;100;0;150.79;-4;-19.72;-3.99;226.6;17.70;76586;2835.464;-1758.392;1;151;-70;-59.7;43.2;43.4;15;15.3;26.7;0.0;
24/02/2025 09:51:10;100;0;151.91;-4;-19.70;-3.83;229.3;17.60;76579;2835.462;-1758.391;1;151;-70;-59.7;43.2;43.4;15;15.3;26.7;0.0;
24/02/2025 09:51:30;100;0;155.55;-4;-19.63;-3.96;232.0;17.60;76572;2835.461;-1758.389;1;151;-70;-59.7;43.2;43.4;15;15.3;26.7;0.0;
24/02/2025 09:51:50;100;0;157.39;-4;-19.75;-3.98;234.7;17.60;76554;2835.459;-1758.388;1;151;-70;-59.7;43.2;43.4;15;15.3;26.7;0.0;
24/02/2025 09:52:10;100;0;159.25;-4;-19.69;-3.97;237.3;17.50;76547;2835.457;-1758.387;1;151;-70;-62.9;43.2;43.4;15;15.3;26.7;0.0;
24/02/2025 09:52:30;100;0;159.91;-4;-19.60;-3.92;240.1;17.50;76552;2835.455;-1758.386;1;151;-70;-61.3;43.2;43.4;15;15.3;26.7;0.0;
24/02/2025 09:52:50;100;0;159.07;-4;-19.56;-3.92;242.8;17.50;76539;2835.453;-1758.385;1;151;-70;-61.3;43.2;43.4;15;15.3;26.7;0.0;
24/02/2025 09:53:10;100;0;160.09;-4;-19.43;-3.98;245.3;17.40;76544;2835.451;-1758.384;1;151;-70;-61.3;43.2;43.4;15;15.3;26.7;0.0;
24/02/2025 09:53:30;100;0;160.95;-4;-19.61;-3.99;248.0;17.40;76529;2835.449;-1758.383;1;151;-70;-61.3;43.2;43.4;15;15.3;26.7;0.0;
24/02/2025 09:53:50;100;0;159.35;-4;-19.61;-3.97;250.7;17.30;76518;2835.447;-1758.382;1;151;-70;-59.7;43.2;43.4;15;15.3;26.7;0.0;
24/02/2025 09:54:10;100;0;156.62;-4;-19.68;-3.94;253.3;17.30;76518;2835.445;-1758.381;1;151;-70;-61.3;43.2;43.4;15;15.3;26.7;0.0;
24/02/2025 09:54:30;100;0;153.34;-4;-19.92;-3.99;256.0;17.30;76506;2835.443;-1758.379;1;151;-70;-61.3;43.2;43.4;15;15.3;26.7;0.0;
24/02/2025 09:54:50;100;0;155.03;-4;-19.85;-3.93;258.7;17.20;76507;2835.441;-1758.378;1;151;-70;-59.7;43.2;43.4;15;15.3;26.7;0.0;
24/02/2025 09:55:10;100;0;156.23;-4;-19.56;-3.99;261.5;17.20;76483;2835.439;-1758.377;1;151;-70;-59.7;43.2;43.4;15;15.3;26.7;0.0;
24/02/2025 09:55:30;100;0;157.88;-4;-19.48;-3.92;264.2;17.20;76476;2835.437;-1758.376;1;151;-70;-59.7;43.2;43.4;15;15.3;26.7;0.0;
24/02/2025 09:55:50;100;0;159.52;-4;-19.45;-3.96;266.9;17.10;76475;2835.435;-1758.375;1;151;-70;-59.7;43.2;43.4;15;15.3;26.7;0.0;
24/02/2025 09:56:10;100;0;166.82;-4;-19.39;-3.96;269.5;17.10;76468;2835.433;-1758.374;1;151;-70;-61.3;43.2;43.4;18;18.5;26.7;0.0;
24/02/2025 09:56:30;100;0;169.82;-4;-19.27;-2.34;272.1;17.10;76457;2835.431;-1758.374;1;151;-70;-61.3;43.2;43.4;21;21.2;26.7;0.0;
24/02/2025 09:56:50;100;0;169.65;-4;-19.56;-0.85;274.6;17.00;76441;2835.429;-1758.373;1;151;-70;-59.7;43.2;43.4;21;21.7;26.7;0.0;
24/02/2025 09:57:10;100;0;166.00;-4;-19.35;-0.86;277.2;17.00;76439;2835.427;-1758.373;1;151;-70;-61.3;43.2;43.4;17;17.1;26.7;0.0;
24/02/2025 09:57:30;100;0;163.19;-4;-19.42;-3.40;279.7;16.90;76419;2835.425;-1758.372;1;151;-70;-61.3;43.2;43.4;17;16.7;26.7;0.0;
24/02/2025 09:57:50;100;0;160.62;-4;-19.50;-3.40;282.4;16.90;76410;2835.423;-1758.371;1;151;-70;-61.3;43.2;43.4;15;14.9;26.7;0.0;
24/02/2025 09:58:10;100;0;160.98;-4;-19.54;-4.39;285.1;16.90;76406;2835.421;-1758.370;1;151;-70;-59.7;43.2;43.4;15;14.4;26.7;0.0;
24/02/2025 09:58:30;100;0;160.22;-4;-19.45;-4.41;287.7;16.80;76394;2835.419;-1758.369;1;151;-70;-59.7;43.2;43.4;15;14.4;26.7;0.0;
24/02/2025 09:58:50;100;0;157.96;-4;-19.45;-4.47;290.5;16.80;76390;2835.416;-1758.368;1;151;-70;-61.3;43.2;43.4;15;14.4;26.7;0.0;
24/02/2025 09:59:10;100;0;156.18;-4;-19.23;-4.44;293.1;16.80;76392;2835.415;-1758.366;1;151;-70;-61.3;43.2;43.4;15;14.4;26.7;0.0;
24/02/2025 09:59:30;100;0;154.51;-4;-19.27;-4.59;295.8;16.70;76379;2835.413;-1758.365;1;151;-70;-59.7;43.2;43.4;15;14.4;26.7;0.0;
24/02/2025 09:59:50;100;0;154.86;-4;-18.89;-4.37;298.3;16.70;76386;2835.411;-1758.364;1;151;-70;-59.7;43.5;43.6;15;14.4;26.7;0.0;
24/02/2025 10:00:10;100;0;155.04;-4;-19.79;-4.39;300.9;16.70;76372;2835.409;-1758.362;1;151;-70;-61.3;43.5;43.9;15;14.4;26.7;0.0;
24/02/2025 10:00:30;100;0;155.79;-4;-20.20;-4.38;303.6;16.60;76364;2835.407;-1758.361;1;151;-70;-61.3;43.5;43.9;15;14.4;26.7;0.0;
24/02/2025 10:00:50;100;0;154.24;-4;-19.61;-4.34;306.5;16.60;76359;2835.405;-1758.360;1;151;-70;-62.9;43.5;43.9;15;14.4;26.7;0.0;
24/02/2025 10:01:10;100;0;152.08;-4;-19.84;-4.46;309.1;16.60;76361;2835.403;-1758.358;1;151;-70;-61.3;43.5;43.9;15;14.4;26.7;0.0;
24/02/2025 10:01:30;100;0;148.55;-4;-20.30;-4.50;311.8;16.50;76362;2835.402;-1758.356;1;151;-70;-61.3;43.5;43.9;13;13.1;26.7;0.0;
24/02/2025 10:01:50;100;0;149.18;-4;-19.83;-5.16;314.5;16.50;76342;2835.400;-1758.355;1;151;-70;-61.3;43.5;43.9;13;13.1;26.7;0.0;
24/02/2025 10:02:10;100;0;150.64;-4;-19.96;-5.21;317.2;16.50;76354;2835.398;-1758.353;1;151;-70;-61.3;43.5;43.9;13;13.1;26.7;0.0;
24/02/2025 10:02:30;100;0;150.99;-4;-20.07;-5.18;319.9;16.40;76336;2835.396;-1758.352;1;151;-70;-59.7;43.5;43.7;13;13.1;26.7;0.0;
24/02/2025 10:02:50;100;0;151.06;-4;-20.06;-5.21;322.6;16.40;76330;2835.395;-1758.350;1;151;-70;-59.7;43.5;43.7;13;13.1;26.6;0.0;
24/02/2025 10:03:10;100;0;149.82;-4;-19.81;-5.20;325.3;16.40;76323;2835.393;-1758.348;1;151;-70;-61.3;43.5;43.9;13;13.1;26.7;0.0;
24/02/2025 10:03:30;100;0;148.62;-4;-20.00;-5.29;328.0;16.30;76319;2835.391;-1758.347;1;151;-70;-59.7;43.5;43.9;13;13.1;26.7;0.0;
24/02/2025 10:03:50;100;0;148.03;-4;-20.14;-5.18;330.6;16.30;76314;2835.390;-1758.345;1;151;-70;-61.3;43.5;43.7;13;13.1;26.7;0.0;
24/02/2025 10:04:10;100;0;149.79;-4;-20.07;-5.19;333.4;16.30;76313;2835.388;-1758.343;1;151;-70;-59.7;43.5;43.9;13;13.1;26.7;0.0;
24/02/2025 10:04:30;100;0;150.79;-4;-20.30;-5.21;336.1;16.20;76303;2835.386;-1758.342;1;151;-70;-61.3;43.5;43.9;13;13.1;26.7;0.0;
24/02/2025 10:04:50;100;0;152.05;-4;-20.08;-5.15;338.9;16.20;76293;2835.384;-1758.340;1;151;-70;-59.7;43.5;43.9;13;13.1;26.7;0.0;
24/02/2025 10:05:10;100;0;149.32;-4;-20.16;-5.09;341.7;16.20;76295;2835.382;-1758.338;1;151;-70;-61.3;43.5;43.9;13;12.6;26.7;0.0;
24/02/2025 10:05:30;100;0;146.71;-4;-20.43;-5.20;344.3;16.10;76285;2835.381;-1758.337;1;151;-70;-61.3;43.5;43.9;11;10.8;26.7;0.0;
24/02/2025 10:05:50;100;0;146.54;-4;-19.93;-6.46;347.0;16.10;76270;2835.379;-1758.335;1;151;-70;-59.7;43.5;43.9;11;10.4;26.7;0.0;
24/02/2025 10:06:10;100;0;146.53;-4;-20.06;-6.46;349.7;16.10;76263;2835.377;-1758.333;1;151;-70;-59.7;43.5;43.9;11;10.4;26.7;0.0;
24/02/2025 10:06:30;100;0;146.48;-4;-20.00;-6.44;352.3;16.00;76257;2835.376;-1758.331;1;151;-70;-61.3;43.5;43.7;11;10.4;26.7;0.0;
24/02/2025 10:06:50;100;0;147.66;-4;-19.88;-6.47;354.9;16.00;76255;2835.374;-1758.329;1;151;-70;-59.7;43.5;43.9;11;10.4;26.7;0.0;
24/02/2025 10:07:10;100;0;149.38;-4;-20.05;-6.42;357.5;16.00;76256;2835.373;-1758.328;1;151;-70;-59.7;43.5;43.7;13;13.1;26.7;0.0;
24/02/2025 10:07:30;100;0;151.74;-4;-20.12;-4.92;360.1;16.00;76249;2835.371;-1758.326;1;151;-70;-59.7;43.5;43.9;13;13.5;26.7;0.0;
24/02/2025 10:07:50;100;0;149.76;-4;-20.16;-4.97;362.6;15.90;76246;2835.370;-1758.325;1;151;-70;-61.3;43.5;43.9;13;13.5;26.7;0.0;
24/02/2025 10:08:10;100;0;146.70;-4;-19.88;-4.92;365.1;15.90;76240;2835.368;-1758.323;1;151;-70;-61.3;43.5;43.7;11;10.8;26.7;0.0;
24/02/2025 10:08:30;100;0;145.73;-4;-19.72;-6.38;367.4;15.90;76237;2835.367;-1758.322;1;151;-70;-61.3;43.5;43.7;9;9.0;26.7;0.0;
24/02/2025 10:08:50;100;0;145.80;-4;-19.69;-7.29;369.8;15.80;76224;2835.366;-1758.320;1;151;-70;-59.7;43.5;43.9;9;8.6;26.7;0.0;
24/02/2025 10:09:10;100;0;145.39;-4;-19.62;-7.36;372.0;15.80;76216;2835.364;-1758.318;1;151;-70;-59.7;43.5;43.9;9;8.6;26.7;0.0;
24/02/2025 10:09:30;100;0;149.17;-4;-19.41;-7.35;374.3;15.80;76212;2835.363;-1758.317;1;151;-70;-59.7;43.5;43.9;12;12.2;26.7;0.0;
24/02/2025 10:09:50;100;0;150.21;-4;-19.62;-5.36;376.6;15.80;76205;2835.362;-1758.316;1;151;-70;-61.3;43.5;43.7;12;12.6;26.7;0.0;
24/02/2025 10:10:10;100;0;148.42;-4;-19.81;-5.34;378.7;15.70;76198;2835.361;-1758.314;1;151;-70;-59.7;43.5;43.9;12;12.6;26.7;0.0;
24/02/2025 10:10:30;100;0;150.27;-4;-19.99;-5.23;380.8;15.70;76188;2835.360;-1758.313;1;151;-70;-59.7;43.5;43.9;12;12.6;26.7;0.0;
24/02/2025 10:10:50;100;0;155.53;-4;-20.08;-5.33;383.1;15.60;76176;2835.358;-1758.312;1;151;-70;-61.3;43.5;43.9;14;14.0;26.7;0.0;
24/02/2025 10:11:10;100;0;160.55;-4;-20.15;-4.28;385.4;15.60;76166;2835.357;-1758.311;1;151;-70;-59.7;43.5;43.7;14;14.4;26.7;0.0;
24/02/2025 10:11:30;100;0;161.58;-4;-19.40;-4.08;387.7;15.60;76163;2835.355;-1758.311;1;151;-70;-61.3;43.5;43.9;14;14.4;26.6;0.0;
24/02/2025 10:11:50;100;0;166.42;-4;-20.10;-4.19;389.8;15.60;76153;2835.354;-1758.310;1;151;-70;-61.3;43.5;43.9;14;14.4;26.7;0.0;
24/02/2025 10:12:10;100;0;169.10;-4;-19.99;-4.26;392.0;15.50;76155;2835.352;-1758.310;1;151;-70;-59.7;43.5;43.7;18;18.1;26.7;0.0;
24/02/2025 10:12:30;100;0;173.00;-4;-20.13;-2.24;394.2;15.50;76140;2835.351;-1758.310;1;151;-70;-61.3;43.5;43.9;23;23.0;26.7;0.0;
24/02/2025 10:12:50;100;0;173.75;-4;-19.91;0.05;396.3;15.50;76135;2835.349;-1758.310;1;151;-70;-61.3;43.5;43.9;23;23.5;26.7;0.0;
24/02/2025 10:13:10;100;0;170.67;-4;-20.01;0.00;398.4;15.40;76134;2835.348;-1758.310;1;151;-70;-61.3;43.5;43.9;19;18.5;26.7;0.0;
24/02/2025 10:13:30;100;0;168.44;-4;-19.95;-2.51;400.3;15.40;76135;2835.347;-1758.309;1;151;-90;-91.9;43.5;43.9;17;17.1;26.7;0.0;
24/02/2025 10:13:50;100;0;167.47;-4;-19.12;-3.21;402.4;15.40;76199;2835.345;-1758.309;1;151;-90;-93.5;43.5;43.9;17;16.7;26.7;0.0;
24/02/2025 10:14:10;100;0;165.60;-4;-19.09;-3.22;404.6;15.30;76189;2835.344;-1758.309;1;151;-90;-91.9;43.5;43.9;17;16.7;26.7;0.0;
24/02/2025 10:14:30;100;0;165.24;-4;-19.30;-3.10;406.6;15.30;76188;2835.342;-1758.308;1;151;-90;-95.2;43.5;43.9;15;14.9;26.7;0.0;
24/02/2025 10:14:50;100;0;163.87;-4;-19.13;-4.17;408.7;15.30;76187;2835.341;-1758.308;1;151;-90;-96.8;43.5;43.9;15;14.4;26.7;0.0;
24/02/2025 10:15:10;100;0;161.68;-4;-19.37;-4.15;410.7;15.30;76185;2835.340;-1758.307;1;151;-90;-96.8;43.5;43.9;15;14.9;26.7;0.0;
24/02/2025 10:15:30;100;0;158.29;-4;-19.30;-4.22;412.8;15.20;76179;2835.338;-1758.306;1;151;-90;-98.4;43.5;43.7;15;14.9;26.7;0.0;
24/02/2025 10:15:50;100;0;154.54;-4;-19.37;-4.19;414.8;15.20;76177;2835.337;-1758.305;1;151;-110;-109.7;43.5;43.9;15;14.9;26.7;0.0;
24/02/2025 10:16:10;100;0;151.46;-4;-19.13;-4.11;416.8;15.20;76198;2835.336;-1758.304;1;151;-110;-111.3;43.5;43.9;13;13.1;26.7;0.0;
24/02/2025 10:16:30;100;0;150.17;-4;-19.35;-5.13;418.8;15.10;76189;2835.335;-1758.303;1;151;-130;-132.3;43.5;43.9;13;12.6;26.7;0.0;
24/02/2025 10:16:50;100;0;153.44;-4;-19.00;-5.07;421.0;15.10;76229;2835.334;-1758.302;1;151;-130;-132.3;43.5;43.9;13;12.6;26.7;0.0;
24/02/2025 10:17:10;100;0;156.56;-4;-19.10;-5.01;423.2;15.10;76228;2835.332;-1758.301;1;151;-130;-132.3;43.5;43.9;13;12.6;26.7;0.0;
24/02/2025 10:17:30;100;0;161.93;-4;-19.14;-4.95;425.6;15.00;76222;2835.331;-1758.300;1;151;-130;-133.9;43.5;43.9;15;14.9;26.7;0.0;
24/02/2025 10:17:50;100;0;162.64;-4;-19.22;-3.61;427.9;15.00;76215;2835.329;-1758.299;1;151;-130;-137.1;43.5;43.9;15;15.3;26.7;0.0;
24/02/2025 10:18:10;100;0;163.70;-4;-19.22;-3.66;430.2;15.00;76215;2835.327;-1758.299;1;151;-130;-133.9;43.5;43.7;15;15.3;26.7;0.0;
24/02/2025 10:18:30;100;0;165.73;-4;-19.37;-3.88;432.6;15.00;76198;2835.325;-1758.298;1;151;-130;-133.9;43.5;43.9;17;17.1;26.7;0.0;
24/02/2025 10:18:50;100;0;167.24;-4;-19.58;-2.49;435.0;15.00;76196;2835.324;-1758.297;1;151;-130;-137.1;43.5;43.9;17;17.6;26.7;0.0;
24/02/2025 10:19:10;100;0;167.86;-4;-19.63;-2.57;437.3;14.90;76203;2835.322;-1758.297;1;151;-130;-135.5;43.5;43.9;17;17.6;26.7;0.0;
24/02/2025 10:19:30;100;0;166.24;-4;-19.50;-2.61;439.7;14.90;76199;2835.320;-1758.297;1;151;-130;-135.5;43.5;43.9;17;17.6;26.7;0.0;
24/02/2025 10:19:50;100;0;164.20;-4;-19.48;-2.55;442.0;14.90;76189;2835.318;-1758.296;1;151;-130;-135.5;43.5;43.9;15;14.9;26.7;0.0;
24/02/2025 10:20:10;100;0;162.25;-4;-19.01;-3.99;444.4;14.80;76185;2835.317;-1758.295;1;151;-130;-133.9;43.5;43.9;15;14.9;26.7;0.0;
24/02/2025 10:20:30;100;0;162.45;-4;-18.83;-4.01;446.6;14.80;76173;2835.315;-1758.295;1;151;-130;-133.9;43.9;43.9;15;14.9;26.7;0.0;
24/02/2025 10:20:50;100;0;163.25;-4;-18.84;-4.05;448.8;14.80;76177;2835.314;-1758.294;1;151;-130;-135.5;44.2;44.2;15;14.9;26.7;0.0;
24/02/2025 10:21:10;100;0;164.04;-4;-20.12;-3.97;451.2;14.70;76165;2835.312;-1758.293;1;151;-130;-133.9;44.2;44.3;15;14.9;26.7;0.0;
24/02/2025 10:21:30;100;0;163.29;-4;-20.19;-3.77;453.8;14.70;76160;2835.310;-1758.293;1;151;-130;-133.9;44.2;44.3;15;14.9;26.7;0.0;
24/02/2025 10:21:50;100;0;161.20;-4;-20.60;-3.93;456.3;14.70;76158;2835.308;-1758.292;1;151;-130;-135.5;44.2;44.3;15;14.9;26.7;0.0;
24/02/2025 10:22:10;100;0;159.61;-4;-20.35;-3.91;458.9;14.70;76159;2835.306;-1758.291;1;151;-130;-133.9;44.2;44.3;15;14.9;26.7;0.0;
24/02/2025 10:22:30;100;0;158.79;-4;-20.35;-3.93;461.5;14.60;76144;2835.305;-1758.290;1;151;-130;-133.9;44.2;44.5;15;14.9;26.7;0.0;
24/02/2025 10:22:50;100;0;158.87;-4;-20.11;-3.97;464.0;14.60;76144;2835.303;-1758.289;1;151;-130;-135.5;44.2;44.3;15;14.9;26.7;0.0;
24/02/2025 10:23:10;100;0;158.96;-4;-19.94;-4.03;466.5;14.60;76138;2835.301;-1758.288;1;151;-130;-135.5;44.2;44.5;15;14.9;26.7;0.0;
24/02/2025 10:23:30;100;0;158.90;-4;-19.86;-4.03;468.9;14.50;76139;2835.299;-1758.287;1;151;-130;-133.9;44.2;44.5;15;14.9;26.7;0.0;
24/02/2025 10:23:51;100;0;157.17;-4;-19.88;-4.02;471.4;14.50;76133;2835.298;-1758.286;1;151;-130;-135.5;44.2;44.3;15;14.9;26.7;0.0;
24/02/2025 10:24:11;100;0;156.07;-4;-20.00;-3.85;473.9;14.50;76126;2835.296;-1758.285;1;151;-130;-133.9;44.2;44.5;15;14.9;26.7;0.0;
24/02/2025 10:24:31;100;0;152.82;-4;-19.85;-3.96;476.5;14.50;76122;2835.294;-1758.283;1;151;-130;-135.5;44.2;44.3;15;14.9;26.7;0.0;
24/02/2025 10:24:51;100;0;149.64;-4;-20.22;-3.98;479.0;14.50;76117;2835.293;-1758.282;1;151;-130;-133.9;44.2;44.3;13;13.1;26.6;0.0;
24/02/2025 10:25:11;100;0;147.32;-4;-20.33;-4.89;481.7;14.40;76107;2835.291;-1758.280;1;151;-130;-133.9;44.2;44.5;13;12.6;26.7;0.0;
24/02/2025 10:25:31;100;0;148.58;-4;-19.87;-4.98;484.3;14.40;76103;2835.290;-1758.278;1;151;-130;-133.9;44.2;44.3;13;13.1;26.7;0.0;
24/02/2025 10:25:51;100;0;147.63;-4;-19.86;-4.97;486.9;14.40;76096;2835.288;-1758.276;1;151;-130;-133.9;44.2;44.5;13;13.1;26.7;0.0;
24/02/2025 10:26:11;100;0;146.24;-4;-19.96;-4.94;489.6;14.40;76089;2835.286;-1758.275;1;151;-130;-135.5;44.2;44.5;11;10.8;26.7;0.0;
24/02/2025 10:26:31;100;0;145.35;-4;-19.82;-5.90;492.2;14.30;76087;2835.285;-1758.273;1;151;-130;-135.5;44.2;44.5;11;10.8;26.7;0.0;
24/02/2025 10:26:51;100;0;145.19;-4;-20.03;-5.94;494.7;14.30;76072;2835.284;-1758.271;1;151;-130;-133.9;44.2;44.3;11;10.8;26.7;0.0;
24/02/2025 10:27:11;100;0;146.11;-4;-20.15;-5.88;497.4;14.30;76076;2835.282;-1758.269;1;151;-130;-133.9;44.2;44.3;11;10.8;26.7;0.0;
24/02/2025 10:27:31;100;0;146.16;-4;-19.97;-5.95;500.1;14.30;76074;2835.280;-1758.267;1;151;-130;-133.9;44.2;44.5;11;10.8;26.7;0.0;
24/02/2025 10:27:51;100;0;144.87;-4;-19.97;-6.00;502.8;14.20;76062;2835.279;-1758.265;1;151;-130;-133.9;44.2;44.5;9;9.0;26.7;0.0;
24/02/2025 10:28:11;100;0;145.81;-4;-19.74;-6.89;505.5;14.20;76058;2835.277;-1758.263;1;151;-130;-133.9;44.2;44.5;9;8.6;26.7;0.0;
24/02/2025 10:28:31;100;0;145.68;-4;-20.00;-6.91;508.2;14.20;76059;2835.275;-1758.262;1;151;-130;-135.5;44.2;44.3;9;8.6;26.7;0.0;
24/02/2025 10:28:51;100;0;145.01;-4;-19.98;-6.89;510.9;14.20;76051;2835.274;-1758.260;1;151;-130;-135.5;44.2;44.5;9;9.0;26.7;0.0;
24/02/2025 10:29:11;100;0;145.11;-4;-19.74;-6.92;513.6;14.10;76052;2835.272;-1758.258;1;151;-130;-135.5;44.2;44.5;9;8.6;26.7;0.0;
24/02/2025 10:29:31;100;0;144.95;-4;-19.75;-6.89;516.3;14.10;76040;2835.271;-1758.256;1;151;-130;-135.5;44.2;44.5;9;8.6;26.7;0.0;
24/02/2025 10:29:51;100;0;146.09;-4;-19.51;-6.99;519.0;14.10;76036;2835.269;-1758.254;1;151;-130;-135.5;44.2;44.5;9;8.6;26.7;0.0;
24/02/2025 10:30:11;100;0;148.16;-4;-19.42;-6.95;521.6;14.10;76036;2835.267;-1758.252;1;151;-130;-133.9;44.2;44.5;12;12.2;26.7;0.0;
24/02/2025 10:30:31;100;0;146.49;-4;-19.48;-4.96;524.1;14.00;76016;2835.266;-1758.250;1;151;-130;-133.9;44.2;44.5;10;9.9;26.7;0.0;
24/02/2025 10:30:51;100;0;145.59;-4;-19.56;-6.57;526.8;14.00;76023;2835.264;-1758.249;1;151;-130;-133.9;44.2;44.3;10;9.5;26.7;0.0;
24/02/2025 10:31:11;100;0;144.91;-4;-19.60;-6.57;529.4;14.00;76013;2835.263;-1758.247;1;151;-130;-135.5;44.2;44.3;10;9.5;26.7;0.0;
24/02/2025 10:31:31;100;0;144.51;-4;-19.83;-6.63;532.1;14.00;76019;2835.261;-1758.245;1;151;-130;-133.9;44.2;44.5;8;8.1;26.7;0.0;
24/02/2025 10:31:51;100;0;145.39;-4;-19.53;-7.29;535.0;13.90;76004;2835.259;-1758.243;1;151;-130;-133.9;44.2;44.5;8;8.1;26.7;0.0;
24/02/2025 10:32:11;100;0;150.42;-4;-19.12;-7.32;537.8;13.90;75999;2835.258;-1758.241;1;151;-130;-135.5;44.2;44.5;13;13.1;26.7;0.0;
24/02/2025 10:32:31;100;0;156.81;-4;-19.60;-4.52;540.5;13.90;75996;2835.256;-1758.240;1;151;-130;-135.5;44.2;44.5;13;13.5;26.7;0.0;
24/02/2025 10:32:51;100;0;160.43;-4;-19.68;-4.57;543.4;13.90;75991;2835.253;-1758.239;1;151;-130;-133.9;44.2;44.5;13;13.5;26.7;0.0;
24/02/2025 10:33:11;100;0;162.61;-4;-19.69;-4.51;546.3;13.80;75977;2835.251;-1758.238;1;151;-130;-135.5;44.2;44.3;15;14.9;26.7;0.0;
24/02/2025 10:33:31;100;0;166.04;-4;-19.79;-3.54;549.2;13.80;75972;2835.249;-1758.237;1;151;-130;-133.9;44.2;44.5;17;17.1;26.7;0.0;
24/02/2025 10:33:51;100;0;166.63;-4;-19.93;-2.47;552.1;13.80;75970;2835.246;-1758.236;1;151;-130;-133.9;44.2;44.5;17;17.6;26.7;0.0;
24/02/2025 10:34:11;100;0;165.93;-4;-20.35;-2.33;555.1;13.80;75967;2835.244;-1758.236;1;151;-130;-135.5;44.2;44.5;17;17.6;26.7;0.0;
24/02/2025 10:34:31;100;0;164.94;-4;-20.19;-2.43;558.1;13.70;75958;2835.241;-1758.235;1;151;-130;-137.1;44.2;44.5;17;18.1;26.7;0.0;
24/02/2025 10:34:51;100;0;164.66;-4;-20.26;-2.46;561.1;13.70;75952;2835.239;-1758.234;1;151;-130;-133.9;44.2;44.5;17;17.6;26.7;0.0;
24/02/2025 10:35:11;100;0;163.97;-4;-19.75;-2.47;564.2;13.70;75953;2835.236;-1758.233;1;151;-130;-135.5;44.2;44.5;17;17.6;26.7;0.0;
24/02/2025 10:35:31;100;0;163.59;-4;-19.97;-2.47;567.2;13.70;75957;2835.234;-1758.232;1;151;-130;-137.1;44.2;44.5;17;18.1;26.7;0.0;
24/02/2025 10:35:51;100;0;164.20;-4;-19.83;-2.46;570.2;13.60;75947;2835.231;-1758.231;1;151;-130;-133.9;44.2;44.5;17;17.6;26.7;0.0;
24/02/2025 10:36:11;100;0;166.04;-4;-19.82;-2.45;573.2;13.60;75942;2835.229;-1758.230;1;151;-130;-135.5;44.2;44.5;17;18.1;26.7;0.0;
24/02/2025 10:36:31;100;0;166.66;-4;-19.62;-2.56;576.2;13.60;75944;2835.226;-1758.230;1;151;-130;-133.9;44.2;44.3;17;17.6;26.7;0.0;
24/02/2025 10:36:51;100;0;166.86;-4;-19.43;-2.50;579.2;13.60;75931;2835.224;-1758.229;1;151;-130;-133.9;44.2;44.5;17;17.6;26.7;0.0;
24/02/2025 10:37:11;100;0;167.02;-4;-19.44;-2.56;582.0;13.50;75927;2835.221;-1758.228;1;151;-130;-135.5;44.2;44.5;17;17.6;26.7;0.0;
24/02/2025 10:37:31;100;0;166.47;-4;-19.87;-2.52;585.0;13.50;75924;2835.219;-1758.228;1;151;-130;-133.9;44.2;44.5;17;17.6;26.7;0.0;
24/02/2025 10:37:51;100;0;161.03;-4;-19.78;-2.53;588.2;13.50;75913;2835.216;-1758.227;1;151;-130;-133.9;44.2;44.5;15;14.9;26.7;0.0;
24/02/2025 10:38:11;100;0;159.54;-4;-19.61;-4.13;591.4;13.50;75910;2835.214;-1758.225;1;151;-130;-135.5;44.2;44.3;15;14.9;26.7;0.0;
24/02/2025 10:38:31;100;0;158.32;-4;-19.61;-4.13;594.6;13.40;75906;2835.211;-1758.224;1;151;-130;-133.9;44.2;44.5;15;14.4;26.7;0.0;
24/02/2025 10:38:51;100;0;157.15;-4;-19.64;-4.11;597.8;13.40;75904;2835.209;-1758.222;1;151;-130;-133.9;44.2;44.5;15;14.9;26.7;0.0;
24/02/2025 10:39:11;100;0;156.27;-4;-19.65;-4.15;601.1;13.40;75902;2835.206;-1758.221;1;151;-130;-133.9;44.2;44.5;15;14.9;26.7;0.0;
24/02/2025 10:39:31;100;0;155.23;-4;-19.60;-4.12;604.3;13.40;75899;2835.204;-1758.219;1;151;-130;-135.5;44.2;44.5;15;14.4;26.7;0.0;
24/02/2025 10:39:51;100;0;154.32;-4;-19.60;-4.12;607.6;13.40;75889;2835.201;-1758.217;1;151;-130;-135.5;44.2;44.5;15;14.4;26.7;0.0;
24/02/2025 10:40:11;100;0;154.06;-4;-19.59;-4.11;610.9;13.30;75892;2835.199;-1758.216;1;151;-130;-135.5;44.2;44.5;15;14.9;26.7;0.0;
24/02/2025 10:40:31;100;0;153.61;-4;-19.57;-4.15;614.1;13.30;75898;2835.196;-1758.214;1;151;-130;-135.5;44.2;44.5;15;14.4;26.6;0.0;
24/02/2025 10:40:51;100;0;154.96;-4;-19.62;-4.06;617.5;13.30;75887;2835.193;-1758.212;1;151;-130;-133.9;44.2;44.5;15;14.9;26.7;0.0;
24/02/2025 10:41:11;100;0;154.13;-4;-19.70;-4.11;620.9;13.30;75887;2835.191;-1758.210;1;151;-130;-133.9;44.2;44.5;15;14.9;26.7;0.0;
24/02/2025 10:41:31;100;0;152.12;-4;-19.86;-4.18;624.2;13.30;75874;2835.188;-1758.208;1;151;-130;-133.9;44.2;44.5;15;14.4;26.6;0.0;
24/02/2025 10:41:51;100;0;150.63;-4;-19.50;-4.14;627.6;13.20;75868;2835.186;-1758.206;1;151;-130;-135.5;44.2;44.5;15;14.4;26.7;0.0;
24/02/2025 10:42:11;100;0;149.57;-4;-19.30;-4.11;631.0;13.20;75855;2835.183;-1758.204;1;151;-130;-135.5;44.2;44.5;13;13.1;26.7;0.0;
24/02/2025 10:42:31;100;0;148.49;-4;-19.26;-4.96;634.1;13.20;75872;2835.181;-1758.202;1;151;-130;-133.9;44.2;44.5;13;13.1;26.7;0.0;
24/02/2025 10:42:51;100;0;143.28;-4;-18.93;-5.02;637.4;13.20;75853;2835.178;-1758.199;1;151;-130;-135.5;44.6;44.5;8;8.1;26.7;0.0;
24/02/2025 10:43:11;100;0;142.85;-4;-19.14;-7.46;640.5;13.20;75849;2835.176;-1758.197;1;151;-130;-135.5;44.6;44.5;8;8.1;26.7;0.0;
24/02/2025 10:43:31;100;0;145.77;-4;-19.02;-7.34;643.8;13.10;75833;2835.174;-1758.194;1;151;-130;-133.9;44.6;44.5;11;10.8;26.6;0.0;
24/02/2025 10:43:51;100;0;149.05;-4;-19.24;-5.86;647.0;13.10;75819;2835.172;-1758.192;1;151;-130;-133.9;44.6;44.5;13;13.1;26.7;0.0;
24/02/2025 10:44:11;100;0;154.03;-4;-18.72;-4.59;650.1;13.10;75820;2835.169;-1758.190;1;151;-130;-135.5;44.9;44.9;13;13.5;26.7;0.0;
24/02/2025 10:44:31;100;0;156.22;-4;-20.58;-4.54;653.3;13.00;75810;2835.167;-1758.189;1;151;-130;-132.3;44.9;45.2;13;13.5;26.7;0.0;
24/02/2025 10:44:51;100;0;159.88;-4;-20.99;-4.77;656.6;13.00;75816;2835.164;-1758.187;1;151;-130;-135.5;44.9;45.2;13;13.5;26.7;0.0;
24/02/2025 10:45:11;100;0;163.79;-4;-20.99;-4.79;659.9;13.00;75812;2835.162;-1758.187;1;151;-130;-135.5;44.9;45.2;16;15.8;26.6;0.0;
24/02/2025 10:45:31;100;0;166.73;-4;-21.12;-3.06;663.3;13.00;75802;2835.159;-1758.186;1;151;-130;-133.9;44.9;45.2;18;18.1;26.6;0.0;
24/02/2025 10:45:51;100;0;165.23;-4;-21.36;-2.05;666.6;13.00;75794;2835.156;-1758.185;1;151;-130;-135.5;44.9;45.2;18;18.5;26.7;0.0;
24/02/2025 10:46:11;100;0;160.55;-4;-20.93;-2.05;669.9;12.90;75782;2835.153;-1758.184;1;151;-130;-135.5;44.9;45.2;15;14.9;26.7;0.0;
24/02/2025 10:46:31;100;0;156.67;-4;-20.93;-4.13;673.2;12.90;75772;2835.151;-1758.182;1;151;-130;-135.5;44.9;45.2;15;14.4;26.7;0.0;
24/02/2025 10:46:51;100;0;153.13;-4;-20.95;-4.16;676.5;12.90;75760;2835.149;-1758.180;1;151;-130;-133.9;44.9;45.2;15;14.4;26.7;0.0;
24/02/2025 10:47:11;100;0;151.13;-4;-21.09;-4.08;679.9;12.90;75763;2835.146;-1758.178;1;151;-130;-133.9;44.9;45.2;15;14.4;26.7;0.0;
24/02/2025 10:47:31;100;0;147.47;-4;-20.95;-4.11;683.0;12.80;75751;2835.144;-1758.176;1;151;-130;-133.9;44.9;45.2;12;12.2;26.7;0.0;
24/02/2025 10:47:51;100;0;143.86;-4;-20.73;-5.41;686.2;12.80;75749;2835.142;-1758.174;1;151;-130;-133.9;44.9;45.2;9;9.0;26.6;0.0;
24/02/2025 10:48:11;100;0;140.60;-4;-20.59;-6.91;689.4;12.80;75728;2835.140;-1758.172;1;151;-130;-135.5;44.9;45.2;5;5.0;26.7;0.0;
24/02/2025 10:48:31;100;0;140.36;-4;-20.39;-9.07;692.5;12.70;75731;2835.139;-1758.169;1;151;-130;-135.5;44.9;45.2;5;4.5;26.7;0.0;
24/02/2025 10:48:51;100;0;147.60;-4;-19.98;-9.09;695.4;12.70;75718;2835.137;-1758.167;1;151;-130;-135.5;44.9;45.2;12;12.2;26.7;0.0;
24/02/2025 10:49:11;100;0;150.65;-4;-20.68;-5.14;698.6;12.70;75706;2835.134;-1758.165;1;151;-130;-135.5;44.9;45.2;14;14.0;26.7;0.0;
24/02/2025 10:49:31;100;0;152.48;-4;-21.01;-4.06;701.6;12.70;75687;2835.132;-1758.164;1;151;-130;-135.5;44.9;45.2;14;14.4;26.6;0.0;
24/02/2025 10:49:51;100;0;155.56;-4;-20.82;-4.09;704.7;12.60;75689;2835.130;-1758.162;1;151;-130;-133.9;44.9;45.2;14;14.4;26.7;0.0;
24/02/2025 10:50:11;100;0;158.24;-4;-20.63;-4.09;707.8;12.60;75688;2835.128;-1758.161;1;151;-130;-135.5;44.9;45.2;14;14.4;26.7;0.0;
24/02/2025 10:50:31;100;0;162.32;-4;-20.63;-4.17;710.7;12.60;75676;2835.126;-1758.160;1;151;-130;-135.5;44.9;45.2;14;14.4;26.7;0.0;
24/02/2025 10:50:51;100;0;163.54;-4;-20.88;-4.17;713.8;12.50;75663;2835.123;-1758.159;1;151;-130;-133.9;44.9;45.2;16;15.8;26.7;0.0;
24/02/2025 10:51:11;100;0;163.53;-4;-20.94;-3.24;716.8;12.50;75667;2835.121;-1758.158;1;151;-130;-135.5;44.9;45.2;16;16.2;26.7;0.0;
24/02/2025 10:51:31;100;0;164.43;-4;-20.84;-3.25;719.8;12.50;75657;2835.119;-1758.157;1;151;-130;-135.5;44.9;45.2;16;16.2;26.7;0.0;
24/02/2025 10:51:51;100;0;166.89;-4;-20.76;-3.34;722.8;12.50;75649;2835.116;-1758.157;1;151;-130;-133.9;44.9;45.2;16;16.2;26.7;0.0;
24/02/2025 10:52:11;100;0;167.86;-4;-20.81;-3.32;725.8;12.50;75649;2835.114;-1758.156;1;151;-130;-135.5;44.9;45.2;19;19.0;26.7;0.0;
24/02/2025 10:52:31;100;0;165.00;-4;-21.24;-1.81;728.8;12.40;75640;2835.112;-1758.155;1;151;-130;-133.9;44.9;45.2;17;17.1;26.7;0.0;
24/02/2025 10:52:51;100;0;162.38;-4;-21.11;-2.95;731.8;12.40;75640;2835.109;-1758.154;1;151;-130;-135.5;44.9;45.4;15;14.9;26.7;0.0;
24/02/2025 10:53:11;100;0;160.91;-4;-21.00;-4.18;735.0;12.30;75619;2835.107;-1758.153;1;151;-130;-135.5;44.9;45.2;15;14.4;26.7;0.0;
24/02/2025 10:53:31;100;0;158.27;-4;-21.43;-4.19;738.2;12.30;75638;2835.105;-1758.152;1;151;-130;-133.9;44.9;45.2;15;14.4;26.7;0.0;
24/02/2025 10:53:51;100;0;156.42;-4;-20.93;-4.16;741.4;12.30;75617;2835.102;-1758.150;1;151;-130;-135.5;44.9;45.2;15;14.4;26.7;0.0;
24/02/2025 10:54:11;100;0;155.68;-4;-21.08;-4.18;744.6;12.30;75610;2835.100;-1758.149;1;151;-130;-135.5;44.9;45.2;15;14.4;26.7;0.0;
24/02/2025 10:54:31;100;0;151.90;-4;-21.06;-4.19;747.8;12.30;75603;2835.097;-1758.147;1;151;-130;-133.9;44.9;45.2;15;14.4;26.7;0.0;
24/02/2025 10:54:51;100;0;150.26;-4;-20.71;-4.27;751.0;12.20;75607;2835.095;-1758.145;1;151;-130;-135.5;44.9;45.2;15;14.4;26.7;0.0;
24/02/2025 10:55:11;100;0;150.79;-4;-20.85;-4.13;754.1;12.20;75590;2835.093;-1758.143;1;151;-130;-137.1;44.9;45.2;15;14.4;26.7;0.0;
24/02/2025 10:55:31;100;0;148.17;-4;-20.82;-4.22;757.4;12.20;75592;2835.091;-1758.141;1;151;-130;-133.9;44.9;45.2;13;13.1;26.7;0.0;
24/02/2025 10:55:51;100;0;146.38;-4;-20.87;-5.13;760.6;12.10;75587;2835.089;-1758.139;1;151;-130;-133.9;44.9;45.2;11;10.8;26.7;0.0;
24/02/2025 10:56:11;100;0;146.74;-4;-20.83;-6.07;763.8;12.10;75588;2835.087;-1758.137;1;151;-130;-133.9;44.9;45.2;11;10.8;26.7;0.0;
24/02/2025 10:56:31;100;0;144.74;-4;-20.75;-5.99;767.0;12.10;75587;2835.085;-1758.135;1;151;-130;-133.9;44.9;45.2;11;10.8;26.7;0.0;
24/02/2025 10:56:51;100;0;143.47;-4;-20.28;-6.16;770.2;12.10;75587;2835.083;-1758.132;1;151;-130;-135.5;44.9;45.2;8;8.1;26.7;0.0;
24/02/2025 10:57:11;100;0;142.88;-4;-20.27;-7.36;773.4;12.10;75575;2835.081;-1758.130;1;151;-130;-133.9;44.9;45.2;8;8.1;26.7;0.0;
24/02/2025 10:57:31;100;0;142.43;-4;-20.02;-7.55;776.4;12.00;75574;2835.079;-1758.127;1;151;-130;-135.5;44.9;45.2;8;8.1;26.7;0.0;
24/02/2025 10:57:51;100;0;144.49;-4;-20.02;-7.32;779.5;12.00;75565;2835.077;-1758.125;1;151;-130;-135.5;44.9;45.2;8;8.1;26.7;0.0;
24/02/2025 10:58:11;100;0;146.49;-4;-20.31;-7.24;782.6;12.00;75562;2835.075;-1758.123;1;151;-130;-133.9;44.9;45.2;11;10.8;26.7;0.0;
24/02/2025 10:58:32;100;0;147.29;-4;-20.40;-5.96;785.7;12.00;75555;2835.073;-1758.121;1;151;-130;-133.9;44.9;45.2;11;10.8;26.7;0.0;
24/02/2025 10:58:52;100;0;145.45;-4;-20.13;-5.92;788.8;11.90;75543;2835.071;-1758.119;1;151;-130;-133.9;44.9;45.4;11;10.8;26.6;0.0;
24/02/2025 10:59:12;100;0;146.37;-4;-20.50;-5.89;792.0;11.90;75532;2835.069;-1758.116;1;151;-130;-133.9;44.9;45.2;11;10.8;26.7;0.0;
24/02/2025 10:59:32;100;0;150.31;-4;-20.38;-5.84;795.0;11.90;75533;2835.067;-1758.115;1;151;-130;-135.5;44.9;45.2;13;13.1;26.7;0.0;
24/02/2025 10:59:52;100;0;151.25;-4;-20.67;-4.59;798.4;11.90;75523;2835.064;-1758.113;1;151;-130;-133.9;44.9;45.2;13;13.5;26.7;0.0;
24/02/2025 11:00:12;100;0;151.57;-4;-20.37;-4.56;801.4;11.80;75519;2835.062;-1758.111;1;151;-130;-135.5;44.9;45.2;13;13.5;26.7;0.0;
24/02/2025 11:00:32;100;0;150.99;-4;-20.37;-4.57;804.5;11.80;75509;2835.060;-1758.109;1;151;-130;-133.9;44.9;45.2;13;13.5;26.7;0.0;
24/02/2025 11:00:52;100;0;152.44;-4;-20.49;-4.57;807.6;11.80;75512;2835.058;-1758.107;1;151;-130;-135.5;44.9;45.2;13;13.5;26.7;0.0;
24/02/2025 11:01:12;100;0;154.31;-4;-20.69;-4.52;810.5;11.80;75508;2835.056;-1758.106;1;151;-130;-135.5;44.9;45.2;13;13.5;26.7;0.0;
24/02/2025 11:01:32;100;0;158.22;-4;-20.73;-4.51;813.8;11.70;75500;2835.053;-1758.104;1;151;-130;-133.9;44.9;45.4;13;13.5;26.6;0.0;
24/02/2025 11:01:52;100;0;158.92;-4;-20.57;-4.57;816.6;11.70;75503;2835.051;-1758.103;1;151;-130;-135.5;44.9;45.2;13;13.5;26.7;0.0;
24/02/2025 11:02:12;100;0;160.65;-4;-20.69;-4.61;819.6;11.70;75498;2835.049;-1758.102;1;151;-130;-135.5;44.9;45.2;13;13.5;26.6;0.0;
24/02/2025 11:02:32;100;0;164.69;-4;-20.24;-4.57;822.7;11.70;75484;2835.046;-1758.101;1;151;-130;-135.5;44.9;45.2;16;16.2;26.7;0.0;
24/02/2025 11:02:52;100;0;165.75;-4;-20.25;-3.08;825.7;11.60;75476;2835.044;-1758.101;1;151;-130;-135.5;44.9;45.2;16;16.7;26.7;0.0;
24/02/2025 11:03:12;100;0;165.45;-4;-20.68;-3.10;828.7;11.60;75481;2835.042;-1758.100;1;151;-130;-133.9;44.9;45.2;16;16.7;26.7;0.0;
24/02/2025 11:03:32;100;0;164.41;-4;-20.35;-2.80;831.6;11.60;75467;2835.039;-1758.099;1;151;-130;-133.9;44.9;45.2;16;16.7;26.7;0.0;
24/02/2025 11:03:52;100;0;163.33;-4;-20.49;-3.07;834.6;11.60;75460;2835.037;-1758.098;1;151;-130;-135.5;44.9;45.2;16;16.7;26.6;0.0;
24/02/2025 11:04:12;100;0;160.85;-4;-20.73;-3.05;837.5;11.60;75460;2835.035;-1758.097;1;151;-130;-135.5;44.9;45.2;14;14.0;26.7;0.0;
24/02/2025 11:04:32;100;0;161.55;-4;-20.37;-4.55;840.5;11.50;75459;2835.032;-1758.096;1;151;-130;-135.5;44.9;45.2;14;14.0;26.7;0.0;
24/02/2025 11:04:52;100;0;163.76;-4;-20.52;-4.58;843.5;11.50;75457;2835.030;-1758.095;1;151;-130;-133.9;44.9;45.2;14;14.0;26.7;0.0;
24/02/2025 11:05:12;100;0;164.88;-4;-20.35;-4.56;846.6;11.50;75442;2835.027;-1758.094;1;151;-130;-135.5;44.9;45.2;16;15.8;26.7;0.0;
24/02/2025 11:05:32;100;0;163.82;-4;-20.09;-3.30;849.6;11.40;75445;2835.025;-1758.094;1;151;-130;-133.9;44.9;45.2;16;15.8;26.7;0.0;
24/02/2025 11:05:52;100;0;163.29;-4;-20.29;-3.44;852.5;11.40;75442;2835.023;-1758.093;1;151;-130;-133.9;44.9;45.2;16;16.2;26.7;0.0;
24/02/2025 11:06:12;100;0;162.62;-4;-20.40;-3.47;855.5;11.40;75435;2835.020;-1758.092;1;151;-130;-135.5;44.9;45.2;16;15.8;26.7;0.0;
24/02/2025 11:06:32;100;0;161.61;-4;-20.50;-3.34;858.5;11.40;75420;2835.018;-1758.091;1;151;-130;-133.9;44.9;45.2;16;16.2;26.7;0.0;
24/02/2025 11:06:52;100;0;159.47;-4;-20.52;-3.38;861.6;11.40;75425;2835.016;-1758.089;1;151;-130;-135.5;44.9;45.2;14;14.0;26.7;0.0;
24/02/2025 11:07:12;100;0;159.70;-4;-20.51;-4.59;864.7;11.30;75418;2835.013;-1758.088;1;151;-130;-135.5;44.9;45.2;14;13.5;26.7;0.0;
24/02/2025 11:07:32;100;0;158.08;-4;-20.65;-4.43;867.8;11.30;75401;2835.011;-1758.087;1;151;-130;-133.9;44.9;45.2;14;13.5;26.7;0.0;
24/02/2025 11:07:52;100;0;157.14;-4;-20.31;-4.62;871.0;11.30;75410;2835.009;-1758.086;1;151;-130;-135.5;44.9;45.2;14;13.5;26.7;0.0;
24/02/2025 11:08:12;100;0;158.07;-4;-20.41;-4.71;874.0;11.30;75406;2835.006;-1758.084;1;151;-130;-135.5;44.9;45.2;14;13.5;26.6;0.0;
24/02/2025 11:08:32;100;0;161.36;-4;-20.40;-4.69;877.0;11.20;75410;2835.004;-1758.083;1;151;-130;-135.5;44.9;45.2;14;13.5;26.7;0.0;
24/02/2025 11:08:52;100;0;162.31;-4;-19.90;-4.71;880.1;11.20;75397;2835.001;-1758.082;1;151;-130;-133.9;44.9;45.2;14;13.5;26.7;0.0;
24/02/2025 11:09:12;100;0;160.75;-4;-19.95;-4.65;883.1;11.20;75395;2834.999;-1758.081;1;151;-130;-133.9;44.9;45.2;14;13.5;26.7;0.0;
24/02/2025 11:09:32;100;0;160.53;-4;-20.16;-4.70;886.1;11.20;75385;2834.997;-1758.080;1;151;-130;-133.9;44.9;45.2;14;13.5;26.7;0.0;
24/02/2025 11:09:52;100;0;161.56;-4;-20.29;-4.66;889.2;11.10;75376;2834.994;-1758.079;1;151;-130;-135.5;44.9;45.2;14;13.5;26.7;0.0;
24/02/2025 11:10:12;100;0;162.51;-4;-20.10;-4.67;892.4;11.10;75369;2834.991;-1758.078;1;151;-130;-133.9;44.9;45.2;14;13.5;26.7;0.0;
24/02/2025 11:10:32;100;0;162.27;-4;-20.10;-4.67;895.6;11.10;75365;2834.989;-1758.077;1;151;-130;-135.5;44.9;45.2;14;13.5;26.6;0.0;
24/02/2025 11:10:52;100;0;162.38;-4;-20.21;-4.69;898.8;11.10;75352;2834.986;-1758.076;1;151;-130;-135.5;44.9;45.2;14;13.5;26.7;0.0;
24/02/2025 11:11:12;100;0;162.14;-4;-20.03;-4.75;902.0;11.00;75354;2834.983;-1758.074;1;151;-130;-133.9;44.9;45.2;14;13.5;26.7;0.0;
24/02/2025 11:11:32;100;0;161.60;-4;-20.03;-4.70;905.3;11.00;75343;2834.981;-1758.073;1;151;-130;-133.9;44.9;45.2;14;13.5;26.6;0.0;
24/02/2025 11:11:52;100;0;161.19;-4;-20.19;-4.69;908.6;11.00;75342;2834.978;-1758.072;1;151;-130;-133.9;44.9;45.2;14;13.5;26.7;0.0;
24/02/2025 11:12:12;100;0;161.17;-4;-20.29;-4.66;912.0;11.00;75327;2834.975;-1758.071;1;151;-130;-135.5;44.9;45.2;14;13.5;26.6;0.0;
24/02/2025 11:12:32;100;0;160.78;-4;-20.19;-4.64;915.4;11.00;75341;2834.972;-1758.069;1;151;-130;-135.5;44.9;45.2;14;13.5;26.6;0.0;
24/02/2025 11:12:52;100;0;162.10;-4;-20.07;-4.68;918.8;10.90;75339;2834.969;-1758.068;1;151;-130;-133.9;44.9;45.2;14;13.5;26.7;0.0;
24/02/2025 11:13:12;100;0;164.68;-4;-19.91;-4.68;922.1;10.90;75333;2834.966;-1758.067;1;151;-130;-135.5;44.9;45.2;17;17.1;26.7;0.0;
24/02/2025 11:13:32;100;0;164.64;-4;-19.96;-2.70;925.5;10.90;75328;2834.963;-1758.066;1;151;-130;-135.5;44.9;45.2;17;17.6;26.7;0.0;
24/02/2025 11:13:52;100;0;164.16;-4;-20.24;-2.62;929.0;10.90;75318;2834.960;-1758.065;1;151;-130;-137.1;44.9;45.2;17;17.6;26.7;0.0;
24/02/2025 11:14:12;100;0;163.29;-4;-20.19;-2.66;932.5;10.90;75313;2834.957;-1758.064;1;151;-130;-135.5;44.9;45.2;17;17.6;26.6;0.0;
24/02/2025 11:14:32;100;0;163.21;-4;-20.09;-2.55;935.8;10.80;75311;2834.955;-1758.063;1;151;-130;-135.5;44.9;45.2;17;17.6;26.7;0.0;
24/02/2025 11:14:52;100;0;162.97;-4;-20.13;-2.67;939.2;10.80;75297;2834.952;-1758.062;1;151;-130;-135.5;44.9;45.2;17;17.6;26.7;0.0;
24/02/2025 11:15:12;100;0;160.39;-4;-20.17;-2.61;942.5;10.80;75303;2834.949;-1758.061;1;151;-130;-133.9;44.9;45.2;15;14.9;26.7;0.0;
24/02/2025 11:15:32;100;0;159.83;-4;-19.83;-4.18;945.8;10.80;75291;2834.946;-1758.059;1;151;-130;-135.5;44.9;45.2;15;14.4;26.7;0.0;
24/02/2025 11:15:52;100;0;158.94;-4;-20.03;-4.15;948.9;10.70;75300;2834.944;-1758.058;1;151;-130;-133.9;44.9;45.2;15;14.9;26.7;0.0;
24/02/2025 11:16:12;100;0;158.75;-4;-19.94;-4.16;952.0;10.70;75290;2834.941;-1758.057;1;151;-130;-135.5;44.9;45.2;15;14.4;26.7;0.0;
24/02/2025 11:16:32;100;0;158.99;-4;-20.03;-4.14;955.2;10.70;75294;2834.939;-1758.055;1;151;-130;-133.9;44.9;45.2;15;14.4;26.7;0.0;
24/02/2025 11:16:52;100;0;158.28;-4;-19.97;-4.13;958.3;10.70;75284;2834.936;-1758.054;1;151;-130;-135.5;44.9;45.2;15;14.4;26.7;0.0;
24/02/2025 11:17:12;100;0;157.92;-4;-19.75;-4.17;961.5;10.60;75280;2834.934;-1758.053;1;151;-130;-133.9;44.9;45.2;15;14.9;26.6;0.0;
24/02/2025 11:17:32;100;0;157.30;-4;-19.84;-4.15;964.5;10.60;75281;2834.931;-1758.051;1;151;-130;-135.5;44.9;45.2;15;14.9;26.7;0.0;
24/02/2025 11:17:52;100;0;157.45;-4;-20.04;-4.11;967.7;10.60;75272;2834.929;-1758.050;1;151;-130;-135.5;44.9;45.2;15;14.4;26.7;0.0;
24/02/2025 11:18:12;100;0;157.42;-4;-20.06;-4.06;970.9;10.60;75258;2834.926;-1758.048;1;151;-130;-135.5;44.9;45.2;15;14.4;26.7;0.0;
24/02/2025 11:18:32;100;0;157.32;-4;-19.83;-4.17;974.0;10.60;75270;2834.924;-1758.047;1;151;-130;-137.1;44.9;45.2;15;14.9;26.7;0.0;
24/02/2025 11:18:52;100;0;156.14;-4;-19.64;-4.10;977.2;10.60;75265;2834.921;-1758.045;1;151;-130;-133.9;44.9;45.2;15;14.9;26.7;0.0;
24/02/2025 11:19:12;100;0;155.47;-4;-19.81;-4.17;980.2;10.50;75256;2834.919;-1758.044;1;151;-130;-133.9;44.9;45.2;15;14.9;26.7;0.0;
24/02/2025 11:19:32;100;0;153.38;-4;-19.89;-4.21;983.3;10.50;75258;2834.917;-1758.042;1;151;-130;-135.5;44.9;45.2;15;14.9;26.7;0.0;
24/02/2025 11:19:52;100;0;152.79;-4;-19.80;-4.16;986.5;10.50;75258;2834.914;-1758.040;1;151;-130;-135.5;44.9;45.2;15;14.4;26.6;0.0;
24/02/2025 11:20:12;100;0;151.71;-4;-19.80;-4.16;989.7;10.50;75246;2834.912;-1758.038;1;151;-130;-133.9;44.9;45.2;15;14.9;26.6;0.0;
24/02/2025 11:20:32;100;0;151.12;-4;-19.98;-4.20;992.8;10.40;75247;2834.910;-1758.037;1;151;-130;-133.9;44.9;45.2;15;14.4;26.6;0.0;
24/02/2025 11:20:52;100;0;151.05;-4;-19.78;-4.17;996.1;10.40;75247;2834.907;-1758.035;1;151;-130;-135.5;44.9;45.4;15;14.9;26.6;0.0;
24/02/2025 11:21:10;118;0;150.27;-4;-19.66;-4.13;999.0;10.40;75235;2834.905;-1758.033;1;151;450;-132.3;25.7;25.6;7;7.2;26.7;0.0;
24/02/2025 11:21:20;118;0;121.62;-4;-7.28;-8.58;1000.2;10.40;75232;2834.905;-1758.031;1;151;450;-6.5;25.7;25.5;7;7.2;25.5;-1.0;
24/02/2025 11:21:30;118;0;106.14;-4;13.99;-8.52;1000.7;10.40;74956;2834.905;-1758.030;1;151;450;119.4;25.7;25.0;7;7.2;25.4;-1.0;
24/02/2025 11:21:40;118;0;100.86;-4;22.88;-9.08;1000.2;10.40;74703;2834.906;-1758.030;1;151;450;243.5;25.7;25.8;7;6.8;25.1;-1.0;
24/02/2025 11:21:50;118;0;100.72;-4;21.77;-8.83;999.6;10.40;74444;2834.906;-1758.029;1;151;450;366.1;25.7;25.8;7;7.2;24.9;-1.0;
24/02/2025 11:22:00;118;0;101.83;-4;18.92;-8.71;998.7;10.40;74210;2834.907;-1758.028;1;151;450;451.6;25.7;25.9;7;6.8;25.2;-1.0;
24/02/2025 11:22:10;118;0;145.26;-4;15.66;-7.89;997.6;10.40;74030;2834.906;-1758.027;1;151;450;450.0;25.7;25.9;7;6.8;26.6;-1.0;
24/02/2025 11:22:20;118;0;141.20;-4;13.42;-8.01;996.7;10.40;74039;2834.905;-1758.026;1;151;450;450.0;25.7;25.9;7;7.2;26.6;-1.0;
24/02/2025 11:22:40;117;0;132.16;-4;11.43;-8.13;995.2;10.50;74046;2834.905;-1758.025;1;151;450;451.6;25.7;25.9;7;7.2;26.6;-1.0;
24/02/2025 11:23:00;117;0;121.29;-4;10.96;-8.17;993.6;10.50;74037;2834.905;-1758.023;1;151;450;450.0;23.0;22.7;70;69.9;26.6;-1.0;
24/02/2025 11:23:20;117;0;132.23;-4;18.01;24.43;991.7;10.50;74039;2834.905;-1758.021;1;151;450;451.6;22.4;21.9;57;56.4;26.6;-1.0;
24/02/2025 11:23:40;117;0;144.01;-4;23.50;17.22;988.7;10.50;74030;2834.903;-1758.019;1;151;450;451.6;23.4;23.6;35;35.2;26.6;-1.0;
24/02/2025 11:24:00;117;0;147.13;-4;21.99;6.97;985.3;10.50;74020;2834.901;-1758.017;1;151;450;451.6;23.4;23.6;31;31.1;26.6;-1.0;
24/02/2025 11:24:20;117;0;147.95;-4;20.38;4.35;982.0;10.50;74015;2834.899;-1758.014;1;151;450;451.6;23.4;23.6;31;30.7;26.6;-1.0;
24/02/2025 11:24:40;117;0;150.19;-4;19.89;4.19;979.1;10.50;74010;2834.897;-1758.013;1;151;450;450.0;23.4;23.6;31;30.7;26.6;-1.0;
24/02/2025 11:25:00;117;0;150.91;-4;19.83;4.40;976.1;10.50;74014;2834.895;-1758.011;1;151;450;451.6;23.4;23.7;31;30.7;26.6;-1.0;
24/02/2025 11:25:20;117;0;151.28;-4;19.72;4.27;973.2;10.50;74012;2834.893;-1758.009;1;151;450;451.6;23.4;23.7;31;30.7;26.6;-1.0;
24/02/2025 11:25:40;117;0;153.40;-4;19.97;4.27;970.3;10.40;74013;2834.891;-1758.008;1;151;450;451.6;23.4;23.7;29;28.4;26.6;-1.0;
24/02/2025 11:26:00;117;0;154.64;-4;19.82;2.99;967.5;10.40;74013;2834.889;-1758.006;1;151;450;451.6;23.4;23.6;29;28.4;26.6;-1.0;
24/02/2025 11:26:20;117;0;155.43;-4;19.84;3.03;964.6;10.40;73997;2834.887;-1758.005;1;151;450;451.6;23.4;23.7;29;28.4;26.6;-1.0;
24/02/2025 11:26:40;117;0;155.75;-4;19.67;2.99;961.8;10.40;74005;2834.885;-1758.003;1;151;450;451.6;23.4;23.9;29;28.4;26.6;-1.0;
24/02/2025 11:27:00;117;0;156.20;-4;19.57;2.93;959.0;10.40;74006;2834.883;-1758.002;1;151;450;451.6;23.4;23.7;29;28.4;26.6;-1.0;
24/02/2025 11:27:20;117;0;156.39;-4;19.58;2.97;956.3;10.40;74001;2834.881;-1758.001;1;151;450;451.6;23.4;23.7;29;28.4;26.6;-1.0;
24/02/2025 11:27:40;117;0;157.50;-4;19.69;2.93;953.5;10.30;73991;2834.878;-1758.000;1;151;450;451.6;23.4;23.7;29;28.4;26.6;-1.0;
24/02/2025 11:28:00;117;0;158.13;-4;19.83;3.02;950.6;10.30;73988;2834.876;-1757.998;1;151;450;451.6;23.4;23.7;29;28.4;26.6;-1.0;
24/02/2025 11:28:20;117;0;157.79;-4;19.52;3.00;947.8;10.30;73988;2834.874;-1757.997;1;151;450;451.6;23.4;23.9;29;28.4;26.6;-1.0;
24/02/2025 11:28:40;117;0;157.14;-4;19.55;3.06;944.9;10.30;73988;2834.872;-1757.996;1;151;450;451.6;23.4;23.7;29;28.4;26.6;-1.0;
24/02/2025 11:29:00;117;0;157.30;-4;19.67;2.97;942.0;10.30;73989;2834.870;-1757.995;1;151;450;453.2;23.4;23.7;29;28.0;26.6;-1.0;
24/02/2025 11:29:20;117;0;157.39;-4;19.83;2.93;939.1;10.30;73986;2834.868;-1757.993;1;151;450;451.6;23.4;23.6;29;28.4;26.6;-1.0;
24/02/2025 11:29:40;117;0;157.46;-4;19.58;2.98;936.0;10.20;73975;2834.865;-1757.992;1;151;450;450.0;23.4;23.7;29;28.4;26.6;-1.0;
24/02/2025 11:30:00;117;0;157.43;-4;19.47;2.99;932.9;10.20;73977;2834.863;-1757.990;1;151;450;451.6;23.4;23.7;29;28.4;26.6;-1.0;
24/02/2025 11:30:20;117;0;158.15;-4;19.52;2.97;929.8;10.20;73986;2834.860;-1757.989;1;151;450;451.6;23.4;23.7;29;28.4;26.6;-1.0;
24/02/2025 11:30:40;117;0;158.87;-4;19.66;2.93;926.7;10.20;73976;2834.858;-1757.988;1;151;450;451.6;23.4;23.7;29;28.4;26.6;-1.0;
24/02/2025 11:31:01;117;0;159.24;-4;19.50;3.01;923.6;10.20;73971;2834.855;-1757.986;1;151;450;453.2;23.4;23.7;29;28.4;26.6;-1.0;
24/02/2025 11:31:21;117;0;159.62;-4;19.51;3.00;920.5;10.20;73969;2834.853;-1757.985;1;151;450;451.6;23.4;23.7;29;28.4;26.6;-1.0;
24/02/2025 11:31:41;117;0;159.59;-4;19.38;3.01;917.4;10.20;73959;2834.850;-1757.984;1;151;450;451.6;23.4;23.7;29;28.4;26.6;-1.0;
24/02/2025 11:32:01;117;0;159.54;-4;19.48;3.10;914.3;10.20;73965;2834.848;-1757.983;1;151;450;451.6;23.4;23.7;29;28.4;26.6;-1.0;
24/02/2025 11:32:21;117;0;159.78;-4;19.39;2.95;911.3;10.10;73961;2834.845;-1757.981;1;151;450;451.6;23.4;23.7;29;28.4;26.6;-1.0;
24/02/2025 11:32:41;117;0;159.87;-4;19.26;3.00;908.3;10.20;73976;2834.843;-1757.980;1;151;450;451.6;23.4;23.7;29;28.4;26.6;-1.0;
24/02/2025 11:33:01;117;0;159.94;-4;19.66;3.15;905.3;10.10;73969;2834.840;-1757.979;1;151;450;451.6;23.4;23.7;29;28.4;26.6;-1.0;
24/02/2025 11:33:21;117;0;160.44;-4;19.38;3.05;902.3;10.10;73965;2834.838;-1757.978;1;151;450;450.0;23.4;23.7;29;28.4;26.6;-1.0;
24/02/2025 11:33:41;117;0;161.17;-4;19.80;3.02;899.4;10.10;73966;2834.835;-1757.977;1;151;450;451.6;23.4;23.7;29;28.4;26.6;-1.0;
24/02/2025 11:34:01;117;0;162.67;-4;19.42;3.13;896.4;10.10;73963;2834.833;-1757.976;1;151;450;451.6;23.4;23.7;29;28.4;26.7;-1.0;
24/02/2025 11:34:21;117;0;162.31;-4;19.34;2.98;893.3;10.10;73952;2834.830;-1757.975;1;151;450;453.2;23.4;23.7;29;28.4;26.6;-1.0;
24/02/2025 11:34:41;117;0;161.75;-4;19.25;2.91;890.6;10.10;73966;2834.828;-1757.974;1;151;450;450.0;23.4;23.7;29;28.4;26.6;-1.0;
24/02/2025 11:35:01;117;0;161.49;-4;19.31;3.06;887.7;10.10;73973;2834.826;-1757.973;1;151;450;451.6;23.4;23.7;29;28.4;26.6;-1.0;
24/02/2025 11:35:21;117;0;161.72;-4;19.60;3.04;884.8;10.10;73962;2834.823;-1757.972;1;151;450;451.6;23.4;23.7;29;28.4;26.6;-1.0;
24/02/2025 11:35:41;117;0;161.86;-4;19.55;3.07;881.9;10.10;73965;2834.821;-1757.971;1;151;450;450.0;23.4;23.7;29;28.0;26.6;-1.0;
24/02/2025 11:36:01;117;0;162.73;-4;18.72;2.96;879.2;10.10;73965;2834.819;-1757.970;1;151;450;451.6;23.1;23.1;29;28.4;26.7;-1.0;
24/02/2025 11:36:21;117;0;162.60;-4;20.30;2.64;876.5;10.00;73958;2834.817;-1757.969;1;151;450;453.2;23.1;22.5;29;28.4;26.6;-1.0;
24/02/2025 11:36:41;117;0;165.07;-4;20.86;2.93;873.5;10.00;73958;2834.815;-1757.968;1;151;450;451.6;23.1;22.5;27;27.1;26.6;-1.0;
24/02/2025 11:37:01;117;0;163.31;-4;20.98;2.64;870.0;10.00;73964;2834.812;-1757.967;1;151;450;453.2;23.1;22.5;27;26.6;26.6;-1.0;
24/02/2025 11:37:21;117;0;161.60;-4;20.97;2.19;866.8;10.00;73958;2834.809;-1757.966;1;151;450;451.6;23.1;22.5;27;27.1;26.6;-1.0;
24/02/2025 11:37:41;117;0;161.03;-4;20.84;2.53;863.5;10.00;73952;2834.807;-1757.965;1;151;450;451.6;23.1;22.5;27;26.6;26.6;-1.0;
24/02/2025 11:38:01;117;0;160.67;-4;19.86;1.98;860.0;10.00;73952;2834.804;-1757.963;1;151;450;453.2;23.1;22.7;27;26.6;26.6;-1.0;
24/02/2025 11:38:21;117;0;160.45;-4;19.88;2.17;856.7;10.00;73957;2834.801;-1757.962;1;151;450;450.0;23.1;22.7;27;26.6;26.6;-1.0;
24/02/2025 11:38:41;117;0;159.13;-4;20.77;2.23;853.6;10.00;73943;2834.799;-1757.961;1;151;450;450.0;23.1;22.5;29;28.9;26.6;-1.0;
24/02/2025 11:39:01;117;0;159.01;-4;20.55;3.59;850.6;10.00;73945;2834.796;-1757.960;1;151;450;450.0;23.1;22.5;29;29.3;26.6;-1.0;
24/02/2025 11:39:21;117;0;160.26;-4;21.16;3.48;847.7;10.00;73950;2834.794;-1757.959;1;151;450;451.6;23.1;22.7;29;29.3;26.6;-1.0;
24/02/2025 11:39:41;117;0;161.45;-4;20.96;3.92;844.6;10.00;73948;2834.792;-1757.958;1;151;450;451.6;23.1;22.5;29;29.3;26.6;-1.0;
24/02/2025 11:40:01;117;0;159.67;-4;21.60;3.41;841.6;10.00;73960;2834.790;-1757.956;1;151;450;451.6;23.1;22.5;29;29.3;26.6;-1.0;
24/02/2025 11:40:21;117;0;159.58;-4;20.34;3.86;838.5;10.00;73945;2834.787;-1757.955;1;151;450;453.2;23.1;22.7;29;29.3;26.6;-1.0;
24/02/2025 11:40:41;117;0;161.86;-4;20.95;3.57;835.5;10.00;73956;2834.785;-1757.954;1;151;450;451.6;23.1;22.5;29;29.3;26.6;-1.0;
24/02/2025 11:41:01;117;0;162.74;-4;22.49;3.56;832.2;10.00;73945;2834.783;-1757.953;1;151;450;451.6;23.8;24.0;27;26.6;26.6;-1.0;
24/02/2025 11:41:21;117;0;160.71;-4;18.46;2.66;828.6;10.00;73939;2834.779;-1757.952;1;151;450;451.6;23.3;23.1;27;26.6;26.6;-1.0;
24/02/2025 11:41:41;117;0;161.00;-4;20.83;1.98;825.8;9.90;73939;2834.777;-1757.951;1;151;450;451.6;23.3;22.5;27;26.6;26.6;-1.0;
24/02/2025 11:42:01;117;0;159.96;-4;21.12;1.76;823.0;9.90;73937;2834.775;-1757.950;1;151;450;451.6;23.3;22.5;27;26.6;26.6;-1.0;
24/02/2025 11:42:21;117;0;160.05;-4;21.31;1.96;820.2;9.90;73946;2834.773;-1757.949;1;151;450;451.6;23.3;22.5;27;26.6;26.6;-1.0;
24/02/2025 11:42:41;117;0;156.72;-4;21.68;2.56;817.3;9.90;73946;2834.771;-1757.947;1;151;450;453.2;23.3;22.5;27;26.6;26.6;-1.0;
24/02/2025 11:43:01;117;0;154.57;-4;21.20;2.20;814.2;9.90;73958;2834.769;-1757.946;1;151;450;453.2;23.3;22.5;27;26.6;26.6;-1.0;
24/02/2025 11:43:21;117;0;152.16;-4;21.01;2.40;811.2;9.90;73957;2834.767;-1757.944;1;151;450;451.6;23.3;23.3;29;28.9;26.6;-1.0;
24/02/2025 11:43:41;117;0;150.87;-4;20.54;3.68;808.1;9.90;73949;2834.765;-1757.942;1;151;450;453.2;23.3;23.3;29;29.3;26.6;-1.0;
24/02/2025 11:44:01;117;0;151.29;-4;20.13;3.60;805.1;9.90;73944;2834.763;-1757.941;1;151;450;451.6;23.3;23.3;29;29.3;26.6;-1.0;
24/02/2025 11:44:21;117;0;151.59;-4;20.21;3.64;802.1;9.90;73944;2834.761;-1757.939;1;151;450;451.6;23.3;23.3;29;29.3;26.6;-1.0;
24/02/2025 11:44:41;117;0;151.82;-4;20.33;3.66;799.1;9.90;73949;2834.758;-1757.937;1;151;450;450.0;23.3;23.3;29;29.3;26.6;-1.0;
24/02/2025 11:45:01;117;0;151.89;-4;20.32;3.65;796.2;9.90;73935;2834.756;-1757.936;1;151;450;451.6;23.3;23.3;29;29.3;26.6;-1.0;
24/02/2025 11:45:21;117;0;154.86;-4;20.70;3.64;793.2;9.90;73946;2834.754;-1757.934;1;151;450;451.6;23.3;23.3;29;29.3;26.6;-1.0;
24/02/2025 11:45:41;117;0;154.97;-4;20.26;3.50;790.1;9.90;73940;2834.752;-1757.932;1;151;450;454.8;23.3;23.3;29;29.3;26.6;-1.0;
24/02/2025 11:46:01;117;0;153.99;-4;20.16;3.77;787.0;9.90;73933;2834.750;-1757.931;1;151;450;451.6;23.3;23.3;29;29.3;26.6;-1.0;
24/02/2025 11:46:21;117;0;153.56;-4;20.31;3.61;784.0;9.90;73944;2834.747;-1757.929;1;151;450;453.2;23.3;23.4;29;29.3;26.6;-1.0;
24/02/2025 11:46:41;117;0;152.68;-4;19.99;3.62;780.9;9.90;73932;2834.745;-1757.927;1;151;450;450.0;23.3;23.3;29;29.3;26.6;-1.0;
24/02/2025 11:47:01;117;0;153.00;-4;19.90;3.62;778.0;9.90;73936;2834.743;-1757.926;1;151;450;453.2;23.3;23.3;29;29.3;26.6;-1.0;
24/02/2025 11:47:21;117;0;155.00;-4;20.15;3.56;775.0;9.90;73928;2834.741;-1757.924;1;151;450;451.6;23.3;23.3;29;29.3;26.6;-1.0;
24/02/2025 11:47:41;117;0;157.84;-4;20.08;3.60;772.1;9.90;73930;2834.739;-1757.923;1;151;450;451.6;23.3;23.3;29;29.3;26.6;-1.0;
