Timestamp;NavState;SecurityLevel;Heading;Declination;Pitch;Roll;Depth;Temperature;Pa;Lat;Lon;DeadReckoning;DesiredH;BallastCmd;BallastPos;LinCmd;LinPos;AngCmd;AngPos;Voltage;Altitude;
26/02/2025 09:31:37;119;0;13.02;-4;-44.65;-11.22;-0.0;16.70;75579;2836.352;-1759.677;0;317;500;506.5;100.0;100.6;0;-0.9;26.1;-1.0;
26/02/2025 09:31:47;116;0;40.41;-4;-59.69;-15.08;0.1;16.80;75584;2836.350;-1759.684;0;317;500;506.5;100.0;100.6;0;-0.9;26.1;-1.0;
26/02/2025 09:32:21;116;0;62.35;-4;-60.41;-16.90;0.0;16.90;75591;2836.358;-1759.698;0;317;500;506.5;100.0;100.6;0;-0.5;26.1;-1.0;
26/02/2025 09:32:47;116;0;70.31;-4;-52.45;-15.40;0.1;17.00;75612;2836.359;-1759.699;0;317;500;504.8;100.0;100.6;0;-0.9;26.1;-1.0;
26/02/2025 09:33:07;116;0;68.94;-4;-53.38;-8.97;-0.1;17.00;75612;2836.363;-1759.702;0;313;500;506.5;100.0;100.6;0;-0.9;26.0;-1.0;
26/02/2025 09:33:18;116;0;58.77;-4;-55.88;-15.14;0.1;17.10;75630;2836.365;-1759.703;0;313;500;506.5;100.0;100.6;0;-0.5;26.1;-1.0;
26/02/2025 09:33:29;116;0;43.14;-4;-52.63;-10.24;0.1;17.10;75628;2836.366;-1759.704;0;313;500;506.5;100.0;100.6;0;-0.9;26.1;-1.0;
26/02/2025 09:33:49;110;0;52.19;-4;-52.37;-17.47;-0.0;17.20;75631;2836.366;-1759.704;0;313;-90;385.5;100.0;100.6;-6;-5.9;26.1;-1.0;
26/02/2025 09:33:59;110;0;62.42;-4;-53.40;-17.73;0.2;17.20;76002;2836.367;-1759.705;1;313;-90;235.5;100.0;100.6;-6;-6.3;26.0;-1.0;
26/02/2025 09:34:10;110;0;59.10;-4;-60.49;-15.32;0.7;17.20;76240;2836.367;-1759.704;1;313;-90;82.3;100.0;100.6;-6;-6.3;26.0;-1.0;
26/02/2025 09:34:20;110;0;57.53;-4;-65.50;-15.67;0.7;17.30;76564;2836.368;-1759.705;1;313;-90;-77.4;100.0;100.6;-6;-6.3;26.0;-1.0;
26/02/2025 09:34:30;110;0;61.76;-4;-69.15;-6.24;1.0;17.30;76904;2836.368;-1759.705;1;313;-90;-88.7;40.9;52.0;-6;-6.3;26.0;-1.0;
26/02/2025 09:34:40;110;0;65.15;-4;-56.06;-14.60;2.2;17.30;76873;2836.369;-1759.704;1;313;-90;-90.3;40.9;40.9;-6;-6.3;26.0;-1.0;
26/02/2025 09:35:00;100;0;75.29;-4;-18.72;-15.11;5.1;17.40;76878;2836.371;-1759.701;1;313;-90;-83.9;40.9;40.5;-6;-5.9;26.1;-1.0;
26/02/2025 09:35:20;100;0;82.05;-4;-16.12;-14.97;7.2;17.40;76883;2836.373;-1759.698;1;313;-90;-82.3;42.1;42.3;70;69.9;26.1;-1.0;
26/02/2025 09:35:40;100;0;77.94;-4;-21.54;23.71;9.6;17.50;76903;2836.375;-1759.695;1;313;-90;-82.3;42.1;42.4;70;70.4;26.1;-1.0;
26/02/2025 09:36:00;100;0;66.76;-4;-22.28;23.86;12.3;17.50;76905;2836.377;-1759.692;1;313;-90;-85.5;41.4;41.4;70;70.4;26.0;-1.0;
26/02/2025 09:36:20;100;0;55.99;-4;-20.42;23.74;14.8;17.50;76905;2836.380;-1759.689;1;313;-90;-82.3;41.4;41.1;70;70.4;26.0;0.0;
26/02/2025 09:36:40;100;0;44.82;-4;-19.47;23.52;17.4;17.50;76909;2836.383;-1759.687;1;313;-90;-82.3;41.4;41.2;70;70.4;26.0;0.0;
26/02/2025 09:37:00;100;0;35.54;-4;-20.22;23.73;19.7;17.50;76923;2836.387;-1759.685;1;313;-90;-82.3;41.4;41.2;70;70.4;26.1;0.0;
26/02/2025 09:37:20;100;0;25.63;-4;-20.55;23.88;22.3;17.60;76929;2836.391;-1759.684;1;313;-90;-83.9;41.4;41.1;70;69.9;26.1;0.0;
26/02/2025 09:37:40;100;0;14.64;-4;-20.15;24.04;24.7;17.60;76934;2836.395;-1759.684;1;313;-90;-82.3;41.4;41.2;70;70.4;26.1;0.0;
26/02/2025 09:38:00;100;0;3.30;-4;-20.53;23.79;27.2;17.60;76936;2836.399;-1759.684;1;313;-90;-82.3;41.4;41.2;70;70.4;26.1;0.0;
26/02/2025 09:38:20;100;0;351.85;-4;-20.00;23.65;29.8;17.60;76946;2836.403;-1759.685;1;313;-90;-82.3;41.4;41.1;70;69.9;26.1;0.0;
26/02/2025 09:38:40;100;0;340.90;-4;-19.44;23.86;32.1;17.70;76956;2836.407;-1759.687;1;313;-90;-82.3;41.4;41.1;59;59.1;26.1;0.0;
26/02/2025 09:39:00;100;0;330.02;-4;-19.69;17.48;34.6;17.70;76953;2836.411;-1759.689;1;313;-90;-82.3;41.4;41.1;43;42.9;26.0;0.0;
26/02/2025 09:39:20;100;0;321.93;-4;-18.35;9.42;36.7;17.70;76954;2836.414;-1759.691;1;313;-90;-83.9;41.9;42.3;31;31.1;26.1;0.0;
26/02/2025 09:39:40;100;0;315.04;-4;-19.59;3.59;39.0;17.80;76977;2836.417;-1759.694;1;313;-90;-82.3;41.9;42.3;21;21.2;26.1;0.0;
26/02/2025 09:40:00;100;0;311.03;-4;-19.21;-1.31;41.3;17.80;76967;2836.420;-1759.697;1;313;-90;-82.3;41.9;42.3;17;17.1;26.1;0.0;
26/02/2025 09:40:20;100;0;308.95;-4;-19.32;-3.27;43.4;17.80;76981;2836.423;-1759.700;1;313;-90;-82.3;41.9;42.3;17;16.7;26.1;0.0;
26/02/2025 09:40:40;100;0;308.80;-4;-19.22;-3.35;45.8;17.80;76981;2836.426;-1759.703;1;313;-90;-82.3;41.9;42.3;17;17.1;26.1;0.0;
26/02/2025 09:41:00;100;0;307.79;-4;-18.89;-3.39;48.1;17.90;76989;2836.429;-1759.707;1;313;-90;-82.3;42.2;42.3;17;16.7;26.1;0.0;
26/02/2025 09:41:20;100;0;306.54;-4;-18.91;-3.32;50.2;17.90;76997;2836.432;-1759.710;1;313;-90;-82.3;42.6;42.6;17;16.7;26.0;0.0;
26/02/2025 09:41:40;100;0;305.05;-4;-20.39;-3.26;52.6;17.90;77006;2836.435;-1759.713;1;313;-90;-82.3;42.6;42.7;17;17.1;26.1;0.0;
26/02/2025 09:42:00;100;0;304.71;-4;-20.50;-3.36;54.8;17.90;77005;2836.437;-1759.716;1;313;-90;-82.3;42.6;42.7;17;17.1;26.1;0.0;
26/02/2025 09:42:20;100;0;302.08;-4;-20.15;-3.32;57.3;18.00;77008;2836.440;-1759.719;1;313;-90;-82.3;42.6;42.9;17;16.7;26.1;0.0;
26/02/2025 09:42:40;100;0;298.16;-4;-20.53;-3.31;59.5;18.00;77008;2836.442;-1759.723;1;313;-90;-82.3;42.6;42.9;15;14.9;26.0;0.0;
26/02/2025 09:43:00;100;0;296.50;-4;-19.93;-4.35;61.8;18.00;77017;2836.445;-1759.726;1;313;-90;-82.3;42.6;42.9;15;14.9;26.0;0.0;
26/02/2025 09:43:20;100;0;296.66;-4;-20.12;-4.48;64.0;18.00;77024;2836.447;-1759.729;1;313;-90;-82.3;42.6;42.9;15;14.9;26.1;0.0;
26/02/2025 09:43:40;100;0;299.23;-4;-20.17;-4.40;66.3;18.10;77015;2836.450;-1759.733;1;313;-90;-80.6;42.6;42.9;15;14.4;26.0;0.0;
26/02/2025 09:44:00;100;0;298.39;-4;-20.54;-4.37;68.5;18.10;77028;2836.452;-1759.736;1;313;-90;-82.3;42.6;42.9;15;14.9;26.0;0.0;
26/02/2025 09:44:20;100;0;297.62;-4;-20.59;-4.33;71.0;18.10;77016;2836.454;-1759.740;1;313;-90;-82.3;42.6;42.9;15;14.9;26.1;0.0;
26/02/2025 09:44:40;100;0;293.74;-4;-20.41;-4.40;73.5;18.10;76998;2836.457;-1759.743;1;313;-90;-82.3;42.6;42.9;12;12.2;26.1;0.0;
26/02/2025 09:45:00;100;0;291.94;-4;-19.83;-5.86;75.8;18.10;76997;2836.459;-1759.747;1;313;-90;-82.3;42.6;42.9;12;11.3;26.1;0.0;
26/02/2025 09:45:20;100;0;292.97;-4;-19.85;-6.04;78.0;18.10;77001;2836.461;-1759.750;1;313;-90;-82.3;42.6;42.9;12;11.7;26.1;0.0;
26/02/2025 09:45:40;100;0;292.44;-4;-20.43;-5.92;80.5;18.10;76981;2836.463;-1759.754;1;313;-90;-82.3;42.6;42.9;12;11.3;26.1;0.0;
26/02/2025 09:46:00;100;0;294.03;-4;-20.46;-5.87;82.8;18.10;76967;2836.466;-1759.757;1;313;-90;-82.3;42.6;42.9;12;11.7;26.1;0.0;
26/02/2025 09:46:20;100;0;291.04;-4;-20.72;-5.93;85.4;18.20;76943;2836.468;-1759.761;1;313;-90;-83.9;42.6;42.9;9;8.6;26.0;0.0;
26/02/2025 09:46:40;100;0;291.53;-4;-19.72;-7.49;87.9;18.20;76932;2836.470;-1759.765;1;313;-90;-82.3;42.6;42.9;9;8.6;26.1;0.0;
26/02/2025 09:47:00;100;0;291.38;-4;-19.88;-7.51;90.1;18.10;76907;2836.472;-1759.769;1;313;-90;-82.3;42.6;42.9;11;10.8;26.0;0.0;
26/02/2025 09:47:20;100;0;290.71;-4;-19.80;-5.96;92.3;18.10;76887;2836.474;-1759.772;1;313;-90;-82.3;42.6;42.9;11;11.3;26.0;0.0;
26/02/2025 09:47:40;100;0;290.70;-4;-19.78;-5.96;94.6;18.10;76887;2836.476;-1759.776;1;313;-90;-82.3;42.6;42.9;11;11.3;26.1;0.0;
26/02/2025 09:48:00;100;0;290.25;-4;-19.64;-5.99;96.7;18.10;76880;2836.478;-1759.779;1;313;-90;-83.9;42.6;42.9;11;11.3;26.1;0.0;
26/02/2025 09:48:20;100;0;290.14;-4;-20.03;-6.02;99.1;18.10;76872;2836.480;-1759.783;1;313;-90;-83.9;42.6;42.9;9;9.0;26.1;0.0;
26/02/2025 09:48:40;100;0;287.51;-4;-19.48;-7.38;101.4;18.10;76870;2836.482;-1759.786;1;313;-90;-82.3;42.6;42.9;6;5.9;26.0;0.0;
26/02/2025 09:49:00;100;0;285.63;-4;-19.56;-8.96;103.8;18.10;76853;2836.484;-1759.790;1;313;-90;-82.3;42.6;42.9;1;0.9;26.1;0.0;
26/02/2025 09:49:20;100;0;287.55;-4;-19.48;-11.50;106.4;18.10;76848;2836.486;-1759.794;1;313;-90;-80.6;42.6;42.7;4;4.1;26.1;0.0;
26/02/2025 09:49:40;100;0;292.41;-4;-19.40;-9.47;109.0;18.10;76842;2836.489;-1759.799;1;313;-90;-82.3;42.6;42.9;9;9.0;26.1;0.0;
26/02/2025 09:50:00;100;0;294.81;-4;-19.74;-6.90;111.7;18.00;76830;2836.491;-1759.803;1;313;-90;-82.3;42.6;42.9;13;13.1;26.1;0.0;
26/02/2025 09:50:20;100;0;294.89;-4;-19.79;-4.96;114.2;18.00;76827;2836.494;-1759.806;1;313;-90;-82.3;42.6;42.9;13;13.5;26.1;0.0;
26/02/2025 09:50:40;100;0;294.11;-4;-20.26;-4.88;116.9;18.00;76825;2836.496;-1759.810;1;313;-90;-82.3;42.6;42.9;11;10.4;26.1;0.0;
26/02/2025 09:51:00;100;0;290.20;-4;-19.23;-6.53;119.7;18.00;76808;2836.498;-1759.815;1;313;-90;-82.3;42.6;42.9;6;5.9;26.1;0.0;
26/02/2025 09:51:20;100;0;290.74;-4;-19.03;-9.00;122.2;18.00;76797;2836.501;-1759.819;1;313;-90;-80.6;42.6;42.9;8;8.1;26.1;0.0;
26/02/2025 09:51:40;100;0;292.15;-4;-19.26;-7.46;125.0;18.00;76804;2836.503;-1759.823;1;313;-90;-82.3;42.6;42.9;8;8.6;26.1;0.0;
26/02/2025 09:52:00;100;0;296.51;-4;-19.72;-7.48;127.9;17.90;76778;2836.506;-1759.827;1;313;-90;-82.3;42.6;42.9;13;13.1;26.1;0.0;
26/02/2025 09:52:20;100;0;298.24;-4;-19.67;-4.98;130.7;18.00;76783;2836.509;-1759.831;1;313;-90;-82.3;42.6;42.9;13;13.5;26.1;0.0;
26/02/2025 09:52:40;100;0;297.46;-4;-19.63;-4.98;133.7;17.90;76778;2836.511;-1759.836;1;313;-90;-80.6;42.6;42.9;13;13.5;26.1;0.0;
26/02/2025 09:53:00;100;0;297.96;-4;-19.08;-4.99;136.7;17.90;76762;2836.514;-1759.840;1;313;-90;-80.6;42.6;42.9;13;13.5;26.0;0.0;
26/02/2025 09:53:20;100;0;299.17;-4;-19.25;-4.99;139.6;17.90;76758;2836.517;-1759.844;1;313;-90;-82.3;42.6;43.0;13;13.5;26.0;0.0;
26/02/2025 09:53:40;100;0;298.06;-4;-18.95;-5.01;142.5;17.90;76740;2836.520;-1759.849;1;313;-90;-82.3;42.9;42.9;13;13.5;26.1;0.0;
26/02/2025 09:54:00;100;0;296.33;-4;-19.16;-5.00;145.2;17.80;76731;2836.523;-1759.853;1;313;-90;-82.3;42.9;42.9;13;13.5;26.1;0.0;
26/02/2025 09:54:20;100;0;298.99;-4;-19.32;-5.01;148.1;17.80;76732;2836.526;-1759.857;1;313;-90;-82.3;42.9;42.9;13;13.5;26.1;0.0;
26/02/2025 09:54:40;100;0;298.93;-4;-19.24;-4.96;151.1;17.80;76727;2836.529;-1759.861;1;313;-90;-82.3;42.9;42.9;13;13.1;26.1;0.0;
26/02/2025 09:55:00;100;0;298.57;-4;-18.93;-5.00;153.9;17.80;76714;2836.531;-1759.866;1;313;-90;-82.3;43.2;43.2;13;13.5;26.1;0.0;
26/02/2025 09:55:20;100;0;298.97;-4;-20.56;-4.99;156.8;17.70;76710;2836.534;-1759.870;1;313;-90;-82.3;43.2;43.4;13;13.5;26.1;0.0;
26/02/2025 09:55:40;100;0;298.49;-4;-19.95;-5.05;159.7;17.70;76710;2836.537;-1759.874;1;313;-90;-82.3;43.2;43.4;13;13.1;26.1;0.0;
26/02/2025 09:56:00;100;0;298.94;-4;-20.27;-5.06;162.6;17.70;76709;2836.540;-1759.878;1;313;-90;-82.3;43.2;43.3;13;13.5;26.1;0.0;
26/02/2025 09:56:20;100;0;302.31;-4;-20.52;-4.95;165.5;17.70;76699;2836.543;-1759.882;1;313;-90;-85.5;43.2;43.4;13;13.5;26.1;0.0;
26/02/2025 09:56:40;100;0;301.18;-4;-20.86;-4.90;168.6;17.70;76694;2836.546;-1759.886;1;313;-90;-82.3;43.2;43.4;13;13.5;26.1;0.0;
26/02/2025 09:57:00;100;0;301.41;-4;-20.40;-4.95;171.7;17.60;76698;2836.549;-1759.890;1;313;-90;-83.9;43.2;43.4;13;13.5;26.1;0.0;
26/02/2025 09:57:20;100;0;303.44;-4;-20.39;-4.93;174.5;17.60;76685;2836.552;-1759.894;1;313;-90;-82.3;43.2;43.4;13;13.5;26.1;0.0;
26/02/2025 09:57:40;100;0;301.97;-4;-20.35;-5.01;177.5;17.60;76669;2836.555;-1759.898;1;313;-90;-82.3;43.2;43.4;13;13.5;26.1;0.0;
26/02/2025 09:58:00;100;0;299.65;-4;-20.28;-4.96;180.6;17.60;76665;2836.558;-1759.903;1;313;-90;-83.9;43.2;43.4;13;13.5;26.1;0.0;
26/02/2025 09:58:20;100;0;299.52;-4;-20.40;-5.00;183.4;17.50;76654;2836.561;-1759.907;1;313;-90;-83.9;43.2;43.4;13;13.5;26.1;0.0;
26/02/2025 09:58:40;100;0;297.76;-4;-20.34;-4.99;186.1;17.50;76659;2836.564;-1759.911;1;313;-90;-82.3;43.2;43.4;13;13.1;26.1;0.0;
26/02/2025 09:59:00;100;0;294.65;-4;-20.29;-5.01;188.9;17.50;76656;2836.566;-1759.915;1;313;-90;-82.3;43.2;43.3;11;10.4;26.1;0.0;
26/02/2025 09:59:20;100;0;294.37;-4;-20.01;-6.64;191.7;17.50;76659;2836.569;-1759.919;1;313;-90;-85.5;43.2;43.4;11;10.4;26.1;0.0;
26/02/2025 09:59:40;100;0;298.86;-4;-20.40;-6.58;194.5;17.40;76638;2836.572;-1759.923;1;313;-90;-82.3;43.2;43.3;13;13.5;26.0;0.0;
26/02/2025 10:00:00;100;0;303.65;-4;-20.41;-4.77;197.2;17.40;76638;2836.575;-1759.927;1;313;-90;-82.3;43.2;43.4;13;13.5;26.1;0.0;
26/02/2025 10:00:20;100;0;304.80;-4;-20.46;-4.82;199.9;17.40;76620;2836.578;-1759.930;1;313;-90;-82.3;43.2;43.4;13;13.5;26.0;0.0;
26/02/2025 10:00:40;100;0;303.23;-4;-20.14;-4.83;202.7;17.40;76613;2836.581;-1759.934;1;313;-90;-83.9;43.2;43.4;13;13.5;26.0;0.0;
26/02/2025 10:01:00;100;0;301.45;-4;-19.95;-4.85;205.3;17.30;76611;2836.583;-1759.938;1;313;-90;-82.3;43.2;43.4;13;13.5;26.1;0.0;
26/02/2025 10:01:20;100;0;303.56;-4;-20.44;-4.81;207.9;17.30;76590;2836.586;-1759.941;1;313;-90;-83.9;43.2;43.4;13;13.5;26.1;0.0;
26/02/2025 10:01:40;100;0;304.62;-4;-20.58;-4.84;210.5;17.30;76588;2836.589;-1759.945;1;313;-90;-82.3;43.2;43.4;13;13.5;26.0;0.0;
26/02/2025 10:02:00;100;0;305.47;-4;-20.59;-4.80;213.2;17.20;76573;2836.592;-1759.948;1;313;-90;-80.6;43.2;43.4;13;13.5;26.0;0.0;
26/02/2025 10:02:20;100;0;309.49;-4;-20.11;-4.77;215.9;17.20;76564;2836.595;-1759.952;1;313;-90;-82.3;43.2;43.4;15;14.9;26.0;0.0;
26/02/2025 10:02:40;100;0;307.80;-4;-20.13;-4.16;218.6;17.20;76559;2836.599;-1759.955;1;313;-90;-82.3;43.2;43.4;15;14.9;26.0;0.0;
26/02/2025 10:03:00;100;0;305.49;-4;-20.22;-4.18;221.0;17.20;76550;2836.601;-1759.959;1;313;-90;-80.6;43.2;43.4;15;14.9;26.1;0.0;
26/02/2025 10:03:20;100;0;303.09;-4;-20.81;-4.11;223.5;17.10;76537;2836.604;-1759.962;1;313;-90;-85.5;43.2;43.4;15;14.9;26.1;0.0;
26/02/2025 10:03:40;100;0;303.27;-4;-20.68;-4.08;226.3;17.10;76529;2836.607;-1759.966;1;313;-90;-82.3;43.2;43.4;15;14.9;26.1;0.0;
26/02/2025 10:04:00;100;0;302.67;-4;-20.70;-4.10;229.0;17.10;76525;2836.610;-1759.969;1;313;-90;-83.9;43.2;43.4;15;14.9;26.1;0.0;
26/02/2025 10:04:20;100;0;301.76;-4;-20.49;-4.12;231.7;17.00;76513;2836.613;-1759.973;1;313;-90;-82.3;43.2;43.4;15;14.9;26.1;0.0;
26/02/2025 10:04:40;100;0;301.89;-4;-20.41;-4.08;234.3;17.00;76506;2836.616;-1759.977;1;313;-90;-80.6;43.2;43.4;15;15.3;26.1;0.0;
26/02/2025 10:05:00;100;0;298.51;-4;-20.44;-4.14;236.9;17.00;76489;2836.618;-1759.981;1;313;-90;-82.3;43.2;43.4;15;15.3;26.1;0.0;
26/02/2025 10:05:20;100;0;297.12;-4;-20.57;-4.07;239.5;16.90;76485;2836.621;-1759.984;1;313;-90;-82.3;43.2;43.4;13;13.1;26.1;0.0;
26/02/2025 10:05:40;100;0;297.52;-4;-20.27;-5.22;242.1;16.90;76487;2836.623;-1759.988;1;313;-90;-82.3;43.2;43.4;13;12.6;26.0;0.0;
26/02/2025 10:06:00;100;0;297.23;-4;-20.18;-5.23;244.6;16.90;76472;2836.626;-1759.992;1;313;-90;-83.9;43.2;43.4;13;13.1;26.0;0.0;
26/02/2025 10:06:20;100;0;297.77;-4;-20.08;-5.20;247.3;16.80;76468;2836.629;-1759.996;1;313;-90;-82.3;43.2;43.4;13;13.1;26.1;0.0;
26/02/2025 10:06:40;100;0;300.45;-4;-19.98;-5.26;249.7;16.80;76458;2836.631;-1759.999;1;313;-90;-82.3;43.2;43.4;13;12.6;26.0;0.0;
26/02/2025 10:07:00;100;0;302.43;-4;-19.87;-5.24;251.9;16.80;76454;2836.634;-1800.002;1;313;-90;-85.5;43.2;43.4;13;13.1;26.1;0.0;
26/02/2025 10:07:20;100;0;304.86;-4;-19.91;-5.24;254.3;16.80;76444;2836.637;-1800.006;1;313;-90;-82.3;43.2;43.4;13;13.1;26.1;0.0;
26/02/2025 10:07:40;100;0;303.99;-4;-19.90;-5.26;256.8;16.70;76439;2836.639;-1800.009;1;313;-90;-82.3;43.2;43.4;13;13.1;26.0;0.0;
26/02/2025 10:08:00;100;0;304.18;-4;-19.71;-5.30;259.1;16.70;76438;2836.642;-1800.012;1;313;-90;-82.3;43.2;43.4;13;13.1;26.1;0.0;
26/02/2025 10:08:21;100;0;301.93;-4;-19.98;-5.25;261.3;16.60;76421;2836.645;-1800.015;1;313;-90;-82.3;43.2;43.4;13;13.1;26.0;0.0;
26/02/2025 10:08:41;100;0;302.20;-4;-20.27;-5.22;263.5;16.60;76408;2836.647;-1800.019;1;313;-90;-82.3;43.2;43.4;13;13.1;26.1;0.0;
26/02/2025 10:09:01;100;0;305.11;-4;-20.18;-5.22;265.9;16.60;76407;2836.650;-1800.022;1;313;-90;-82.3;43.2;43.4;13;13.1;26.1;0.0;
26/02/2025 10:09:21;100;0;306.34;-4;-20.02;-5.23;268.3;16.60;76405;2836.653;-1800.025;1;313;-90;-80.6;43.2;43.6;13;13.1;26.1;0.0;
26/02/2025 10:09:41;100;0;310.94;-4;-20.05;-5.20;270.7;16.50;76392;2836.656;-1800.028;1;313;-90;-82.3;43.2;43.4;15;14.9;26.1;0.0;
26/02/2025 10:10:01;100;0;313.52;-4;-20.09;-3.99;273.0;16.50;76386;2836.659;-1800.031;1;313;-90;-82.3;43.2;43.4;18;18.5;26.1;0.0;
26/02/2025 10:10:21;100;0;311.96;-4;-20.15;-2.33;275.3;16.50;76379;2836.662;-1800.034;1;313;-90;-82.3;43.2;43.4;18;18.5;26.0;0.0;
26/02/2025 10:10:41;100;0;307.31;-4;-20.17;-2.37;277.5;16.40;76380;2836.665;-1800.037;1;313;-90;-82.3;43.2;43.4;15;14.9;26.1;0.0;
26/02/2025 10:11:01;100;0;305.04;-4;-20.13;-4.52;279.8;16.40;76364;2836.668;-1800.040;1;313;-90;-80.6;43.2;43.4;15;14.4;26.1;0.0;
26/02/2025 10:11:21;100;0;303.52;-4;-20.07;-4.60;282.1;16.40;76359;2836.670;-1800.043;1;313;-90;-82.3;43.2;43.4;15;14.4;26.1;0.0;
26/02/2025 10:11:41;100;0;302.87;-4;-20.18;-4.52;284.2;16.30;76358;2836.673;-1800.046;1;313;-90;-82.3;43.2;43.4;15;14.4;26.1;0.0;
26/02/2025 10:12:01;100;0;302.88;-4;-20.02;-4.45;286.5;16.30;76356;2836.675;-1800.050;1;313;-90;-83.9;43.2;43.4;15;14.4;26.0;0.0;
26/02/2025 10:12:21;100;0;302.61;-4;-20.22;-4.51;289.0;16.30;76350;2836.678;-1800.053;1;313;-90;-82.3;43.2;43.4;15;14.4;26.1;0.0;
26/02/2025 10:12:41;100;0;301.43;-4;-19.96;-4.47;291.1;16.20;76348;2836.681;-1800.056;1;313;-90;-82.3;43.2;43.4;15;14.4;26.1;0.0;
26/02/2025 10:13:01;100;0;301.38;-4;-19.96;-4.51;293.2;16.20;76332;2836.683;-1800.059;1;313;-90;-82.3;43.2;43.4;15;14.4;26.0;0.0;
26/02/2025 10:13:21;100;0;302.03;-4;-20.08;-4.54;295.3;16.20;76340;2836.686;-1800.063;1;313;-90;-82.3;43.2;43.4;15;14.4;26.1;0.0;
26/02/2025 10:13:41;100;0;302.23;-4;-20.29;-4.47;297.5;16.20;76327;2836.688;-1800.066;1;313;-90;-82.3;43.2;43.4;15;14.4;26.1;0.0;
26/02/2025 10:14:01;100;0;300.10;-4;-20.18;-4.52;299.8;16.10;76317;2836.691;-1800.069;1;313;-90;-82.3;43.2;43.4;15;14.4;26.1;0.0;
26/02/2025 10:14:21;100;0;298.83;-4;-20.36;-4.50;301.8;16.10;76311;2836.693;-1800.072;1;313;-110;-109.7;43.2;43.4;15;14.4;26.0;0.0;
26/02/2025 10:14:41;100;0;298.15;-4;-19.87;-4.32;304.2;16.10;76378;2836.695;-1800.075;1;313;-110;-112.9;43.2;43.4;15;14.4;26.0;0.0;
26/02/2025 10:15:01;100;0;294.76;-4;-19.77;-4.31;306.8;16.00;76368;2836.698;-1800.079;1;313;-110;-111.3;43.2;43.4;12;12.2;26.0;0.0;
26/02/2025 10:15:21;100;0;293.14;-4;-19.63;-5.62;309.1;16.00;76361;2836.700;-1800.083;1;313;-110;-112.9;43.2;43.4;12;11.7;26.0;0.0;
26/02/2025 10:15:41;100;0;292.49;-4;-19.37;-5.62;311.4;16.00;76354;2836.702;-1800.087;1;313;-110;-109.7;43.2;43.4;10;9.5;26.0;0.0;
26/02/2025 10:16:01;100;0;292.99;-4;-19.14;-6.91;313.6;16.00;76352;2836.705;-1800.090;1;313;-110;-112.9;43.2;43.4;10;9.5;26.0;0.0;
26/02/2025 10:16:21;100;0;294.29;-4;-19.17;-6.86;315.7;15.90;76340;2836.707;-1800.093;1;313;-110;-112.9;43.2;43.4;13;13.1;26.0;0.0;
26/02/2025 10:16:41;100;0;295.23;-4;-19.51;-4.89;317.8;15.90;76338;2836.709;-1800.097;1;313;-110;-111.3;43.2;43.4;13;13.1;26.1;0.0;
26/02/2025 10:17:01;100;0;298.29;-4;-19.48;-4.85;320.0;15.90;76326;2836.711;-1800.100;1;313;-110;-114.5;43.2;43.4;13;13.5;26.1;0.0;
26/02/2025 10:17:21;100;0;301.49;-4;-19.35;-4.88;322.2;15.80;76318;2836.714;-1800.103;1;313;-110;-111.3;43.2;43.4;13;13.1;26.0;0.0;
26/02/2025 10:17:41;100;0;299.37;-4;-19.36;-4.93;324.3;15.80;76314;2836.716;-1800.106;1;313;-110;-111.3;43.2;43.4;13;13.5;26.1;0.0;
26/02/2025 10:18:01;100;0;299.01;-4;-19.40;-4.89;326.2;15.80;76296;2836.719;-1800.109;1;313;-130;-130.6;43.2;43.4;13;13.5;26.1;0.0;
26/02/2025 10:18:21;100;0;302.10;-4;-18.93;-4.81;328.2;15.80;76342;2836.721;-1800.112;1;313;-150;-148.4;43.5;43.6;13;13.5;26.0;0.0;
26/02/2025 10:18:41;100;0;303.90;-4;-19.15;-4.75;330.5;15.70;76379;2836.724;-1800.116;1;313;-150;-151.6;43.5;43.9;13;13.5;26.1;0.0;
26/02/2025 10:19:01;100;0;307.74;-4;-19.74;-4.67;332.6;15.70;76366;2836.727;-1800.119;1;313;-150;-151.6;43.5;43.9;15;14.9;26.1;0.0;
26/02/2025 10:19:21;100;0;309.09;-4;-19.93;-3.83;335.0;15.60;76362;2836.730;-1800.122;1;313;-150;-151.6;43.5;43.9;15;14.9;26.1;0.0;
26/02/2025 10:19:41;100;0;310.06;-4;-19.83;-3.80;337.5;15.60;76355;2836.733;-1800.125;1;313;-150;-151.6;43.5;43.9;15;15.3;26.0;0.0;
26/02/2025 10:20:01;100;0;308.35;-4;-20.03;-3.76;339.7;15.60;76335;2836.736;-1800.128;1;313;-150;-151.6;43.5;43.9;15;15.3;26.1;0.0;
26/02/2025 10:20:21;100;0;305.67;-4;-20.17;-3.72;342.2;15.60;76339;2836.738;-1800.131;1;313;-150;-151.6;43.5;43.9;15;15.3;26.1;0.0;
26/02/2025 10:20:41;100;0;305.10;-4;-20.19;-3.71;344.7;15.50;76330;2836.741;-1800.135;1;313;-150;-151.6;43.5;43.9;15;15.3;26.1;0.0;
26/02/2025 10:21:01;100;0;304.68;-4;-20.17;-3.72;347.3;15.50;76327;2836.744;-1800.138;1;313;-150;-150.0;43.5;43.9;15;15.3;26.0;0.0;
26/02/2025 10:21:21;100;0;303.91;-4;-20.29;-3.71;350.0;15.50;76318;2836.747;-1800.142;1;313;-150;-151.6;43.5;43.9;15;15.3;26.1;0.0;
26/02/2025 10:21:41;100;0;299.48;-4;-20.25;-3.73;352.6;15.40;76322;2836.750;-1800.146;1;313;-150;-151.6;43.5;43.9;15;15.3;26.1;0.0;
26/02/2025 10:22:01;100;0;297.39;-4;-20.15;-3.74;355.2;15.40;76309;2836.752;-1800.149;1;313;-150;-151.6;43.5;43.9;13;12.6;26.1;0.0;
26/02/2025 10:22:21;100;0;296.99;-4;-19.65;-5.15;357.9;15.40;76305;2836.755;-1800.153;1;313;-150;-151.6;43.5;43.9;13;12.6;26.1;0.0;
26/02/2025 10:22:41;100;0;298.59;-4;-19.60;-5.09;360.5;15.30;76298;2836.758;-1800.157;1;313;-150;-151.6;43.5;44.0;13;12.6;26.1;0.0;
26/02/2025 10:23:01;100;0;299.20;-4;-19.85;-5.08;363.1;15.30;76289;2836.760;-1800.161;1;313;-150;-151.6;43.5;44.0;13;12.6;26.1;0.0;
26/02/2025 10:23:21;100;0;297.56;-4;-20.07;-5.14;365.9;15.30;76283;2836.763;-1800.165;1;313;-150;-151.6;43.5;43.9;13;12.6;26.0;0.0;
26/02/2025 10:23:41;100;0;300.11;-4;-19.91;-5.08;368.8;15.20;76272;2836.766;-1800.169;1;313;-150;-151.6;43.5;43.9;13;12.6;26.1;0.0;
26/02/2025 10:24:01;100;0;302.91;-4;-19.84;-5.10;371.7;15.20;76271;2836.769;-1800.173;1;313;-150;-150.0;43.5;43.9;13;12.6;26.0;0.0;
26/02/2025 10:24:21;100;0;305.84;-4;-19.75;-5.09;374.6;15.20;76269;2836.772;-1800.177;1;313;-150;-151.6;43.5;43.9;13;12.6;26.1;0.0;
26/02/2025 10:24:41;100;0;308.47;-4;-19.84;-5.10;377.5;15.20;76265;2836.776;-1800.181;1;313;-150;-151.6;43.5;43.9;13;12.6;26.1;0.0;
26/02/2025 10:25:01;100;0;309.87;-4;-19.91;-5.16;380.5;15.10;76256;2836.779;-1800.185;1;313;-150;-151.6;43.5;43.9;13;12.6;26.1;0.0;
26/02/2025 10:25:21;100;0;312.21;-4;-19.81;-5.10;383.6;15.10;76250;2836.783;-1800.188;1;313;-150;-151.6;43.5;43.9;15;14.9;26.0;0.0;
26/02/2025 10:25:41;100;0;314.85;-4;-19.93;-3.64;386.6;15.00;76231;2836.787;-1800.192;1;313;-150;-151.6;43.5;43.9;17;17.6;26.0;0.0;
26/02/2025 10:26:01;100;0;315.10;-4;-20.09;-2.46;389.7;15.00;76231;2836.791;-1800.196;1;313;-150;-151.6;43.5;43.9;17;17.6;26.0;0.0;
26/02/2025 10:26:21;100;0;312.98;-4;-20.27;-2.43;392.8;15.00;76236;2836.794;-1800.199;1;313;-150;-151.6;43.5;43.9;15;14.9;26.0;0.0;
26/02/2025 10:26:41;100;0;310.72;-4;-20.00;-4.10;396.0;15.00;76231;2836.798;-1800.203;1;313;-150;-151.6;43.5;43.9;15;14.4;26.1;0.0;
26/02/2025 10:27:01;100;0;310.80;-4;-20.12;-4.06;399.1;15.00;76226;2836.802;-1800.207;1;313;-150;-151.6;43.5;43.9;15;14.4;26.1;0.0;
26/02/2025 10:27:21;100;0;312.49;-4;-20.02;-4.05;402.2;14.90;76220;2836.805;-1800.211;1;313;-150;-151.6;43.5;44.0;15;14.9;26.1;0.0;
26/02/2025 10:27:41;100;0;314.78;-4;-19.81;-4.05;405.4;14.90;76207;2836.809;-1800.215;1;313;-150;-151.6;43.5;43.9;15;14.4;26.1;0.0;
26/02/2025 10:28:01;100;0;317.49;-4;-19.83;-4.05;408.6;14.90;76214;2836.813;-1800.218;1;313;-150;-151.6;43.5;43.9;19;19.0;26.0;0.0;
26/02/2025 10:28:21;100;0;316.94;-4;-19.83;-1.71;411.7;14.80;76204;2836.817;-1800.222;1;313;-150;-151.6;43.5;43.9;19;19.4;26.1;0.0;
26/02/2025 10:28:41;100;0;312.41;-4;-20.10;-1.66;414.8;14.80;76195;2836.821;-1800.226;1;313;-150;-151.6;43.5;43.9;15;14.9;26.0;0.0;
26/02/2025 10:29:01;100;0;307.63;-4;-20.10;-4.03;418.1;14.80;76191;2836.825;-1800.230;1;313;-150;-150.0;43.5;43.9;15;14.4;26.0;0.0;
26/02/2025 10:29:21;100;0;304.48;-4;-19.85;-4.07;421.4;14.80;76188;2836.828;-1800.234;1;313;-150;-151.6;43.5;43.9;15;14.4;26.1;0.0;
26/02/2025 10:29:41;100;0;302.17;-4;-19.70;-4.09;424.6;14.70;76168;2836.832;-1800.239;1;313;-150;-151.6;43.5;43.9;15;14.4;26.1;0.0;
26/02/2025 10:30:01;100;0;301.00;-4;-19.60;-4.10;427.8;14.70;76169;2836.835;-1800.243;1;313;-150;-153.2;43.5;43.9;15;14.4;26.1;0.0;
26/02/2025 10:30:21;100;0;300.58;-4;-19.60;-4.09;431.0;14.70;76171;2836.838;-1800.248;1;313;-150;-151.6;43.5;43.9;15;14.9;26.1;0.0;
26/02/2025 10:30:41;100;0;298.08;-4;-19.68;-4.12;434.2;14.60;76166;2836.841;-1800.252;1;313;-150;-151.6;43.5;43.9;13;13.1;26.1;0.0;
26/02/2025 10:31:01;100;0;294.76;-4;-19.61;-5.11;437.6;14.60;76154;2836.844;-1800.257;1;313;-150;-151.6;43.5;43.9;10;9.9;26.0;0.0;
26/02/2025 10:31:21;100;0;295.16;-4;-19.48;-6.57;440.7;14.60;76151;2836.846;-1800.262;1;313;-150;-151.6;43.5;43.9;10;9.5;26.1;0.0;
26/02/2025 10:31:41;100;0;295.29;-4;-19.39;-6.55;443.9;14.60;76156;2836.849;-1800.266;1;313;-150;-151.6;43.5;43.9;10;9.5;26.0;0.0;
26/02/2025 10:32:01;100;0;295.40;-4;-19.35;-6.50;447.0;14.50;76152;2836.852;-1800.271;1;313;-150;-151.6;43.5;43.9;10;9.9;26.1;0.0;
26/02/2025 10:32:21;100;0;296.90;-4;-19.18;-6.59;450.2;14.50;76144;2836.855;-1800.276;1;313;-150;-151.6;43.5;43.9;12;12.2;26.1;0.0;
26/02/2025 10:32:41;100;0;297.50;-4;-19.30;-5.12;453.4;14.50;76134;2836.858;-1800.281;1;313;-150;-151.6;43.5;43.9;12;12.6;26.0;0.0;
26/02/2025 10:33:01;100;0;295.60;-4;-19.41;-5.12;456.4;14.50;76134;2836.861;-1800.285;1;313;-150;-151.6;43.5;43.9;10;9.5;26.0;0.0;
26/02/2025 10:33:21;100;0;297.15;-4;-19.37;-6.66;459.5;14.40;76125;2836.864;-1800.290;1;313;-150;-151.6;43.5;43.9;12;12.2;26.1;0.0;
26/02/2025 10:33:41;100;0;298.33;-4;-19.39;-5.29;462.6;14.40;76115;2836.867;-1800.294;1;313;-150;-151.6;43.5;43.9;12;12.2;26.1;0.0;
26/02/2025 10:34:01;100;0;298.92;-4;-19.53;-5.25;465.7;14.40;76116;2836.870;-1800.299;1;313;-150;-151.6;43.5;44.0;12;12.2;26.1;0.0;
26/02/2025 10:34:21;100;0;300.95;-4;-19.66;-5.19;468.8;14.40;76117;2836.873;-1800.303;1;313;-150;-151.6;43.5;43.9;12;12.2;26.0;0.0;
26/02/2025 10:34:41;100;0;303.20;-4;-19.86;-5.21;471.9;14.30;76108;2836.876;-1800.307;1;313;-150;-151.6;43.5;43.9;14;14.0;26.1;0.0;
26/02/2025 10:35:01;100;0;301.34;-4;-19.69;-4.06;475.1;14.30;76099;2836.879;-1800.312;1;313;-150;-151.6;43.5;43.9;14;14.4;26.1;0.0;
26/02/2025 10:35:21;100;0;300.22;-4;-19.72;-4.05;478.2;14.30;76101;2836.882;-1800.316;1;313;-150;-151.6;43.5;43.9;14;14.4;26.1;0.0;
26/02/2025 10:35:41;100;0;300.10;-4;-20.13;-4.02;481.3;14.30;76094;2836.885;-1800.320;1;313;-150;-151.6;43.5;44.0;14;14.4;26.1;0.0;
26/02/2025 10:36:01;100;0;301.40;-4;-20.01;-4.05;484.6;14.20;76092;2836.889;-1800.325;1;313;-150;-151.6;43.5;43.9;14;14.9;26.0;0.0;
26/02/2025 10:36:21;100;0;302.22;-4;-20.24;-4.02;487.9;14.20;76085;2836.892;-1800.329;1;313;-150;-151.6;43.5;43.9;14;14.4;26.1;0.0;
26/02/2025 10:36:41;100;0;300.58;-4;-19.85;-4.09;491.2;14.20;76086;2836.895;-1800.334;1;313;-150;-151.6;43.5;43.9;14;14.4;26.1;0.0;
26/02/2025 10:37:01;100;0;301.49;-4;-19.71;-4.09;494.4;14.20;76079;2836.898;-1800.338;1;313;-150;-150.0;43.5;43.9;14;14.4;26.0;0.0;
26/02/2025 10:37:21;100;0;303.34;-4;-19.47;-4.11;497.5;14.10;76061;2836.902;-1800.343;1;313;-150;-151.6;43.5;43.9;14;14.4;26.1;0.0;
26/02/2025 10:37:41;100;0;304.14;-4;-19.69;-4.04;500.7;14.10;76062;2836.905;-1800.347;1;313;-150;-151.6;43.5;43.9;14;14.4;26.1;0.0;
26/02/2025 10:38:01;100;0;303.26;-4;-19.68;-4.06;503.9;14.10;76055;2836.908;-1800.351;1;313;-150;-151.6;43.5;43.9;14;14.4;26.1;0.0;
26/02/2025 10:38:21;100;0;305.54;-4;-19.56;-3.94;507.0;14.00;76041;2836.912;-1800.356;1;313;-150;-151.6;43.5;43.9;14;14.4;26.1;0.0;
26/02/2025 10:38:41;100;0;309.59;-4;-19.20;-3.97;510.1;14.00;76033;2836.915;-1800.360;1;313;-150;-151.6;43.5;43.9;14;14.9;26.0;0.0;
26/02/2025 10:39:01;100;0;312.65;-4;-19.54;-4.14;513.1;14.00;76045;2836.919;-1800.363;1;313;-150;-151.6;43.5;43.9;14;14.4;26.0;0.0;
26/02/2025 10:39:21;100;0;314.04;-4;-19.43;-4.11;516.3;14.00;76041;2836.923;-1800.367;1;313;-150;-151.6;43.5;43.9;14;14.4;26.1;0.0;
26/02/2025 10:39:41;100;0;314.99;-4;-19.29;-4.02;519.4;13.90;76023;2836.927;-1800.371;1;313;-150;-150.0;43.5;43.9;16;15.8;26.1;0.0;
26/02/2025 10:40:01;100;0;315.47;-4;-19.27;-3.21;522.4;13.90;76021;2836.931;-1800.375;1;313;-150;-151.6;43.5;44.0;16;16.2;26.0;0.0;
26/02/2025 10:40:21;100;0;316.15;-4;-19.50;-3.20;525.3;13.90;76019;2836.935;-1800.378;1;313;-150;-150.0;43.5;43.9;18;18.1;26.0;0.0;
26/02/2025 10:40:41;100;0;314.84;-4;-19.88;-2.01;528.4;13.90;76010;2836.939;-1800.382;1;313;-150;-151.6;43.5;43.9;16;15.8;26.0;0.0;
26/02/2025 10:41:01;100;0;313.67;-4;-19.67;-3.67;531.4;13.90;76010;2836.942;-1800.385;1;313;-150;-151.6;43.5;43.9;16;15.8;26.0;0.0;
26/02/2025 10:41:21;100;0;311.78;-4;-19.56;-3.70;534.4;13.80;75996;2836.946;-1800.389;1;313;-150;-151.6;43.5;43.9;16;15.3;26.1;0.0;
26/02/2025 10:41:41;100;0;308.99;-4;-18.44;-3.52;537.2;13.80;76009;2836.949;-1800.393;1;313;-150;-151.6;44.0;44.2;14;14.0;26.0;0.0;
26/02/2025 10:42:01;100;0;308.11;-4;-18.98;-4.38;539.9;13.80;76005;2836.953;-1800.397;1;313;-150;-151.6;44.3;44.3;14;14.0;26.0;0.0;
26/02/2025 10:42:21;100;0;304.97;-4;-19.79;-4.79;542.5;13.70;75995;2836.956;-1800.400;1;313;-150;-151.6;44.3;44.6;14;14.0;26.1;0.0;
26/02/2025 10:42:41;100;0;300.33;-4;-20.36;-4.47;545.2;13.70;75981;2836.958;-1800.404;1;313;-150;-151.6;44.3;44.6;14;14.0;26.1;0.0;
26/02/2025 10:43:01;100;0;297.23;-4;-20.82;-4.30;548.0;13.70;75976;2836.961;-1800.408;1;313;-150;-151.6;44.3;44.6;14;14.0;26.0;0.0;
26/02/2025 10:43:21;100;0;294.88;-4;-20.28;-4.42;550.6;13.70;75982;2836.964;-1800.412;1;313;-150;-151.6;44.3;44.6;11;10.8;26.0;0.0;
26/02/2025 10:43:41;100;0;294.30;-4;-20.25;-6.00;553.1;13.60;75970;2836.966;-1800.416;1;313;-150;-151.6;44.3;44.6;11;10.8;26.1;0.0;
26/02/2025 10:44:01;100;0;295.37;-4;-20.35;-6.40;556.0;13.60;75973;2836.969;-1800.420;1;313;-150;-151.6;44.3;44.6;11;10.8;26.1;0.0;
26/02/2025 10:44:22;100;0;296.13;-4;-20.41;-6.19;558.6;13.60;75963;2836.971;-1800.424;1;313;-150;-153.2;44.3;44.6;11;10.8;26.0;0.0;
26/02/2025 10:44:42;100;0;297.50;-4;-20.42;-6.10;561.4;13.60;75963;2836.974;-1800.428;1;313;-150;-151.6;44.3;44.6;11;10.4;26.0;0.0;
26/02/2025 10:45:02;100;0;298.18;-4;-20.44;-6.09;564.0;13.60;75965;2836.976;-1800.431;1;313;-150;-151.6;44.3;44.6;13;13.1;26.1;0.0;
26/02/2025 10:45:22;100;0;297.23;-4;-19.64;-4.52;566.7;13.50;75955;2836.979;-1800.435;1;313;-150;-153.2;44.3;44.6;13;13.5;26.0;0.0;
26/02/2025 10:45:42;100;0;296.08;-4;-19.70;-4.81;569.3;13.50;75952;2836.982;-1800.439;1;313;-150;-151.6;44.3;44.6;13;13.5;26.1;0.0;
26/02/2025 10:46:02;100;0;296.51;-4;-19.78;-4.77;571.7;13.50;75941;2836.984;-1800.443;1;313;-150;-150.0;44.3;44.6;13;13.1;26.0;0.0;
26/02/2025 10:46:22;100;0;296.59;-4;-20.59;-4.69;574.1;13.50;75942;2836.986;-1800.446;1;313;-150;-154.8;44.3;44.6;13;13.5;26.0;0.0;
26/02/2025 10:46:42;100;0;299.52;-4;-20.90;-4.79;576.7;13.40;75929;2836.989;-1800.450;1;313;-150;-151.6;44.3;44.8;13;13.5;26.1;0.0;
26/02/2025 10:47:02;100;0;303.32;-4;-20.60;-4.68;579.5;13.40;75933;2836.992;-1800.454;1;313;-150;-151.6;44.3;44.6;13;13.1;26.1;0.0;
26/02/2025 10:47:22;100;0;305.59;-4;-20.72;-4.64;582.2;13.40;75917;2836.995;-1800.457;1;313;-150;-151.6;44.3;44.6;13;13.5;26.0;0.0;
26/02/2025 10:47:42;100;0;307.99;-4;-20.74;-4.69;584.8;13.40;75910;2836.998;-1800.460;1;313;-150;-151.6;44.3;44.6;13;13.5;26.0;0.0;
26/02/2025 10:48:02;100;0;311.17;-4;-20.83;-4.62;587.6;13.30;75901;2837.001;-1800.464;1;313;-150;-153.2;44.3;44.6;15;15.3;26.1;0.0;
26/02/2025 10:48:22;100;0;311.92;-4;-21.29;-3.60;590.2;13.30;75893;2837.004;-1800.467;1;313;-150;-151.6;44.3;44.6;15;15.8;26.1;0.0;
26/02/2025 10:48:42;100;0;311.84;-4;-21.07;-3.55;592.9;13.30;75889;2837.008;-1800.470;1;313;-150;-151.6;44.3;44.6;15;15.8;26.1;0.0;
26/02/2025 10:49:02;100;0;311.19;-4;-21.17;-3.59;595.5;13.30;75889;2837.011;-1800.473;1;313;-150;-151.6;44.3;44.6;15;15.8;26.0;0.0;
26/02/2025 10:49:22;100;0;310.35;-4;-21.17;-3.57;598.3;13.30;75889;2837.014;-1800.477;1;313;-150;-151.6;44.3;44.6;15;15.8;26.0;0.0;
26/02/2025 10:49:42;100;0;310.08;-4;-21.09;-3.61;601.1;13.20;75889;2837.018;-1800.480;1;313;-150;-150.0;44.3;44.6;15;15.8;26.0;0.0;
26/02/2025 10:50:02;100;0;311.89;-4;-21.13;-3.43;603.8;13.20;75886;2837.021;-1800.484;1;313;-150;-151.6;44.3;44.6;15;15.3;26.0;0.0;
26/02/2025 10:50:22;100;0;310.73;-4;-21.06;-3.50;606.6;13.20;75879;2837.024;-1800.487;1;313;-150;-151.6;44.3;44.6;15;15.8;26.0;0.0;
26/02/2025 10:50:42;100;0;309.81;-4;-21.01;-3.61;609.4;13.20;75883;2837.027;-1800.491;1;313;-150;-151.6;44.3;44.6;15;15.8;26.1;0.0;
26/02/2025 10:51:02;100;0;309.33;-4;-20.89;-3.53;612.2;13.10;75869;2837.031;-1800.494;1;313;-150;-151.6;44.3;44.6;15;15.8;26.1;0.0;
26/02/2025 10:51:22;100;0;310.51;-4;-20.71;-3.59;615.0;13.10;75874;2837.034;-1800.497;1;313;-150;-151.6;44.3;44.6;15;15.8;26.0;0.0;
26/02/2025 10:51:42;100;0;309.76;-4;-21.09;-3.54;617.8;13.10;75864;2837.037;-1800.501;1;313;-150;-151.6;44.3;44.6;15;15.8;26.0;0.0;
26/02/2025 10:52:02;100;0;310.93;-4;-21.06;-3.48;620.6;13.10;75864;2837.041;-1800.504;1;313;-150;-153.2;44.3;44.6;15;15.8;26.1;0.0;
26/02/2025 10:52:22;100;0;311.18;-4;-20.55;-3.53;623.5;13.10;75854;2837.044;-1800.508;1;313;-150;-151.6;44.3;44.8;15;15.8;26.0;0.0;
26/02/2025 10:52:42;100;0;308.82;-4;-20.48;-3.63;626.2;13.00;75849;2837.047;-1800.511;1;313;-150;-151.6;44.3;44.8;15;15.8;26.1;0.0;
26/02/2025 10:53:02;100;0;306.79;-4;-20.48;-3.63;629.1;13.00;75834;2837.050;-1800.515;1;313;-150;-151.6;44.3;44.8;15;15.8;26.0;0.0;
26/02/2025 10:53:22;100;0;306.10;-4;-20.53;-3.61;631.8;13.00;75827;2837.053;-1800.519;1;313;-150;-151.6;44.3;44.6;15;15.8;26.1;0.0;
26/02/2025 10:53:42;100;0;303.84;-4;-20.45;-3.60;634.8;13.00;75820;2837.057;-1800.523;1;313;-150;-151.6;44.3;44.8;15;15.8;26.1;0.0;
26/02/2025 10:54:02;100;0;303.17;-4;-20.51;-3.62;637.7;12.90;75816;2837.060;-1800.527;1;313;-150;-151.6;44.3;44.8;15;15.8;26.0;0.0;
26/02/2025 10:54:22;100;0;301.67;-4;-20.53;-3.64;640.7;12.90;75822;2837.063;-1800.531;1;313;-150;-151.6;44.3;44.6;15;15.8;26.0;0.0;
26/02/2025 10:54:42;100;0;300.26;-4;-20.72;-3.59;643.8;12.90;75810;2837.066;-1800.535;1;313;-150;-151.6;44.3;44.8;15;15.8;26.0;0.0;
26/02/2025 10:55:02;100;0;298.20;-4;-20.59;-3.69;646.9;12.90;75810;2837.069;-1800.539;1;313;-150;-150.0;44.3;44.6;13;13.1;26.1;0.0;
26/02/2025 10:55:22;100;0;295.80;-4;-20.29;-5.13;650.1;12.80;75793;2837.071;-1800.544;1;313;-150;-151.6;44.3;44.6;11;10.8;26.0;0.0;
26/02/2025 10:55:42;100;0;296.26;-4;-20.06;-6.10;653.2;12.80;75804;2837.074;-1800.548;1;313;-150;-151.6;44.3;44.6;11;10.8;26.0;0.0;
26/02/2025 10:56:02;100;0;294.97;-4;-20.08;-6.08;656.3;12.80;75797;2837.077;-1800.553;1;313;-150;-151.6;44.3;44.6;11;10.8;26.1;0.0;
26/02/2025 10:56:22;100;0;294.04;-4;-20.32;-6.13;659.7;12.80;75795;2837.080;-1800.558;1;313;-150;-151.6;44.3;44.6;9;9.0;26.1;0.0;
26/02/2025 10:56:42;100;0;294.42;-4;-20.15;-7.05;663.0;12.80;75777;2837.082;-1800.563;1;313;-150;-154.8;44.3;44.6;9;8.6;26.0;0.0;
26/02/2025 10:57:02;100;0;296.72;-4;-19.88;-6.98;666.4;12.70;75780;2837.086;-1800.567;1;313;-150;-151.6;44.3;44.6;11;10.8;26.0;0.0;
26/02/2025 10:57:22;100;0;299.26;-4;-20.11;-5.79;669.7;12.70;75755;2837.089;-1800.572;1;313;-150;-151.6;44.3;44.6;13;13.1;26.0;0.0;
26/02/2025 10:57:42;100;0;302.10;-4;-20.16;-4.82;673.2;12.70;75756;2837.092;-1800.577;1;313;-150;-151.6;44.3;44.6;13;13.1;26.0;0.0;
26/02/2025 10:58:02;100;0;303.53;-4;-20.07;-4.76;676.5;12.70;75738;2837.095;-1800.581;1;313;-150;-151.6;44.3;44.6;13;13.5;26.0;0.0;
26/02/2025 10:58:22;100;0;305.89;-4;-20.16;-4.77;679.7;12.60;75755;2837.099;-1800.586;1;313;-150;-151.6;44.3;44.6;13;13.1;26.1;0.0;
26/02/2025 10:58:42;100;0;307.32;-4;-20.21;-4.79;683.0;12.60;75736;2837.103;-1800.590;1;313;-150;-151.6;44.3;44.6;13;13.1;26.0;0.0;
26/02/2025 10:59:02;100;0;308.96;-4;-20.24;-4.76;686.2;12.60;75727;2837.106;-1800.594;1;313;-150;-151.6;44.3;44.8;13;13.5;26.0;0.0;
26/02/2025 10:59:22;100;0;310.29;-4;-20.33;-4.74;689.4;12.60;75732;2837.110;-1800.598;1;313;-150;-150.0;44.3;44.8;13;13.5;26.1;0.0;
26/02/2025 10:59:42;100;0;312.32;-4;-20.19;-4.72;692.7;12.50;75725;2837.114;-1800.602;1;313;-150;-151.6;44.3;44.6;15;14.9;26.0;0.0;
26/02/2025 11:00:02;100;0;314.03;-4;-20.41;-3.58;695.8;12.50;75723;2837.118;-1800.606;1;313;-150;-151.6;44.3;44.6;15;15.8;26.0;0.0;
26/02/2025 11:00:22;100;0;313.10;-4;-20.42;-3.67;699.0;12.50;75730;2837.121;-1800.609;1;313;-150;-151.6;44.3;44.6;15;15.8;26.0;0.0;
26/02/2025 11:00:42;100;0;312.03;-4;-20.54;-3.64;702.0;12.50;75714;2837.125;-1800.613;1;313;-150;-151.6;44.3;44.8;15;15.8;26.1;0.0;
26/02/2025 11:01:02;100;0;311.16;-4;-20.28;-3.75;705.2;12.40;75714;2837.129;-1800.617;1;313;-150;-151.6;44.3;44.6;15;15.3;26.0;0.0;
26/02/2025 11:01:22;100;0;311.55;-4;-20.49;-3.65;708.1;12.40;75712;2837.132;-1800.620;1;313;-150;-151.6;44.3;44.6;15;15.8;26.0;0.0;
26/02/2025 11:01:42;100;0;313.46;-4;-20.54;-3.60;711.3;12.40;75710;2837.136;-1800.624;1;313;-150;-151.6;44.3;44.6;15;15.3;26.1;0.0;
26/02/2025 11:02:02;100;0;313.93;-4;-20.18;-3.59;714.5;12.40;75702;2837.140;-1800.628;1;313;-150;-151.6;44.3;44.6;15;15.3;26.1;0.0;
26/02/2025 11:02:22;100;0;313.94;-4;-20.12;-3.65;717.5;12.40;75704;2837.144;-1800.632;1;313;-150;-151.6;44.3;44.6;15;15.3;26.1;0.0;
26/02/2025 11:02:42;100;0;313.56;-4;-20.54;-3.61;720.6;12.30;75694;2837.147;-1800.635;1;313;-150;-151.6;44.3;44.6;15;15.8;26.0;0.0;
26/02/2025 11:03:02;100;0;310.21;-4;-20.33;-3.66;723.7;12.30;75690;2837.151;-1800.639;1;313;-150;-151.6;44.3;44.6;15;15.8;26.1;0.0;
26/02/2025 11:03:22;100;0;307.28;-4;-20.27;-3.67;726.6;12.30;75677;2837.154;-1800.643;1;313;-150;-151.6;44.3;44.6;15;15.3;26.0;0.0;
26/02/2025 11:03:42;100;0;304.83;-4;-20.26;-3.70;729.7;12.30;75664;2837.158;-1800.647;1;313;-150;-151.6;44.3;44.6;15;15.3;26.0;0.0;
26/02/2025 11:04:02;100;0;303.26;-4;-20.03;-3.65;732.5;12.30;75662;2837.161;-1800.651;1;313;-150;-150.0;44.3;44.6;15;15.8;26.0;0.0;
26/02/2025 11:04:22;100;0;302.44;-4;-20.26;-3.69;735.4;12.20;75652;2837.164;-1800.655;1;313;-150;-151.6;44.3;44.6;15;15.8;26.0;0.0;
26/02/2025 11:04:42;100;0;301.89;-4;-19.94;-3.65;738.3;12.20;75647;2837.167;-1800.659;1;313;-150;-150.0;44.3;44.6;15;15.3;26.0;0.0;
26/02/2025 11:05:02;100;0;299.27;-4;-20.03;-3.66;741.0;12.20;75648;2837.169;-1800.663;1;313;-150;-151.6;44.3;44.6;13;13.1;26.1;0.0;
26/02/2025 11:05:22;100;0;296.62;-4;-20.10;-5.16;743.7;12.10;75641;2837.172;-1800.667;1;313;-150;-151.6;44.3;44.6;13;12.6;26.0;0.0;
26/02/2025 11:05:42;100;0;295.19;-4;-20.32;-5.11;746.6;12.10;75642;2837.175;-1800.671;1;313;-150;-151.6;44.3;44.8;11;10.8;26.0;0.0;
26/02/2025 11:06:02;100;0;292.58;-4;-20.07;-6.19;749.3;12.10;75642;2837.177;-1800.675;1;313;-150;-151.6;44.3;44.8;8;8.1;26.1;0.0;
26/02/2025 11:06:22;100;0;292.81;-4;-19.98;-7.50;752.0;12.10;75629;2837.179;-1800.679;1;313;-150;-151.6;44.3;44.6;8;7.7;26.0;0.0;
26/02/2025 11:06:42;100;0;294.05;-4;-19.60;-7.48;754.7;12.10;75630;2837.182;-1800.683;1;313;-150;-151.6;44.3;44.6;10;9.9;26.0;0.0;
26/02/2025 11:07:02;100;0;299.45;-4;-19.76;-6.19;757.3;12.10;75618;2837.185;-1800.687;1;313;-150;-151.6;44.3;44.6;13;13.5;26.0;0.0;
26/02/2025 11:07:22;100;0;303.91;-4;-19.83;-4.60;760.1;12.00;75608;2837.188;-1800.691;1;313;-150;-151.6;44.3;44.6;13;13.5;26.1;0.0;
26/02/2025 11:07:42;100;0;308.74;-4;-19.07;-4.56;762.8;12.00;75596;2837.191;-1800.694;1;313;-150;-151.6;44.3;44.6;13;13.5;26.0;0.0;
26/02/2025 11:08:02;100;0;314.92;-4;-20.67;-4.58;765.3;12.00;75585;2837.194;-1800.697;1;313;-150;-151.6;44.3;44.6;18;18.1;26.0;0.0;
26/02/2025 11:08:22;100;0;313.76;-4;-20.15;-2.02;768.1;11.90;75579;2837.198;-1800.701;1;313;-150;-151.6;44.3;44.6;16;15.8;26.1;0.0;
26/02/2025 11:08:42;100;0;313.65;-4;-20.08;-3.29;770.8;11.90;75572;2837.201;-1800.704;1;313;-150;-151.6;44.3;44.6;16;15.8;26.0;0.0;
26/02/2025 11:09:02;100;0;316.66;-4;-20.15;-3.66;773.5;11.90;75562;2837.205;-1800.707;1;313;-150;-150.0;44.3;44.6;19;19.0;26.0;0.0;
26/02/2025 11:09:22;100;0;319.46;-4;-20.16;-1.80;776.2;11.90;75550;2837.208;-1800.710;1;313;-150;-151.6;44.3;44.6;23;23.0;26.0;0.0;
26/02/2025 11:09:42;100;0;318.74;-4;-20.49;0.16;779.0;11.80;75538;2837.212;-1800.713;1;313;-150;-151.6;44.3;44.6;21;21.2;26.0;0.0;
26/02/2025 11:10:02;100;0;316.01;-4;-20.32;-0.95;781.7;11.80;75532;2837.216;-1800.716;1;313;-150;-153.2;44.3;44.6;18;18.1;26.1;0.0;
26/02/2025 11:10:22;100;0;313.65;-4;-19.61;-2.46;784.2;11.80;75519;2837.219;-1800.720;1;313;-150;-151.6;44.3;44.6;18;18.1;26.0;0.0;
26/02/2025 11:10:42;100;0;312.26;-4;-19.57;-2.44;786.7;11.80;75526;2837.222;-1800.723;1;313;-150;-151.6;44.3;44.6;16;15.8;26.0;0.0;
26/02/2025 11:11:02;100;0;311.96;-4;-20.01;-3.76;789.1;11.70;75513;2837.225;-1800.726;1;313;-150;-151.6;44.3;44.6;16;15.8;26.0;0.0;
26/02/2025 11:11:22;100;0;313.47;-4;-19.75;-3.75;791.6;11.70;75516;2837.228;-1800.729;1;313;-150;-150.0;44.3;44.6;16;15.8;26.0;0.0;
26/02/2025 11:11:42;100;0;312.77;-4;-19.74;-3.76;794.1;11.70;75519;2837.232;-1800.732;1;313;-150;-151.6;44.3;44.8;16;15.8;26.0;0.0;
26/02/2025 11:12:02;100;0;313.83;-4;-19.73;-3.71;796.6;11.70;75509;2837.235;-1800.735;1;313;-150;-151.6;44.3;44.6;16;15.8;26.0;0.0;
26/02/2025 11:12:22;100;0;314.60;-4;-20.02;-3.64;799.1;11.60;75506;2837.238;-1800.738;1;313;-150;-151.6;44.3;44.6;18;18.1;26.0;0.0;
26/02/2025 11:12:42;100;0;313.63;-4;-19.68;-1.96;801.8;11.60;75504;2837.242;-1800.741;1;313;-150;-151.6;44.3;44.6;18;19.0;26.0;0.0;
26/02/2025 11:13:02;100;0;308.80;-4;-20.65;-2.11;804.5;11.60;75502;2837.245;-1800.745;1;313;-150;-151.6;44.3;44.6;14;14.0;26.0;0.0;
26/02/2025 11:13:22;100;0;305.70;-4;-20.06;-4.58;807.3;11.60;75490;2837.248;-1800.749;1;313;-150;-151.6;44.3;44.6;14;14.0;26.0;0.0;
26/02/2025 11:13:42;100;0;305.04;-4;-20.05;-4.57;810.2;11.60;75490;2837.251;-1800.752;1;313;-150;-151.6;44.3;44.6;14;14.0;26.0;0.0;
26/02/2025 11:14:02;100;0;304.71;-4;-19.78;-4.64;813.0;11.50;75480;2837.254;-1800.756;1;313;-150;-151.6;44.3;44.6;14;14.0;26.0;0.0;
26/02/2025 11:14:22;100;0;305.22;-4;-19.92;-4.74;815.9;11.50;75490;2837.258;-1800.760;1;313;-150;-151.6;44.3;44.6;14;14.0;26.0;0.0;
26/02/2025 11:14:42;100;0;306.79;-4;-19.89;-4.64;819.0;11.50;75486;2837.261;-1800.764;1;313;-150;-150.0;44.3;44.6;14;14.0;26.0;0.0;
26/02/2025 11:15:02;100;0;307.13;-4;-20.18;-4.67;821.8;11.50;75480;2837.264;-1800.768;1;313;-150;-151.6;44.3;44.6;14;14.0;26.0;0.0;
26/02/2025 11:15:22;100;0;307.63;-4;-19.88;-4.64;824.9;11.40;75471;2837.268;-1800.772;1;313;-150;-151.6;44.3;44.6;14;14.0;26.0;0.0;
26/02/2025 11:15:42;100;0;307.17;-4;-19.46;-4.63;828.1;11.40;75468;2837.271;-1800.776;1;313;-150;-151.6;44.3;44.8;14;13.5;26.1;0.0;
26/02/2025 11:16:02;100;0;304.85;-4;-19.65;-4.68;831.0;11.40;75461;2837.274;-1800.780;1;313;-150;-151.6;44.3;44.6;14;13.5;26.0;0.0;
26/02/2025 11:16:22;100;0;305.74;-4;-19.88;-4.47;834.1;11.40;75459;2837.278;-1800.784;1;313;-150;-151.6;44.3;44.8;14;14.0;26.1;0.0;
26/02/2025 11:16:42;100;0;306.96;-4;-19.34;-4.67;837.1;11.40;75463;2837.281;-1800.788;1;313;-150;-151.6;44.3;44.6;14;14.0;26.0;0.0;
26/02/2025 11:17:02;100;0;308.09;-4;-19.72;-4.49;840.2;11.30;75461;2837.285;-1800.792;1;313;-150;-151.6;44.3;44.8;14;14.0;26.1;0.0;
26/02/2025 11:17:22;100;0;306.69;-4;-19.62;-4.67;843.2;11.30;75446;2837.288;-1800.796;1;313;-150;-151.6;44.3;44.6;14;14.0;26.1;0.0;
26/02/2025 11:17:42;100;0;307.63;-4;-19.64;-4.66;846.4;11.30;75446;2837.292;-1800.800;1;313;-150;-153.2;44.3;44.6;14;14.0;26.0;0.0;
26/02/2025 11:18:02;100;0;309.16;-4;-19.81;-4.59;849.5;11.30;75451;2837.295;-1800.804;1;313;-150;-153.2;44.3;44.6;14;13.5;26.0;0.0;
26/02/2025 11:18:22;100;0;310.19;-4;-19.36;-4.69;852.6;11.20;75437;2837.299;-1800.808;1;313;-150;-151.6;44.3;44.6;14;13.5;26.0;0.0;
26/02/2025 11:18:42;100;0;311.58;-4;-19.41;-4.61;855.7;11.20;75444;2837.303;-1800.812;1;313;-150;-151.6;44.3;44.6;14;14.0;26.0;0.0;
26/02/2025 11:19:03;100;0;311.24;-4;-19.61;-4.67;858.9;11.20;75428;2837.306;-1800.816;1;313;-150;-151.6;44.3;44.6;14;14.0;26.0;0.0;
26/02/2025 11:19:23;100;0;311.32;-4;-19.22;-4.75;861.7;11.20;75424;2837.310;-1800.820;1;313;-150;-151.6;44.3;44.6;14;14.0;26.0;0.0;
26/02/2025 11:19:43;100;0;311.05;-4;-19.71;-4.08;864.9;11.20;75414;2837.314;-1800.824;1;313;-150;-150.0;44.3;44.6;14;14.0;26.0;0.0;
26/02/2025 11:20:03;100;0;313.22;-4;-19.50;-4.49;867.8;11.10;75407;2837.317;-1800.827;1;313;-150;-151.6;44.3;44.6;16;15.8;26.0;0.0;
26/02/2025 11:20:23;100;0;309.90;-4;-19.74;-3.34;870.6;11.10;75405;2837.321;-1800.831;1;313;-150;-151.6;44.3;44.6;16;16.2;26.0;0.0;
26/02/2025 11:20:43;100;0;305.11;-4;-19.35;-3.60;873.8;11.10;75399;2837.324;-1800.835;1;313;-150;-151.6;44.3;44.8;16;16.2;26.1;0.0;
26/02/2025 11:21:03;100;0;303.86;-4;-19.59;-3.50;876.7;11.10;75397;2837.327;-1800.839;1;313;-150;-150.0;44.3;44.6;16;16.2;26.0;0.0;
26/02/2025 11:21:23;100;0;303.84;-4;-20.23;-3.49;879.5;11.10;75395;2837.330;-1800.843;1;313;-150;-151.6;44.3;44.8;16;15.8;26.0;0.0;
26/02/2025 11:21:43;100;0;302.69;-4;-19.58;-3.56;882.5;11.00;75397;2837.334;-1800.847;1;313;-150;-153.2;44.3;44.6;14;14.0;26.0;0.0;
26/02/2025 11:22:03;100;0;303.54;-4;-19.32;-4.80;885.4;11.00;75382;2837.337;-1800.851;1;313;-150;-151.6;44.3;44.6;14;13.5;26.0;0.0;
26/02/2025 11:22:23;100;0;304.80;-4;-19.39;-4.74;888.2;11.00;75380;2837.340;-1800.855;1;313;-150;-151.6;44.3;44.8;14;13.5;26.0;0.0;
26/02/2025 11:22:43;100;0;303.31;-4;-19.03;-4.84;891.0;11.00;75377;2837.343;-1800.859;1;313;-150;-151.6;44.3;44.6;14;13.5;26.0;0.0;
26/02/2025 11:23:03;100;0;301.59;-4;-19.34;-4.75;893.7;11.00;75370;2837.346;-1800.863;1;313;-150;-151.6;44.3;44.6;14;13.5;26.1;0.0;
26/02/2025 11:23:23;100;0;301.51;-4;-19.34;-4.78;896.5;10.90;75356;2837.349;-1800.867;1;313;-150;-151.6;44.3;44.6;14;13.5;26.0;0.0;
26/02/2025 11:23:43;100;0;300.45;-4;-19.29;-4.80;899.2;10.90;75357;2837.352;-1800.871;1;313;-150;-151.6;44.3;44.6;14;13.5;26.0;0.0;
26/02/2025 11:24:03;100;0;299.50;-4;-19.51;-4.81;902.0;10.90;75346;2837.355;-1800.875;1;313;-150;-150.0;44.3;44.6;14;13.5;26.1;0.0;
26/02/2025 11:24:23;100;0;299.15;-4;-19.35;-4.85;904.8;10.80;75337;2837.358;-1800.879;1;313;-150;-151.6;44.3;44.6;14;13.5;26.0;0.0;
26/02/2025 11:24:43;100;0;303.37;-4;-19.28;-4.77;907.6;10.80;75334;2837.361;-1800.883;1;313;-150;-151.6;44.3;44.6;14;13.5;26.1;0.0;
26/02/2025 11:25:03;100;0;305.40;-4;-19.25;-4.88;910.1;10.80;75332;2837.364;-1800.887;1;313;-150;-150.0;44.3;44.6;14;13.5;26.1;0.0;
26/02/2025 11:25:23;100;0;307.21;-4;-19.18;-4.73;912.5;10.80;75331;2837.367;-1800.890;1;313;-150;-151.6;44.3;44.6;14;13.5;26.1;0.0;
26/02/2025 11:25:43;100;0;307.50;-4;-19.50;-4.73;915.1;10.80;75322;2837.370;-1800.894;1;313;-150;-151.6;44.3;44.6;14;13.5;26.1;0.0;
26/02/2025 11:26:03;100;0;307.15;-4;-19.38;-4.67;917.8;10.70;75315;2837.373;-1800.897;1;313;-150;-151.6;44.3;44.6;14;13.5;26.1;0.0;
26/02/2025 11:26:23;100;0;306.69;-4;-19.20;-4.60;920.3;10.70;75320;2837.376;-1800.901;1;313;-150;-151.6;44.3;44.6;14;13.5;26.0;0.0;
26/02/2025 11:26:43;100;0;306.29;-4;-19.44;-4.78;923.0;10.70;75322;2837.379;-1800.905;1;313;-150;-151.6;44.3;44.6;14;13.5;26.0;0.0;
26/02/2025 11:27:03;100;0;306.83;-4;-19.32;-4.72;925.6;10.70;75306;2837.382;-1800.908;1;313;-150;-151.6;44.3;44.8;14;13.5;26.1;0.0;
26/02/2025 11:27:23;100;0;308.06;-4;-19.28;-4.73;928.1;10.70;75299;2837.385;-1800.912;1;313;-150;-151.6;44.3;44.6;14;13.5;26.0;0.0;
26/02/2025 11:27:43;100;0;308.60;-4;-19.44;-4.79;930.7;10.60;75295;2837.389;-1800.915;1;313;-150;-151.6;44.3;44.6;14;13.5;26.0;0.0;
26/02/2025 11:28:03;100;0;309.12;-4;-19.20;-4.77;933.3;10.60;75291;2837.392;-1800.919;1;313;-150;-151.6;44.3;44.6;14;13.5;26.0;0.0;
26/02/2025 11:28:23;100;0;311.07;-4;-19.31;-4.71;935.8;10.60;75302;2837.395;-1800.922;1;313;-150;-151.6;44.3;44.8;16;15.8;26.1;0.0;
26/02/2025 11:28:43;100;0;311.81;-4;-19.32;-3.44;938.4;10.60;75295;2837.398;-1800.925;1;313;-150;-151.6;44.3;44.6;16;16.2;26.0;0.0;
26/02/2025 11:29:03;100;0;313.37;-4;-19.54;-3.52;940.9;10.50;75279;2837.402;-1800.928;1;313;-150;-153.2;44.3;44.6;16;16.2;26.1;0.0;
26/02/2025 11:29:23;100;0;315.41;-4;-19.38;-3.46;943.5;10.50;75280;2837.405;-1800.932;1;313;-150;-151.6;44.3;44.8;19;19.0;26.0;0.0;
26/02/2025 11:29:43;100;0;315.32;-4;-19.50;-1.72;946.1;10.50;75281;2837.409;-1800.935;1;313;-150;-151.6;44.3;44.6;19;19.4;26.0;0.0;
26/02/2025 11:30:03;100;0;314.89;-4;-19.50;-1.85;948.7;10.50;75271;2837.412;-1800.938;1;313;-150;-154.8;44.3;44.6;19;19.4;26.1;0.0;
26/02/2025 11:30:23;100;0;314.38;-4;-19.43;-1.82;951.3;10.50;75275;2837.415;-1800.941;1;313;-150;-151.6;44.3;44.6;19;19.4;26.0;0.0;
26/02/2025 11:30:43;100;0;313.49;-4;-19.33;-1.68;953.7;10.40;75285;2837.419;-1800.944;1;313;-150;-151.6;44.3;44.8;17;17.1;26.1;0.0;
26/02/2025 11:31:03;100;0;310.75;-4;-19.29;-3.29;956.2;10.40;75268;2837.422;-1800.947;1;313;-150;-151.6;44.3;44.6;17;16.7;26.0;0.0;
26/02/2025 11:31:23;100;0;308.90;-4;-19.45;-3.28;958.7;10.40;75274;2837.425;-1800.951;1;313;-150;-151.6;44.3;44.8;15;14.9;26.0;0.0;
26/02/2025 11:31:43;100;0;309.49;-4;-19.89;-4.08;961.3;10.40;75273;2837.428;-1800.954;1;313;-150;-151.6;44.3;44.6;15;14.9;26.0;0.0;
26/02/2025 11:32:03;100;0;309.18;-4;-19.97;-4.20;963.9;10.40;75261;2837.431;-1800.958;1;313;-150;-151.6;44.3;44.6;15;14.9;26.0;0.0;
26/02/2025 11:32:23;100;0;310.45;-4;-19.20;-4.16;966.7;10.40;75257;2837.435;-1800.961;1;313;-150;-151.6;44.3;44.6;15;14.9;26.0;0.0;
26/02/2025 11:32:43;100;0;310.80;-4;-19.53;-4.16;969.4;10.30;75258;2837.438;-1800.965;1;313;-150;-151.6;44.3;44.6;15;14.9;26.0;0.0;
26/02/2025 11:33:03;100;0;311.00;-4;-18.99;-4.14;972.2;10.30;75258;2837.442;-1800.968;1;313;-150;-151.6;44.6;44.6;15;14.9;26.0;0.0;
26/02/2025 11:33:23;100;0;311.93;-4;-19.33;-4.20;975.0;10.30;75247;2837.445;-1800.972;1;313;-150;-151.6;44.6;44.6;15;14.9;26.0;0.0;
26/02/2025 11:33:43;100;0;312.86;-4;-19.22;-4.05;977.8;10.30;75252;2837.449;-1800.975;1;313;-150;-151.6;44.6;44.6;17;17.1;26.0;0.0;
26/02/2025 11:34:03;100;0;312.85;-4;-19.23;-3.01;980.7;10.30;75251;2837.452;-1800.979;1;313;-150;-151.6;44.6;44.6;17;17.1;26.0;0.0;
26/02/2025 11:34:23;100;0;313.28;-4;-19.33;-2.89;983.6;10.30;75248;2837.456;-1800.983;1;313;-150;-151.6;44.6;44.6;17;17.6;26.0;0.0;
26/02/2025 11:34:43;100;0;312.84;-4;-19.32;-2.89;986.6;10.20;75246;2837.460;-1800.986;1;313;-150;-150.0;44.6;44.6;17;17.1;26.0;0.0;
26/02/2025 11:35:03;100;0;312.35;-4;-19.24;-2.92;989.7;10.20;75236;2837.464;-1800.990;1;313;-150;-151.6;44.6;44.8;17;17.1;26.0;0.0;
26/02/2025 11:35:23;100;0;311.63;-4;-18.94;-2.87;992.6;10.20;75232;2837.467;-1800.994;1;313;-150;-151.6;44.9;44.9;17;17.6;26.1;0.0;
26/02/2025 11:35:43;100;0;310.00;-4;-19.45;-2.90;995.6;10.20;75244;2837.471;-1800.998;1;313;-150;-151.6;44.9;45.2;15;14.9;26.0;0.0;
26/02/2025 11:36:03;100;0;308.68;-4;-20.45;-4.08;998.6;10.20;75236;2837.474;-1801.002;1;313;-150;-151.6;44.9;45.2;15;14.4;26.0;0.0;
26/02/2025 11:36:06;118;0;307.42;-4;-20.23;-4.17;999.0;10.20;75239;2837.475;-1801.002;1;313;450;-148.4;22.0;21.9;6;5.4;26.0;0.0;
26/02/2025 11:36:16;118;0;39.58;-4;-7.61;-9.27;1000.3;10.20;75215;2837.477;-1801.001;1;313;450;-22.6;22.0;21.8;6;5.4;24.5;-1.0;
26/02/2025 11:36:26;118;0;38.39;-4;18.92;-9.82;1000.6;10.20;74951;2837.478;-1801.001;1;313;450;103.2;22.0;21.9;6;5.4;24.6;-1.0;
26/02/2025 11:36:36;118;0;35.18;-4;27.73;-10.42;999.8;10.20;74701;2837.479;-1801.000;1;313;450;227.4;22.0;21.9;6;5.0;24.6;-1.0;
26/02/2025 11:36:46;118;0;34.20;-4;29.37;-10.08;999.0;10.20;74445;2837.480;-1801.000;1;313;450;348.4;22.0;21.9;6;5.4;24.5;-1.0;
26/02/2025 11:36:56;118;0;34.06;-4;27.06;-8.88;997.7;10.20;74205;2837.482;-1801.000;1;313;450;451.6;22.0;22.1;6;5.4;24.5;-1.0;
26/02/2025 11:37:06;118;0;313.24;-4;24.19;-8.16;996.1;10.20;73985;2837.484;-1801.001;1;313;450;453.2;22.0;21.9;6;5.4;26.0;-1.0;
26/02/2025 11:37:16;118;0;311.77;-4;21.98;-8.96;994.4;10.20;73987;2837.485;-1801.003;1;313;450;453.2;22.0;22.1;6;5.4;26.0;-1.0;
26/02/2025 11:37:36;117;0;304.61;-4;19.58;-8.73;991.4;10.30;74000;2837.489;-1801.007;1;313;450;450.0;22.0;21.9;6;5.4;26.0;-1.0;
26/02/2025 11:37:56;117;0;296.74;-4;18.73;-8.68;988.4;10.30;73985;2837.492;-1801.012;1;313;450;453.2;21.6;21.5;29;28.9;26.0;-1.0;
26/02/2025 11:38:16;117;0;296.90;-4;20.64;3.58;985.5;10.30;73995;2837.494;-1801.016;1;313;450;453.2;21.6;21.6;29;28.9;26.0;-1.0;
26/02/2025 11:38:36;117;0;296.64;-4;21.43;3.62;982.5;10.30;73993;2837.497;-1801.020;1;313;450;453.2;21.6;21.6;29;29.3;26.0;-1.0;
26/02/2025 11:38:56;117;0;297.13;-4;22.05;3.64;979.3;10.30;73988;2837.500;-1801.024;1;313;450;451.6;22.2;22.4;29;29.3;26.0;-1.0;
26/02/2025 11:39:16;117;0;297.49;-4;21.29;3.53;976.1;10.30;73977;2837.503;-1801.029;1;313;450;451.6;22.2;22.5;29;28.9;26.0;-1.0;
26/02/2025 11:39:36;117;0;297.57;-4;21.14;3.59;972.7;10.30;73983;2837.506;-1801.033;1;313;450;453.2;22.2;22.5;29;29.3;26.0;-1.0;
26/02/2025 11:39:56;117;0;298.31;-4;20.66;3.66;969.5;10.30;73972;2837.509;-1801.038;1;313;450;451.6;22.2;22.5;29;29.3;26.0;-1.0;
26/02/2025 11:40:16;117;0;298.85;-4;20.76;3.74;966.3;10.30;73968;2837.511;-1801.042;1;313;450;451.6;22.2;22.5;29;29.3;26.0;-1.0;
26/02/2025 11:40:36;117;0;299.31;-4;20.85;3.68;963.1;10.30;73974;2837.514;-1801.047;1;313;450;453.2;22.2;22.5;29;28.9;26.0;-1.0;
26/02/2025 11:40:56;117;0;300.32;-4;20.89;3.81;959.9;10.30;73969;2837.518;-1801.051;1;313;450;451.6;22.2;22.4;29;29.3;26.0;-1.0;
26/02/2025 11:41:16;117;0;301.75;-4;20.80;3.59;956.8;10.30;73964;2837.521;-1801.055;1;313;450;451.6;22.2;22.5;27;27.1;26.0;-1.0;
26/02/2025 11:41:36;117;0;301.89;-4;20.56;2.38;953.8;10.20;73963;2837.524;-1801.059;1;313;450;451.6;22.2;22.5;27;26.6;26.0;-1.0;
26/02/2025 11:41:56;117;0;300.89;-4;20.52;2.41;950.8;10.20;73960;2837.527;-1801.063;1;313;450;451.6;22.2;22.5;27;26.6;26.0;-1.0;
26/02/2025 11:42:16;117;0;299.71;-4;20.54;2.41;947.9;10.20;73964;2837.529;-1801.067;1;313;450;451.6;22.2;22.4;27;26.6;26.0;-1.0;
26/02/2025 11:42:36;117;0;299.11;-4;20.47;2.40;945.2;10.20;73953;2837.532;-1801.071;1;313;450;453.2;22.2;22.5;27;26.6;26.1;-1.0;
26/02/2025 11:42:56;117;0;298.45;-4;20.25;2.35;942.2;10.20;73951;2837.535;-1801.075;1;313;450;451.6;22.2;22.4;27;26.6;26.0;-1.0;
26/02/2025 11:43:16;117;0;298.29;-4;20.60;2.36;939.5;10.20;73949;2837.538;-1801.079;1;313;450;453.2;22.2;22.4;27;26.6;26.0;-1.0;
26/02/2025 11:43:36;117;0;298.82;-4;20.14;2.28;936.6;10.20;73956;2837.540;-1801.083;1;313;450;451.6;22.2;22.4;27;26.6;26.0;-1.0;
26/02/2025 11:43:56;117;0;298.97;-4;20.51;2.42;933.9;10.10;73940;2837.543;-1801.087;1;313;450;450.0;22.2;22.5;27;26.6;26.0;-1.0;
26/02/2025 11:44:16;117;0;297.60;-4;20.76;2.21;931.2;10.10;73930;2837.546;-1801.091;1;313;450;453.2;22.2;22.5;27;26.6;26.0;-1.0;
26/02/2025 11:44:36;117;0;296.95;-4;20.64;2.33;928.5;10.10;73948;2837.548;-1801.095;1;313;450;453.2;22.2;22.5;29;28.9;26.0;-1.0;
26/02/2025 11:44:56;117;0;297.90;-4;20.85;3.74;925.6;10.10;73939;2837.551;-1801.099;1;313;450;451.6;22.2;22.5;29;28.9;26.0;-1.0;
26/02/2025 11:45:16;117;0;297.47;-4;20.85;3.72;922.7;10.10;73937;2837.554;-1801.103;1;313;450;451.6;22.2;22.5;29;28.9;26.0;-1.0;
26/02/2025 11:45:36;117;0;298.32;-4;20.71;3.68;919.6;10.10;73937;2837.557;-1801.107;1;313;450;451.6;22.2;22.5;29;28.9;26.0;-1.0;
26/02/2025 11:45:56;117;0;298.92;-4;20.99;3.77;916.6;10.10;73927;2837.559;-1801.111;1;313;450;454.8;22.2;22.5;29;29.3;26.0;-1.0;
26/02/2025 11:46:16;117;0;300.38;-4;20.83;3.77;913.6;10.10;73945;2837.562;-1801.115;1;313;450;451.6;22.2;22.5;29;29.3;26.0;-1.0;
26/02/2025 11:46:36;117;0;302.41;-4;20.67;3.71;910.3;10.00;73931;2837.566;-1801.120;1;313;450;453.2;22.2;22.5;29;28.9;26.0;-1.0;
26/02/2025 11:46:56;117;0;303.91;-4;20.61;3.66;907.2;10.00;73932;2837.569;-1801.124;1;313;450;453.2;22.2;22.5;29;28.9;26.0;-1.0;
26/02/2025 11:47:16;117;0;305.20;-4;20.65;3.68;904.3;10.00;73929;2837.572;-1801.127;1;313;450;453.2;22.2;22.5;29;28.9;26.0;-1.0;
26/02/2025 11:47:36;117;0;306.08;-4;20.55;3.82;901.2;10.00;73933;2837.575;-1801.131;1;313;450;453.2;22.2;22.5;29;29.3;26.0;-1.0;
26/02/2025 11:47:56;117;0;306.91;-4;20.81;3.59;898.2;10.00;73926;2837.579;-1801.135;1;313;450;453.2;22.2;22.5;29;29.3;26.0;-1.0;
26/02/2025 11:48:16;117;0;307.13;-4;20.67;3.61;895.1;10.00;73920;2837.582;-1801.139;1;313;450;453.2;22.2;22.4;29;29.3;26.0;-1.0;
26/02/2025 11:48:36;117;0;307.44;-4;20.80;3.67;891.9;10.00;73924;2837.585;-1801.143;1;313;450;453.2;22.2;22.5;27;27.1;26.0;-1.0;
26/02/2025 11:48:56;117;0;306.59;-4;20.44;2.34;888.9;10.00;73943;2837.589;-1801.147;1;313;450;453.2;22.2;22.5;27;26.6;26.0;-1.0;
26/02/2025 11:49:16;117;0;309.04;-4;19.76;2.10;885.8;10.00;73933;2837.592;-1801.151;1;313;450;453.2;22.2;22.5;27;26.6;26.0;-1.0;
26/02/2025 11:49:36;117;0;308.10;-4;20.21;2.53;882.7;10.00;73941;2837.596;-1801.155;1;313;450;451.6;22.2;22.5;27;26.6;26.0;-1.0;
26/02/2025 11:49:56;117;0;307.59;-4;20.31;2.40;879.7;10.00;73941;2837.599;-1801.159;1;313;450;451.6;22.2;22.5;27;26.6;26.0;-1.0;
26/02/2025 11:50:16;117;0;308.66;-4;20.38;2.28;876.5;10.00;73941;2837.603;-1801.163;1;313;450;453.2;22.2;22.5;27;26.6;26.0;-1.0;
26/02/2025 11:50:36;117;0;311.00;-4;20.62;2.14;873.8;10.00;73941;2837.606;-1801.166;1;313;450;453.2;22.2;22.5;27;26.6;26.0;-1.0;
26/02/2025 11:50:56;117;0;310.63;-4;20.31;2.31;870.7;9.90;73933;2837.610;-1801.170;1;313;450;453.2;22.2;22.5;27;26.6;26.0;-1.0;
26/02/2025 11:51:16;117;0;309.15;-4;20.03;2.38;867.7;9.90;73933;2837.613;-1801.174;1;313;450;451.6;22.2;22.5;27;26.6;26.0;-1.0;
26/02/2025 11:51:36;117;0;309.04;-4;20.31;2.36;864.9;10.00;73946;2837.616;-1801.178;1;313;450;453.2;22.2;22.4;27;26.6;26.0;-1.0;
26/02/2025 11:51:56;117;0;308.27;-4;20.37;2.35;862.0;9.90;73948;2837.620;-1801.181;1;313;450;453.2;22.2;22.5;27;26.6;26.0;-1.0;
26/02/2025 11:52:16;117;0;306.39;-4;20.21;2.43;859.0;9.90;73949;2837.623;-1801.185;1;313;450;451.6;22.2;22.5;27;26.6;26.1;-1.0;
26/02/2025 11:52:36;117;0;305.44;-4;20.39;2.19;855.9;9.90;73956;2837.626;-1801.189;1;313;450;453.2;22.2;22.5;27;26.6;26.0;-1.0;
26/02/2025 11:52:56;117;0;305.86;-4;20.23;2.35;852.7;9.90;73945;2837.630;-1801.194;1;313;450;451.6;22.2;22.5;27;26.6;26.0;-1.0;
26/02/2025 11:53:16;117;0;305.99;-4;20.23;2.38;849.8;9.90;73952;2837.633;-1801.198;1;313;450;453.2;22.2;22.5;27;26.6;26.0;-1.0;
26/02/2025 11:53:36;117;0;305.31;-4;19.95;2.44;846.8;9.90;73946;2837.636;-1801.202;1;313;450;451.6;22.2;22.5;27;26.6;26.0;-1.0;
26/02/2025 11:53:56;117;0;305.16;-4;20.12;1.96;844.0;9.90;73947;2837.640;-1801.205;1;313;450;453.2;22.2;22.5;27;26.6;26.0;-1.0;
26/02/2025 11:54:16;117;0;305.97;-4;20.34;2.40;841.4;9.90;73948;2837.643;-1801.209;1;313;450;453.2;22.2;22.5;27;26.6;26.0;-1.0;
26/02/2025 11:54:36;117;0;307.03;-4;20.20;2.31;838.5;9.90;73936;2837.646;-1801.213;1;313;450;453.2;22.2;22.4;27;26.6;26.0;-1.0;
26/02/2025 11:54:56;117;0;307.37;-4;20.61;2.44;835.7;9.90;73946;2837.649;-1801.216;1;313;450;453.2;22.2;22.5;27;26.6;26.0;-1.0;
26/02/2025 11:55:16;117;0;307.23;-4;20.17;2.35;832.8;9.90;73936;2837.652;-1801.220;1;313;450;450.0;22.2;22.5;27;26.6;26.0;-1.0;
26/02/2025 11:55:36;117;0;307.02;-4;20.40;2.34;830.0;9.90;73928;2837.656;-1801.224;1;313;450;453.2;22.2;22.5;27;26.6;26.0;-1.0;
26/02/2025 11:55:56;117;0;305.86;-4;20.11;2.33;827.1;9.90;73936;2837.659;-1801.228;1;313;450;453.2;22.2;22.5;27;26.6;26.0;-1.0;
26/02/2025 11:56:16;117;0;304.90;-4;20.05;2.09;824.1;9.90;73925;2837.662;-1801.232;1;313;450;453.2;22.2;22.5;27;26.6;26.0;-1.0;
26/02/2025 11:56:36;117;0;305.43;-4;20.03;2.17;821.3;9.90;73925;2837.665;-1801.235;1;313;450;453.2;22.2;22.5;27;26.6;26.0;-1.0;
26/02/2025 11:56:56;117;0;305.97;-4;20.41;2.24;818.4;9.90;73936;2837.668;-1801.239;1;313;450;454.8;22.2;22.5;27;26.6;26.0;-1.0;
26/02/2025 11:57:16;117;0;306.52;-4;20.34;2.19;815.4;9.90;73924;2837.672;-1801.243;1;313;450;453.2;22.2;22.5;27;26.6;26.0;-1.0;
26/02/2025 11:57:36;117;0;306.84;-4;20.31;2.28;812.4;9.90;73932;2837.675;-1801.247;1;313;450;453.2;22.2;22.4;27;26.6;26.0;-1.0;
26/02/2025 11:57:56;117;0;307.76;-4;20.22;2.40;809.3;9.90;73929;2837.679;-1801.251;1;313;450;453.2;22.2;22.4;27;26.6;26.0;-1.0;
26/02/2025 11:58:17;117;0;308.52;-4;20.28;2.15;806.4;9.90;73924;2837.682;-1801.255;1;313;450;453.2;22.2;22.4;27;26.6;26.0;-1.0;
26/02/2025 11:58:37;117;0;309.18;-4;20.31;2.15;803.3;9.90;73929;2837.686;-1801.259;1;313;450;453.2;22.2;22.5;27;26.6;26.0;-1.0;
26/02/2025 11:58:57;117;0;309.45;-4;20.40;2.20;800.2;9.90;73939;2837.689;-1801.263;1;313;450;453.2;22.2;22.5;27;26.6;26.0;-1.0;
26/02/2025 11:59:17;117;0;310.29;-4;20.40;2.27;797.1;9.90;73929;2837.693;-1801.267;1;313;450;453.2;22.2;22.5;27;26.6;26.0;-1.0;
26/02/2025 11:59:37;117;0;310.94;-4;20.46;2.26;793.7;9.90;73924;2837.697;-1801.271;1;313;450;453.2;22.2;22.5;27;26.6;26.0;-1.0;
26/02/2025 11:59:57;117;0;309.52;-4;20.11;2.39;790.5;9.90;73927;2837.700;-1801.275;1;313;450;454.8;22.2;22.5;27;26.6;26.0;-1.0;
26/02/2025 12:00:17;117;0;309.11;-4;19.98;2.24;787.4;9.90;73938;2837.704;-1801.279;1;313;450;454.8;22.2;22.5;27;26.6;26.0;-1.0;
26/02/2025 12:00:37;117;0;308.81;-4;20.37;2.22;784.4;9.90;73936;2837.707;-1801.283;1;313;450;453.2;22.2;22.4;27;26.6;26.0;-1.0;
26/02/2025 12:00:57;117;0;308.52;-4;20.16;2.16;781.4;9.90;73944;2837.711;-1801.287;1;313;450;453.2;22.2;22.5;27;26.6;26.0;-1.0;
26/02/2025 12:01:17;117;0;308.77;-4;20.23;2.26;778.2;9.90;73946;2837.714;-1801.291;1;313;450;450.0;22.2;22.4;27;26.6;26.0;-1.0;
