Timestamp;NavState;SecurityLevel;Heading;Declination;Pitch;Roll;Depth;Temperature;Pa;Lat;Lon;DeadReckoning;DesiredH;BallastCmd;BallastPos;LinCmd;LinPos;AngCmd;AngPos;Voltage;Altitude;
15/02/2025 00:23:50;119;0;289.17;-4;-56.40;-7.36;0.1;17.50;75873;2837.765;-1758.634;0;161;500;504.8;100.0;100.6;0;0.9;28.6;-1.0;
15/02/2025 00:24:00;116;0;309.08;-4;-55.28;-14.15;0.2;17.60;75872;2837.766;-1758.634;0;161;500;504.8;100.0;100.9;0;0.9;28.5;-1.0;
15/02/2025 00:24:26;116;0;322.55;-4;-58.89;-10.26;0.3;17.60;75892;2837.767;-1758.633;0;161;500;504.8;100.0;100.7;0;0.5;28.6;-1.0;
15/02/2025 00:24:51;116;0;344.92;-4;-60.40;-18.15;0.3;17.70;75899;2837.768;-1758.634;0;161;500;503.2;100.0;100.7;0;0.5;28.6;-1.0;
15/02/2025 00:25:10;116;0;356.20;-4;-57.32;-14.85;0.2;17.80;75906;2837.771;-1758.633;0;161;500;504.8;100.0;100.7;0;0.9;28.6;-1.0;
15/02/2025 00:25:30;116;0;5.15;-4;-52.82;-20.15;0.2;17.80;75918;2837.773;-1758.633;0;161;500;504.8;100.0;100.7;0;0.9;28.6;-1.0;
15/02/2025 00:26:33;116;0;343.05;-4;-54.95;-7.49;0.1;18.00;75941;2837.777;-1758.631;0;162;500;503.2;100.0;100.7;0;0.9;28.6;-1.0;
15/02/2025 00:27:36;116;0;306.59;-4;-56.96;-20.41;0.1;18.20;75950;2837.782;-1758.631;0;162;500;503.2;100.0;100.7;0;0.9;28.6;-1.0;
15/02/2025 00:28:16;116;0;288.01;-4;-52.17;-13.96;0.2;18.40;75967;2837.784;-1758.629;0;162;500;503.2;100.0;100.7;0;0.5;28.6;-1.0;
15/02/2025 00:28:27;116;0;277.57;-4;-54.60;-14.34;0.1;18.50;75981;2837.784;-1758.629;0;162;500;504.8;100.0;100.7;0;0.9;28.6;-1.0;
15/02/2025 00:28:47;110;0;257.97;-4;-58.56;-11.35;0.0;18.50;75977;2837.784;-1758.629;0;162;-50;390.3;100.0;99.9;-8;-8.1;28.6;-1.0;
15/02/2025 00:28:58;110;0;268.41;-4;-52.62;-19.12;0.2;18.60;76322;2837.785;-1758.630;1;162;-50;241.9;100.0;100.0;-8;-8.1;28.5;-1.0;
15/02/2025 00:29:08;110;0;271.98;-4;-59.23;-13.67;0.7;18.60;76564;2837.785;-1758.630;1;162;-50;83.9;100.0;100.0;-8;-8.1;28.5;-1.0;
15/02/2025 00:29:18;110;0;267.11;-4;-64.54;-6.71;1.0;18.70;76898;2837.786;-1758.631;1;162;-50;-50.0;100.0;99.9;-8;-8.1;28.5;-1.0;
15/02/2025 00:29:28;110;0;266.87;-4;-70.85;-9.58;1.2;18.70;77165;2837.787;-1758.631;1;162;-50;-50.0;41.7;41.7;-8;-8.1;28.6;-1.0;
15/02/2025 00:29:48;100;0;301.34;-4;-25.58;-16.00;4.1;18.80;77127;2837.790;-1758.635;1;162;-50;-45.2;41.7;41.4;-8;-8.1;28.6;-1.0;
15/02/2025 00:30:08;100;0;308.62;-4;-16.27;-15.99;6.5;18.80;77143;2837.794;-1758.640;1;162;-50;-43.5;42.8;43.0;70;69.9;28.6;-1.0;
15/02/2025 00:30:28;100;0;304.31;-4;-23.51;23.08;8.9;18.90;77144;2837.797;-1758.643;1;161;-50;-41.9;41.7;41.5;70;69.9;28.6;-1.0;
15/02/2025 00:30:48;100;0;293.15;-4;-19.43;23.29;11.2;18.90;77152;2837.800;-1758.647;1;161;-50;-41.9;41.7;41.4;70;70.4;28.5;-1.0;
15/02/2025 00:31:08;100;0;281.41;-4;-19.40;23.18;13.6;18.90;77154;2837.802;-1758.652;1;161;-50;-43.5;41.7;41.4;70;70.4;28.6;0.0;
15/02/2025 00:31:28;100;0;269.37;-4;-19.72;23.42;15.7;18.90;77148;2837.804;-1758.656;1;161;-50;-43.5;41.7;41.4;70;70.4;28.5;0.0;
15/02/2025 00:31:48;100;0;258.44;-4;-20.02;23.36;18.0;18.90;77153;2837.805;-1758.660;1;161;-50;-43.5;41.7;41.4;70;70.4;28.6;0.0;
15/02/2025 00:32:08;100;0;247.90;-4;-19.22;23.20;20.2;19.00;77161;2837.805;-1758.664;1;160;-50;-43.5;41.7;41.4;70;70.4;28.6;0.0;
15/02/2025 00:32:28;100;0;235.23;-4;-19.69;23.05;22.5;19.00;77171;2837.805;-1758.668;1;160;-50;-41.9;41.7;41.4;70;70.4;28.6;0.0;
15/02/2025 00:32:48;100;0;225.61;-4;-19.67;23.02;24.7;19.00;77168;2837.805;-1758.671;1;160;-50;-43.5;41.7;41.4;70;69.9;28.6;0.0;
15/02/2025 00:33:08;100;0;212.04;-4;-19.58;23.28;27.0;19.00;77173;2837.804;-1758.674;1;160;-50;-41.9;41.7;41.2;70;69.9;28.6;0.0;
15/02/2025 00:33:28;100;0;202.34;-4;-19.60;23.30;29.3;19.00;77173;2837.803;-1758.676;1;160;-50;-43.5;41.7;41.4;70;69.9;28.6;0.0;
15/02/2025 00:33:48;100;0;192.29;-4;-19.63;23.30;31.6;19.00;77175;2837.802;-1758.678;1;159;-50;-41.9;41.7;41.4;60;60.0;28.6;0.0;
15/02/2025 00:34:08;100;0;183.39;-4;-19.16;17.60;33.9;19.10;77187;2837.800;-1758.679;1;159;-50;-41.9;41.7;41.4;47;46.9;28.6;0.0;
15/02/2025 00:34:28;100;0;176.26;-4;-18.11;10.95;36.0;19.10;77192;2837.799;-1758.680;1;159;-50;-41.9;42.3;42.6;35;34.7;28.6;0.0;
15/02/2025 00:34:48;100;0;169.71;-4;-19.41;5.04;38.1;19.10;77186;2837.798;-1758.680;1;159;-50;-41.9;42.3;42.7;24;23.9;28.6;0.0;
15/02/2025 00:35:08;100;0;166.83;-4;-19.26;-0.43;40.2;19.10;77187;2837.797;-1758.680;1;159;-50;-41.9;42.3;42.7;22;22.1;28.5;0.0;
15/02/2025 00:35:28;100;0;164.54;-4;-19.30;-1.31;42.4;19.10;77205;2837.795;-1758.680;1;159;-50;-41.9;42.3;42.7;19;19.0;28.5;0.0;
15/02/2025 00:35:48;100;0;164.27;-4;-19.06;-2.69;44.5;19.10;77204;2837.794;-1758.681;1;159;-50;-43.5;42.3;42.6;19;19.0;28.6;0.0;
15/02/2025 00:36:08;100;0;164.38;-4;-18.93;-2.74;46.6;19.10;77198;2837.793;-1758.681;1;159;-50;-43.5;42.6;42.6;19;19.0;28.6;0.0;
15/02/2025 00:36:28;100;0;163.17;-4;-18.71;-2.74;48.7;19.10;77208;2837.792;-1758.681;1;159;-50;-43.5;43.0;43.2;19;19.0;28.6;0.0;
15/02/2025 00:36:48;100;0;163.17;-4;-20.28;-2.77;50.8;19.20;77222;2837.791;-1758.681;1;159;-50;-41.9;43.0;43.3;19;18.5;28.6;0.0;
15/02/2025 00:37:08;100;0;161.82;-4;-20.13;-2.79;53.0;19.20;77224;2837.790;-1758.681;1;159;-50;-41.9;43.0;43.3;19;19.0;28.5;0.0;
15/02/2025 00:37:28;100;0;161.33;-4;-20.29;-2.77;55.1;19.20;77229;2837.789;-1758.681;1;159;-50;-41.9;43.0;43.3;17;17.1;28.6;0.0;
15/02/2025 00:37:48;100;0;162.39;-4;-19.96;-3.88;57.3;19.20;77229;2837.788;-1758.681;1;159;-50;-41.9;43.0;43.3;17;16.7;28.6;0.0;
15/02/2025 00:38:08;100;0;162.69;-4;-20.23;-3.97;59.3;19.20;77240;2837.787;-1758.681;1;159;-50;-41.9;43.0;43.3;17;16.2;28.6;0.0;
15/02/2025 00:38:28;100;0;162.26;-4;-20.19;-3.96;61.4;19.20;77239;2837.786;-1758.681;1;159;-50;-41.9;43.0;43.3;17;16.2;28.6;0.0;
15/02/2025 00:38:48;100;0;162.39;-4;-20.20;-3.91;63.5;19.20;77247;2837.785;-1758.681;1;159;-50;-43.5;43.0;43.3;17;16.7;28.6;0.0;
15/02/2025 00:39:08;100;0;161.67;-4;-20.12;-3.87;65.5;19.30;77258;2837.784;-1758.681;1;159;-50;-43.5;43.0;43.3;17;16.2;28.6;0.0;
15/02/2025 00:39:28;100;0;160.47;-4;-19.85;-3.92;67.6;19.30;77255;2837.784;-1758.681;1;159;-50;-41.9;43.0;43.3;17;16.2;28.5;0.0;
15/02/2025 00:39:48;100;0;160.47;-4;-20.23;-3.97;69.6;19.30;77256;2837.783;-1758.681;1;159;-70;-67.7;43.0;43.3;17;16.2;28.6;0.0;
15/02/2025 00:40:08;100;0;160.90;-4;-19.76;-3.79;71.7;19.30;77327;2837.782;-1758.681;1;159;-70;-67.7;43.0;43.3;17;16.2;28.6;0.0;
15/02/2025 00:40:28;100;0;157.57;-4;-19.41;-3.75;73.9;19.30;77320;2837.781;-1758.681;1;159;-70;-67.7;43.0;43.3;17;16.7;28.6;0.0;
15/02/2025 00:40:48;100;0;156.36;-4;-19.73;-3.84;76.0;19.30;77323;2837.780;-1758.680;1;159;-70;-69.4;43.0;43.3;17;16.2;28.6;0.0;
15/02/2025 00:41:08;100;0;154.30;-4;-19.55;-3.75;78.1;19.30;77334;2837.779;-1758.680;1;159;-70;-67.7;43.0;43.3;17;16.7;28.5;0.0;
15/02/2025 00:41:28;100;0;152.17;-4;-19.59;-3.79;80.1;19.30;77331;2837.778;-1758.680;1;159;-90;-90.3;43.0;43.3;17;16.7;28.6;0.0;
15/02/2025 00:41:48;100;0;151.02;-4;-19.21;-3.68;82.3;19.30;77387;2837.777;-1758.679;1;159;-90;-91.9;43.0;43.3;17;16.7;28.6;0.0;
15/02/2025 00:42:08;100;0;149.34;-4;-19.19;-3.66;84.4;19.30;77381;2837.777;-1758.678;1;159;-90;-95.2;43.0;43.3;17;16.7;28.6;0.0;
15/02/2025 00:42:28;100;0;148.33;-4;-19.02;-3.64;86.5;19.30;77386;2837.776;-1758.678;1;159;-90;-91.9;43.0;43.3;17;16.2;28.6;0.0;
15/02/2025 00:42:48;100;0;147.40;-4;-19.27;-3.67;88.5;19.30;77394;2837.775;-1758.677;1;159;-90;-91.9;43.0;43.3;15;14.4;28.6;0.0;
15/02/2025 00:43:08;100;0;146.20;-4;-19.11;-4.82;90.6;19.30;77386;2837.774;-1758.676;1;159;-90;-91.9;43.0;43.3;15;14.0;28.6;0.0;
15/02/2025 00:43:28;100;0;142.13;-4;-18.70;-4.77;92.8;19.30;77386;2837.774;-1758.675;1;159;-90;-95.2;43.4;43.7;10;9.9;28.6;0.0;
15/02/2025 00:43:48;100;0;149.07;-4;-19.05;-7.07;94.6;19.30;77368;2837.773;-1758.675;1;159;-110;-111.3;43.4;43.7;16;15.8;28.6;0.0;
15/02/2025 00:44:08;100;0;154.74;-4;-19.98;-3.73;96.6;19.30;77388;2837.772;-1758.674;1;159;-110;-112.9;43.4;43.7;16;16.2;28.6;0.0;
15/02/2025 00:44:28;100;0;157.68;-4;-19.44;-3.48;98.7;19.30;77374;2837.772;-1758.674;1;159;-110;-111.3;43.4;43.7;16;16.2;28.6;0.0;
15/02/2025 00:44:48;100;0;155.60;-4;-19.90;-3.50;100.9;19.30;77358;2837.771;-1758.674;1;159;-110;-111.3;43.4;43.9;16;16.2;28.6;0.0;
15/02/2025 00:45:08;100;0;158.00;-4;-20.09;-3.51;103.2;19.30;77355;2837.769;-1758.673;1;159;-110;-112.9;43.4;43.7;16;16.2;28.6;0.0;
15/02/2025 00:45:28;100;0;154.28;-4;-20.21;-3.58;105.7;19.30;77344;2837.768;-1758.673;1;159;-110;-112.9;43.4;43.7;16;16.2;28.5;0.0;
15/02/2025 00:45:48;100;0;150.97;-4;-19.63;-3.63;108.3;19.30;77335;2837.767;-1758.672;1;159;-110;-112.9;43.4;43.7;16;16.2;28.6;0.0;
15/02/2025 00:46:08;100;0;149.89;-4;-19.71;-3.53;110.9;19.30;77313;2837.766;-1758.671;1;159;-110;-111.3;43.4;43.7;16;16.2;28.6;0.0;
15/02/2025 00:46:28;100;0;146.07;-4;-19.60;-3.53;113.3;19.20;77303;2837.765;-1758.670;1;159;-110;-112.9;43.4;43.7;14;14.0;28.6;0.0;
15/02/2025 00:46:48;100;0;144.69;-4;-19.66;-4.76;115.8;19.20;77298;2837.764;-1758.669;1;159;-110;-111.3;43.4;43.7;14;13.5;28.6;0.0;
15/02/2025 00:47:08;100;0;142.83;-4;-19.76;-4.86;118.5;19.20;77290;2837.762;-1758.667;1;159;-110;-112.9;43.4;43.7;11;10.8;28.6;0.0;
15/02/2025 00:47:28;100;0;140.71;-4;-19.42;-6.63;121.4;19.20;77279;2837.761;-1758.666;1;159;-110;-114.5;43.4;43.7;7;7.2;28.6;0.0;
15/02/2025 00:47:48;100;0;142.43;-4;-18.79;-8.35;124.2;19.10;77265;2837.760;-1758.664;1;159;-110;-111.3;43.8;43.7;9;9.0;28.6;0.0;
15/02/2025 00:48:08;100;0;145.30;-4;-18.60;-6.83;127.0;19.10;77270;2837.758;-1758.663;1;159;-110;-112.9;44.2;44.5;12;12.2;28.6;0.0;
15/02/2025 00:48:28;100;0;142.12;-4;-20.93;-5.46;129.8;19.10;77250;2837.757;-1758.661;1;159;-110;-111.3;44.2;44.5;10;9.5;28.5;0.0;
15/02/2025 00:48:48;100;0;141.04;-4;-20.97;-7.02;133.2;19.10;77239;2837.755;-1758.659;1;159;-110;-112.9;44.2;44.6;7;6.8;28.6;0.0;
15/02/2025 00:49:08;100;0;145.24;-4;-20.77;-8.47;136.4;19.10;77220;2837.754;-1758.657;1;159;-110;-112.9;44.2;44.5;12;12.2;28.6;0.0;
15/02/2025 00:49:28;100;0;155.56;-4;-21.15;-5.11;140.0;19.10;77207;2837.751;-1758.656;1;159;-110;-112.9;44.2;44.6;16;15.8;28.6;0.0;
15/02/2025 00:49:48;100;0;158.88;-4;-21.32;-3.71;143.2;19.00;77195;2837.749;-1758.656;1;159;-110;-112.9;44.2;44.6;16;16.2;28.6;0.0;
15/02/2025 00:50:08;100;0;161.11;-4;-21.44;-3.51;146.7;19.00;77190;2837.747;-1758.655;1;159;-110;-112.9;44.2;44.6;16;16.2;28.6;0.0;
15/02/2025 00:50:28;100;0;160.97;-4;-21.59;-3.55;150.3;19.00;77177;2837.744;-1758.654;1;159;-110;-112.9;44.2;44.6;16;16.2;28.6;0.0;
15/02/2025 00:50:48;100;0;163.66;-4;-21.40;-3.65;153.8;18.90;77187;2837.742;-1758.654;1;159;-110;-112.9;44.2;44.6;16;15.8;28.5;0.0;
15/02/2025 00:51:08;100;0;163.62;-4;-21.79;-3.83;157.4;18.90;77163;2837.739;-1758.654;1;159;-110;-112.9;44.2;44.6;16;16.2;28.5;0.0;
15/02/2025 00:51:28;100;0;166.06;-4;-21.63;-3.68;161.1;18.90;77175;2837.737;-1758.653;1;159;-110;-114.5;44.2;44.6;19;19.0;28.6;0.0;
15/02/2025 00:51:48;100;0;159.01;-4;-21.87;-1.96;165.0;18.90;77153;2837.734;-1758.652;1;159;-110;-112.9;44.2;44.6;16;15.8;28.6;0.0;
15/02/2025 00:52:08;100;0;154.75;-4;-21.01;-3.88;168.7;18.80;77121;2837.731;-1758.651;1;159;-110;-112.9;44.2;44.6;16;15.3;28.6;0.0;
15/02/2025 00:52:28;100;0;149.04;-4;-21.03;-3.94;172.4;18.80;77112;2837.729;-1758.650;1;159;-110;-111.3;44.2;44.6;16;15.3;28.6;0.0;
15/02/2025 00:52:48;100;0;148.05;-4;-20.39;-4.08;176.0;18.80;77091;2837.727;-1758.648;1;159;-110;-112.9;44.2;44.6;14;14.0;28.6;0.0;
15/02/2025 00:53:08;100;0;149.81;-4;-20.96;-4.96;179.5;18.70;77084;2837.725;-1758.646;1;159;-110;-112.9;44.2;44.6;14;13.5;28.6;0.0;
15/02/2025 00:53:28;100;0;151.42;-4;-20.49;-5.08;182.9;18.70;77055;2837.722;-1758.645;1;159;-110;-112.9;44.2;44.5;16;15.8;28.6;0.0;
15/02/2025 00:53:48;100;0;148.36;-4;-20.65;-3.48;186.3;18.60;77040;2837.720;-1758.643;1;159;-110;-112.9;44.2;44.6;14;14.0;28.5;0.0;
15/02/2025 00:54:08;100;0;148.61;-4;-20.72;-5.08;189.5;18.60;77038;2837.718;-1758.642;1;159;-110;-112.9;44.2;44.6;14;13.5;28.6;0.0;
15/02/2025 00:54:28;100;0;148.76;-4;-21.16;-4.99;192.9;18.60;77007;2837.717;-1758.640;1;160;-110;-112.9;44.2;44.6;14;13.5;28.6;0.0;
15/02/2025 00:54:48;100;0;151.20;-4;-21.43;-5.03;196.2;18.50;77010;2837.715;-1758.639;1;160;-110;-114.5;44.2;44.6;14;13.5;28.6;0.0;
15/02/2025 00:55:08;100;0;153.14;-4;-21.22;-5.06;199.7;18.50;76993;2837.712;-1758.638;1;160;-110;-112.9;44.2;44.6;16;15.8;28.6;0.0;
15/02/2025 00:55:28;100;0;156.02;-4;-21.31;-3.52;203.1;18.50;76974;2837.710;-1758.637;1;160;-110;-112.9;44.2;44.6;16;16.2;28.6;0.0;
15/02/2025 00:55:48;100;0;153.49;-4;-20.82;-3.51;206.4;18.40;76967;2837.708;-1758.636;1;160;-110;-114.5;44.2;44.6;16;16.2;28.6;0.0;
15/02/2025 00:56:08;100;0;153.61;-4;-21.31;-3.70;209.6;18.40;76947;2837.706;-1758.635;1;160;-110;-111.3;44.2;44.6;16;16.2;28.6;0.0;
15/02/2025 00:56:28;100;0;156.08;-4;-21.16;-3.55;212.9;18.30;76943;2837.704;-1758.634;1;160;-110;-114.5;44.2;44.6;16;16.2;28.6;0.0;
15/02/2025 00:56:48;100;0;154.47;-4;-21.18;-3.24;216.0;18.30;76940;2837.702;-1758.633;1;160;-110;-114.5;44.2;44.6;16;16.2;28.6;0.0;
15/02/2025 00:57:08;100;0;154.12;-4;-21.38;-3.61;219.2;18.20;76926;2837.700;-1758.632;1;160;-110;-112.9;44.2;44.6;16;16.2;28.6;0.0;
15/02/2025 00:57:28;100;0;155.66;-4;-20.34;-3.44;222.6;18.20;76921;2837.698;-1758.631;1;160;-110;-114.5;44.2;44.6;16;16.2;28.6;0.0;
15/02/2025 00:57:48;100;0;154.57;-4;-21.00;-3.57;225.7;18.20;76909;2837.696;-1758.630;1;160;-110;-114.5;44.2;44.6;16;16.2;28.6;0.0;
15/02/2025 00:58:08;100;0;153.27;-4;-20.88;-3.60;228.8;18.10;76889;2837.694;-1758.629;1;160;-110;-112.9;44.2;44.6;16;16.2;28.6;0.0;
15/02/2025 00:58:28;100;0;151.17;-4;-20.52;-3.48;231.8;18.10;76881;2837.692;-1758.628;1;160;-110;-112.9;44.2;44.6;16;16.2;28.6;0.0;
15/02/2025 00:58:48;100;0;149.21;-4;-21.02;-3.59;234.7;18.00;76874;2837.691;-1758.627;1;160;-110;-112.9;44.2;44.6;16;16.2;28.6;0.0;
15/02/2025 00:59:08;100;0;147.85;-4;-20.99;-3.56;237.8;18.00;76867;2837.689;-1758.625;1;160;-110;-114.5;44.2;44.8;14;14.0;28.6;0.0;
15/02/2025 00:59:28;100;0;147.50;-4;-20.61;-4.82;240.9;17.90;76855;2837.688;-1758.624;1;160;-110;-114.5;44.2;44.6;14;14.0;28.6;0.0;
15/02/2025 00:59:48;100;0;146.01;-4;-20.75;-4.82;244.0;17.90;76845;2837.686;-1758.622;1;160;-110;-112.9;44.2;44.6;12;11.7;28.6;0.0;
15/02/2025 01:00:08;100;0;146.66;-4;-20.77;-5.99;247.1;17.90;76836;2837.685;-1758.621;1;160;-110;-114.5;44.2;44.6;12;11.7;28.6;0.0;
15/02/2025 01:00:28;100;0;147.12;-4;-20.74;-5.95;250.4;17.80;76832;2837.683;-1758.620;1;160;-110;-112.9;44.2;44.6;12;11.7;28.6;0.0;
15/02/2025 01:00:48;100;0;147.66;-4;-20.99;-5.98;253.5;17.80;76817;2837.681;-1758.618;1;160;-110;-114.5;44.2;44.6;14;14.0;28.6;0.0;
15/02/2025 01:01:08;100;0;145.45;-4;-21.00;-4.54;256.9;17.70;76813;2837.679;-1758.616;1;160;-110;-114.5;44.2;44.6;11;10.8;28.6;0.0;
15/02/2025 01:01:28;100;0;142.87;-4;-21.12;-6.27;260.2;17.70;76802;2837.677;-1758.615;1;160;-110;-112.9;44.2;44.6;8;8.1;28.5;0.0;
15/02/2025 01:01:48;100;0;141.49;-4;-21.09;-7.68;263.8;17.60;76796;2837.676;-1758.612;1;160;-110;-114.5;44.2;44.6;6;5.9;28.6;0.0;
15/02/2025 01:02:08;100;0;141.32;-4;-20.75;-8.82;267.4;17.60;76783;2837.674;-1758.610;1;160;-110;-112.9;44.2;44.6;6;5.9;28.6;0.0;
15/02/2025 01:02:28;100;0;139.77;-4;-20.69;-8.86;270.9;17.60;76768;2837.672;-1758.608;1;161;-110;-112.9;44.2;44.6;3;3.2;28.6;0.0;
15/02/2025 01:02:48;100;0;139.94;-4;-20.75;-10.23;274.6;17.50;76773;2837.670;-1758.606;1;161;-110;-114.5;44.2;44.6;3;2.7;28.6;0.0;
15/02/2025 01:03:08;100;0;142.90;-4;-20.74;-10.22;278.6;17.50;76763;2837.668;-1758.603;1;161;-110;-112.9;44.2;44.6;6;5.9;28.6;0.0;
15/02/2025 01:03:29;100;0;150.94;-4;-20.07;-8.47;282.4;17.40;76740;2837.665;-1758.601;1;161;-110;-112.9;44.2;44.6;14;14.0;28.6;0.0;
15/02/2025 01:03:49;100;0;154.27;-4;-20.07;-4.28;286.1;17.40;76727;2837.663;-1758.600;1;161;-110;-112.9;44.2;44.6;14;14.4;28.6;0.0;
15/02/2025 01:04:09;100;0;157.51;-4;-20.52;-4.72;289.5;17.30;76719;2837.660;-1758.599;1;161;-110;-114.5;44.2;44.6;14;14.4;28.6;0.0;
15/02/2025 01:04:29;100;0;159.90;-4;-21.50;-4.80;293.0;17.30;76715;2837.658;-1758.599;1;161;-110;-114.5;44.2;44.6;14;14.4;28.6;0.0;
15/02/2025 01:04:49;100;0;161.37;-4;-19.64;-4.25;296.3;17.30;76706;2837.655;-1758.598;1;161;-110;-114.5;44.2;44.6;14;14.4;28.6;0.0;
15/02/2025 01:05:09;100;0;162.78;-4;-21.16;-4.61;299.7;17.20;76698;2837.653;-1758.597;1;161;-110;-114.5;44.2;44.6;16;15.8;28.6;0.0;
15/02/2025 01:05:29;100;0;164.91;-4;-20.10;-3.49;303.4;17.20;76704;2837.650;-1758.597;1;161;-110;-114.5;44.2;44.6;16;16.2;28.6;0.0;
15/02/2025 01:05:49;100;0;168.21;-4;-20.53;-3.44;306.6;17.10;76684;2837.648;-1758.597;1;161;-110;-114.5;44.2;44.6;19;19.0;28.6;0.0;
15/02/2025 01:06:09;100;0;170.82;-4;-20.56;-2.25;309.6;17.10;76685;2837.646;-1758.597;1;161;-110;-114.5;44.2;44.6;23;23.0;28.5;0.0;
15/02/2025 01:06:29;100;0;167.99;-4;-20.58;-0.11;312.9;17.10;76690;2837.643;-1758.597;1;160;-110;-114.5;44.2;44.6;20;19.4;28.6;0.0;
15/02/2025 01:06:49;100;0;167.77;-4;-20.66;-1.89;316.0;17.00;76686;2837.641;-1758.597;1;160;-110;-114.5;44.2;44.6;20;19.9;28.6;0.0;
15/02/2025 01:07:09;100;0;167.55;-4;-21.18;-1.78;319.1;17.00;76673;2837.639;-1758.597;1;160;-110;-114.5;44.2;44.6;20;19.9;28.6;0.0;
15/02/2025 01:07:29;100;0;163.41;-4;-21.18;-1.91;322.2;16.90;76656;2837.637;-1758.597;1;160;-110;-114.5;44.2;44.6;17;16.2;28.6;0.0;
15/02/2025 01:07:49;100;0;159.14;-4;-20.49;-3.38;325.2;16.90;76646;2837.635;-1758.597;1;160;-110;-114.5;44.2;44.6;17;16.7;28.6;0.0;
15/02/2025 01:08:09;100;0;155.29;-4;-20.40;-3.44;327.9;16.90;76634;2837.633;-1758.596;1;160;-110;-114.5;44.2;44.6;15;14.9;28.6;0.0;
15/02/2025 01:08:29;100;0;152.54;-4;-20.60;-4.58;330.8;16.80;76620;2837.632;-1758.595;1;160;-110;-114.5;44.2;44.6;15;14.4;28.6;0.0;
15/02/2025 01:08:49;100;0;148.55;-4;-20.79;-4.48;333.7;16.80;76617;2837.630;-1758.594;1;160;-110;-114.5;44.2;44.6;15;14.4;28.6;0.0;
15/02/2025 01:09:09;100;0;143.73;-4;-21.10;-4.49;336.7;16.80;76610;2837.629;-1758.592;1;160;-110;-114.5;44.2;44.6;10;9.9;28.6;0.0;
15/02/2025 01:09:29;100;0;141.83;-4;-20.49;-6.75;339.8;16.70;76595;2837.627;-1758.591;1;160;-110;-114.5;44.2;44.6;8;8.1;28.5;0.0;
15/02/2025 01:09:49;100;0;151.05;-4;-20.12;-7.68;342.7;16.70;76588;2837.626;-1758.589;1;161;-110;-114.5;44.2;44.6;15;14.9;28.5;0.0;
15/02/2025 01:10:09;100;0;157.11;-4;-19.94;-4.07;345.6;16.60;76582;2837.624;-1758.589;1;161;-110;-117.7;44.2;44.6;15;15.3;28.6;0.0;
15/02/2025 01:10:29;100;0;157.89;-4;-20.53;-4.15;348.4;16.60;76562;2837.622;-1758.588;1;160;-110;-114.5;44.2;44.6;15;15.3;28.5;0.0;
15/02/2025 01:10:49;100;0;158.44;-4;-20.45;-4.02;351.2;16.50;76555;2837.621;-1758.588;1;160;-110;-117.7;44.2;44.6;15;15.3;28.6;0.0;
15/02/2025 01:11:09;100;0;160.30;-4;-20.77;-4.10;354.1;16.50;76553;2837.619;-1758.587;1;160;-110;-114.5;44.2;44.6;15;15.3;28.6;0.0;
15/02/2025 01:11:29;100;0;164.99;-4;-20.14;-3.83;357.0;16.50;76541;2837.617;-1758.587;1;160;-110;-114.5;44.2;44.6;18;18.1;28.6;0.0;
15/02/2025 01:11:49;100;0;166.10;-4;-20.07;-2.52;360.0;16.40;76532;2837.615;-1758.587;1;160;-110;-112.9;44.2;44.6;18;18.5;28.6;0.0;
15/02/2025 01:12:09;100;0;163.39;-4;-20.97;-2.49;362.9;16.40;76525;2837.613;-1758.587;1;160;-110;-114.5;44.2;44.6;18;18.5;28.6;0.0;
15/02/2025 01:12:29;100;0;161.01;-4;-20.69;-2.43;366.2;16.40;76511;2837.611;-1758.586;1;160;-110;-114.5;44.2;44.6;16;15.8;28.6;0.0;
15/02/2025 01:12:49;100;0;157.30;-4;-20.87;-3.82;369.2;16.30;76505;2837.609;-1758.586;1;160;-110;-114.5;44.2;44.6;16;15.3;28.6;0.0;
15/02/2025 01:13:09;100;0;154.96;-4;-20.14;-3.90;372.3;16.30;76494;2837.607;-1758.585;1;160;-110;-114.5;44.2;44.5;16;15.8;28.6;0.0;
15/02/2025 01:13:29;100;0;153.54;-4;-21.27;-3.91;375.5;16.20;76487;2837.605;-1758.584;1;160;-110;-114.5;44.2;44.6;16;15.3;28.6;0.0;
15/02/2025 01:13:49;100;0;144.03;-4;-18.17;-3.53;379.1;16.20;76474;2837.602;-1758.581;1;160;-110;-114.5;44.7;45.2;9;8.6;28.6;0.0;
15/02/2025 01:14:09;100;0;143.93;-4;-20.49;-7.49;381.6;16.10;76460;2837.601;-1758.580;1;160;-110;-114.5;44.7;45.1;9;9.0;28.5;0.0;
15/02/2025 01:14:29;100;0;143.47;-4;-20.76;-7.39;384.6;16.10;76457;2837.600;-1758.579;1;161;-110;-114.5;44.7;45.1;9;9.0;28.5;0.0;
15/02/2025 01:14:49;100;0;144.29;-4;-21.40;-7.35;387.8;16.10;76453;2837.598;-1758.577;1;161;-110;-114.5;44.7;45.2;9;8.6;28.6;0.0;
15/02/2025 01:15:09;100;0;142.65;-4;-22.52;-7.87;390.5;16.00;76452;2837.598;-1758.576;1;161;-110;-114.5;44.0;43.9;9;8.6;28.6;0.0;
15/02/2025 01:15:29;100;0;147.88;-4;-19.83;-6.84;393.8;16.00;76440;2837.596;-1758.574;1;161;-110;-114.5;44.0;43.7;13;13.1;28.6;0.0;
15/02/2025 01:15:49;100;0;146.76;-4;-18.97;-5.08;396.9;16.00;76436;2837.594;-1758.573;1;161;-110;-114.5;44.3;44.5;13;13.5;28.6;0.0;
15/02/2025 01:16:09;100;0;139.41;-4;-19.60;-5.08;399.9;15.90;76434;2837.592;-1758.571;1;161;-110;-114.5;44.3;44.8;2;1.8;28.6;0.0;
15/02/2025 01:16:29;100;0;142.45;-4;-19.50;-10.95;403.0;15.90;76425;2837.591;-1758.569;1;161;-110;-114.5;44.3;44.6;7;7.2;28.6;0.0;
15/02/2025 01:16:49;100;0;147.71;-4;-19.84;-7.91;406.1;15.80;76417;2837.589;-1758.567;1;161;-110;-114.5;44.3;44.6;13;13.1;28.6;0.0;
15/02/2025 01:17:09;100;0;150.46;-4;-20.08;-4.96;409.2;15.80;76401;2837.587;-1758.566;1;161;-110;-114.5;44.3;44.8;13;13.5;28.6;0.0;
15/02/2025 01:17:29;100;0;155.88;-4;-20.25;-5.26;412.2;15.80;76394;2837.585;-1758.565;1;161;-110;-114.5;44.3;44.6;15;14.9;28.6;0.0;
15/02/2025 01:17:49;100;0;160.47;-4;-20.24;-3.73;415.3;15.80;76377;2837.583;-1758.565;1;161;-110;-114.5;44.3;44.8;15;15.3;28.6;0.0;
15/02/2025 01:18:09;100;0;160.76;-4;-19.87;-3.89;418.3;15.70;76376;2837.581;-1758.564;1;161;-110;-114.5;44.3;44.8;15;15.3;28.6;0.0;
15/02/2025 01:18:29;100;0;162.73;-4;-20.31;-4.00;421.4;15.70;76367;2837.579;-1758.564;1;161;-110;-114.5;44.3;44.8;15;15.3;28.6;0.0;
15/02/2025 01:18:49;100;0;160.06;-4;-20.20;-4.05;424.4;15.60;76361;2837.577;-1758.563;1;161;-110;-114.5;44.3;44.8;15;15.3;28.6;0.0;
15/02/2025 01:19:09;100;0;161.44;-4;-20.74;-4.25;427.4;15.60;76354;2837.575;-1758.563;1;161;-110;-112.9;44.3;44.8;15;15.3;28.6;0.0;
15/02/2025 01:19:29;100;0;158.73;-4;-20.53;-4.03;430.4;15.60;76355;2837.573;-1758.562;1;161;-110;-114.5;44.3;44.6;15;15.3;28.6;0.0;
15/02/2025 01:19:49;100;0;157.44;-4;-20.44;-3.90;433.5;15.50;76343;2837.571;-1758.562;1;161;-110;-114.5;44.3;44.8;15;15.3;28.6;0.0;
15/02/2025 01:20:09;100;0;154.74;-4;-20.25;-4.13;436.6;15.50;76331;2837.569;-1758.561;1;161;-110;-114.5;44.3;44.8;15;15.3;28.6;0.0;
15/02/2025 01:20:29;100;0;153.56;-4;-20.49;-3.95;439.7;15.50;76332;2837.567;-1758.560;1;161;-110;-112.9;44.3;44.8;15;15.3;28.6;0.0;
15/02/2025 01:20:49;100;0;152.42;-4;-20.19;-4.02;442.7;15.40;76333;2837.565;-1758.559;1;161;-110;-114.5;44.3;44.8;15;15.3;28.6;0.0;
15/02/2025 01:21:09;100;0;151.82;-4;-20.50;-4.07;445.7;15.40;76321;2837.564;-1758.558;1;161;-110;-114.5;44.3;44.6;15;15.3;28.6;0.0;
15/02/2025 01:21:29;100;0;150.90;-4;-20.63;-3.93;449.0;15.30;76309;2837.562;-1758.556;1;161;-110;-114.5;44.3;44.8;15;15.3;28.6;0.0;
15/02/2025 01:21:49;100;0;149.65;-4;-20.68;-4.16;452.1;15.30;76314;2837.560;-1758.555;1;161;-110;-114.5;44.3;44.8;15;15.3;28.6;0.0;
15/02/2025 01:22:09;100;0;148.60;-4;-20.18;-3.89;455.3;15.30;76313;2837.558;-1758.554;1;161;-110;-112.9;44.3;44.8;13;12.6;28.6;0.0;
15/02/2025 01:22:29;100;0;150.82;-4;-20.76;-5.49;458.5;15.20;76300;2837.556;-1758.552;1;161;-110;-114.5;44.3;44.8;13;12.6;28.6;0.0;
15/02/2025 01:22:49;100;0;159.67;-4;-20.60;-5.60;461.7;15.20;76290;2837.554;-1758.552;1;161;-110;-117.7;44.3;44.8;15;14.9;28.6;0.0;
15/02/2025 01:23:09;100;0;165.07;-4;-21.09;-4.25;464.9;15.20;76289;2837.552;-1758.552;1;161;-110;-114.5;44.3;44.6;17;17.1;28.6;0.0;
15/02/2025 01:23:29;100;0;165.19;-4;-20.74;-3.09;468.0;15.20;76263;2837.550;-1758.551;1;161;-110;-114.5;44.3;44.8;17;17.1;28.5;0.0;
15/02/2025 01:23:49;100;0;163.80;-4;-20.83;-3.05;471.1;15.10;76250;2837.548;-1758.551;1;161;-110;-114.5;44.3;44.8;17;17.1;28.6;0.0;
15/02/2025 01:24:09;100;0;163.83;-4;-20.54;-3.07;474.1;15.10;76249;2837.546;-1758.551;1;161;-110;-114.5;44.3;44.8;17;17.1;28.6;0.0;
15/02/2025 01:24:29;100;0;156.69;-4;-20.29;-3.20;477.3;15.00;76223;2837.543;-1758.550;1;161;-110;-114.5;44.3;44.8;15;14.9;28.6;0.0;
15/02/2025 01:24:49;100;0;155.62;-4;-18.99;-4.11;480.4;15.00;76226;2837.541;-1758.549;1;161;-110;-116.1;44.6;44.5;15;14.9;28.5;0.0;
15/02/2025 01:25:09;100;0;155.66;-4;-20.00;-4.03;483.1;15.00;76203;2837.540;-1758.548;1;161;-110;-114.5;44.6;44.3;15;14.9;28.6;0.0;
15/02/2025 01:25:29;100;0;156.83;-4;-19.80;-4.36;486.0;14.90;76196;2837.538;-1758.548;1;161;-110;-114.5;44.6;44.5;15;14.9;28.6;0.0;
15/02/2025 01:25:49;100;0;152.14;-4;-20.04;-4.88;488.8;14.90;76181;2837.536;-1758.547;1;161;-110;-114.5;44.6;44.3;15;14.9;28.6;0.0;
15/02/2025 01:26:09;100;0;152.40;-4;-20.20;-4.40;491.8;14.90;76180;2837.535;-1758.546;1;161;-110;-114.5;44.6;44.5;15;14.9;28.6;0.0;
15/02/2025 01:26:29;100;0;151.44;-4;-19.23;-3.93;494.9;14.80;76178;2837.533;-1758.544;1;161;-110;-116.1;44.6;44.3;15;14.9;28.6;0.0;
15/02/2025 01:26:49;100;0;153.00;-4;-20.66;-4.54;497.7;14.80;76165;2837.531;-1758.544;1;161;-110;-116.1;44.6;44.3;15;14.9;28.6;0.0;
15/02/2025 01:27:09;100;0;151.76;-4;-19.48;-4.08;500.8;14.80;76174;2837.529;-1758.542;1;161;-110;-114.5;44.6;44.3;15;14.9;28.6;0.0;
15/02/2025 01:27:29;100;0;149.40;-4;-18.62;-4.36;503.6;14.70;76155;2837.527;-1758.541;1;161;-110;-114.5;45.0;45.2;15;14.9;28.6;0.0;
15/02/2025 01:27:49;100;0;149.67;-4;-19.82;-4.08;506.4;14.70;76145;2837.526;-1758.540;1;161;-110;-114.5;45.0;45.4;15;14.9;28.5;0.0;
15/02/2025 01:28:09;100;0;149.03;-4;-21.56;-4.37;509.1;14.60;76152;2837.525;-1758.539;1;161;-110;-114.5;45.0;45.4;15;15.3;28.6;0.0;
15/02/2025 01:28:29;100;0;147.94;-4;-23.99;-4.57;512.0;14.60;76139;2837.524;-1758.538;1;162;-110;-114.5;43.8;43.9;13;12.6;28.5;0.0;
15/02/2025 01:28:49;100;0;149.57;-4;-18.58;-5.28;514.9;14.60;76134;2837.522;-1758.537;1;162;-110;-116.1;44.2;44.2;13;12.6;28.6;0.0;
15/02/2025 01:29:09;100;0;148.19;-4;-19.37;-5.62;517.6;14.60;76129;2837.521;-1758.536;1;162;-110;-116.1;44.2;44.5;13;12.6;28.6;0.0;
15/02/2025 01:29:29;100;0;148.36;-4;-18.94;-5.46;520.2;14.50;76134;2837.519;-1758.535;1;162;-110;-114.5;44.6;44.6;13;12.2;28.6;0.0;
15/02/2025 01:29:49;100;0;146.53;-4;-20.80;-5.75;522.4;14.50;76122;2837.519;-1758.534;1;162;-110;-114.5;44.6;44.9;13;12.6;28.6;0.0;
15/02/2025 01:30:09;100;0;152.32;-4;-20.50;-5.60;525.0;14.50;76117;2837.517;-1758.533;1;162;-110;-114.5;44.6;44.9;15;14.9;28.6;0.0;
15/02/2025 01:30:29;100;0;154.16;-4;-21.62;-4.20;527.8;14.40;76115;2837.516;-1758.533;1;162;-110;-114.5;44.6;44.9;15;15.3;28.6;0.0;
15/02/2025 01:30:49;100;0;153.45;-4;-20.66;-4.00;530.5;14.40;76109;2837.514;-1758.532;1;162;-110;-114.5;44.6;45.1;15;15.3;28.6;0.0;
15/02/2025 01:31:09;100;0;149.16;-4;-20.90;-4.06;533.3;14.40;76119;2837.513;-1758.531;1;162;-110;-116.1;44.6;45.1;13;12.6;28.6;0.0;
15/02/2025 01:31:29;100;0;150.55;-4;-20.51;-5.54;535.9;14.40;76106;2837.512;-1758.530;1;162;-110;-114.5;44.6;44.9;13;12.6;28.6;0.0;
15/02/2025 01:31:49;100;0;152.19;-4;-20.68;-5.54;538.7;14.30;76096;2837.511;-1758.529;1;162;-110;-114.5;44.6;45.1;13;12.6;28.5;0.0;
15/02/2025 01:32:09;100;0;152.32;-4;-21.00;-5.42;541.8;14.30;76093;2837.509;-1758.528;1;162;-110;-114.5;44.6;45.1;13;12.6;28.6;0.0;
15/02/2025 01:32:29;100;0;151.92;-4;-20.36;-5.49;544.8;14.30;76088;2837.507;-1758.527;1;162;-110;-112.9;44.6;44.9;13;12.6;28.6;0.0;
15/02/2025 01:32:49;100;0;152.30;-4;-20.35;-5.45;547.7;14.20;76081;2837.505;-1758.526;1;162;-110;-114.5;44.6;45.1;13;12.6;28.6;0.0;
15/02/2025 01:33:09;100;0;152.83;-4;-21.01;-5.31;550.5;14.20;76080;2837.504;-1758.525;1;162;-110;-114.5;44.6;45.1;13;12.6;28.6;0.0;
15/02/2025 01:33:29;100;0;152.53;-4;-20.66;-5.64;553.4;14.20;76083;2837.502;-1758.524;1;162;-110;-114.5;44.6;45.1;13;12.6;28.6;0.0;
15/02/2025 01:33:49;100;0;153.14;-4;-20.55;-5.66;556.3;14.20;76081;2837.501;-1758.523;1;162;-110;-114.5;44.6;45.1;13;12.6;28.6;0.0;
15/02/2025 01:34:09;100;0;153.52;-4;-20.76;-5.42;559.1;14.10;76072;2837.499;-1758.522;1;162;-110;-116.1;44.6;45.1;13;12.6;28.6;0.0;
15/02/2025 01:34:29;100;0;149.15;-4;-20.57;-5.48;562.0;14.10;76070;2837.498;-1758.521;1;162;-110;-114.5;44.6;45.1;13;12.6;28.5;0.0;
15/02/2025 01:34:49;100;0;149.31;-4;-20.18;-5.26;565.0;14.10;76053;2837.496;-1758.520;1;162;-110;-114.5;44.6;45.1;13;12.6;28.6;0.0;
15/02/2025 01:35:09;100;0;146.15;-4;-20.67;-5.74;567.8;14.00;76050;2837.495;-1758.519;1;162;-110;-114.5;44.6;44.9;10;9.9;28.5;0.0;
15/02/2025 01:35:29;100;0;148.86;-4;-19.84;-7.12;570.6;14.00;76052;2837.493;-1758.518;1;162;-110;-114.5;44.6;44.9;13;13.1;28.6;0.0;
15/02/2025 01:35:49;100;0;149.24;-4;-20.31;-5.04;573.2;14.00;76050;2837.492;-1758.517;1;163;-110;-116.1;44.6;45.2;13;13.5;28.6;0.0;
15/02/2025 01:36:09;100;0;149.59;-4;-20.34;-4.96;575.5;14.00;76050;2837.491;-1758.516;1;163;-110;-114.5;44.6;45.1;13;13.5;28.5;0.0;
15/02/2025 01:36:29;100;0;148.16;-4;-21.35;-5.00;578.2;13.90;76040;2837.490;-1758.515;1;163;-110;-116.1;44.6;45.1;13;13.5;28.5;0.0;
15/02/2025 01:36:49;100;0;148.60;-4;-20.52;-5.19;581.0;13.90;76035;2837.488;-1758.514;1;163;-110;-114.5;44.6;44.9;13;13.5;28.6;0.0;
15/02/2025 01:37:09;100;0;147.19;-4;-20.06;-5.00;583.6;13.90;76027;2837.487;-1758.513;1;163;-110;-114.5;44.6;45.1;11;10.8;28.6;0.0;
15/02/2025 01:37:29;100;0;150.06;-4;-20.48;-6.50;586.4;13.90;76034;2837.486;-1758.512;1;163;-110;-116.1;44.6;45.1;13;13.5;28.6;0.0;
15/02/2025 01:37:49;100;0;150.12;-4;-20.78;-4.68;589.0;13.90;76022;2837.484;-1758.511;1;163;-110;-114.5;44.6;45.1;13;14.0;28.6;0.0;
15/02/2025 01:38:09;100;0;142.65;-4;-21.41;-4.90;592.1;13.80;76029;2837.483;-1758.509;1;163;-110;-112.9;44.6;45.1;5;5.0;28.6;0.0;
15/02/2025 01:38:29;100;0;145.59;-4;-20.06;-9.39;595.3;13.80;76001;2837.481;-1758.508;1;163;-110;-114.5;44.6;45.1;9;9.0;28.6;0.0;
15/02/2025 01:38:50;100;0;143.69;-4;-19.24;-7.43;598.2;13.80;76000;2837.480;-1758.506;1;163;-110;-114.5;44.6;45.1;6;5.9;28.5;0.0;
15/02/2025 01:39:10;100;0;143.88;-4;-19.02;-9.20;600.7;13.80;75986;2837.479;-1758.505;1;163;-110;-114.5;44.6;45.2;8;8.1;28.6;0.0;
15/02/2025 01:39:30;100;0;145.68;-4;-19.76;-7.50;603.1;13.70;75976;2837.478;-1758.504;1;163;-110;-112.9;44.6;45.1;11;11.3;28.5;0.0;
15/02/2025 01:39:50;100;0;147.55;-4;-21.31;-6.22;605.5;13.70;75969;2837.477;-1758.503;1;164;-110;-114.5;44.6;45.1;11;11.7;28.6;0.0;
15/02/2025 01:40:10;100;0;148.38;-4;-19.48;-5.73;608.3;13.70;75968;2837.475;-1758.502;1;164;-110;-114.5;44.6;45.1;11;11.7;28.6;0.0;
15/02/2025 01:40:30;100;0;150.89;-4;-20.02;-6.52;610.5;13.60;75950;2837.474;-1758.501;1;164;-110;-114.5;44.6;44.9;13;13.1;28.6;0.0;
15/02/2025 01:40:50;100;0;151.57;-4;-21.52;-5.11;613.1;13.60;75943;2837.473;-1758.500;1;164;-110;-114.5;44.6;45.1;13;13.5;28.6;0.0;
15/02/2025 01:41:10;100;0;150.24;-4;-19.63;-4.91;615.6;13.60;75946;2837.472;-1758.499;1;164;-110;-114.5;44.6;44.9;13;13.5;28.6;0.0;
15/02/2025 01:41:30;100;0;150.89;-4;-20.10;-4.87;618.0;13.60;75923;2837.471;-1758.499;1;164;-110;-116.1;44.6;45.1;13;13.5;28.5;0.0;
15/02/2025 01:41:50;100;0;150.52;-4;-19.05;-4.79;620.4;13.50;75927;2837.470;-1758.498;1;164;-110;-114.5;44.6;45.1;13;13.5;28.6;0.0;
15/02/2025 01:42:10;100;0;146.73;-4;-18.90;-4.98;622.6;13.50;75914;2837.469;-1758.497;1;164;-110;-112.9;44.9;44.8;10;9.9;28.6;0.0;
15/02/2025 01:42:30;100;0;145.33;-4;-17.78;-7.43;624.5;13.50;75907;2837.468;-1758.496;1;164;-130;-130.6;45.6;45.5;10;9.9;28.6;0.0;
15/02/2025 01:42:50;100;0;159.07;-4;-19.84;-6.75;625.8;13.50;75943;2837.468;-1758.497;1;164;-150;-148.4;45.6;45.8;15;14.9;28.6;0.0;
15/02/2025 01:43:10;100;0;159.22;-4;-21.88;-3.68;628.0;13.40;75980;2837.468;-1758.496;1;164;-150;-151.6;45.6;45.9;15;15.3;28.6;0.0;
15/02/2025 01:43:30;100;0;161.35;-4;-22.80;-3.49;630.0;13.40;75985;2837.467;-1758.497;1;164;-150;-156.5;44.7;44.6;15;15.3;28.6;43.3;
15/02/2025 01:43:50;100;0;161.14;-4;-21.63;-3.63;632.3;13.40;75986;2837.466;-1758.496;1;164;-150;-153.2;44.7;44.5;15;15.8;28.5;0.0;
15/02/2025 01:44:10;100;0;162.12;-4;-23.77;-4.56;635.1;13.30;75985;2837.465;-1758.496;1;164;-150;-153.2;43.6;43.6;15;15.3;28.6;0.0;
15/02/2025 01:44:30;100;0;158.16;-4;-14.73;-4.33;638.3;13.30;75978;2837.462;-1758.495;1;164;-150;-154.8;45.2;45.2;15;15.8;28.6;35.2;
15/02/2025 01:44:50;100;0;160.74;-4;-22.79;-4.08;640.7;13.30;75971;2837.461;-1758.495;1;164;-150;-156.5;44.3;44.3;15;15.3;28.6;32.0;
15/02/2025 01:44:59;118;0;160.06;-4;-22.70;-3.79;642.4;13.30;75981;2837.460;-1758.495;1;164;310;-153.2;25.5;25.5;9;9.0;28.6;30.1;
15/02/2025 01:45:09;118;0;129.44;-4;-11.33;-7.03;643.9;13.30;75966;2837.459;-1758.493;1;164;310;-27.4;25.5;25.0;9;9.0;27.7;-1.0;
15/02/2025 01:45:19;118;0;123.19;-4;11.57;-6.95;645.1;13.30;75691;2837.459;-1758.492;1;164;310;96.8;25.5;25.6;9;8.6;27.7;-1.0;
15/02/2025 01:45:29;118;0;121.29;-4;21.56;-7.73;645.3;13.30;75418;2837.459;-1758.492;1;164;310;221.0;25.5;25.8;9;8.6;27.6;-1.0;
15/02/2025 01:45:39;118;0;125.97;-4;17.57;-8.94;645.3;13.30;75156;2837.460;-1758.493;1;164;310;311.3;25.5;25.8;9;8.6;27.6;-1.0;
15/02/2025 01:45:49;118;0;180.76;-4;16.74;-8.12;645.3;13.30;74990;2837.461;-1758.493;1;164;310;311.3;25.5;25.6;9;8.6;28.5;-1.0;
15/02/2025 01:46:09;117;0;185.14;-4;27.45;-7.37;644.5;13.30;74981;2837.462;-1758.494;1;164;310;312.9;25.5;25.8;9;8.6;28.5;-1.0;
15/02/2025 01:46:29;117;0;178.81;-4;20.18;-7.47;641.5;13.30;74990;2837.460;-1758.495;1;164;310;312.9;25.5;25.8;13;13.1;28.5;-1.0;
15/02/2025 01:46:49;117;0;164.47;-4;22.01;-6.28;638.1;13.30;74985;2837.457;-1758.495;1;164;310;311.3;26.1;26.2;31;31.1;28.5;-1.0;
15/02/2025 01:47:09;117;0;167.58;-4;16.87;4.33;634.3;13.20;74970;2837.454;-1758.495;1;164;310;312.9;25.2;25.2;31;31.6;28.6;-1.0;
15/02/2025 01:47:29;117;0;167.62;-4;19.43;4.17;630.8;13.20;74967;2837.451;-1758.495;1;163;310;312.9;25.2;24.6;29;28.9;28.5;-1.0;
15/02/2025 01:47:49;117;0;167.09;-4;20.16;3.19;627.6;13.20;74956;2837.448;-1758.495;1;163;310;312.9;25.2;24.6;29;28.9;28.6;-1.0;
15/02/2025 01:48:09;117;0;162.44;-4;20.96;2.15;624.5;13.20;74957;2837.446;-1758.494;1;163;310;312.9;25.2;24.6;31;31.1;28.6;-1.0;
15/02/2025 01:48:29;117;0;161.66;-4;22.77;4.37;620.9;13.10;74964;2837.444;-1758.494;1;163;310;312.9;26.0;25.9;31;32.0;28.6;-1.0;
15/02/2025 01:48:49;117;0;162.33;-4;18.52;4.36;616.6;13.10;74944;2837.440;-1758.493;1;163;310;312.9;25.5;25.3;31;31.6;28.6;-1.0;
15/02/2025 01:49:09;117;0;168.52;-4;20.82;3.99;612.4;13.10;74954;2837.437;-1758.493;1;163;310;312.9;25.5;25.6;28;27.5;28.6;-1.0;
15/02/2025 01:49:29;117;0;167.70;-4;17.82;2.23;608.2;13.00;74944;2837.433;-1758.492;1;163;310;312.9;24.9;24.9;28;27.5;28.5;-1.0;
15/02/2025 01:49:49;117;0;168.94;-4;19.03;2.30;604.9;13.00;74950;2837.430;-1758.492;1;163;310;312.9;24.9;24.6;28;27.5;28.6;-1.0;
15/02/2025 01:50:09;117;0;166.85;-4;20.73;1.86;601.8;13.00;74962;2837.428;-1758.492;1;163;310;312.9;24.9;24.3;28;27.5;28.5;-1.0;
15/02/2025 01:50:29;117;0;163.20;-4;20.70;1.33;598.8;13.00;74976;2837.426;-1758.492;1;163;310;312.9;24.9;24.9;30;30.2;28.5;-1.0;
15/02/2025 01:50:49;117;0;164.13;-4;20.22;3.17;595.8;13.00;74980;2837.424;-1758.492;1;163;310;312.9;24.9;25.2;30;30.2;28.5;-1.0;
15/02/2025 01:51:09;117;0;164.18;-4;19.36;3.54;593.1;13.00;74975;2837.422;-1758.491;1;163;310;312.9;24.9;25.0;30;30.2;28.6;-1.0;
15/02/2025 01:51:29;117;0;165.16;-4;19.81;3.09;590.1;13.00;74990;2837.420;-1758.491;1;162;310;312.9;24.9;25.2;30;30.2;28.6;-1.0;
15/02/2025 01:51:49;117;0;163.90;-4;22.83;3.21;587.1;13.00;74983;2837.418;-1758.491;1;162;310;312.9;25.7;25.8;30;30.2;28.6;-1.0;
15/02/2025 01:52:09;117;0;164.93;-4;18.98;3.55;584.3;13.00;74991;2837.416;-1758.491;1;162;310;311.3;25.4;25.5;30;30.2;28.5;-1.0;
15/02/2025 01:52:29;117;0;167.68;-4;18.39;3.65;581.3;12.90;74995;2837.414;-1758.491;1;162;310;312.9;24.9;24.7;28;28.0;28.6;-1.0;
15/02/2025 01:52:49;117;0;167.04;-4;18.57;1.95;578.7;12.90;74992;2837.412;-1758.491;1;162;310;312.9;24.5;24.4;28;27.5;28.6;-1.0;
15/02/2025 01:53:09;117;0;169.92;-4;21.87;1.76;576.7;12.90;74995;2837.411;-1758.492;1;162;310;312.9;24.5;24.4;20;19.4;28.6;-1.0;
15/02/2025 01:53:29;117;0;165.03;-4;21.55;-1.44;574.4;12.90;74999;2837.410;-1758.492;1;162;310;311.3;24.5;24.4;27;28.0;28.6;-1.0;
15/02/2025 01:53:49;117;0;163.38;-4;22.66;2.69;571.5;12.90;74999;2837.409;-1758.492;1;162;310;312.9;25.3;25.3;30;30.2;28.5;-1.0;
15/02/2025 01:54:09;117;0;160.95;-4;20.59;3.55;568.7;12.90;74991;2837.407;-1758.491;1;162;310;311.3;25.3;25.3;30;30.7;28.6;-1.0;
15/02/2025 01:54:29;117;0;160.66;-4;20.21;3.45;566.0;12.90;74991;2837.405;-1758.491;1;162;310;312.9;25.3;25.3;30;30.2;28.6;-1.0;
15/02/2025 01:54:49;117;0;159.25;-4;19.80;3.55;563.4;12.90;74990;2837.404;-1758.491;1;162;310;312.9;25.3;25.3;30;30.7;28.5;-1.0;
15/02/2025 01:55:09;117;0;160.58;-4;19.97;3.62;560.9;12.90;74986;2837.402;-1758.490;1;162;310;312.9;25.3;25.3;30;30.7;28.5;-1.0;
15/02/2025 01:55:29;117;0;160.75;-4;19.88;3.32;558.4;12.90;74990;2837.401;-1758.490;1;162;310;312.9;25.3;25.3;30;30.7;28.6;-1.0;
15/02/2025 01:55:49;117;0;161.51;-4;19.05;3.04;556.0;12.90;74992;2837.399;-1758.490;1;162;310;312.9;25.3;25.3;30;30.7;28.6;-1.0;
15/02/2025 01:56:09;117;0;160.49;-4;21.05;4.00;553.6;12.90;74984;2837.398;-1758.490;1;162;310;312.9;25.3;25.5;30;30.7;28.5;-1.0;
15/02/2025 01:56:29;117;0;160.12;-4;20.42;3.58;551.0;12.90;74982;2837.397;-1758.489;1;162;310;311.3;25.3;25.3;30;30.7;28.5;-1.0;
15/02/2025 01:56:49;117;0;156.97;-4;19.81;3.81;548.5;12.80;74978;2837.395;-1758.489;1;162;310;311.3;25.3;25.3;30;30.2;28.6;-1.0;
15/02/2025 01:57:09;117;0;155.22;-4;19.89;4.10;546.0;12.80;74980;2837.394;-1758.488;1;162;310;312.9;25.3;25.3;30;30.7;28.6;-1.0;
15/02/2025 01:57:29;117;0;155.31;-4;20.04;3.96;543.5;12.80;74980;2837.393;-1758.488;1;162;310;312.9;25.3;25.3;30;30.7;28.5;-1.0;
15/02/2025 01:57:49;117;0;156.15;-4;20.67;3.73;541.1;12.80;74986;2837.392;-1758.487;1;162;310;312.9;25.3;25.3;30;30.7;28.5;-1.0;
15/02/2025 01:58:09;117;0;153.66;-4;18.38;3.42;538.5;12.80;74978;2837.390;-1758.487;1;162;310;314.5;24.8;24.9;30;30.7;28.6;-1.0;
15/02/2025 01:58:29;117;0;155.90;-4;20.78;3.17;535.9;12.80;74960;2837.389;-1758.486;1;162;310;312.9;24.8;24.6;30;30.7;28.6;-1.0;
15/02/2025 01:58:49;117;0;157.14;-4;21.15;3.30;533.3;12.80;74968;2837.387;-1758.486;1;162;310;311.3;24.8;24.6;30;30.7;28.6;-1.0;
15/02/2025 01:59:09;117;0;156.81;-4;20.07;3.00;530.5;12.80;74963;2837.386;-1758.485;1;162;310;312.9;24.8;24.6;30;30.7;28.6;-1.0;
15/02/2025 01:59:29;117;0;156.53;-4;21.77;3.27;528.0;12.80;74973;2837.385;-1758.485;1;162;310;312.9;24.8;24.6;30;30.2;28.6;-1.0;
15/02/2025 01:59:49;117;0;155.28;-4;20.70;3.51;525.3;12.80;74971;2837.383;-1758.484;1;162;310;312.9;24.8;24.6;30;30.2;28.6;-1.0;
15/02/2025 02:00:09;117;0;154.29;-4;20.34;3.63;522.6;12.80;74973;2837.382;-1758.483;1;162;310;312.9;24.8;24.6;30;30.7;28.6;-1.0;
15/02/2025 02:00:29;117;0;153.87;-4;20.17;3.65;520.2;12.80;74968;2837.380;-1758.483;1;162;310;312.9;24.8;24.6;30;30.7;28.6;-1.0;
15/02/2025 02:00:49;117;0;155.70;-4;18.79;3.71;517.8;12.80;74964;2837.379;-1758.482;1;162;310;308.1;24.5;24.3;30;30.7;28.6;-1.0;
15/02/2025 02:01:09;117;0;157.49;-4;21.21;3.82;515.7;12.80;74964;2837.378;-1758.482;1;162;310;312.9;24.5;23.7;30;30.2;28.6;-1.0;
15/02/2025 02:01:29;117;0;161.78;-4;22.00;2.91;513.5;12.80;74956;2837.377;-1758.482;1;162;310;312.9;24.5;23.7;30;30.2;28.6;-1.0;
15/02/2025 02:01:49;117;0;162.05;-4;23.94;3.51;511.4;12.80;74957;2837.377;-1758.482;1;162;310;312.9;25.7;25.6;30;30.7;28.5;-1.0;
15/02/2025 02:02:09;117;0;160.86;-4;20.06;3.46;508.8;12.80;74951;2837.376;-1758.482;1;161;310;312.9;25.7;25.8;30;30.7;28.5;-1.0;
15/02/2025 02:02:29;117;0;160.60;-4;19.41;3.55;506.6;12.80;74957;2837.374;-1758.482;1;161;310;312.9;25.7;25.8;30;30.7;28.6;-1.0;
15/02/2025 02:02:49;117;0;159.50;-4;18.91;3.59;504.6;12.80;74961;2837.373;-1758.482;1;161;310;312.9;25.3;25.3;30;30.7;28.6;-1.0;
15/02/2025 02:03:09;117;0;158.92;-4;20.05;3.46;502.4;12.80;74967;2837.372;-1758.481;1;161;310;312.9;25.3;24.7;30;30.7;28.6;-1.0;
15/02/2025 02:03:29;117;0;153.49;-4;21.60;3.81;500.1;12.80;74967;2837.371;-1758.481;1;161;310;311.3;25.3;24.7;30;30.7;28.6;-1.0;
15/02/2025 02:03:49;117;0;153.22;-4;20.58;3.60;497.4;12.80;74962;2837.370;-1758.480;1;161;310;312.9;25.3;24.7;30;30.7;28.5;-1.0;
15/02/2025 02:04:09;117;0;152.27;-4;20.85;3.79;494.7;12.80;74973;2837.369;-1758.480;1;161;310;312.9;25.3;24.6;30;30.7;28.5;-1.0;
15/02/2025 02:04:29;117;0;153.23;-4;20.29;3.42;491.9;12.70;74968;2837.367;-1758.479;1;162;310;311.3;25.3;24.7;30;30.7;28.6;-1.0;
15/02/2025 02:04:49;117;0;153.30;-4;20.65;3.53;489.1;12.70;74968;2837.366;-1758.478;1;162;310;311.3;25.3;24.7;30;30.7;28.5;-1.0;
15/02/2025 02:05:09;117;0;153.18;-4;20.16;3.42;486.3;12.70;74964;2837.364;-1758.477;1;162;310;312.9;25.3;24.7;30;30.7;28.6;-1.0;
15/02/2025 02:05:29;117;0;151.96;-4;20.87;3.52;483.6;12.80;74967;2837.363;-1758.476;1;162;310;312.9;25.3;24.7;30;30.7;28.6;-1.0;
15/02/2025 02:05:49;117;0;154.93;-4;20.39;3.49;480.6;12.70;74973;2837.361;-1758.475;1;162;310;312.9;25.3;24.6;30;30.7;28.5;-1.0;
15/02/2025 02:06:09;117;0;150.41;-4;20.60;3.56;477.8;12.80;74975;2837.359;-1758.474;1;162;310;312.9;25.3;24.7;30;30.7;28.6;-1.0;
15/02/2025 02:06:29;117;0;146.85;-4;20.36;3.63;474.9;12.80;74981;2837.358;-1758.473;1;162;310;314.5;25.3;25.5;34;33.8;28.5;-1.0;
15/02/2025 02:06:49;117;0;146.89;-4;19.94;5.63;472.0;12.70;74985;2837.356;-1758.472;1;162;310;311.3;25.3;25.5;34;34.7;28.5;-1.0;
15/02/2025 02:07:09;117;0;147.05;-4;19.59;5.57;469.2;12.70;74985;2837.355;-1758.470;1;162;310;312.9;25.3;25.5;34;34.7;28.6;-1.0;
15/02/2025 02:07:29;117;0;147.89;-4;19.50;5.46;466.4;12.80;74987;2837.353;-1758.469;1;162;310;312.9;25.3;25.6;34;34.3;28.5;-1.0;
15/02/2025 02:07:49;117;0;150.89;-4;19.79;5.63;463.5;12.70;74985;2837.352;-1758.468;1;162;310;312.9;25.3;25.5;31;31.1;28.5;-1.0;
15/02/2025 02:08:09;117;0;149.72;-4;19.29;3.70;460.7;12.80;74990;2837.350;-1758.467;1;162;310;312.9;25.3;25.5;31;30.7;28.6;-1.0;
15/02/2025 02:08:29;117;0;149.48;-4;19.09;3.60;457.9;12.80;74990;2837.349;-1758.466;1;162;310;312.9;25.3;25.5;31;31.1;28.6;-1.0;
15/02/2025 02:08:49;117;0;151.37;-4;19.22;3.48;455.2;12.80;74990;2837.347;-1758.465;1;163;310;311.3;25.3;25.5;31;31.1;28.6;-1.0;
15/02/2025 02:09:09;117;0;152.47;-4;19.38;3.75;452.5;12.80;74995;2837.345;-1758.464;1;163;310;312.9;25.3;25.5;31;30.7;28.6;-1.0;
15/02/2025 02:09:29;117;0;151.58;-4;19.43;3.73;449.8;12.80;75006;2837.344;-1758.463;1;163;310;311.3;25.3;25.6;31;30.7;28.6;-1.0;
15/02/2025 02:09:49;117;0;149.82;-4;19.35;3.73;447.4;12.80;75014;2837.343;-1758.462;1;163;310;312.9;25.3;25.5;31;31.1;28.5;-1.0;
15/02/2025 02:10:09;117;0;148.98;-4;19.30;3.67;445.0;12.80;75011;2837.342;-1758.461;1;163;310;314.5;25.3;25.6;33;32.9;28.6;-1.0;
15/02/2025 02:10:29;117;0;149.61;-4;19.56;4.91;442.5;12.80;75018;2837.340;-1758.460;1;163;310;312.9;25.3;25.6;33;33.4;28.5;-1.0;
15/02/2025 02:10:49;117;0;150.33;-4;19.30;4.81;440.0;12.80;75013;2837.339;-1758.459;1;163;310;312.9;25.3;25.5;33;33.4;28.6;-1.0;
15/02/2025 02:11:09;117;0;150.91;-4;20.21;5.02;437.4;12.80;75012;2837.338;-1758.458;1;163;310;311.3;25.3;25.5;33;33.4;28.6;-1.0;
15/02/2025 02:11:30;117;0;149.74;-4;19.22;5.18;434.9;12.80;75018;2837.336;-1758.457;1;163;310;312.9;25.3;25.5;33;33.4;28.6;-1.0;
15/02/2025 02:11:50;117;0;146.81;-4;19.41;5.35;432.2;12.80;75033;2837.335;-1758.456;1;163;310;312.9;25.3;25.5;33;33.4;28.6;-1.0;
15/02/2025 02:12:10;117;0;146.72;-4;19.15;4.82;429.4;12.80;75017;2837.334;-1758.455;1;163;310;311.3;25.3;25.5;35;35.2;28.5;-1.0;
15/02/2025 02:12:30;117;0;147.88;-4;18.85;6.48;426.6;12.80;75025;2837.332;-1758.454;1;164;310;312.9;25.0;25.0;35;35.6;28.6;-1.0;
15/02/2025 02:12:50;117;0;149.05;-4;20.86;6.07;423.8;12.80;75019;2837.331;-1758.452;1;164;310;312.9;25.0;24.4;33;32.9;28.6;-1.0;
15/02/2025 02:13:10;117;0;145.51;-4;20.69;4.99;420.7;12.80;75016;2837.329;-1758.451;1;164;310;312.9;25.0;24.6;37;37.0;28.6;-1.0;
15/02/2025 02:13:30;117;0;145.81;-4;21.21;7.02;417.6;12.80;75016;2837.328;-1758.450;1;164;310;312.9;25.0;24.4;37;37.0;28.6;-1.0;
15/02/2025 02:13:50;117;0;146.91;-4;21.34;7.07;414.4;12.90;75020;2837.326;-1758.448;1;164;310;312.9;25.0;24.6;37;37.0;28.6;-1.0;
15/02/2025 02:14:10;117;0;145.79;-4;21.05;7.12;411.1;12.90;75034;2837.324;-1758.446;1;164;310;312.9;25.0;24.6;37;37.5;28.6;-1.0;
15/02/2025 02:14:30;117;0;147.63;-4;21.05;7.09;407.8;12.90;75031;2837.322;-1758.445;1;165;310;312.9;25.0;24.6;37;37.0;28.6;-1.0;
15/02/2025 02:14:50;117;0;152.68;-4;20.99;6.95;404.6;12.90;75047;2837.320;-1758.444;1;165;310;312.9;25.0;24.4;32;30.2;28.6;-1.0;
15/02/2025 02:15:10;117;0;155.25;-4;21.18;4.70;401.3;12.90;75052;2837.318;-1758.443;1;165;310;311.3;25.0;24.6;32;32.9;28.6;-1.0;
15/02/2025 02:15:30;117;0;157.30;-4;20.58;4.70;398.1;12.90;75049;2837.316;-1758.442;1;165;310;312.9;25.0;24.6;32;32.9;28.6;-1.0;
15/02/2025 02:15:50;117;0;160.10;-4;20.92;4.73;394.8;12.90;75057;2837.314;-1758.441;1;165;310;311.3;25.0;24.4;32;32.9;28.5;-1.0;
15/02/2025 02:16:10;117;0;164.01;-4;20.88;4.67;391.5;12.90;75068;2837.312;-1758.441;1;165;310;312.9;25.0;24.4;32;32.9;28.5;-1.0;
15/02/2025 02:16:30;117;0;166.38;-4;20.82;4.74;388.3;13.00;75075;2837.309;-1758.441;1;165;310;312.9;25.0;24.6;30;29.8;28.5;-1.0;
15/02/2025 02:16:50;117;0;168.50;-4;20.69;2.79;385.1;13.00;75063;2837.307;-1758.441;1;164;310;312.9;25.0;24.6;30;29.3;28.5;-1.0;
15/02/2025 02:17:10;117;0;168.91;-4;20.52;2.82;381.8;13.00;75071;2837.305;-1758.441;1;164;310;314.5;25.0;24.6;28;28.0;28.6;-1.0;
15/02/2025 02:17:30;117;0;170.46;-4;20.32;1.93;378.5;13.00;75079;2837.302;-1758.441;1;164;310;312.9;25.0;24.4;28;27.5;28.6;-1.0;
15/02/2025 02:17:50;117;0;171.55;-4;20.62;1.98;375.2;13.00;75073;2837.300;-1758.442;1;164;310;309.7;25.0;24.4;25;23.0;28.6;-1.0;
15/02/2025 02:18:10;117;0;170.49;-4;20.18;0.53;371.8;13.00;75083;2837.297;-1758.442;1;164;310;312.9;25.0;24.4;27;27.1;28.5;-1.0;
15/02/2025 02:18:30;117;0;170.25;-4;20.46;2.05;368.5;13.00;75090;2837.294;-1758.442;1;163;310;312.9;25.0;24.4;27;27.5;28.6;-1.0;
15/02/2025 02:18:50;117;0;170.08;-4;20.12;1.82;365.3;13.00;75084;2837.292;-1758.442;1;163;310;312.9;25.0;24.4;27;27.5;28.6;-1.0;
15/02/2025 02:19:10;117;0;169.82;-4;20.27;1.93;362.0;13.00;75092;2837.289;-1758.442;1;163;310;312.9;25.0;24.6;27;27.5;28.6;-1.0;
15/02/2025 02:19:30;117;0;170.02;-4;20.12;2.00;358.8;13.10;75094;2837.287;-1758.442;1;163;310;312.9;25.0;24.4;27;27.5;28.6;-1.0;
15/02/2025 02:19:50;117;0;170.05;-4;20.39;1.86;355.6;13.10;75088;2837.284;-1758.442;1;163;310;312.9;25.0;24.6;27;27.5;28.6;-1.0;
15/02/2025 02:20:10;117;0;169.99;-4;20.22;1.88;352.5;13.10;75096;2837.282;-1758.443;1;162;310;312.9;25.0;24.4;25;23.9;28.5;-1.0;
15/02/2025 02:20:30;117;0;167.50;-4;20.17;0.23;349.4;13.10;75113;2837.280;-1758.443;1;162;310;314.5;25.0;24.4;27;27.1;28.5;-1.0;
15/02/2025 02:20:50;117;0;166.01;-4;20.38;1.91;346.3;13.10;75115;2837.278;-1758.443;1;162;310;314.5;25.0;24.4;27;27.5;28.5;-1.0;
15/02/2025 02:21:10;117;0;162.60;-4;20.12;1.94;343.2;13.10;75114;2837.276;-1758.442;1;162;310;311.3;25.0;24.6;30;29.8;28.6;-1.0;
15/02/2025 02:21:30;117;0;162.30;-4;20.63;3.20;340.2;13.10;75127;2837.274;-1758.442;1;162;310;312.9;25.0;24.4;30;29.8;28.6;-1.0;
15/02/2025 02:21:50;117;0;159.35;-4;20.54;3.38;337.2;13.10;75120;2837.272;-1758.441;1;162;310;314.5;25.0;24.4;30;30.2;28.6;-1.0;
15/02/2025 02:22:10;117;0;158.33;-4;20.52;3.34;334.1;13.10;75120;2837.270;-1758.441;1;162;310;312.9;25.0;24.4;30;29.8;28.6;-1.0;
15/02/2025 02:22:30;117;0;155.20;-4;20.32;3.22;331.0;13.20;75112;2837.268;-1758.440;1;162;310;312.9;25.0;24.4;30;30.2;28.6;-1.0;
15/02/2025 02:22:50;117;0;150.63;-4;20.22;3.30;328.0;13.20;75127;2837.266;-1758.439;1;162;310;312.9;25.0;24.4;32;32.0;28.6;-1.0;
15/02/2025 02:23:10;117;0;148.26;-4;20.26;4.71;325.0;13.20;75121;2837.264;-1758.437;1;162;310;312.9;25.0;24.4;32;32.5;28.6;-1.0;
15/02/2025 02:23:30;117;0;147.50;-4;20.50;4.69;322.1;13.20;75124;2837.263;-1758.436;1;162;310;314.5;25.0;24.6;34;33.8;28.6;-1.0;
15/02/2025 02:23:50;117;0;150.69;-4;20.79;5.81;319.1;13.20;75136;2837.261;-1758.435;1;162;310;312.9;25.0;24.4;32;29.8;28.6;-1.0;
15/02/2025 02:24:10;117;0;153.65;-4;20.85;4.72;316.1;13.20;75143;2837.259;-1758.434;1;162;310;312.9;25.0;24.4;32;32.9;28.6;-1.0;
15/02/2025 02:24:30;117;0;156.11;-4;21.08;4.77;313.1;13.30;75148;2837.258;-1758.433;1;162;310;312.9;25.0;24.4;32;32.9;28.6;-1.0;
15/02/2025 02:24:50;117;0;157.62;-4;20.78;4.68;310.0;13.30;75150;2837.256;-1758.433;1;162;310;312.9;25.0;24.4;32;32.9;28.6;-1.0;
15/02/2025 02:25:10;117;0;163.24;-4;21.15;4.55;306.9;13.30;75157;2837.254;-1758.432;1;162;310;312.9;25.0;24.4;30;29.8;28.6;-1.0;
15/02/2025 02:25:30;117;0;165.21;-4;20.69;4.10;303.7;13.30;75164;2837.251;-1758.432;1;162;310;314.5;25.0;24.4;30;32.0;28.6;-1.0;
15/02/2025 02:25:50;117;0;165.72;-4;20.63;4.18;300.7;13.30;75172;2837.249;-1758.432;1;162;310;312.9;25.0;24.4;30;31.6;28.6;-1.0;
15/02/2025 02:26:10;117;0;167.12;-4;20.55;4.15;297.5;13.30;75168;2837.247;-1758.432;1;162;310;311.3;25.0;24.4;28;28.0;28.5;-1.0;
15/02/2025 02:26:30;117;0;167.39;-4;20.42;2.08;294.4;13.30;75177;2837.245;-1758.432;1;162;310;314.5;25.0;24.6;28;27.5;28.6;-1.0;
15/02/2025 02:26:50;117;0;167.79;-4;20.27;2.03;291.4;13.30;75179;2837.243;-1758.432;1;161;310;314.5;25.0;24.4;28;28.0;28.6;-1.0;
15/02/2025 02:27:10;117;0;166.82;-4;20.18;2.11;288.3;13.40;75183;2837.240;-1758.432;1;161;310;314.5;25.0;24.4;28;28.0;28.6;-1.0;
15/02/2025 02:27:30;117;0;166.19;-4;20.12;2.08;285.4;13.40;75185;2837.238;-1758.432;1;161;310;312.9;25.0;24.4;28;28.0;28.6;-1.0;
15/02/2025 02:27:50;117;0;164.61;-4;20.20;1.90;282.6;13.40;75195;2837.237;-1758.432;1;161;310;314.5;25.0;24.4;28;28.0;28.6;-1.0;
15/02/2025 02:28:10;117;0;162.23;-4;19.93;2.15;279.9;13.40;75199;2837.235;-1758.431;1;161;310;312.9;25.0;24.4;30;29.8;28.6;-1.0;
15/02/2025 02:28:30;117;0;159.27;-4;20.17;3.19;277.0;13.50;75207;2837.233;-1758.431;1;161;310;312.9;25.0;24.4;30;30.2;28.6;-1.0;
15/02/2025 02:28:50;117;0;157.21;-4;20.68;3.09;274.4;13.50;75214;2837.232;-1758.431;1;161;310;312.9;25.0;24.4;30;29.8;28.6;-1.0;
15/02/2025 02:29:10;117;0;156.60;-4;20.22;3.26;271.7;13.50;75214;2837.230;-1758.430;1;161;310;312.9;25.0;24.4;30;29.8;28.6;-1.0;
15/02/2025 02:29:30;117;0;155.16;-4;19.94;3.54;269.0;13.50;75225;2837.228;-1758.429;1;161;310;309.7;25.0;24.6;30;30.2;28.6;-1.0;
15/02/2025 02:29:50;117;0;151.02;-4;20.09;3.39;266.6;13.50;75217;2837.227;-1758.428;1;161;310;312.9;25.0;24.4;30;29.8;28.6;-1.0;
15/02/2025 02:30:10;117;0;149.63;-4;20.30;3.39;264.0;13.50;75229;2837.226;-1758.428;1;161;310;314.5;25.0;24.4;30;29.8;28.6;-1.0;
15/02/2025 02:30:30;117;0;147.05;-4;20.47;3.33;261.5;13.60;75223;2837.225;-1758.426;1;161;310;312.9;25.0;24.4;33;32.9;28.5;-1.0;
15/02/2025 02:30:50;117;0;146.14;-4;21.04;5.43;259.0;13.60;75218;2837.224;-1758.425;1;161;310;314.5;25.0;24.4;33;33.8;28.5;-1.0;
15/02/2025 02:31:10;117;0;147.26;-4;20.36;5.24;256.2;13.60;75238;2837.223;-1758.424;1;161;310;314.5;25.0;24.4;33;33.8;28.6;-1.0;
15/02/2025 02:31:30;117;0;144.70;-4;20.43;5.45;253.7;13.60;75232;2837.222;-1758.423;1;162;310;312.9;25.0;24.4;36;36.1;28.6;-1.0;
15/02/2025 02:31:50;117;0;145.15;-4;20.70;6.69;251.2;13.60;75230;2837.221;-1758.422;1;162;310;314.5;25.0;24.4;36;36.6;28.6;-1.0;
15/02/2025 02:32:10;117;0;145.07;-4;20.89;6.63;248.7;13.60;75233;2837.220;-1758.421;1;162;310;312.9;25.0;24.6;36;36.6;28.6;-1.0;
15/02/2025 02:32:30;117;0;145.72;-4;20.44;6.70;246.1;13.70;75235;2837.219;-1758.420;1;162;310;312.9;25.0;24.4;36;36.6;28.5;-1.0;
15/02/2025 02:32:50;117;0;145.71;-4;20.63;6.74;243.6;13.70;75239;2837.218;-1758.419;1;162;310;312.9;25.0;24.6;34;32.9;28.6;-1.0;
15/02/2025 02:33:10;117;0;146.16;-4;20.45;5.35;241.1;13.70;75247;2837.217;-1758.418;1;163;310;312.9;25.0;24.4;34;34.3;28.6;-1.0;
15/02/2025 02:33:30;117;0;146.93;-4;20.67;5.25;238.7;13.70;75252;2837.216;-1758.417;1;163;310;314.5;25.0;24.4;34;34.3;28.5;-1.0;
15/02/2025 02:33:50;117;0;147.53;-4;20.56;5.31;236.3;13.70;75251;2837.215;-1758.416;1;163;310;314.5;25.0;24.6;34;33.8;28.6;-1.0;
15/02/2025 02:34:10;117;0;148.33;-4;20.47;5.29;233.9;13.70;75256;2837.214;-1758.415;1;163;310;312.9;25.0;24.4;34;33.8;28.6;-1.0;
15/02/2025 02:34:30;117;0;150.65;-4;20.49;5.37;231.7;13.80;75260;2837.213;-1758.415;1;163;310;312.9;25.0;24.4;32;32.0;28.5;-1.0;
15/02/2025 02:34:50;117;0;151.68;-4;20.41;4.96;229.4;13.80;75268;2837.212;-1758.414;1;163;310;314.5;25.0;24.4;32;33.4;28.6;-1.0;
15/02/2025 02:35:10;117;0;152.14;-4;20.34;4.94;227.2;13.80;75263;2837.211;-1758.413;1;163;310;312.9;25.0;24.4;32;33.4;28.6;-1.0;
15/02/2025 02:35:30;117;0;152.95;-4;20.25;4.81;225.0;13.80;75276;2837.210;-1758.413;1;163;310;309.7;25.0;24.4;32;33.4;28.6;-1.0;
15/02/2025 02:35:50;117;0;154.26;-4;20.41;4.93;222.8;13.80;75281;2837.209;-1758.413;1;164;310;312.9;25.0;24.4;32;33.4;28.6;-1.0;
15/02/2025 02:36:10;117;0;155.60;-4;20.43;4.91;220.8;13.80;75281;2837.208;-1758.412;1;164;310;312.9;25.0;24.4;32;33.4;28.6;-1.0;
15/02/2025 02:36:30;117;0;156.79;-4;20.47;4.87;218.8;13.90;75287;2837.208;-1758.412;1;164;310;314.5;25.0;24.4;32;33.4;28.6;-1.0;
15/02/2025 02:36:50;117;0;159.14;-4;20.54;4.85;216.8;13.90;75284;2837.207;-1758.412;1;163;310;314.5;25.0;24.4;32;33.4;28.6;-1.0;
15/02/2025 02:37:10;117;0;161.64;-4;20.57;4.89;214.8;13.90;75306;2837.206;-1758.412;1;163;330;335.5;25.0;24.4;30;29.3;28.6;-1.0;
15/02/2025 02:37:30;117;0;164.88;-4;20.14;4.29;212.9;13.90;75254;2837.206;-1758.412;1;163;350;353.2;25.0;24.4;28;27.5;28.6;-1.0;
15/02/2025 02:37:50;117;0;166.98;-4;19.50;1.88;210.9;13.90;75231;2837.205;-1758.413;1;163;350;353.2;25.0;24.4;26;26.2;28.6;-1.0;
15/02/2025 02:38:10;117;0;164.73;-4;18.94;1.31;209.0;14.00;75235;2837.204;-1758.413;1;163;370;372.6;24.7;24.4;28;28.0;28.6;-1.0;
15/02/2025 02:38:30;117;0;160.13;-4;18.46;2.56;207.1;14.00;75201;2837.203;-1758.413;1;163;390;395.2;24.2;24.0;30;29.8;28.5;-1.0;
15/02/2025 02:38:50;117;0;158.13;-4;19.55;3.39;205.1;14.00;75168;2837.202;-1758.413;1;163;390;395.2;24.2;23.6;30;29.8;28.6;-1.0;
15/02/2025 02:39:10;117;0;158.76;-4;19.91;3.37;202.9;14.00;75170;2837.201;-1758.413;1;163;390;393.5;24.2;23.6;30;29.8;28.6;-1.0;
15/02/2025 02:39:30;117;0;155.50;-4;19.91;3.48;200.7;14.10;75185;2837.200;-1758.412;1;163;390;393.5;24.2;23.6;30;29.8;28.6;-1.0;
15/02/2025 02:39:50;117;0;152.04;-4;19.40;3.50;198.5;14.10;75197;2837.199;-1758.412;1;163;390;393.5;24.2;23.6;30;30.2;28.6;-1.0;
15/02/2025 02:40:10;117;0;148.91;-4;20.10;3.48;196.3;14.10;75208;2837.198;-1758.411;1;163;390;395.2;24.2;24.2;32;32.5;28.6;-1.0;
15/02/2025 02:40:30;117;0;148.74;-4;19.33;4.55;194.2;14.10;75228;2837.198;-1758.410;1;163;390;393.5;24.2;24.3;32;32.5;28.5;-1.0;
15/02/2025 02:40:50;117;0;147.49;-4;19.06;4.79;192.0;14.20;75219;2837.197;-1758.409;1;163;390;393.5;24.2;24.3;32;32.5;28.6;-1.0;
15/02/2025 02:41:10;117;0;150.25;-4;19.04;4.78;189.9;14.20;75245;2837.196;-1758.409;1;163;390;393.5;24.2;24.3;32;32.0;28.5;-1.0;
15/02/2025 02:41:30;117;0;152.72;-4;19.17;4.63;187.7;14.20;75239;2837.195;-1758.408;1;163;390;395.2;24.2;24.3;32;32.5;28.5;-1.0;
15/02/2025 02:41:50;117;0;154.93;-4;19.16;4.89;185.6;14.20;75257;2837.194;-1758.408;1;163;390;393.5;24.2;24.3;32;32.5;28.6;-1.0;
15/02/2025 02:42:10;117;0;156.73;-4;18.94;4.72;183.3;14.30;75256;2837.193;-1758.407;1;163;390;393.5;23.9;23.9;32;32.5;28.6;-1.0;
15/02/2025 02:42:30;117;0;156.53;-4;19.41;4.85;181.1;14.30;75272;2837.192;-1758.407;1;163;390;395.2;23.9;23.6;32;32.5;28.6;-1.0;
15/02/2025 02:42:50;117;0;155.82;-4;19.78;4.56;178.8;14.30;75282;2837.191;-1758.407;1;163;390;393.5;23.9;23.6;32;32.5;28.6;-1.0;
15/02/2025 02:43:10;117;0;155.92;-4;20.01;4.62;176.4;14.40;75289;2837.189;-1758.406;1;163;390;395.2;23.9;23.6;32;32.5;28.6;-1.0;
15/02/2025 02:43:30;117;0;155.18;-4;19.93;4.83;174.0;14.40;75299;2837.188;-1758.406;1;163;390;393.5;23.9;23.7;32;32.5;28.6;-1.0;
15/02/2025 02:43:50;117;0;156.04;-4;20.06;4.60;171.6;14.40;75312;2837.187;-1758.405;1;163;390;395.2;23.9;23.6;32;32.5;28.6;-1.0;
15/02/2025 02:44:10;117;0;154.84;-4;19.88;4.69;168.9;14.40;75328;2837.185;-1758.405;1;164;390;393.5;23.9;23.6;32;32.5;28.6;-1.0;
15/02/2025 02:44:30;117;0;154.61;-4;19.79;4.74;166.1;14.50;75342;2837.184;-1758.404;1;164;390;393.5;23.9;23.6;32;32.5;28.6;-1.0;
15/02/2025 02:44:50;117;0;154.71;-4;19.81;4.72;163.3;14.50;75360;2837.182;-1758.403;1;164;390;393.5;23.9;23.6;32;32.5;28.6;-1.0;
15/02/2025 02:45:10;117;0;155.07;-4;19.53;4.67;160.2;14.50;75364;2837.180;-1758.402;1;164;390;393.5;23.9;23.6;32;32.5;28.6;-1.0;
15/02/2025 02:45:31;117;0;157.97;-4;19.43;4.53;157.4;14.60;75369;2837.178;-1758.401;1;164;390;393.5;23.9;23.6;32;32.5;28.6;-1.0;
15/02/2025 02:45:51;117;0;159.63;-4;19.42;4.65;154.5;14.60;75396;2837.176;-1758.401;1;164;390;391.9;23.9;23.6;32;32.5;28.6;-1.0;
15/02/2025 02:46:11;117;0;161.66;-4;19.48;4.70;151.6;14.60;75399;2837.174;-1758.400;1;164;390;393.5;23.9;23.7;32;32.5;28.6;-1.0;
15/02/2025 02:46:31;117;0;160.50;-4;19.34;4.72;149.0;14.70;75430;2837.173;-1758.400;1;164;390;393.5;23.9;23.6;32;32.5;28.6;-1.0;
15/02/2025 02:46:51;117;0;160.04;-4;19.41;4.74;146.2;14.70;75447;2837.171;-1758.400;1;163;390;395.2;23.9;23.6;32;32.5;28.6;-1.0;
15/02/2025 02:47:11;117;0;159.32;-4;19.43;4.65;143.6;14.70;75460;2837.169;-1758.399;1;163;390;393.5;23.9;23.6;32;32.5;28.6;-1.0;
15/02/2025 02:47:31;117;0;158.63;-4;19.39;4.81;140.9;14.80;75466;2837.167;-1758.399;1;163;390;395.2;23.9;23.6;32;32.5;28.5;-1.0;
15/02/2025 02:47:51;117;0;154.94;-4;19.11;4.83;138.3;14.80;75488;2837.166;-1758.398;1;163;390;393.5;23.9;23.6;32;32.5;28.6;-1.0;
15/02/2025 02:48:11;117;0;154.54;-4;19.31;4.60;135.7;14.90;75502;2837.164;-1758.397;1;164;390;395.2;23.9;23.6;32;32.5;28.6;-1.0;
15/02/2025 02:48:31;117;0;155.21;-4;19.56;4.73;133.2;14.90;75510;2837.163;-1758.397;1;164;390;395.2;23.9;23.6;32;32.5;28.6;-1.0;
15/02/2025 02:48:51;117;0;157.01;-4;19.57;4.52;130.8;15.00;75519;2837.162;-1758.396;1;164;390;393.5;23.9;23.6;32;32.5;28.6;-1.0;
15/02/2025 02:49:11;117;0;159.15;-4;19.68;4.69;128.3;15.00;75547;2837.160;-1758.396;1;164;390;395.2;23.9;23.7;32;32.5;28.5;-1.0;
15/02/2025 02:49:31;117;0;162.71;-4;19.67;4.65;125.8;15.00;75562;2837.159;-1758.396;1;163;390;393.5;23.9;23.6;30;29.3;28.6;-1.0;
15/02/2025 02:49:51;117;0;163.84;-4;19.16;4.02;123.2;15.10;75580;2837.157;-1758.396;1;163;390;393.5;23.9;23.6;30;31.6;28.6;-1.0;
15/02/2025 02:50:11;117;0;165.41;-4;19.43;4.01;120.7;15.20;75606;2837.156;-1758.396;1;163;390;395.2;23.9;23.6;30;31.1;28.6;-1.0;
15/02/2025 02:50:31;117;0;167.15;-4;19.41;4.10;118.3;15.20;75624;2837.154;-1758.396;1;162;390;395.2;23.9;23.6;28;28.0;28.6;-1.0;
15/02/2025 02:50:51;117;0;166.10;-4;19.37;1.94;115.9;15.30;75635;2837.153;-1758.396;1;162;390;395.2;23.9;23.4;28;27.5;28.6;-1.0;
15/02/2025 02:51:11;117;0;166.77;-4;19.10;2.00;113.6;15.30;75644;2837.151;-1758.396;1;162;390;395.2;23.9;23.6;28;27.5;28.5;-1.0;
15/02/2025 02:51:31;117;0;166.72;-4;19.01;2.01;111.3;15.40;75668;2837.150;-1758.396;1;161;390;395.2;23.9;23.6;28;27.5;28.6;-1.0;
15/02/2025 02:51:51;117;0;166.65;-4;19.10;1.98;109.1;15.40;75676;2837.149;-1758.397;1;161;390;395.2;23.9;23.6;26;25.3;28.6;-1.0;
15/02/2025 02:52:11;117;0;163.30;-4;18.90;1.20;106.9;15.50;75694;2837.147;-1758.397;1;160;390;396.8;23.5;23.4;29;29.3;28.6;-1.0;
15/02/2025 02:52:31;117;0;158.89;-4;19.37;3.28;104.8;15.50;75720;2837.146;-1758.396;1;160;390;393.5;23.5;23.4;31;31.1;28.5;-1.0;
15/02/2025 02:52:51;117;0;156.15;-4;19.38;4.57;102.7;15.60;75752;2837.145;-1758.396;1;160;390;393.5;23.5;23.6;31;32.5;28.6;-1.0;
15/02/2025 02:53:11;117;0;155.26;-4;19.60;4.14;100.5;15.60;75780;2837.144;-1758.396;1;160;390;393.5;23.5;23.4;31;32.5;28.6;-1.0;
15/02/2025 02:53:31;117;0;154.45;-4;19.32;4.63;98.3;15.70;75819;2837.143;-1758.395;1;160;390;395.2;23.5;23.6;31;32.5;28.6;-1.0;
15/02/2025 02:53:51;117;0;154.23;-4;19.00;4.64;96.0;15.80;75838;2837.142;-1758.395;1;160;390;395.2;23.2;23.3;31;32.0;28.5;-1.0;
15/02/2025 02:54:11;117;0;154.76;-4;20.66;4.71;93.8;15.80;75861;2837.141;-1758.394;1;160;390;391.9;23.2;22.7;31;32.5;28.6;-1.0;
15/02/2025 02:54:31;117;0;155.25;-4;20.99;4.64;91.3;15.90;75876;2837.140;-1758.394;1;160;390;395.2;23.2;22.7;31;32.5;28.6;-1.0;
15/02/2025 02:54:51;117;0;155.63;-4;21.16;4.64;88.9;16.00;75900;2837.139;-1758.393;1;160;390;395.2;23.2;22.7;31;32.5;28.6;-1.0;
15/02/2025 02:55:11;117;0;155.99;-4;20.94;4.65;86.4;16.00;75900;2837.138;-1758.393;1;160;390;395.2;23.2;22.8;31;32.5;28.5;-1.0;
15/02/2025 02:55:31;117;0;156.38;-4;21.11;4.70;83.7;16.10;75911;2837.136;-1758.392;1;160;390;395.2;23.2;22.7;31;32.5;28.6;-1.0;
15/02/2025 02:55:51;117;0;156.97;-4;21.08;4.61;81.3;16.20;75924;2837.135;-1758.392;1;160;390;395.2;23.2;22.7;31;32.5;28.6;-1.0;
15/02/2025 02:56:11;117;0;157.16;-4;21.22;4.69;78.7;16.20;75936;2837.134;-1758.392;1;160;390;395.2;23.2;22.7;31;32.5;28.5;-1.0;
15/02/2025 02:56:31;117;0;156.73;-4;21.07;4.72;76.1;16.30;75952;2837.133;-1758.391;1;160;390;395.2;23.2;22.7;31;32.5;28.6;-1.0;
