Timestamp;NavState;SecurityLevel;Heading;Declination;Pitch;Roll;Depth;Temperature;Pa;Lat;Lon;DeadReckoning;DesiredH;BallastCmd;BallastPos;LinCmd;LinPos;AngCmd;AngPos;Voltage;Altitude;
23/02/2025 15:36:29;119;0;218.84;-4;-54.70;-10.71;0.2;17.40;75721;2833.413;-1757.158;0;140;500;508.1;100.0;100.6;0;-0.5;26.9;-1.0;
23/02/2025 15:36:39;116;0;200.19;-4;-50.44;-11.00;0.1;17.50;75722;2833.414;-1757.165;0;140;500;508.1;100.0;100.4;0;-0.5;26.9;-1.0;
23/02/2025 15:37:04;116;0;208.66;-4;-51.04;-5.64;-0.2;17.60;75732;2833.417;-1757.168;0;140;500;508.1;100.0;100.6;0;-0.5;26.9;-1.0;
23/02/2025 15:37:26;116;0;218.35;-4;-56.74;-0.54;-0.2;17.60;75751;2833.417;-1757.166;0;140;500;508.1;100.0;100.6;0;-0.5;26.9;-1.0;
23/02/2025 15:37:46;116;0;212.99;-4;-54.30;-16.80;-0.1;17.70;75754;2833.420;-1757.170;0;318;500;506.5;100.0;100.4;0;-0.5;26.9;-1.0;
23/02/2025 15:37:57;116;0;217.90;-4;-51.29;-20.03;-0.2;17.70;75750;2833.421;-1757.171;0;318;500;508.1;100.0;100.6;0;-0.5;26.9;-1.0;
23/02/2025 15:39:00;116;0;208.35;-4;-51.78;-2.15;-0.0;18.00;75797;2833.428;-1757.179;0;318;500;506.5;100.0;100.6;0;-0.5;26.9;-1.0;
23/02/2025 15:41:03;116;0;211.63;-4;-54.96;-17.01;-0.1;18.50;75858;2833.442;-1757.194;0;318;500;508.1;100.0;100.7;0;-0.5;26.9;-1.0;
23/02/2025 15:42:24;116;0;194.75;-4;-48.61;-6.80;-0.1;18.90;75889;2833.453;-1757.203;0;318;500;506.5;100.0;100.6;0;-0.5;26.9;-1.0;
23/02/2025 15:42:35;116;0;206.06;-4;-52.46;-9.41;-0.1;19.00;75885;2833.455;-1757.204;0;318;500;506.5;100.0;100.6;0;-0.5;26.9;-1.0;
23/02/2025 15:42:55;110;0;209.71;-4;-50.91;-4.25;0.2;19.10;75896;2833.455;-1757.204;0;318;-70;390.3;100.0;100.6;-6;-5.9;26.9;-1.0;
23/02/2025 15:43:05;110;0;199.82;-4;-54.88;-14.20;0.2;19.10;76253;2833.455;-1757.204;1;318;-70;240.3;100.0;100.6;-6;-6.3;26.9;-1.0;
23/02/2025 15:43:15;110;0;200.54;-4;-59.79;-14.12;0.6;19.20;76491;2833.454;-1757.205;1;318;-70;79.0;100.0;100.6;-6;-5.9;26.9;-1.0;
23/02/2025 15:43:25;110;0;197.11;-4;-65.40;-11.94;1.0;19.20;76816;2833.454;-1757.205;1;318;-70;-69.4;100.0;100.6;-6;-5.9;26.9;-1.0;
23/02/2025 15:43:35;110;0;189.90;-4;-65.28;-25.92;1.1;19.30;77123;2833.454;-1757.205;1;318;-70;-69.4;43.4;43.3;-6;-5.9;26.9;-1.0;
23/02/2025 15:43:55;100;0;192.95;-4;-28.93;-13.33;4.1;19.30;77071;2833.452;-1757.205;1;318;-70;-66.1;43.4;43.0;-6;-6.3;26.9;-1.0;
23/02/2025 15:44:15;100;0;189.36;-4;-21.12;-14.98;7.1;19.40;77085;2833.448;-1757.206;1;318;-70;-64.5;43.4;42.7;-70;-69.9;26.9;-1.0;
23/02/2025 15:44:35;100;0;200.87;-4;-20.01;-46.13;9.6;19.40;77063;2833.446;-1757.207;1;318;-70;-61.3;43.4;42.7;-70;-69.9;26.9;-1.0;
23/02/2025 15:44:55;100;0;212.80;-4;-19.52;-44.87;12.1;19.50;77066;2833.443;-1757.209;1;318;-70;-62.9;43.4;42.7;-70;-69.9;26.9;-1.0;
23/02/2025 15:45:15;100;0;226.78;-4;-18.94;-45.36;14.6;19.50;77064;2833.441;-1757.212;1;318;-70;-62.9;43.7;43.7;-70;-69.9;26.9;0.0;
23/02/2025 15:45:35;100;0;236.11;-4;-20.51;-45.51;17.1;19.60;77060;2833.439;-1757.215;1;318;-70;-61.3;43.7;43.9;-70;-69.9;26.9;0.0;
23/02/2025 15:45:55;100;0;247.72;-4;-21.07;-45.37;19.8;19.60;77061;2833.438;-1757.218;1;318;-70;-62.9;43.7;43.9;-67;-66.3;26.9;0.0;
23/02/2025 15:46:15;100;0;257.03;-4;-20.42;-43.41;22.3;19.60;77063;2833.438;-1757.222;1;318;-70;-61.3;43.7;43.9;-55;-55.1;26.9;0.0;
23/02/2025 15:46:35;100;0;267.36;-4;-21.55;-37.70;24.8;19.60;77065;2833.438;-1757.225;1;318;-70;-62.9;43.7;44.0;-43;-42.4;26.9;0.0;
23/02/2025 15:46:55;100;0;280.16;-4;-20.81;-31.51;27.5;19.60;77076;2833.438;-1757.229;1;318;-70;-61.3;43.7;43.9;-27;-27.1;26.9;0.0;
23/02/2025 15:47:15;100;0;293.30;-4;-20.74;-23.73;30.3;19.60;77083;2833.440;-1757.233;1;318;-70;-61.3;43.7;44.0;-6;-5.9;26.9;0.0;
23/02/2025 15:47:35;100;0;302.20;-4;-21.51;-14.04;33.0;19.60;77077;2833.442;-1757.236;1;318;-70;-61.3;43.7;44.2;8;8.1;26.9;0.0;
23/02/2025 15:47:55;100;0;305.57;-4;-23.05;-7.26;35.8;19.60;77075;2833.444;-1757.239;1;318;-70;-61.3;42.8;42.7;12;12.6;26.9;0.0;
23/02/2025 15:48:15;100;0;306.96;-4;-20.34;-5.24;38.5;19.60;77087;2833.446;-1757.242;1;318;-70;-61.3;42.8;42.6;12;12.6;26.9;0.0;
23/02/2025 15:48:35;100;0;307.64;-4;-20.10;-5.37;41.1;19.60;77080;2833.448;-1757.245;1;318;-70;-61.3;42.8;42.6;12;12.6;26.9;0.0;
23/02/2025 15:48:55;100;0;308.76;-4;-20.08;-5.28;43.6;19.60;77091;2833.451;-1757.248;1;318;-70;-61.3;42.8;42.6;14;14.0;26.9;0.0;
23/02/2025 15:49:15;100;0;308.35;-4;-20.31;-4.59;46.1;19.60;77102;2833.453;-1757.250;1;318;-70;-61.3;42.8;42.4;14;14.0;26.9;0.0;
23/02/2025 15:49:35;100;0;308.58;-4;-20.05;-4.40;48.7;19.60;77097;2833.455;-1757.253;1;318;-70;-61.3;42.8;42.6;14;14.4;26.9;0.0;
23/02/2025 15:49:55;100;0;310.32;-4;-20.25;-4.45;51.2;19.50;77089;2833.457;-1757.256;1;318;-70;-61.3;42.8;42.6;14;14.4;26.9;0.0;
23/02/2025 15:50:15;100;0;312.51;-4;-20.00;-4.45;53.7;19.60;77109;2833.459;-1757.259;1;318;-70;-61.3;42.8;42.6;14;14.0;26.9;0.0;
23/02/2025 15:50:35;100;0;312.60;-4;-20.35;-4.51;56.3;19.50;77102;2833.462;-1757.262;1;318;-70;-64.5;42.8;42.6;14;14.0;26.9;0.0;
23/02/2025 15:50:55;100;0;313.72;-4;-19.81;-4.40;58.9;19.50;77107;2833.464;-1757.264;1;318;-70;-61.3;42.8;42.6;14;14.0;26.9;0.0;
23/02/2025 15:51:15;100;0;314.36;-4;-20.26;-4.50;61.4;19.60;77115;2833.467;-1757.267;1;318;-70;-61.3;42.8;42.6;14;14.0;26.9;0.0;
23/02/2025 15:51:35;100;0;315.67;-4;-20.07;-4.46;64.0;19.50;77116;2833.469;-1757.270;1;318;-70;-66.1;42.8;42.6;14;14.4;26.9;0.0;
23/02/2025 15:51:55;100;0;316.62;-4;-20.13;-4.45;66.6;19.50;77124;2833.472;-1757.272;1;318;-70;-61.3;42.8;42.6;14;14.4;26.9;0.0;
23/02/2025 15:52:15;100;0;316.71;-4;-19.96;-4.51;69.1;19.50;77124;2833.474;-1757.275;1;318;-70;-59.7;42.8;42.6;14;14.4;26.9;0.0;
23/02/2025 15:52:35;100;0;317.27;-4;-20.06;-4.43;71.7;19.50;77124;2833.477;-1757.277;1;318;-70;-61.3;42.8;42.6;14;14.4;26.9;0.0;
23/02/2025 15:52:55;100;0;317.47;-4;-20.05;-4.44;74.3;19.50;77124;2833.480;-1757.280;1;318;-70;-61.3;42.8;42.6;14;14.0;26.9;0.0;
23/02/2025 15:53:15;100;0;317.87;-4;-19.96;-4.47;76.9;19.50;77133;2833.482;-1757.282;1;318;-70;-61.3;42.8;42.6;14;14.4;26.9;0.0;
23/02/2025 15:53:35;100;0;316.77;-4;-20.18;-4.50;79.5;19.50;77141;2833.485;-1757.285;1;318;-70;-61.3;42.8;42.6;14;14.4;26.9;0.0;
23/02/2025 15:53:55;100;0;316.54;-4;-19.90;-4.44;82.1;19.50;77141;2833.487;-1757.287;1;318;-70;-61.3;42.8;42.4;14;14.4;26.9;0.0;
23/02/2025 15:54:15;100;0;316.62;-4;-20.19;-4.49;84.7;19.50;77139;2833.490;-1757.290;1;318;-70;-61.3;42.8;42.6;14;14.0;26.9;0.0;
23/02/2025 15:54:35;100;0;317.15;-4;-20.10;-4.41;87.4;19.50;77139;2833.493;-1757.293;1;318;-70;-62.9;42.8;42.4;14;14.0;26.9;0.0;
23/02/2025 15:54:55;100;0;316.61;-4;-19.55;-4.53;90.0;19.50;77138;2833.495;-1757.295;1;318;-70;-59.7;42.8;42.6;14;14.0;26.9;0.0;
23/02/2025 15:55:15;100;0;317.30;-4;-19.90;-4.40;92.7;19.50;77145;2833.498;-1757.298;1;318;-70;-59.7;42.8;42.6;14;14.0;26.9;0.0;
23/02/2025 15:55:35;100;0;317.66;-4;-20.11;-4.46;95.3;19.50;77148;2833.501;-1757.301;1;318;-70;-61.3;42.8;42.6;14;14.0;26.9;0.0;
23/02/2025 15:55:55;100;0;316.93;-4;-20.39;-4.39;98.1;19.50;77152;2833.503;-1757.303;1;318;-70;-61.3;42.8;42.6;14;14.0;26.9;0.0;
23/02/2025 15:56:15;100;0;316.37;-4;-19.86;-4.47;100.8;19.50;77143;2833.506;-1757.306;1;318;-70;-61.3;42.8;42.6;14;14.0;26.9;0.0;
23/02/2025 15:56:35;100;0;317.90;-4;-20.12;-4.44;103.5;19.50;77138;2833.509;-1757.309;1;318;-70;-61.3;42.8;42.6;14;14.4;26.9;0.0;
23/02/2025 15:56:55;100;0;314.78;-4;-20.62;-4.44;106.2;19.50;77140;2833.511;-1757.311;1;318;-70;-62.9;42.8;42.4;14;14.4;26.9;0.0;
23/02/2025 15:57:15;100;0;311.97;-4;-20.16;-4.36;109.1;19.50;77117;2833.514;-1757.314;1;318;-70;-61.3;42.8;42.6;14;14.0;26.9;0.0;
23/02/2025 15:57:35;100;0;311.79;-4;-19.85;-4.53;111.8;19.50;77106;2833.516;-1757.317;1;318;-70;-62.9;42.8;42.6;14;14.4;26.9;0.0;
23/02/2025 15:57:55;100;0;310.53;-4;-19.66;-4.49;114.4;19.40;77094;2833.519;-1757.320;1;318;-70;-61.3;42.8;42.6;14;14.0;26.9;0.0;
23/02/2025 15:58:15;100;0;310.98;-4;-19.44;-4.48;116.9;19.40;77078;2833.521;-1757.323;1;318;-70;-62.9;42.8;42.6;14;14.0;26.9;0.0;
23/02/2025 15:58:35;100;0;311.50;-4;-19.60;-4.48;119.4;19.40;77070;2833.523;-1757.326;1;318;-70;-61.3;42.8;42.6;14;14.0;26.9;0.0;
23/02/2025 15:58:55;100;0;307.83;-4;-19.96;-4.48;121.9;19.40;77049;2833.525;-1757.329;1;318;-70;-61.3;42.8;42.6;14;14.0;26.9;0.0;
23/02/2025 15:59:15;100;0;305.56;-4;-19.79;-4.46;124.5;19.40;77038;2833.527;-1757.332;1;318;-70;-61.3;42.8;42.6;11;10.8;26.9;0.0;
23/02/2025 15:59:35;100;0;305.11;-4;-19.61;-6.24;127.1;19.30;77028;2833.529;-1757.335;1;318;-70;-61.3;42.8;42.6;11;10.8;26.9;0.0;
23/02/2025 15:59:55;100;0;303.78;-4;-19.21;-6.19;129.5;19.30;77015;2833.531;-1757.338;1;318;-70;-61.3;42.8;42.6;11;10.8;26.9;0.0;
23/02/2025 16:00:15;100;0;300.34;-4;-19.13;-6.30;131.9;19.30;77011;2833.533;-1757.341;1;318;-70;-61.3;42.8;42.6;5;5.0;26.9;0.0;
23/02/2025 16:00:35;100;0;301.60;-4;-18.81;-9.51;134.2;19.30;77000;2833.535;-1757.344;1;318;-70;-61.3;43.1;43.3;7;7.2;26.9;0.0;
23/02/2025 16:00:55;100;0;306.41;-4;-19.68;-7.92;136.5;19.20;76984;2833.537;-1757.347;1;318;-70;-62.9;43.1;43.4;12;12.6;26.9;0.0;
23/02/2025 16:01:15;100;0;306.59;-4;-19.78;-5.30;138.9;19.20;76985;2833.539;-1757.349;1;318;-70;-61.3;43.1;43.4;12;12.6;26.9;0.0;
23/02/2025 16:01:35;100;0;305.35;-4;-20.10;-5.31;141.2;19.20;76983;2833.541;-1757.352;1;318;-70;-61.3;43.1;43.4;12;12.6;26.9;0.0;
23/02/2025 16:01:55;100;0;306.92;-4;-19.92;-5.31;143.5;19.20;76976;2833.543;-1757.355;1;318;-70;-61.3;43.1;43.3;12;12.6;26.9;0.0;
23/02/2025 16:02:15;100;0;307.70;-4;-20.26;-5.28;145.9;19.10;76955;2833.545;-1757.358;1;318;-70;-61.3;43.1;43.4;12;12.6;26.9;0.0;
23/02/2025 16:02:35;100;0;306.60;-4;-20.53;-5.21;148.4;19.10;76944;2833.547;-1757.360;1;318;-70;-61.3;43.1;43.4;12;12.6;26.9;0.0;
23/02/2025 16:02:55;100;0;304.56;-4;-20.09;-5.18;150.9;19.10;76948;2833.549;-1757.363;1;318;-70;-61.3;43.1;43.4;10;9.5;26.9;0.0;
23/02/2025 16:03:15;100;0;306.83;-4;-19.85;-7.06;153.3;19.00;76928;2833.551;-1757.366;1;318;-70;-62.9;43.1;43.3;12;12.2;26.9;0.0;
23/02/2025 16:03:35;100;0;309.25;-4;-20.11;-5.40;155.6;19.00;76927;2833.553;-1757.369;1;318;-70;-61.3;43.1;43.4;12;12.2;26.9;0.0;
23/02/2025 16:03:55;100;0;311.12;-4;-20.00;-5.45;158.1;19.00;76917;2833.555;-1757.371;1;318;-70;-61.3;43.1;43.4;14;14.0;26.9;0.0;
23/02/2025 16:04:15;100;0;309.41;-4;-20.54;-4.32;160.6;19.00;76906;2833.557;-1757.374;1;318;-70;-61.3;43.1;43.4;14;14.9;26.9;0.0;
23/02/2025 16:04:36;100;0;309.92;-4;-20.21;-4.30;163.1;18.90;76899;2833.559;-1757.377;1;318;-70;-62.9;43.1;43.3;14;14.4;26.9;0.0;
23/02/2025 16:04:56;100;0;308.13;-4;-20.60;-4.37;165.6;18.90;76881;2833.561;-1757.380;1;318;-70;-61.3;43.1;43.4;14;14.4;26.9;0.0;
23/02/2025 16:05:16;100;0;306.71;-4;-20.42;-4.33;168.1;18.90;76878;2833.563;-1757.383;1;318;-70;-61.3;43.1;43.3;12;12.2;26.9;0.0;
23/02/2025 16:05:36;100;0;304.26;-4;-20.02;-5.87;170.8;18.80;76857;2833.566;-1757.386;1;318;-70;-62.9;43.1;43.4;9;9.0;26.9;0.0;
23/02/2025 16:05:56;100;0;306.95;-4;-20.05;-7.47;173.2;18.80;76849;2833.568;-1757.389;1;318;-70;-61.3;43.1;43.3;12;12.2;26.9;0.0;
23/02/2025 16:06:16;100;0;308.85;-4;-19.94;-5.32;175.7;18.80;76829;2833.570;-1757.392;1;318;-70;-61.3;43.1;43.4;12;12.6;26.9;0.0;
23/02/2025 16:06:36;100;0;311.48;-4;-19.92;-5.32;178.2;18.70;76832;2833.572;-1757.394;1;318;-70;-59.7;43.1;43.4;14;14.0;26.9;0.0;
23/02/2025 16:06:56;100;0;309.03;-4;-20.07;-4.55;180.5;18.70;76817;2833.574;-1757.397;1;318;-70;-61.3;43.1;43.3;14;14.4;26.9;0.0;
23/02/2025 16:07:16;100;0;311.36;-4;-19.85;-4.50;182.9;18.60;76797;2833.576;-1757.399;1;318;-70;-61.3;43.1;43.4;14;14.4;26.9;0.0;
23/02/2025 16:07:36;100;0;313.07;-4;-19.89;-4.45;185.1;18.60;76793;2833.578;-1757.402;1;318;-70;-61.3;43.1;43.4;14;14.4;26.9;0.0;
23/02/2025 16:07:56;100;0;313.87;-4;-19.88;-4.53;187.4;18.60;76780;2833.580;-1757.404;1;318;-70;-62.9;43.1;43.3;14;14.4;26.9;0.0;
23/02/2025 16:08:16;100;0;314.16;-4;-19.69;-4.42;189.7;18.50;76769;2833.583;-1757.407;1;318;-70;-61.3;43.1;43.4;14;14.4;26.9;0.0;
23/02/2025 16:08:36;100;0;309.36;-4;-20.08;-4.54;191.8;18.50;76768;2833.585;-1757.409;1;318;-70;-61.3;43.1;43.4;14;14.4;26.9;0.0;
23/02/2025 16:08:56;100;0;304.57;-4;-19.89;-4.58;193.9;18.40;76749;2833.586;-1757.411;1;318;-70;-61.3;43.1;43.4;10;9.9;26.9;0.0;
23/02/2025 16:09:16;100;0;305.61;-4;-19.92;-6.77;196.1;18.40;76742;2833.588;-1757.414;1;318;-70;-61.3;43.1;43.4;10;9.9;26.9;0.0;
23/02/2025 16:09:36;100;0;307.45;-4;-19.68;-6.73;198.3;18.40;76718;2833.590;-1757.417;1;318;-70;-62.9;43.1;43.4;12;12.2;26.9;0.0;
23/02/2025 16:09:56;100;0;307.98;-4;-19.97;-5.37;200.4;18.30;76725;2833.592;-1757.419;1;318;-70;-61.3;43.1;43.4;12;12.6;26.9;0.0;
23/02/2025 16:10:16;100;0;308.98;-4;-20.00;-5.41;202.5;18.30;76708;2833.594;-1757.421;1;318;-70;-61.3;43.1;43.4;12;12.2;26.9;0.0;
23/02/2025 16:10:36;100;0;308.85;-4;-19.92;-5.42;204.7;18.30;76708;2833.595;-1757.424;1;318;-70;-59.7;43.1;43.4;12;12.2;26.9;0.0;
23/02/2025 16:10:56;100;0;306.78;-4;-19.85;-5.41;206.8;18.20;76703;2833.597;-1757.426;1;318;-70;-61.3;43.1;43.4;12;12.2;26.9;0.0;
23/02/2025 16:11:16;100;0;305.20;-4;-20.03;-5.39;208.9;18.20;76699;2833.599;-1757.429;1;318;-70;-62.9;43.1;43.4;10;9.9;26.9;0.0;
23/02/2025 16:11:36;100;0;304.54;-4;-19.69;-6.83;210.9;18.10;76684;2833.601;-1757.431;1;318;-70;-61.3;43.1;43.4;10;9.5;26.9;0.0;
23/02/2025 16:11:56;100;0;305.88;-4;-19.93;-6.95;212.9;18.10;76674;2833.602;-1757.434;1;318;-90;-88.7;43.1;43.4;10;9.5;26.9;0.0;
23/02/2025 16:12:16;100;0;310.31;-4;-19.59;-6.78;215.2;18.10;76744;2833.604;-1757.436;1;318;-90;-91.9;43.1;43.4;13;13.5;26.9;0.0;
23/02/2025 16:12:36;100;0;310.83;-4;-19.86;-4.57;217.5;18.00;76724;2833.606;-1757.439;1;318;-90;-90.3;43.1;43.3;13;13.5;26.9;0.0;
23/02/2025 16:12:56;100;0;311.96;-4;-19.76;-4.57;219.9;18.00;76711;2833.609;-1757.441;1;318;-90;-93.5;43.1;43.4;13;13.5;26.9;0.0;
23/02/2025 16:13:16;100;0;309.45;-4;-19.90;-4.61;222.2;18.00;76702;2833.611;-1757.444;1;318;-90;-91.9;43.1;43.4;13;13.5;26.9;0.0;
23/02/2025 16:13:36;100;0;311.08;-4;-19.97;-4.59;224.5;17.90;76691;2833.613;-1757.446;1;318;-90;-93.5;43.1;43.4;13;13.5;26.9;0.0;
23/02/2025 16:13:56;100;0;314.08;-4;-19.45;-4.66;226.9;17.90;76689;2833.615;-1757.449;1;318;-90;-91.9;43.1;43.4;13;13.5;26.9;0.0;
23/02/2025 16:14:16;100;0;314.93;-4;-19.48;-4.69;229.2;17.80;76672;2833.617;-1757.451;1;318;-90;-91.9;43.1;43.4;13;13.5;26.9;0.0;
23/02/2025 16:14:36;100;0;314.84;-4;-19.44;-4.64;231.5;17.80;76668;2833.620;-1757.454;1;318;-90;-91.9;43.1;43.4;13;13.5;26.9;0.0;
23/02/2025 16:14:56;100;0;317.81;-4;-19.41;-4.65;233.9;17.80;76663;2833.622;-1757.456;1;318;-90;-91.9;43.1;43.4;13;13.5;26.9;0.0;
23/02/2025 16:15:16;100;0;318.77;-4;-19.59;-4.64;236.2;17.70;76646;2833.625;-1757.458;1;318;-90;-91.9;43.1;43.4;13;13.5;26.9;0.0;
23/02/2025 16:15:36;100;0;319.03;-4;-19.41;-4.62;238.6;17.70;76642;2833.627;-1757.461;1;318;-90;-93.5;43.1;43.4;13;13.5;26.9;0.0;
23/02/2025 16:15:56;100;0;320.92;-4;-19.91;-4.69;241.2;17.60;76643;2833.630;-1757.463;1;318;-90;-93.5;43.1;43.4;13;13.5;26.9;0.0;
23/02/2025 16:16:16;100;0;320.84;-4;-19.73;-4.60;243.7;17.60;76635;2833.633;-1757.465;1;318;-90;-91.9;43.1;43.4;13;13.5;26.9;0.0;
23/02/2025 16:16:36;100;0;319.36;-4;-19.64;-4.62;246.4;17.50;76626;2833.635;-1757.468;1;318;-90;-93.5;43.1;43.4;13;13.5;26.9;0.0;
23/02/2025 16:16:56;100;0;317.47;-4;-19.65;-4.58;249.0;17.50;76614;2833.638;-1757.471;1;318;-90;-91.9;43.1;43.4;13;13.5;26.9;0.0;
23/02/2025 16:17:16;100;0;319.95;-4;-19.49;-4.65;251.6;17.50;76602;2833.641;-1757.473;1;318;-90;-93.5;43.1;43.4;13;13.5;26.9;0.0;
23/02/2025 16:17:36;100;0;321.16;-4;-19.34;-4.60;254.2;17.40;76590;2833.644;-1757.476;1;318;-90;-91.9;43.1;43.4;13;13.5;26.9;0.0;
23/02/2025 16:17:56;100;0;320.73;-4;-19.31;-4.64;256.8;17.40;76585;2833.646;-1757.478;1;318;-90;-90.3;43.1;43.4;13;13.5;26.9;0.0;
23/02/2025 16:18:16;100;0;318.72;-4;-19.17;-4.68;259.3;17.40;76570;2833.649;-1757.480;1;318;-90;-93.5;43.1;43.6;13;13.5;26.9;0.0;
23/02/2025 16:18:36;100;0;319.87;-4;-19.42;-4.70;261.9;17.30;76569;2833.652;-1757.483;1;318;-90;-91.9;43.1;43.4;13;13.5;26.9;0.0;
23/02/2025 16:18:56;100;0;320.95;-4;-18.99;-4.62;264.5;17.30;76565;2833.655;-1757.485;1;318;-90;-91.9;43.4;43.4;13;13.5;26.9;0.0;
23/02/2025 16:19:16;100;0;322.59;-4;-19.41;-4.66;267.2;17.20;76556;2833.658;-1757.488;1;318;-90;-91.9;43.4;43.4;15;14.9;26.9;0.0;
23/02/2025 16:19:36;100;0;323.36;-4;-19.39;-3.64;269.9;17.20;76536;2833.661;-1757.490;1;318;-90;-93.5;43.4;43.4;15;15.8;26.9;0.0;
23/02/2025 16:19:56;100;0;322.25;-4;-19.62;-3.62;272.6;17.20;76541;2833.664;-1757.493;1;318;-90;-91.9;43.4;43.6;15;15.3;26.9;0.0;
23/02/2025 16:20:16;100;0;318.82;-4;-19.71;-3.61;275.4;17.10;76537;2833.667;-1757.495;1;318;-90;-91.9;43.4;43.4;15;15.8;26.9;0.0;
23/02/2025 16:20:36;100;0;317.95;-4;-19.52;-3.68;278.3;17.10;76516;2833.669;-1757.498;1;318;-90;-93.5;43.4;43.4;15;15.8;26.9;0.0;
23/02/2025 16:20:56;100;0;318.74;-4;-19.64;-3.67;281.1;17.00;76507;2833.672;-1757.501;1;318;-90;-93.5;43.4;43.4;15;15.8;26.9;0.0;
23/02/2025 16:21:16;100;0;319.08;-4;-19.41;-3.69;284.0;17.00;76499;2833.675;-1757.504;1;318;-90;-91.9;43.4;43.4;15;15.3;26.9;0.0;
23/02/2025 16:21:36;100;0;316.46;-4;-19.53;-3.61;286.8;17.00;76508;2833.678;-1757.507;1;318;-90;-91.9;43.4;43.4;15;15.8;26.9;0.0;
23/02/2025 16:21:56;100;0;314.21;-4;-19.62;-3.66;289.5;16.90;76478;2833.681;-1757.509;1;318;-90;-93.5;43.4;43.4;15;15.8;26.9;0.0;
23/02/2025 16:22:16;100;0;310.53;-4;-19.09;-3.62;292.5;16.90;76487;2833.683;-1757.513;1;318;-90;-91.9;43.4;43.4;13;13.1;26.9;0.0;
23/02/2025 16:22:36;100;0;310.07;-4;-19.36;-4.94;295.2;16.90;76473;2833.686;-1757.516;1;318;-90;-93.5;43.4;43.4;13;12.6;26.9;0.0;
23/02/2025 16:22:56;100;0;305.81;-4;-18.92;-5.08;297.9;16.80;76483;2833.688;-1757.519;1;318;-90;-91.9;43.8;43.9;11;10.4;26.9;0.0;
23/02/2025 16:23:16;100;0;304.18;-4;-19.56;-6.30;300.7;16.80;76466;2833.690;-1757.523;1;318;-90;-91.9;43.8;44.0;9;9.0;26.9;0.0;
23/02/2025 16:23:36;100;0;304.59;-4;-19.87;-7.11;303.4;16.70;76458;2833.692;-1757.526;1;318;-90;-93.5;43.8;44.0;9;9.0;26.9;0.0;
23/02/2025 16:23:56;100;0;309.26;-4;-20.15;-6.92;306.1;16.70;76463;2833.695;-1757.529;1;318;-90;-91.9;43.8;43.9;13;13.5;26.9;0.0;
23/02/2025 16:24:16;100;0;306.51;-4;-18.95;-4.65;308.9;16.70;76461;2833.697;-1757.532;1;318;-90;-93.5;44.1;44.0;11;10.8;26.9;0.0;
23/02/2025 16:24:36;100;0;306.19;-4;-20.40;-6.24;311.4;16.60;76447;2833.699;-1757.535;1;318;-90;-93.5;44.1;44.0;11;10.4;26.9;0.0;
23/02/2025 16:24:56;100;0;309.81;-4;-20.38;-6.25;314.1;16.60;76434;2833.702;-1757.538;1;318;-90;-93.5;44.1;44.0;13;13.1;26.9;0.0;
23/02/2025 16:25:16;100;0;313.78;-4;-20.60;-4.61;316.9;16.60;76427;2833.704;-1757.541;1;318;-90;-91.9;44.1;44.0;13;13.5;26.9;0.0;
23/02/2025 16:25:36;100;0;308.39;-4;-20.61;-4.73;319.6;16.50;76423;2833.706;-1757.544;1;318;-90;-93.5;44.1;44.0;13;13.5;26.9;0.0;
23/02/2025 16:25:56;100;0;302.92;-4;-20.72;-4.70;322.4;16.50;76419;2833.708;-1757.547;1;318;-90;-93.5;44.1;44.0;7;7.2;26.9;0.0;
23/02/2025 16:26:16;100;0;304.52;-4;-20.37;-7.91;325.2;16.50;76413;2833.711;-1757.551;1;318;-90;-91.9;44.1;44.0;9;9.0;26.9;0.0;
23/02/2025 16:26:36;100;0;305.39;-4;-20.11;-6.61;328.0;16.50;76402;2833.713;-1757.554;1;318;-90;-93.5;44.1;44.0;9;9.5;26.9;0.0;
23/02/2025 16:26:56;100;0;305.36;-4;-20.50;-6.59;330.8;16.40;76392;2833.715;-1757.557;1;318;-90;-93.5;44.1;44.0;9;9.5;26.9;0.0;
23/02/2025 16:27:16;100;0;305.99;-4;-20.24;-6.66;333.5;16.40;76387;2833.717;-1757.561;1;318;-90;-91.9;44.1;44.0;9;9.5;26.9;0.0;
23/02/2025 16:27:36;100;0;309.88;-4;-20.04;-6.65;336.2;16.30;76385;2833.720;-1757.563;1;318;-90;-93.5;44.1;44.0;13;13.1;26.9;0.0;
23/02/2025 16:27:56;100;0;313.49;-4;-20.71;-4.68;338.9;16.30;76377;2833.722;-1757.566;1;318;-90;-93.5;44.1;44.0;13;13.5;26.9;0.0;
23/02/2025 16:28:16;100;0;316.88;-4;-20.47;-4.72;341.6;16.30;76375;2833.725;-1757.569;1;318;-90;-93.5;44.1;44.0;13;13.5;26.9;0.0;
23/02/2025 16:28:36;100;0;319.56;-4;-20.50;-4.75;344.4;16.20;76363;2833.728;-1757.572;1;318;-90;-93.5;44.1;44.0;13;13.5;26.9;0.0;
23/02/2025 16:28:56;100;0;322.34;-4;-20.43;-4.69;347.2;16.20;76362;2833.731;-1757.574;1;318;-90;-93.5;44.1;44.0;13;13.5;26.9;0.0;
23/02/2025 16:29:16;100;0;323.37;-4;-20.60;-4.69;350.0;16.20;76355;2833.734;-1757.576;1;318;-90;-91.9;44.1;44.0;15;14.9;26.9;0.0;
23/02/2025 16:29:36;100;0;319.59;-4;-20.71;-3.71;353.0;16.10;76339;2833.737;-1757.579;1;318;-90;-93.5;44.1;44.0;15;15.3;26.9;0.0;
23/02/2025 16:29:56;100;0;316.65;-4;-20.52;-3.74;355.9;16.10;76336;2833.739;-1757.582;1;318;-90;-93.5;44.1;44.0;13;11.7;26.9;0.0;
23/02/2025 16:30:16;100;0;315.35;-4;-20.39;-4.87;358.8;16.10;76329;2833.742;-1757.585;1;318;-90;-93.5;44.1;44.0;13;13.1;26.9;0.0;
23/02/2025 16:30:36;100;0;312.70;-4;-20.39;-4.89;361.6;16.00;76323;2833.745;-1757.588;1;318;-90;-93.5;44.1;44.0;13;13.5;26.9;0.0;
23/02/2025 16:30:56;100;0;309.94;-4;-20.38;-4.88;364.4;16.00;76318;2833.747;-1757.591;1;318;-90;-91.9;44.1;43.9;13;13.1;26.9;0.0;
23/02/2025 16:31:16;100;0;305.44;-4;-20.08;-4.93;367.1;16.00;76309;2833.749;-1757.594;1;318;-90;-93.5;44.1;44.0;10;9.9;26.9;0.0;
23/02/2025 16:31:36;100;0;301.61;-4;-20.17;-6.84;369.9;15.90;76305;2833.751;-1757.598;1;318;-90;-93.5;44.1;44.0;5;4.5;26.9;0.0;
23/02/2025 16:31:56;100;0;300.71;-4;-19.68;-9.35;372.6;15.90;76290;2833.753;-1757.601;1;318;-90;-93.5;44.1;44.0;5;4.5;26.9;0.0;
23/02/2025 16:32:16;100;0;309.19;-4;-19.47;-9.29;375.1;15.90;76281;2833.756;-1757.604;1;318;-90;-93.5;44.1;44.0;12;12.2;26.9;0.0;
23/02/2025 16:32:36;100;0;312.54;-4;-20.29;-5.23;377.7;15.80;76274;2833.758;-1757.607;1;318;-90;-93.5;44.1;44.0;12;12.6;26.9;0.0;
23/02/2025 16:32:56;100;0;316.84;-4;-20.08;-5.18;380.4;15.80;76270;2833.761;-1757.609;1;318;-90;-93.5;44.1;44.0;12;12.2;26.9;0.0;
23/02/2025 16:33:16;100;0;323.87;-4;-19.83;-5.27;383.0;15.80;76266;2833.764;-1757.612;1;318;-90;-93.5;44.1;44.0;15;14.9;26.9;0.0;
23/02/2025 16:33:36;100;0;326.37;-4;-19.97;-3.82;385.6;15.70;76253;2833.766;-1757.614;1;318;-90;-93.5;44.1;44.0;17;17.1;26.9;0.0;
23/02/2025 16:33:56;100;0;327.89;-4;-19.93;-2.88;388.3;15.70;76249;2833.770;-1757.616;1;318;-90;-93.5;44.1;43.9;17;17.1;26.9;0.0;
23/02/2025 16:34:16;100;0;328.76;-4;-20.03;-2.87;390.9;15.60;76248;2833.773;-1757.618;1;318;-90;-93.5;44.1;43.9;19;19.0;26.9;0.0;
23/02/2025 16:34:36;100;0;327.55;-4;-20.28;-1.87;393.6;15.60;76239;2833.776;-1757.620;1;318;-90;-93.5;44.1;44.0;19;19.4;26.9;0.0;
23/02/2025 16:34:56;100;0;325.06;-4;-20.33;-1.91;396.2;15.60;76228;2833.779;-1757.622;1;318;-90;-93.5;44.1;44.0;16;15.8;26.9;0.0;
23/02/2025 16:35:16;100;0;324.99;-4;-20.22;-3.87;398.8;15.60;76226;2833.781;-1757.624;1;318;-90;-93.5;44.1;44.0;16;15.3;26.9;0.0;
23/02/2025 16:35:36;100;0;322.46;-4;-20.32;-3.83;401.5;15.50;76204;2833.784;-1757.627;1;318;-90;-93.5;44.1;44.0;14;14.0;26.9;0.0;
23/02/2025 16:35:56;100;0;319.53;-4;-20.14;-4.65;404.2;15.50;76211;2833.787;-1757.629;1;318;-90;-93.5;44.1;43.9;14;14.0;26.9;0.0;
23/02/2025 16:36:16;100;0;317.37;-4;-20.27;-4.67;406.8;15.50;76194;2833.790;-1757.632;1;318;-90;-93.5;44.1;44.0;14;13.5;26.9;0.0;
23/02/2025 16:36:36;100;0;316.19;-4;-20.24;-4.63;409.5;15.40;76190;2833.792;-1757.634;1;318;-90;-96.8;44.1;44.0;14;14.0;26.9;0.0;
23/02/2025 16:36:56;100;0;315.21;-4;-20.28;-4.63;412.1;15.40;76186;2833.795;-1757.637;1;318;-90;-93.5;44.1;44.0;14;14.0;26.9;0.0;
23/02/2025 16:37:16;100;0;313.73;-4;-20.12;-4.69;414.8;15.40;76190;2833.797;-1757.640;1;318;-90;-93.5;44.1;44.0;14;14.0;26.9;0.0;
23/02/2025 16:37:36;100;0;313.08;-4;-20.10;-4.67;417.4;15.30;76189;2833.800;-1757.643;1;318;-90;-93.5;44.1;44.0;14;14.0;26.9;0.0;
23/02/2025 16:37:56;100;0;311.13;-4;-20.14;-4.65;420.0;15.30;76177;2833.802;-1757.645;1;318;-90;-93.5;44.1;44.0;14;14.0;26.9;0.0;
23/02/2025 16:38:16;100;0;312.69;-4;-19.78;-4.61;422.6;15.30;76165;2833.805;-1757.648;1;318;-90;-93.5;44.1;44.0;14;14.0;26.9;0.0;
23/02/2025 16:38:36;100;0;315.95;-4;-19.83;-4.49;425.2;15.20;76166;2833.807;-1757.651;1;318;-90;-93.5;44.1;44.0;14;14.0;26.9;0.0;
23/02/2025 16:38:56;100;0;318.67;-4;-20.04;-4.59;427.8;15.20;76154;2833.810;-1757.653;1;318;-90;-93.5;44.1;44.0;14;13.5;26.9;0.0;
23/02/2025 16:39:16;100;0;320.31;-4;-19.99;-4.65;430.4;15.20;76160;2833.813;-1757.656;1;318;-90;-93.5;44.1;43.9;14;13.5;26.9;0.0;
23/02/2025 16:39:36;100;0;325.36;-4;-19.88;-4.62;433.0;15.20;76151;2833.815;-1757.658;1;318;-90;-96.8;44.1;43.9;16;15.8;26.9;0.0;
23/02/2025 16:39:56;100;0;329.67;-4;-19.81;-3.29;435.6;15.10;76131;2833.818;-1757.660;1;318;-90;-93.5;44.1;44.0;21;21.2;26.9;0.0;
23/02/2025 16:40:17;100;0;332.23;-4;-19.96;-0.76;438.1;15.10;76137;2833.821;-1757.661;1;318;-90;-91.9;44.1;44.0;24;23.9;26.9;0.0;
23/02/2025 16:40:37;100;0;328.98;-4;-20.24;0.63;440.6;15.10;76129;2833.824;-1757.663;1;318;-90;-93.5;44.1;44.0;20;19.9;26.9;0.0;
23/02/2025 16:40:57;100;0;324.85;-4;-20.12;-1.83;443.2;15.00;76116;2833.827;-1757.665;1;318;-90;-93.5;44.1;44.0;16;15.3;26.9;0.0;
23/02/2025 16:41:17;100;0;322.26;-4;-19.80;-4.01;445.7;15.00;76114;2833.830;-1757.668;1;318;-90;-95.2;44.1;44.0;16;15.3;26.9;0.0;
23/02/2025 16:41:37;100;0;318.91;-4;-19.69;-4.00;448.2;15.00;76108;2833.833;-1757.670;1;318;-90;-93.5;44.1;44.0;14;14.0;26.9;0.0;
23/02/2025 16:41:57;100;0;321.72;-4;-19.89;-4.77;450.7;14.90;76106;2833.835;-1757.672;1;318;-90;-93.5;44.1;44.0;14;13.5;26.9;0.0;
23/02/2025 16:42:17;100;0;324.87;-4;-19.73;-4.78;453.2;14.90;76101;2833.838;-1757.675;1;318;-90;-93.5;44.1;44.0;16;15.8;26.9;0.0;
23/02/2025 16:42:37;100;0;325.13;-4;-20.02;-3.45;455.8;14.90;76095;2833.841;-1757.677;1;318;-90;-93.5;44.1;44.0;16;16.2;26.9;0.0;
23/02/2025 16:42:57;100;0;322.75;-4;-20.04;-3.50;458.3;14.90;76082;2833.844;-1757.679;1;318;-90;-93.5;44.1;44.0;16;16.2;26.9;0.0;
23/02/2025 16:43:17;100;0;318.12;-4;-19.82;-3.48;460.9;14.80;76086;2833.846;-1757.681;1;318;-90;-91.9;44.1;44.0;14;13.5;26.9;0.0;
23/02/2025 16:43:37;100;0;316.47;-4;-19.72;-4.88;463.4;14.80;76077;2833.849;-1757.684;1;318;-90;-93.5;44.1;44.0;14;13.5;26.9;0.0;
23/02/2025 16:43:57;100;0;314.48;-4;-19.74;-4.90;465.9;14.80;76076;2833.851;-1757.686;1;318;-90;-93.5;44.1;43.9;14;13.5;26.9;0.0;
23/02/2025 16:44:17;100;0;312.64;-4;-19.75;-4.90;468.5;14.70;76060;2833.854;-1757.689;1;318;-90;-93.5;44.1;43.9;14;13.5;26.9;0.0;
23/02/2025 16:44:37;100;0;312.87;-4;-20.07;-4.84;471.1;14.70;76047;2833.856;-1757.692;1;318;-90;-93.5;44.1;44.0;14;13.1;26.9;0.0;
23/02/2025 16:44:57;100;0;314.53;-4;-20.23;-4.85;473.8;14.70;76058;2833.859;-1757.695;1;318;-90;-93.5;44.1;44.0;14;13.5;26.9;0.0;
23/02/2025 16:45:17;100;0;315.36;-4;-20.13;-4.77;476.6;14.60;76045;2833.861;-1757.698;1;318;-90;-91.9;44.1;44.0;14;13.5;26.9;0.0;
23/02/2025 16:45:37;100;0;315.87;-4;-19.77;-4.90;479.3;14.60;76043;2833.864;-1757.700;1;318;-90;-93.5;44.1;44.0;14;13.5;26.9;0.0;
23/02/2025 16:45:57;100;0;315.05;-4;-19.71;-4.85;481.9;14.60;76041;2833.866;-1757.703;1;318;-90;-93.5;44.1;43.9;14;13.5;26.9;0.0;
23/02/2025 16:46:17;100;0;314.99;-4;-19.88;-4.89;484.6;14.60;76026;2833.869;-1757.706;1;318;-90;-93.5;44.1;44.0;14;13.5;26.9;0.0;
23/02/2025 16:46:37;100;0;315.36;-4;-19.72;-4.87;487.2;14.50;76020;2833.872;-1757.708;1;318;-90;-93.5;44.1;44.0;14;13.5;26.9;0.0;
23/02/2025 16:46:57;100;0;314.41;-4;-20.24;-4.89;489.9;14.50;76015;2833.874;-1757.711;1;318;-90;-95.2;44.1;44.0;14;13.5;26.9;0.0;
23/02/2025 16:47:17;100;0;314.38;-4;-20.03;-4.77;492.7;14.50;76008;2833.877;-1757.714;1;318;-90;-93.5;44.1;44.0;14;13.5;26.9;0.0;
23/02/2025 16:47:37;100;0;314.96;-4;-19.96;-4.85;495.4;14.50;76012;2833.879;-1757.717;1;318;-90;-93.5;44.1;44.0;14;13.5;26.9;0.0;
23/02/2025 16:47:57;100;0;316.50;-4;-19.95;-4.76;498.2;14.40;75997;2833.882;-1757.720;1;318;-90;-91.9;44.1;44.0;14;13.5;26.9;0.0;
23/02/2025 16:48:17;100;0;319.77;-4;-19.81;-4.77;500.8;14.40;75993;2833.885;-1757.722;1;318;-90;-93.5;44.1;44.0;14;13.5;26.9;0.0;
23/02/2025 16:48:37;100;0;320.22;-4;-19.90;-4.88;503.6;14.40;75992;2833.888;-1757.725;1;318;-90;-93.5;44.1;44.0;14;13.5;26.9;0.0;
23/02/2025 16:48:57;100;0;321.00;-4;-19.82;-4.81;506.3;14.40;75983;2833.891;-1757.727;1;318;-90;-93.5;44.1;44.0;14;13.5;26.9;0.0;
23/02/2025 16:49:17;100;0;321.89;-4;-19.81;-4.85;509.2;14.30;75984;2833.894;-1757.730;1;318;-90;-91.9;44.1;44.0;14;13.5;26.9;0.0;
23/02/2025 16:49:37;100;0;321.63;-4;-19.69;-4.91;511.9;14.30;75973;2833.897;-1757.732;1;318;-90;-93.5;44.1;44.0;14;13.5;26.9;0.0;
23/02/2025 16:49:57;100;0;324.78;-4;-19.74;-4.86;514.7;14.30;75963;2833.900;-1757.735;1;318;-90;-93.5;44.1;44.0;16;15.8;26.9;0.0;
23/02/2025 16:50:17;100;0;325.43;-4;-20.13;-3.29;517.6;14.20;75958;2833.903;-1757.737;1;318;-90;-93.5;44.1;44.0;16;16.2;26.9;0.0;
23/02/2025 16:50:37;100;0;323.80;-4;-20.08;-3.26;520.5;14.20;75954;2833.906;-1757.739;1;318;-90;-93.5;44.1;44.0;16;16.2;26.9;0.0;
23/02/2025 16:50:57;100;0;322.48;-4;-20.19;-3.39;523.4;14.20;75955;2833.909;-1757.742;1;318;-90;-93.5;44.1;44.0;16;16.2;26.9;0.0;
23/02/2025 16:51:17;100;0;320.56;-4;-20.19;-3.35;526.4;14.20;75942;2833.912;-1757.745;1;318;-90;-93.5;44.1;44.0;14;14.0;26.9;0.0;
23/02/2025 16:51:37;100;0;317.03;-4;-20.20;-4.76;529.3;14.10;75949;2833.915;-1757.748;1;318;-90;-93.5;44.1;44.0;14;13.5;26.9;0.0;
23/02/2025 16:51:57;100;0;313.65;-4;-20.42;-4.77;532.3;14.10;75942;2833.918;-1757.751;1;318;-90;-93.5;44.1;44.0;14;13.5;26.9;0.0;
23/02/2025 16:52:17;100;0;311.36;-4;-19.99;-4.69;535.4;14.10;75931;2833.921;-1757.754;1;318;-90;-93.5;44.1;44.0;14;13.5;26.9;0.0;
23/02/2025 16:52:37;100;0;311.87;-4;-19.84;-4.68;538.4;14.10;75924;2833.923;-1757.757;1;318;-90;-93.5;44.1;44.0;14;13.5;26.9;0.0;
23/02/2025 16:52:57;100;0;315.15;-4;-19.73;-4.72;541.4;14.00;75921;2833.926;-1757.761;1;318;-90;-93.5;44.1;44.0;14;13.5;26.9;0.0;
23/02/2025 16:53:17;100;0;315.80;-4;-19.57;-4.69;544.3;14.00;75908;2833.929;-1757.764;1;318;-90;-93.5;44.1;44.0;14;13.5;26.9;0.0;
23/02/2025 16:53:37;100;0;315.78;-4;-19.20;-4.80;547.2;14.00;75917;2833.932;-1757.767;1;318;-90;-95.2;44.1;44.0;14;13.5;26.9;0.0;
23/02/2025 16:53:57;100;0;318.04;-4;-19.07;-4.79;549.9;14.00;75916;2833.935;-1757.769;1;318;-90;-93.5;44.1;44.0;14;13.5;26.9;0.0;
23/02/2025 16:54:17;100;0;318.78;-4;-19.22;-4.77;552.6;13.90;75901;2833.938;-1757.772;1;318;-90;-93.5;44.1;44.0;14;13.5;26.9;0.0;
23/02/2025 16:54:37;100;0;321.51;-4;-19.33;-4.78;555.4;13.90;75901;2833.941;-1757.775;1;318;-90;-93.5;44.1;44.0;14;13.5;26.9;0.0;
23/02/2025 16:54:57;100;0;323.15;-4;-19.16;-4.76;558.2;13.90;75900;2833.944;-1757.777;1;318;-90;-91.9;44.1;44.0;14;13.5;26.9;0.0;
23/02/2025 16:55:17;100;0;324.27;-4;-18.84;-4.79;561.0;13.90;75898;2833.947;-1757.780;1;318;-90;-93.5;44.4;44.6;16;16.2;26.9;0.0;
23/02/2025 16:55:37;100;0;325.45;-4;-20.46;-3.29;563.9;13.80;75889;2833.950;-1757.782;1;318;-90;-93.5;44.4;44.6;16;16.2;26.9;0.0;
23/02/2025 16:55:57;100;0;325.82;-4;-20.67;-3.32;566.8;13.80;75885;2833.953;-1757.784;1;318;-90;-93.5;44.4;44.6;16;16.2;26.9;0.0;
23/02/2025 16:56:17;100;0;326.93;-4;-19.81;-3.36;569.7;13.80;75883;2833.957;-1757.787;1;318;-90;-93.5;44.4;44.6;18;18.1;26.9;0.0;
23/02/2025 16:56:37;100;0;328.91;-4;-21.22;-2.13;572.6;13.80;75863;2833.960;-1757.789;1;318;-90;-93.5;44.4;44.6;20;20.3;26.9;0.0;
23/02/2025 16:56:57;100;0;327.51;-4;-20.99;-1.22;575.6;13.70;75875;2833.963;-1757.791;1;318;-90;-93.5;44.4;44.6;20;20.8;26.9;0.0;
23/02/2025 16:57:17;100;0;320.82;-4;-20.63;-1.10;578.6;13.70;75876;2833.966;-1757.794;1;318;-90;-93.5;44.4;44.6;15;14.9;26.9;0.0;
23/02/2025 16:57:37;100;0;317.54;-4;-20.55;-4.33;581.4;13.70;75856;2833.969;-1757.796;1;318;-90;-93.5;44.4;44.8;15;14.4;26.9;0.0;
23/02/2025 16:57:57;100;0;316.55;-4;-20.77;-4.37;584.3;13.70;75845;2833.972;-1757.799;1;318;-90;-93.5;44.4;44.8;15;14.9;26.9;0.0;
23/02/2025 16:58:17;100;0;315.19;-4;-20.77;-4.30;587.1;13.60;75846;2833.974;-1757.802;1;318;-90;-91.9;44.4;44.6;15;14.4;26.9;0.0;
23/02/2025 16:58:37;100;0;313.64;-4;-20.63;-4.31;590.0;13.60;75847;2833.977;-1757.805;1;318;-90;-93.5;44.4;44.8;15;14.9;26.9;0.0;
23/02/2025 16:58:57;100;0;312.57;-4;-20.74;-4.25;592.9;13.60;75836;2833.980;-1757.808;1;318;-90;-95.2;44.4;44.6;15;14.4;26.9;0.0;
23/02/2025 16:59:17;100;0;311.96;-4;-20.45;-4.30;595.7;13.60;75838;2833.982;-1757.811;1;318;-90;-93.5;44.4;44.6;15;14.4;26.9;0.0;
23/02/2025 16:59:37;100;0;311.55;-4;-20.32;-4.30;598.6;13.60;75839;2833.985;-1757.814;1;318;-90;-93.5;44.4;44.6;15;14.4;26.9;0.0;
23/02/2025 16:59:57;100;0;311.54;-4;-20.39;-4.34;601.3;13.50;75830;2833.987;-1757.817;1;318;-90;-93.5;44.4;44.6;15;14.4;26.9;0.0;
23/02/2025 17:00:17;100;0;310.66;-4;-20.67;-4.28;604.0;13.50;75827;2833.990;-1757.820;1;318;-90;-93.5;44.4;44.6;15;14.4;26.9;0.0;
23/02/2025 17:00:37;100;0;308.86;-4;-20.89;-4.32;606.7;13.50;75823;2833.992;-1757.823;1;318;-90;-93.5;44.4;44.6;13;12.6;26.9;0.0;
23/02/2025 17:00:57;100;0;306.67;-4;-20.62;-5.32;609.5;13.50;75816;2833.994;-1757.826;1;318;-90;-96.8;44.4;44.8;13;12.6;26.9;0.0;
23/02/2025 17:01:17;100;0;305.48;-4;-20.69;-5.24;612.3;13.40;75814;2833.996;-1757.829;1;318;-90;-93.5;44.4;44.8;11;10.8;26.9;0.0;
23/02/2025 17:01:37;100;0;304.15;-4;-20.47;-6.32;614.9;13.40;75818;2833.998;-1757.832;1;318;-90;-91.9;44.4;44.6;9;8.6;26.9;0.0;
23/02/2025 17:01:57;100;0;304.16;-4;-20.43;-7.32;617.6;13.40;75803;2834.000;-1757.835;1;318;-90;-93.5;44.4;44.8;9;8.6;26.9;0.0;
23/02/2025 17:02:17;100;0;304.80;-4;-20.41;-7.27;620.2;13.40;75801;2834.002;-1757.838;1;318;-90;-93.5;44.4;44.6;9;8.6;26.9;0.0;
23/02/2025 17:02:37;100;0;305.99;-4;-20.48;-7.30;622.8;13.30;75794;2834.005;-1757.841;1;318;-90;-91.9;44.4;44.8;11;10.8;26.9;0.0;
23/02/2025 17:02:57;100;0;305.20;-4;-20.65;-5.78;625.4;13.30;75798;2834.007;-1757.844;1;318;-90;-93.5;44.4;44.6;11;11.3;26.9;0.0;
23/02/2025 17:03:17;100;0;304.49;-4;-20.78;-5.79;628.1;13.30;75788;2834.009;-1757.848;1;318;-90;-91.9;44.4;44.8;9;9.0;26.9;0.0;
23/02/2025 17:03:37;100;0;304.82;-4;-20.54;-7.10;630.6;13.30;75796;2834.010;-1757.850;1;318;-90;-91.9;44.4;44.6;9;8.6;26.9;0.0;
23/02/2025 17:03:57;100;0;304.59;-4;-20.44;-7.14;633.1;13.30;75784;2834.012;-1757.853;1;318;-90;-93.5;44.4;44.6;9;9.0;26.9;0.0;
23/02/2025 17:04:17;100;0;301.35;-4;-20.49;-7.22;635.6;13.30;75781;2834.014;-1757.857;1;318;-90;-93.5;44.4;44.6;5;5.0;26.9;0.0;
23/02/2025 17:04:37;100;0;300.24;-4;-20.54;-9.19;638.1;13.20;75778;2834.016;-1757.860;1;318;-90;-93.5;44.4;44.8;5;5.0;26.9;0.0;
23/02/2025 17:04:57;100;0;305.44;-4;-20.14;-9.15;640.6;13.20;75759;2834.018;-1757.862;1;318;-90;-93.5;44.4;44.6;10;9.9;26.9;0.0;
23/02/2025 17:05:17;100;0;310.17;-4;-20.30;-6.31;642.9;13.20;75751;2834.020;-1757.865;1;318;-90;-93.5;44.4;44.8;13;13.1;26.9;0.0;
23/02/2025 17:05:37;100;0;313.73;-4;-20.49;-4.75;645.3;13.20;75748;2834.022;-1757.868;1;318;-90;-93.5;44.4;44.8;13;13.5;26.9;0.0;
23/02/2025 17:05:57;100;0;317.63;-4;-20.33;-4.67;647.6;13.10;75739;2834.025;-1757.870;1;318;-90;-93.5;44.4;44.8;13;13.5;26.9;0.0;
23/02/2025 17:06:17;100;0;319.53;-4;-20.46;-4.82;649.9;13.10;75737;2834.027;-1757.872;1;318;-90;-93.5;44.4;44.8;13;13.5;26.9;0.0;
23/02/2025 17:06:37;100;0;320.57;-4;-20.35;-4.80;652.2;13.10;75728;2834.029;-1757.874;1;318;-90;-96.8;44.4;44.6;13;13.5;26.9;0.0;
23/02/2025 17:06:57;100;0;322.27;-4;-20.31;-4.80;654.3;13.10;75723;2834.032;-1757.876;1;318;-90;-91.9;44.4;44.6;15;14.9;26.9;0.0;
23/02/2025 17:07:17;100;0;325.16;-4;-20.28;-3.90;656.5;13.00;75719;2834.034;-1757.878;1;318;-90;-93.5;44.4;44.6;15;15.3;26.9;0.0;
23/02/2025 17:07:37;100;0;326.54;-4;-20.60;-3.85;658.6;13.00;75717;2834.037;-1757.879;1;318;-90;-93.5;44.4;44.6;18;18.5;26.9;0.0;
23/02/2025 17:07:57;100;0;327.45;-4;-20.49;-2.29;660.8;13.00;75719;2834.039;-1757.881;1;318;-90;-93.5;44.4;44.8;18;18.5;26.9;0.0;
23/02/2025 17:08:17;100;0;327.29;-4;-20.75;-2.32;663.0;13.00;75703;2834.042;-1757.883;1;318;-90;-93.5;44.4;44.8;18;18.5;26.9;0.0;
23/02/2025 17:08:37;100;0;328.23;-4;-20.44;-2.33;665.0;13.00;75709;2834.044;-1757.884;1;318;-90;-91.9;44.4;44.8;18;18.5;26.9;0.0;
23/02/2025 17:08:57;100;0;329.85;-4;-20.41;-2.34;667.1;12.90;75705;2834.046;-1757.886;1;318;-90;-91.9;44.4;44.6;21;21.7;26.9;0.0;
23/02/2025 17:09:17;100;0;325.84;-4;-21.00;-0.66;669.2;12.90;75681;2834.049;-1757.887;1;318;-90;-93.5;44.4;44.6;17;17.1;26.9;0.0;
23/02/2025 17:09:37;100;0;322.90;-4;-20.95;-3.07;671.5;12.90;75676;2834.051;-1757.889;1;318;-90;-93.5;44.4;44.8;15;14.4;26.9;0.0;
23/02/2025 17:09:57;100;0;319.92;-4;-20.85;-4.39;673.8;12.90;75674;2834.053;-1757.892;1;318;-90;-93.5;44.4;44.8;15;14.4;26.9;0.0;
23/02/2025 17:10:17;100;0;318.62;-4;-20.53;-4.35;676.2;12.80;75665;2834.056;-1757.894;1;318;-90;-93.5;44.4;44.8;15;14.0;26.9;0.0;
23/02/2025 17:10:37;100;0;317.14;-4;-20.61;-4.36;678.5;12.80;75652;2834.058;-1757.896;1;318;-90;-91.9;44.4;44.8;15;14.4;26.9;0.0;
23/02/2025 17:10:57;100;0;315.46;-4;-20.84;-4.41;680.8;12.80;75651;2834.060;-1757.898;1;318;-90;-93.5;44.4;44.6;15;14.4;26.9;0.0;
23/02/2025 17:11:17;100;0;314.30;-4;-20.90;-4.31;683.3;12.70;75649;2834.063;-1757.901;1;318;-90;-93.5;44.4;44.6;15;14.4;26.9;0.0;
23/02/2025 17:11:37;100;0;311.15;-4;-20.83;-4.34;685.7;12.70;75640;2834.065;-1757.903;1;318;-90;-93.5;44.4;44.8;15;14.4;26.9;0.0;
23/02/2025 17:11:57;100;0;308.05;-4;-20.57;-4.40;688.1;12.70;75633;2834.067;-1757.906;1;318;-90;-93.5;44.4;44.6;12;12.2;26.9;0.0;
23/02/2025 17:12:17;100;0;306.26;-4;-20.42;-5.57;690.5;12.70;75626;2834.069;-1757.909;1;318;-90;-93.5;44.4;44.8;12;11.7;26.9;0.0;
23/02/2025 17:12:37;100;0;303.82;-4;-20.49;-5.70;693.0;12.70;75630;2834.071;-1757.912;1;318;-90;-93.5;44.4;44.8;9;9.0;26.9;0.0;
23/02/2025 17:12:57;100;0;302.70;-4;-20.22;-7.08;695.5;12.60;75618;2834.072;-1757.915;1;318;-90;-93.5;44.4;44.8;7;7.2;26.9;0.0;
23/02/2025 17:13:17;100;0;301.51;-4;-20.12;-8.18;698.0;12.60;75613;2834.074;-1757.918;1;318;-90;-93.5;44.4;44.6;7;6.8;26.9;0.0;
23/02/2025 17:13:37;100;0;301.19;-4;-20.04;-8.18;700.5;12.60;75603;2834.076;-1757.921;1;318;-90;-93.5;44.4;44.6;5;5.0;26.9;0.0;
23/02/2025 17:13:57;100;0;305.13;-4;-19.60;-9.32;703.0;12.60;75601;2834.078;-1757.924;1;318;-90;-93.5;44.4;44.6;10;10.4;26.9;0.0;
23/02/2025 17:14:17;100;0;309.77;-4;-20.14;-6.26;705.5;12.50;75589;2834.080;-1757.927;1;318;-90;-91.9;44.4;44.8;13;13.1;26.9;0.0;
23/02/2025 17:14:37;100;0;309.55;-4;-20.14;-4.89;708.0;12.50;75586;2834.083;-1757.929;1;318;-90;-93.5;44.4;44.8;13;13.5;26.9;0.0;
23/02/2025 17:14:58;100;0;309.31;-4;-19.87;-4.91;710.4;12.50;75579;2834.085;-1757.932;1;318;-90;-93.5;44.4;44.6;13;13.5;26.9;0.0;
23/02/2025 17:15:18;100;0;312.12;-4;-20.06;-4.92;712.9;12.50;75579;2834.087;-1757.935;1;318;-90;-91.9;44.4;44.6;13;13.5;26.9;0.0;
23/02/2025 17:15:38;100;0;312.96;-4;-20.07;-4.92;715.3;12.50;75576;2834.089;-1757.937;1;318;-90;-93.5;44.4;44.8;13;13.5;26.9;0.0;
23/02/2025 17:15:58;100;0;314.97;-4;-20.23;-4.84;717.8;12.40;75569;2834.092;-1757.940;1;318;-90;-93.5;44.4;44.6;13;13.5;26.9;0.0;
23/02/2025 17:16:18;100;0;318.62;-4;-20.37;-4.87;720.2;12.40;75552;2834.094;-1757.942;1;318;-90;-93.5;44.4;44.6;13;13.5;26.9;0.0;
23/02/2025 17:16:38;100;0;321.73;-4;-20.30;-4.83;722.7;12.40;75566;2834.097;-1757.945;1;318;-90;-93.5;44.4;44.6;13;13.5;26.9;0.0;
23/02/2025 17:16:58;100;0;327.14;-4;-19.84;-4.81;725.3;12.30;75554;2834.100;-1757.947;1;318;-90;-93.5;44.4;44.8;18;18.1;26.9;0.0;
23/02/2025 17:17:18;100;0;325.81;-4;-20.12;-2.40;727.8;12.30;75544;2834.103;-1757.949;1;318;-90;-93.5;44.4;44.8;18;18.5;26.9;0.0;
23/02/2025 17:17:38;100;0;323.57;-4;-20.15;-2.31;730.3;12.30;75539;2834.105;-1757.951;1;318;-90;-91.9;44.4;44.8;15;14.9;26.9;0.0;
23/02/2025 17:17:58;100;0;325.15;-4;-20.29;-4.22;732.8;12.30;75524;2834.108;-1757.953;1;318;-90;-93.5;44.4;44.6;15;14.9;26.9;0.0;
23/02/2025 17:18:18;100;0;326.65;-4;-20.29;-4.09;735.4;12.20;75514;2834.111;-1757.955;1;318;-90;-93.5;44.4;44.8;18;18.1;26.9;0.0;
23/02/2025 17:18:38;100;0;326.56;-4;-20.47;-2.32;738.0;12.20;75505;2834.114;-1757.957;1;318;-90;-93.5;44.4;44.8;18;18.5;26.9;0.0;
23/02/2025 17:18:58;100;0;325.72;-4;-20.48;-2.23;740.7;12.20;75501;2834.117;-1757.959;1;318;-90;-93.5;44.4;44.8;18;18.5;26.9;0.0;
23/02/2025 17:19:18;100;0;322.56;-4;-20.38;-2.25;743.4;12.20;75491;2834.120;-1757.962;1;318;-90;-93.5;44.4;44.8;15;14.4;26.9;0.0;
23/02/2025 17:19:38;100;0;319.51;-4;-20.35;-4.38;745.9;12.10;75495;2834.122;-1757.964;1;318;-90;-93.5;44.4;44.6;15;14.4;26.9;0.0;
23/02/2025 17:19:58;100;0;317.98;-4;-20.40;-4.40;748.6;12.10;75496;2834.125;-1757.967;1;318;-90;-93.5;44.4;44.6;15;14.4;26.9;0.0;
23/02/2025 17:20:18;100;0;316.81;-4;-20.03;-4.41;751.2;12.10;75479;2834.128;-1757.969;1;318;-90;-91.9;44.4;44.6;15;14.4;26.9;0.0;
23/02/2025 17:20:38;100;0;316.81;-4;-19.96;-4.39;753.8;12.10;75479;2834.130;-1757.972;1;318;-90;-93.5;44.4;44.8;15;14.4;26.9;0.0;
23/02/2025 17:20:58;100;0;315.33;-4;-20.46;-4.41;756.3;12.00;75457;2834.133;-1757.974;1;318;-90;-93.5;44.4;44.8;15;14.4;26.9;0.0;
23/02/2025 17:21:18;100;0;314.91;-4;-20.37;-4.31;759.0;12.00;75456;2834.135;-1757.977;1;318;-90;-96.8;44.4;44.6;15;14.4;26.9;0.0;
23/02/2025 17:21:38;100;0;314.55;-4;-20.04;-4.43;761.7;12.00;75437;2834.138;-1757.980;1;318;-90;-93.5;44.4;44.6;15;14.4;26.9;0.0;
23/02/2025 17:21:58;100;0;313.76;-4;-20.10;-4.36;764.3;12.00;75444;2834.140;-1757.983;1;318;-90;-95.2;44.4;44.6;15;14.4;26.9;0.0;
23/02/2025 17:22:18;100;0;315.17;-4;-20.87;-4.10;766.9;11.90;75428;2834.143;-1757.985;1;318;-90;-93.5;44.4;44.8;15;14.4;26.9;0.0;
23/02/2025 17:22:38;100;0;314.54;-4;-20.22;-4.41;769.5;11.90;75430;2834.145;-1757.988;1;318;-90;-93.5;44.4;44.6;15;14.4;26.9;0.0;
23/02/2025 17:22:58;100;0;315.71;-4;-19.88;-4.36;772.1;11.90;75411;2834.148;-1757.990;1;318;-90;-93.5;44.4;44.8;15;14.4;26.9;0.0;
23/02/2025 17:23:18;100;0;316.73;-4;-20.05;-4.27;774.6;11.90;75407;2834.150;-1757.993;1;318;-90;-93.5;44.4;44.8;15;14.4;26.9;0.0;
23/02/2025 17:23:38;100;0;314.08;-4;-19.70;-4.44;777.0;11.80;75399;2834.153;-1757.995;1;318;-90;-93.5;44.4;44.8;15;14.4;26.9;0.0;
23/02/2025 17:23:58;100;0;313.11;-4;-20.08;-4.43;779.3;11.80;75399;2834.155;-1757.998;1;318;-90;-93.5;44.4;44.8;15;14.4;26.9;0.0;
23/02/2025 17:24:18;100;0;313.06;-4;-19.93;-4.41;781.9;11.80;75387;2834.157;-1758.001;1;318;-90;-93.5;44.4;44.8;15;14.4;26.9;0.0;
23/02/2025 17:24:38;100;0;313.05;-4;-19.98;-4.37;784.4;11.80;75382;2834.160;-1758.003;1;318;-90;-93.5;44.4;44.8;15;14.4;26.9;0.0;
23/02/2025 17:24:58;100;0;310.82;-4;-19.94;-4.51;787.0;11.70;75378;2834.162;-1758.006;1;318;-90;-93.5;44.4;44.6;13;13.1;26.9;0.0;
23/02/2025 17:25:18;100;0;310.37;-4;-19.95;-5.11;789.5;11.70;75382;2834.164;-1758.009;1;318;-90;-93.5;44.4;44.8;13;13.1;26.9;0.0;
23/02/2025 17:25:38;100;0;309.95;-4;-20.09;-5.21;792.1;11.70;75375;2834.167;-1758.012;1;318;-90;-93.5;44.4;44.8;13;13.1;26.9;0.0;
23/02/2025 17:25:58;100;0;310.80;-4;-20.03;-5.22;794.7;11.70;75360;2834.169;-1758.015;1;318;-90;-93.5;44.4;44.8;13;13.1;26.9;0.0;
23/02/2025 17:26:18;100;0;308.31;-4;-19.94;-5.14;797.4;11.60;75362;2834.171;-1758.018;1;318;-90;-96.8;44.4;44.6;13;13.1;26.9;0.0;
23/02/2025 17:26:38;100;0;308.16;-4;-19.66;-5.10;800.1;11.60;75365;2834.173;-1758.021;1;318;-90;-93.5;44.4;44.6;13;13.1;26.9;0.0;
23/02/2025 17:26:58;100;0;310.62;-4;-19.72;-5.22;802.5;11.60;75344;2834.176;-1758.024;1;318;-90;-93.5;44.4;44.6;13;13.1;26.9;0.0;
23/02/2025 17:27:18;100;0;311.42;-4;-19.71;-5.07;805.1;11.60;75348;2834.178;-1758.026;1;318;-90;-93.5;44.4;44.8;13;13.1;26.9;0.0;
23/02/2025 17:27:38;100;0;312.21;-4;-19.57;-5.20;807.6;11.50;75355;2834.180;-1758.029;1;318;-90;-93.5;44.4;44.6;13;13.1;26.9;0.0;
23/02/2025 17:27:58;100;0;317.37;-4;-19.14;-5.10;810.3;11.50;75338;2834.183;-1758.032;1;318;-90;-93.5;44.4;44.8;13;13.1;26.9;0.0;
23/02/2025 17:28:18;100;0;317.96;-4;-20.16;-5.16;812.9;11.50;75350;2834.186;-1758.034;1;318;-90;-93.5;44.4;44.8;13;13.1;26.9;0.0;
23/02/2025 17:28:38;100;0;317.94;-4;-18.82;-5.25;815.6;11.50;75339;2834.189;-1758.037;1;318;-90;-93.5;44.8;44.8;13;13.1;26.9;0.0;
23/02/2025 17:28:58;100;0;319.10;-4;-18.81;-4.90;818.2;11.40;75341;2834.191;-1758.040;1;318;-90;-93.5;45.1;45.1;13;12.6;26.9;0.0;
23/02/2025 17:29:18;100;0;318.81;-4;-21.01;-5.52;820.9;11.40;75334;2834.194;-1758.042;1;318;-90;-93.5;45.1;45.4;13;13.1;26.9;0.0;
23/02/2025 17:29:38;100;0;323.96;-4;-21.29;-5.25;823.6;11.40;75334;2834.197;-1758.044;1;318;-90;-93.5;45.1;45.2;15;14.9;26.9;0.0;
23/02/2025 17:29:58;100;0;322.67;-4;-20.94;-3.96;826.7;11.40;75328;2834.200;-1758.047;1;318;-90;-93.5;45.1;45.2;15;15.3;26.9;0.0;
23/02/2025 17:30:18;100;0;321.43;-4;-20.84;-4.28;829.6;11.40;75334;2834.203;-1758.049;1;318;-90;-93.5;45.1;45.2;15;15.3;26.9;0.0;
23/02/2025 17:30:38;100;0;323.56;-4;-20.68;-4.27;832.4;11.30;75316;2834.206;-1758.052;1;318;-90;-96.8;45.1;45.2;15;15.3;26.9;0.0;
23/02/2025 17:30:58;100;0;323.76;-4;-20.83;-4.09;835.1;11.30;75324;2834.209;-1758.054;1;318;-90;-95.2;45.1;45.4;15;15.3;26.9;0.0;
23/02/2025 17:31:18;100;0;324.81;-4;-21.26;-4.00;838.0;11.30;75321;2834.212;-1758.056;1;318;-90;-93.5;45.1;45.4;15;14.9;26.9;0.0;
23/02/2025 17:31:38;100;0;325.82;-4;-20.98;-4.04;840.9;11.30;75331;2834.215;-1758.059;1;318;-90;-93.5;45.1;45.2;17;17.1;26.9;0.0;
23/02/2025 17:31:58;100;0;326.69;-4;-20.60;-2.80;844.1;11.30;75322;2834.218;-1758.061;1;318;-90;-91.9;45.1;45.2;17;17.6;26.9;0.0;
23/02/2025 17:32:18;100;0;325.87;-4;-20.85;-3.01;847.1;11.20;75326;2834.222;-1758.063;1;318;-90;-93.5;45.1;45.4;17;17.6;26.9;0.0;
23/02/2025 17:32:38;100;0;324.39;-4;-20.34;-2.82;850.1;11.20;75324;2834.225;-1758.066;1;318;-90;-93.5;45.1;45.5;17;17.6;26.9;0.0;
23/02/2025 17:32:58;100;0;323.15;-4;-20.85;-2.82;853.1;11.20;75316;2834.228;-1758.069;1;318;-90;-93.5;45.1;45.4;15;14.9;26.9;0.0;
23/02/2025 17:33:18;100;0;322.83;-4;-21.23;-4.17;856.2;11.20;75314;2834.231;-1758.071;1;318;-90;-93.5;45.1;45.4;15;14.9;26.9;0.0;
23/02/2025 17:33:38;100;0;323.52;-4;-21.23;-4.14;859.4;11.10;75309;2834.235;-1758.074;1;318;-90;-93.5;45.1;45.4;15;14.9;26.9;0.0;
23/02/2025 17:33:58;100;0;323.89;-4;-21.00;-4.25;862.6;11.20;75311;2834.238;-1758.076;1;318;-90;-93.5;45.1;45.2;15;14.9;26.9;0.0;
23/02/2025 17:34:18;100;0;324.60;-4;-21.53;-4.10;865.8;11.10;75302;2834.241;-1758.079;1;318;-90;-93.5;45.1;45.2;15;14.9;26.9;0.0;
23/02/2025 17:34:38;100;0;321.73;-4;-20.69;-4.13;869.2;11.10;75298;2834.245;-1758.082;1;318;-90;-93.5;45.1;45.2;15;14.9;26.9;0.0;
23/02/2025 17:34:58;100;0;320.03;-4;-21.20;-4.18;872.4;11.10;75295;2834.248;-1758.085;1;318;-90;-93.5;45.1;45.4;15;14.9;26.9;0.0;
23/02/2025 17:35:18;100;0;319.77;-4;-21.92;-4.07;875.7;11.10;75296;2834.251;-1758.088;1;318;-90;-91.9;45.1;45.4;15;14.9;26.9;0.0;
23/02/2025 17:35:38;100;0;318.33;-4;-21.02;-4.16;879.0;11.10;75297;2834.254;-1758.091;1;318;-90;-93.5;45.1;45.4;15;14.9;26.9;0.0;
23/02/2025 17:35:58;100;0;317.32;-4;-21.06;-4.19;882.2;11.00;75292;2834.257;-1758.094;1;318;-90;-93.5;45.1;45.2;15;14.9;26.9;0.0;
23/02/2025 17:36:18;100;0;316.57;-4;-20.95;-4.17;885.4;11.00;75290;2834.260;-1758.097;1;318;-90;-91.9;45.1;45.2;15;14.9;26.9;0.0;
23/02/2025 17:36:38;100;0;317.97;-4;-21.18;-4.22;888.5;11.00;75288;2834.263;-1758.100;1;318;-90;-91.9;45.1;45.4;15;14.9;26.9;0.0;
23/02/2025 17:36:58;100;0;323.10;-4;-21.72;-3.96;891.8;11.00;75281;2834.267;-1758.102;1;318;-90;-95.2;45.1;45.2;15;14.9;26.9;0.0;
23/02/2025 17:37:18;100;0;328.84;-4;-20.65;-4.15;895.2;11.00;75271;2834.270;-1758.105;1;318;-90;-93.5;45.1;45.4;20;19.9;26.9;0.0;
23/02/2025 17:37:38;100;0;324.93;-4;-21.39;-1.34;898.5;10.90;75266;2834.274;-1758.108;1;318;-90;-91.9;45.1;45.5;17;17.1;26.9;0.0;
23/02/2025 17:37:58;100;0;325.33;-4;-22.05;-3.45;901.7;10.90;75272;2834.277;-1758.110;1;318;-90;-91.9;44.5;44.5;17;16.7;26.9;0.0;
23/02/2025 17:38:18;100;0;327.40;-4;-19.39;-3.28;904.7;10.90;75263;2834.281;-1758.112;1;318;-90;-91.9;44.5;44.3;19;19.0;26.9;0.0;
23/02/2025 17:38:38;100;0;329.29;-4;-20.27;-1.83;907.7;10.90;75243;2834.284;-1758.115;1;318;-90;-93.5;44.5;44.3;21;21.2;26.9;0.0;
23/02/2025 17:38:58;100;0;327.69;-4;-19.75;-0.88;910.9;10.90;75252;2834.288;-1758.117;1;318;-90;-93.5;44.5;44.3;19;19.0;26.9;0.0;
23/02/2025 17:39:18;100;0;325.94;-4;-19.61;-2.38;913.7;10.80;75242;2834.291;-1758.119;1;318;-90;-93.5;44.5;44.3;19;18.5;26.9;0.0;
23/02/2025 17:39:38;100;0;324.27;-4;-19.40;-2.46;916.5;10.80;75238;2834.294;-1758.122;1;318;-90;-95.2;44.5;44.3;16;15.8;26.9;0.0;
23/02/2025 17:39:58;100;0;324.05;-4;-19.18;-3.94;919.4;10.80;75243;2834.297;-1758.124;1;318;-90;-93.5;44.5;44.3;16;15.3;26.9;0.0;
23/02/2025 17:40:18;100;0;326.39;-4;-19.38;-3.95;922.1;10.80;75239;2834.301;-1758.127;1;318;-90;-93.5;44.5;44.3;18;18.5;26.9;0.0;
23/02/2025 17:40:38;100;0;324.86;-4;-19.37;-2.33;924.9;10.80;75243;2834.304;-1758.129;1;318;-90;-93.5;44.5;44.3;18;18.5;26.9;0.0;
23/02/2025 17:40:58;100;0;321.99;-4;-19.47;-2.35;927.7;10.70;75225;2834.307;-1758.132;1;318;-90;-93.5;44.5;44.3;16;15.8;26.9;0.0;
23/02/2025 17:41:18;100;0;321.53;-4;-19.41;-3.88;930.6;10.70;75228;2834.310;-1758.134;1;318;-90;-91.9;44.5;44.3;16;15.8;26.9;0.0;
23/02/2025 17:41:38;100;0;321.72;-4;-19.54;-3.87;933.3;10.70;75228;2834.313;-1758.137;1;318;-90;-93.5;44.5;44.3;16;15.8;26.9;0.0;
23/02/2025 17:41:58;100;0;321.09;-4;-19.39;-3.82;936.1;10.70;75214;2834.316;-1758.140;1;318;-90;-93.5;44.5;44.3;16;15.8;26.9;0.0;
23/02/2025 17:42:18;100;0;321.46;-4;-19.36;-3.83;938.9;10.70;75210;2834.319;-1758.142;1;318;-90;-95.2;44.5;44.3;16;15.3;26.9;0.0;
23/02/2025 17:42:38;100;0;321.40;-4;-19.10;-3.89;941.7;10.70;75218;2834.322;-1758.145;1;318;-90;-93.5;44.5;44.3;16;15.8;26.9;0.0;
23/02/2025 17:42:58;100;0;321.44;-4;-19.24;-3.84;944.5;10.60;75200;2834.325;-1758.147;1;318;-90;-91.9;44.5;44.3;16;15.8;26.9;0.0;
23/02/2025 17:43:18;100;0;321.77;-4;-19.45;-3.83;947.1;10.60;75203;2834.328;-1758.150;1;318;-90;-93.5;44.5;44.3;16;15.8;26.9;0.0;
23/02/2025 17:43:38;100;0;321.58;-4;-19.39;-3.97;950.0;10.60;75202;2834.331;-1758.152;1;318;-90;-93.5;44.5;44.3;16;15.8;26.9;0.0;
23/02/2025 17:43:58;100;0;321.82;-4;-19.25;-3.80;952.7;10.60;75188;2834.334;-1758.155;1;318;-90;-93.5;44.5;44.3;16;15.8;26.9;0.0;
23/02/2025 17:44:18;100;0;321.27;-4;-19.33;-3.88;955.5;10.60;75195;2834.337;-1758.158;1;318;-90;-93.5;44.5;44.3;16;15.8;26.9;0.0;
23/02/2025 17:44:38;100;0;320.28;-4;-19.22;-3.87;958.2;10.60;75188;2834.340;-1758.160;1;318;-90;-91.9;44.5;44.3;16;15.3;26.9;0.0;
23/02/2025 17:44:58;100;0;318.66;-4;-19.16;-3.93;961.0;10.50;75184;2834.343;-1758.163;1;318;-90;-91.9;44.5;44.2;16;15.8;26.9;0.0;
23/02/2025 17:45:18;100;0;317.65;-4;-19.11;-3.88;963.7;10.50;75182;2834.346;-1758.166;1;318;-90;-93.5;44.5;44.3;16;15.8;26.9;0.0;
23/02/2025 17:45:38;100;0;314.93;-4;-18.91;-3.90;966.3;10.50;75174;2834.348;-1758.169;1;318;-90;-93.5;44.8;44.9;16;15.8;26.9;0.0;
23/02/2025 17:45:58;100;0;315.20;-4;-20.01;-3.76;968.9;10.50;75183;2834.351;-1758.171;1;318;-90;-91.9;44.8;45.2;16;15.8;26.9;0.0;
23/02/2025 17:46:18;100;0;316.28;-4;-20.41;-3.85;971.6;10.50;75173;2834.354;-1758.174;1;318;-90;-93.5;44.8;45.2;16;15.8;26.9;0.0;
23/02/2025 17:46:38;100;0;315.81;-4;-20.08;-3.77;974.4;10.40;75174;2834.356;-1758.177;1;318;-90;-93.5;44.8;45.2;16;15.8;26.9;0.0;
23/02/2025 17:46:58;100;0;316.08;-4;-19.90;-3.90;977.0;10.50;75176;2834.359;-1758.179;1;318;-90;-93.5;44.8;45.2;16;15.8;26.9;0.0;
23/02/2025 17:47:18;100;0;317.75;-4;-20.19;-4.00;979.7;10.40;75169;2834.362;-1758.182;1;318;-90;-93.5;44.8;45.2;16;15.8;26.8;0.0;
23/02/2025 17:47:38;100;0;317.39;-4;-20.07;-3.82;982.5;10.40;75170;2834.364;-1758.185;1;318;-90;-91.9;44.8;45.2;16;15.8;26.9;0.0;
23/02/2025 17:47:58;100;0;316.60;-4;-20.23;-3.91;985.0;10.40;75165;2834.367;-1758.187;1;318;-90;-91.9;44.8;45.2;16;15.8;26.9;0.0;
23/02/2025 17:48:18;100;0;316.89;-4;-20.41;-3.86;987.7;10.40;75167;2834.370;-1758.190;1;318;-90;-95.2;44.8;45.2;16;15.8;26.9;0.0;
23/02/2025 17:48:38;100;0;317.44;-4;-19.96;-3.92;990.4;10.40;75156;2834.372;-1758.193;1;318;-90;-93.5;44.8;45.2;16;15.8;26.9;0.0;
23/02/2025 17:48:58;100;0;317.41;-4;-20.05;-3.89;993.0;10.40;75162;2834.375;-1758.195;1;318;-90;-93.5;44.8;45.1;16;15.8;26.9;0.0;
23/02/2025 17:49:18;100;0;318.49;-4;-20.27;-3.90;995.6;10.30;75161;2834.378;-1758.198;1;318;-90;-93.5;44.8;45.2;16;15.8;26.9;0.0;
23/02/2025 17:49:38;100;0;318.45;-4;-20.01;-3.92;998.2;10.30;75149;2834.380;-1758.200;1;318;-90;-91.9;44.8;45.2;16;15.8;26.9;0.0;
23/02/2025 17:49:44;118;0;318.32;-4;-19.99;-3.89;998.9;10.30;75142;2834.381;-1758.201;1;318;310;-88.7;25.8;25.8;6;5.4;26.9;0.0;
23/02/2025 17:49:55;118;0;50.09;-4;-6.14;-9.91;999.9;10.30;75119;2834.382;-1758.199;1;318;310;38.7;25.8;25.5;6;5.4;25.6;-1.0;
23/02/2025 17:50:05;118;0;40.73;-4;16.71;-9.60;999.9;10.30;74856;2834.382;-1758.199;1;318;310;162.9;25.8;25.9;6;5.4;25.5;-1.0;
23/02/2025 17:50:15;118;0;37.93;-4;21.61;-10.01;999.4;10.30;74608;2834.383;-1758.199;1;318;310;287.1;25.8;26.1;6;5.4;25.4;-1.0;
23/02/2025 17:50:25;118;0;40.47;-4;19.81;-9.78;998.6;10.30;74358;2834.384;-1758.198;1;318;310;309.7;25.8;26.1;6;5.4;25.2;-1.0;
23/02/2025 17:50:35;118;0;319.69;-4;17.75;-9.40;997.5;10.30;74321;2834.385;-1758.199;1;318;310;309.7;25.8;26.1;6;5.4;26.8;-1.0;
23/02/2025 17:50:55;117;0;313.34;-4;16.36;-9.28;995.6;10.30;74330;2834.387;-1758.202;1;318;310;311.3;25.8;25.9;6;5.4;26.8;-1.0;
23/02/2025 17:51:15;117;0;307.19;-4;15.95;-9.15;993.5;10.40;74326;2834.389;-1758.204;1;318;310;311.3;24.6;24.3;30;29.8;26.9;-1.0;
23/02/2025 17:51:35;117;0;308.54;-4;20.74;3.75;991.4;10.40;74331;2834.391;-1758.207;1;318;310;311.3;24.6;24.0;30;29.8;26.9;-1.0;
23/02/2025 17:51:55;117;0;309.00;-4;22.55;3.69;988.8;10.40;74339;2834.393;-1758.209;1;318;310;309.7;25.3;25.5;30;30.2;26.9;-1.0;
23/02/2025 17:52:15;117;0;310.40;-4;20.72;3.72;986.1;10.40;74332;2834.395;-1758.212;1;318;310;312.9;25.3;25.6;30;29.8;26.9;-1.0;
23/02/2025 17:52:35;117;0;311.35;-4;20.20;3.86;983.7;10.40;74334;2834.397;-1758.215;1;318;310;311.3;25.3;25.5;28;27.5;26.9;-1.0;
23/02/2025 17:52:55;117;0;310.66;-4;19.92;2.56;981.2;10.40;74326;2834.399;-1758.218;1;318;310;311.3;25.3;25.5;28;27.5;26.9;-1.0;
23/02/2025 17:53:15;117;0;310.68;-4;19.85;2.11;978.7;10.30;74327;2834.402;-1758.220;1;318;310;311.3;25.3;25.6;28;27.5;26.8;-1.0;
23/02/2025 17:53:35;117;0;310.92;-4;20.05;2.33;976.3;10.30;74316;2834.404;-1758.223;1;318;310;311.3;25.3;25.5;28;27.5;26.9;-1.0;
23/02/2025 17:53:55;117;0;310.70;-4;19.79;2.47;973.7;10.30;74315;2834.406;-1758.226;1;318;310;309.7;25.3;25.5;28;27.5;26.9;-1.0;
23/02/2025 17:54:15;117;0;310.73;-4;19.77;2.22;971.3;10.30;74304;2834.408;-1758.228;1;318;310;311.3;25.3;25.5;28;27.5;26.9;-1.0;
23/02/2025 17:54:35;117;0;310.50;-4;19.85;2.46;968.8;10.30;74304;2834.411;-1758.231;1;318;310;311.3;25.3;25.6;28;27.5;26.9;-1.0;
23/02/2025 17:54:55;117;0;310.32;-4;19.76;2.40;966.4;10.30;74308;2834.413;-1758.234;1;318;310;311.3;25.3;25.5;28;27.5;26.9;-1.0;
23/02/2025 17:55:15;117;0;309.90;-4;19.78;2.38;964.0;10.30;74308;2834.415;-1758.236;1;318;310;309.7;25.3;25.5;28;27.5;26.9;-1.0;
23/02/2025 17:55:35;117;0;310.12;-4;19.82;2.31;961.6;10.20;74286;2834.417;-1758.239;1;318;310;311.3;25.3;25.5;28;27.5;26.9;-1.0;
23/02/2025 17:55:55;117;0;309.92;-4;19.87;2.40;959.2;10.20;74302;2834.419;-1758.242;1;318;310;312.9;25.3;25.5;28;27.5;26.9;-1.0;
23/02/2025 17:56:15;117;0;310.54;-4;19.88;2.36;956.9;10.20;74296;2834.421;-1758.244;1;318;310;311.3;25.3;25.5;28;27.1;26.9;-1.0;
23/02/2025 17:56:35;117;0;310.45;-4;19.91;2.43;954.6;10.20;74289;2834.423;-1758.247;1;318;310;311.3;25.3;25.5;28;27.5;26.9;-1.0;
23/02/2025 17:56:55;117;0;311.10;-4;19.96;2.38;952.3;10.20;74289;2834.425;-1758.249;1;318;310;311.3;25.3;25.5;28;27.5;26.9;-1.0;
23/02/2025 17:57:15;117;0;311.18;-4;19.83;2.29;950.1;10.20;74294;2834.427;-1758.252;1;318;310;311.3;25.3;25.5;28;27.5;26.9;-1.0;
23/02/2025 17:57:35;117;0;311.63;-4;19.97;2.38;947.9;10.20;74293;2834.429;-1758.254;1;318;310;309.7;25.3;25.6;28;27.5;26.9;-1.0;
23/02/2025 17:57:55;117;0;312.42;-4;19.88;2.35;945.7;10.10;74282;2834.431;-1758.257;1;318;310;308.1;25.3;25.5;28;27.5;26.9;-1.0;
23/02/2025 17:58:15;117;0;312.42;-4;19.88;2.38;943.6;10.10;74278;2834.433;-1758.259;1;318;310;309.7;25.3;25.5;28;27.5;26.9;-1.0;
23/02/2025 17:58:35;117;0;312.35;-4;19.88;2.34;941.3;10.10;74291;2834.436;-1758.261;1;318;310;311.3;25.3;25.5;28;27.5;26.9;-1.0;
23/02/2025 17:58:55;117;0;311.86;-4;19.75;2.28;939.1;10.10;74282;2834.438;-1758.264;1;318;310;311.3;25.3;25.6;28;27.5;26.9;-1.0;
23/02/2025 17:59:15;117;0;312.95;-4;19.73;2.24;937.0;10.10;74280;2834.440;-1758.266;1;318;310;311.3;25.3;25.6;28;27.1;26.8;-1.0;
23/02/2025 17:59:35;117;0;312.72;-4;19.87;2.29;934.7;10.10;74282;2834.442;-1758.268;1;318;310;311.3;25.3;25.5;28;27.5;26.9;-1.0;
23/02/2025 17:59:55;117;0;312.67;-4;19.79;2.33;932.6;10.10;74277;2834.444;-1758.271;1;318;310;311.3;25.3;25.5;28;27.5;26.9;-1.0;
23/02/2025 18:00:15;117;0;312.30;-4;19.91;2.39;930.3;10.10;74281;2834.446;-1758.273;1;318;310;311.3;25.3;25.5;28;27.5;26.9;-1.0;
23/02/2025 18:00:35;117;0;311.40;-4;19.78;2.38;928.2;10.10;74275;2834.448;-1758.275;1;318;310;311.3;25.3;25.5;28;27.1;26.9;-1.0;
23/02/2025 18:00:55;117;0;311.02;-4;19.60;2.38;925.9;10.10;74275;2834.450;-1758.278;1;318;310;309.7;25.3;25.6;28;27.5;26.9;-1.0;
23/02/2025 18:01:15;117;0;311.15;-4;19.55;2.38;923.7;10.10;74282;2834.452;-1758.280;1;318;310;311.3;25.3;25.6;28;27.5;26.9;-1.0;
23/02/2025 18:01:35;117;0;310.90;-4;20.06;2.32;921.5;10.00;74280;2834.454;-1758.283;1;318;310;311.3;25.3;25.5;28;27.1;26.9;-1.0;
23/02/2025 18:01:55;117;0;310.69;-4;20.01;2.40;919.3;10.00;74280;2834.456;-1758.285;1;318;310;312.9;25.3;25.6;28;27.1;26.9;-1.0;
23/02/2025 18:02:15;117;0;309.37;-4;19.83;2.33;917.0;10.00;74284;2834.458;-1758.288;1;318;310;311.3;25.3;25.6;30;29.8;26.9;-1.0;
23/02/2025 18:02:35;117;0;309.74;-4;19.94;3.66;914.7;10.00;74284;2834.460;-1758.290;1;318;310;311.3;25.3;25.5;30;30.2;26.9;-1.0;
23/02/2025 18:02:55;117;0;309.27;-4;20.09;3.77;912.4;10.00;74284;2834.462;-1758.293;1;318;310;311.3;25.3;25.5;30;30.2;26.9;-1.0;
23/02/2025 18:03:15;117;0;309.99;-4;20.04;3.72;910.1;10.00;74278;2834.464;-1758.295;1;318;310;311.3;25.3;25.5;30;30.2;26.9;-1.0;
23/02/2025 18:03:35;117;0;310.77;-4;20.04;3.76;907.7;10.00;74290;2834.466;-1758.298;1;318;310;311.3;25.3;25.5;30;30.2;26.9;-1.0;
23/02/2025 18:03:55;117;0;311.54;-4;19.85;3.74;905.3;10.00;74292;2834.468;-1758.301;1;318;310;312.9;25.3;25.5;30;30.2;26.9;-1.0;
23/02/2025 18:04:15;117;0;311.80;-4;19.83;3.69;902.9;10.00;74286;2834.471;-1758.303;1;318;310;311.3;25.3;25.5;30;29.8;26.9;-1.0;
23/02/2025 18:04:35;117;0;311.95;-4;19.78;3.79;900.6;10.00;74291;2834.473;-1758.306;1;318;310;311.3;25.3;25.5;30;29.8;26.8;-1.0;
23/02/2025 18:04:55;117;0;311.98;-4;19.84;3.75;898.2;10.00;74280;2834.475;-1758.308;1;318;310;309.7;25.3;25.6;30;30.2;26.9;-1.0;
23/02/2025 18:05:15;117;0;313.32;-4;19.85;3.70;895.9;10.00;74283;2834.477;-1758.311;1;318;310;311.3;25.3;25.5;30;30.2;26.9;-1.0;
23/02/2025 18:05:35;117;0;313.82;-4;19.70;3.76;893.6;10.00;74286;2834.479;-1758.313;1;318;310;308.1;25.3;25.6;30;30.2;26.9;-1.0;
23/02/2025 18:05:55;117;0;315.52;-4;20.06;3.67;891.3;10.00;74284;2834.482;-1758.316;1;318;310;309.7;25.3;25.5;30;30.2;26.9;-1.0;
23/02/2025 18:06:15;117;0;316.01;-4;19.94;3.71;889.0;10.00;74282;2834.484;-1758.318;1;318;310;311.3;25.3;25.5;30;30.2;26.9;-1.0;
23/02/2025 18:06:35;117;0;314.87;-4;19.93;3.73;886.5;10.00;74292;2834.486;-1758.320;1;318;310;311.3;25.3;25.5;30;29.8;26.9;-1.0;
23/02/2025 18:06:55;117;0;314.80;-4;19.48;3.71;884.1;10.00;74281;2834.489;-1758.323;1;318;310;311.3;25.3;25.5;30;30.2;26.9;-1.0;
23/02/2025 18:07:15;117;0;315.65;-4;19.79;3.80;881.8;10.00;74273;2834.491;-1758.325;1;318;310;311.3;25.3;25.6;30;30.2;26.9;-1.0;
23/02/2025 18:07:35;117;0;315.14;-4;19.66;3.56;879.3;10.00;74276;2834.493;-1758.328;1;318;310;311.3;25.3;25.5;30;30.2;26.9;-1.0;
23/02/2025 18:07:55;117;0;314.68;-4;19.64;3.74;876.9;10.00;74266;2834.496;-1758.330;1;318;310;309.7;25.3;25.5;30;29.8;26.9;-1.0;
23/02/2025 18:08:15;117;0;314.80;-4;19.72;3.64;874.3;10.00;74271;2834.498;-1758.333;1;318;310;311.3;25.3;25.5;30;30.2;26.9;-1.0;
23/02/2025 18:08:35;117;0;315.15;-4;19.55;3.77;872.0;10.00;74273;2834.500;-1758.335;1;318;310;311.3;25.3;25.5;30;29.8;26.9;-1.0;
23/02/2025 18:08:55;117;0;315.43;-4;20.10;3.83;869.6;10.00;74268;2834.503;-1758.338;1;318;310;311.3;25.3;25.5;30;30.2;26.9;-1.0;
23/02/2025 18:09:15;117;0;314.91;-4;19.79;3.77;867.1;10.00;74274;2834.505;-1758.340;1;318;310;311.3;25.3;25.5;30;30.2;26.9;-1.0;
23/02/2025 18:09:35;117;0;314.79;-4;19.49;3.68;864.6;10.00;74271;2834.508;-1758.343;1;318;310;311.3;25.3;25.5;30;30.2;26.9;-1.0;
23/02/2025 18:09:55;117;0;314.70;-4;19.55;3.75;862.3;9.90;74258;2834.510;-1758.345;1;318;310;311.3;25.3;25.6;30;30.2;26.9;-1.0;
23/02/2025 18:10:15;117;0;315.45;-4;19.93;3.51;859.8;9.90;74261;2834.512;-1758.348;1;318;310;309.7;25.3;25.5;30;30.2;26.8;-1.0;
23/02/2025 18:10:35;117;0;315.30;-4;19.75;3.81;857.4;9.90;74258;2834.515;-1758.350;1;318;310;311.3;25.3;25.5;30;30.2;26.9;-1.0;
23/02/2025 18:10:55;117;0;315.28;-4;19.77;3.76;854.9;9.90;74245;2834.517;-1758.353;1;318;310;311.3;25.3;25.5;30;30.2;26.9;-1.0;
23/02/2025 18:11:15;117;0;315.77;-4;19.71;3.75;852.4;9.90;74254;2834.520;-1758.356;1;318;310;308.1;25.3;25.5;30;30.2;26.9;-1.0;
