Timestamp;NavState;SecurityLevel;Heading;Declination;Pitch;Roll;Depth;Temperature;Pa;Lat;Lon;DeadReckoning;DesiredH;BallastCmd;BallastPos;LinCmd;LinPos;AngCmd;AngPos;Voltage;Altitude;
05/03/2025 11:34:31;119;0;143.46;-4;-59.13;-8.38;-0.2;20.90;76625;2838.038;-1757.875;0;138;500;506.5;100.0;100.9;0;-0.5;24.7;-1.0;
05/03/2025 11:34:41;116;0;156.58;-4;-50.97;-12.72;-0.2;20.90;76630;2838.045;-1757.876;0;138;500;504.8;100.0;100.9;0;-0.5;24.7;-1.0;
05/03/2025 11:35:07;116;0;187.73;-4;-51.02;-10.78;-0.2;20.90;76630;2838.047;-1757.877;0;138;500;504.8;100.0;100.9;0;-0.5;24.7;-1.0;
05/03/2025 11:35:25;116;0;209.91;-4;-55.89;-11.96;-0.2;21.00;76637;2838.048;-1757.877;0;203;500;504.8;100.0;101.0;0;-0.5;24.7;-1.0;
05/03/2025 11:35:43;116;0;217.98;-4;-51.84;-7.92;0.0;21.00;76631;2838.052;-1757.879;0;203;500;506.5;100.0;100.9;0;-0.5;24.7;-1.0;
05/03/2025 11:36:03;116;0;233.47;-4;-56.40;-12.79;0.0;21.00;76637;2838.054;-1757.880;0;203;500;504.8;100.0;100.9;0;-0.5;24.7;-1.0;
05/03/2025 11:36:24;116;0;232.37;-4;-55.40;-8.85;0.1;21.00;76641;2838.058;-1757.882;0;203;500;506.5;100.0;100.9;0;-0.5;24.7;-1.0;
05/03/2025 11:36:34;116;0;213.57;-4;-54.55;-10.65;-0.1;21.00;76641;2838.060;-1757.882;0;203;500;504.8;100.0;100.9;0;-0.5;24.7;-1.0;
05/03/2025 11:36:49;116;0;219.01;-4;-55.63;-1.76;-0.0;21.00;76638;2838.062;-1757.883;0;203;500;506.5;100.0;100.9;0;-0.5;24.7;-1.0;
05/03/2025 11:37:09;110;0;231.29;-4;-55.05;-2.68;0.1;21.00;76649;2838.062;-1757.883;0;203;-500;387.1;100.0;100.0;-12;-12.2;24.7;-1.0;
05/03/2025 11:37:19;110;0;232.50;-4;-56.49;-22.24;0.2;21.00;77002;2838.064;-1757.884;1;203;-500;237.1;100.0;100.0;-12;-12.2;24.7;-1.0;
05/03/2025 11:37:29;110;0;231.07;-4;-62.21;-19.22;0.6;21.10;77254;2838.065;-1757.885;1;203;-500;79.0;100.0;99.9;-12;-12.2;24.6;-1.0;
05/03/2025 11:37:39;110;0;237.46;-4;-68.41;-23.03;0.9;21.10;77586;2838.066;-1757.885;1;203;-500;-83.9;100.0;99.9;-12;-12.2;24.7;-1.0;
05/03/2025 11:37:49;110;0;234.88;-4;-65.87;-10.00;1.1;21.10;77929;2838.067;-1757.886;1;203;-500;-256.5;54.7;55.1;-12;-12.2;24.7;-1.0;
05/03/2025 11:37:59;110;0;236.24;-4;-57.49;-17.69;2.9;21.10;78324;2838.068;-1757.888;1;203;-500;-495.2;54.7;54.8;-12;-12.2;24.7;-1.0;
05/03/2025 11:38:09;110;0;249.97;-4;-44.16;-14.40;6.4;21.10;78850;2838.069;-1757.891;1;203;-500;-500.0;54.7;54.6;-12;-12.2;24.7;-1.0;
05/03/2025 11:38:29;100;0;266.65;-4;-40.82;-13.58;17.1;21.10;78812;2838.071;-1757.899;1;203;-500;-503.2;54.7;54.5;-12;-12.6;24.7;-1.0;
05/03/2025 11:38:49;100;0;272.26;-4;-40.33;-12.97;30.1;21.10;78798;2838.075;-1757.910;1;203;-500;-503.2;53.1;53.0;70;69.9;24.7;0.0;
05/03/2025 11:39:09;100;0;257.58;-4;-38.31;26.83;41.5;21.10;78814;2838.076;-1757.920;1;203;-500;-508.1;52.2;52.1;70;69.9;24.7;0.0;
05/03/2025 11:39:29;100;0;232.58;-4;-33.19;26.11;51.5;21.10;78814;2838.074;-1757.928;1;203;-500;-508.1;52.7;52.9;67;66.8;24.7;0.0;
05/03/2025 11:39:49;100;0;208.43;-4;-28.89;23.36;60.1;21.10;78809;2838.070;-1757.934;1;203;-500;-508.1;54.5;54.6;32;31.6;24.7;0.0;
05/03/2025 11:40:09;100;0;193.00;-4;-32.69;7.24;68.1;21.10;78809;2838.066;-1757.937;1;203;-500;-508.1;55.2;55.5;16;15.8;24.7;0.0;
05/03/2025 11:40:29;100;0;185.24;-4;-38.18;-0.01;77.4;21.10;78800;2838.063;-1757.939;1;203;-500;-506.5;54.3;54.2;13;12.6;24.7;0.0;
05/03/2025 11:40:49;100;0;177.38;-4;-39.86;-0.91;88.1;21.10;78808;2838.059;-1757.940;1;203;-500;-506.5;52.8;52.9;13;12.6;24.7;0.0;
05/03/2025 11:41:09;100;0;172.15;-4;-38.83;-1.03;99.3;21.10;78798;2838.055;-1757.940;1;203;-500;-508.1;51.7;52.9;5;12.6;24.7;0.0;
05/03/2025 11:41:12;118;0;171.63;-4;-38.66;-4.04;100.9;21.10;78806;2838.054;-1757.940;1;203;500;-508.1;14.5;15.6;12;12.6;24.7;0.0;
05/03/2025 11:41:22;118;0;150.57;-4;-32.51;-1.84;104.9;21.10;78786;2838.052;-1757.939;1;203;500;-380.6;14.5;14.3;12;12.6;24.4;-1.0;
05/03/2025 11:41:32;118;0;146.20;-4;-11.98;-2.89;108.3;21.10;78502;2838.049;-1757.936;1;203;500;-250.0;14.5;14.0;12;12.6;24.4;-1.0;
05/03/2025 11:41:42;118;0;142.82;-4;10.23;-4.05;108.9;21.10;78238;2838.050;-1757.936;1;203;500;-114.5;14.5;14.4;12;12.2;24.3;-1.0;
05/03/2025 11:41:52;118;0;141.66;-4;30.04;-5.37;107.9;21.10;77970;2838.051;-1757.937;1;203;500;8.1;14.5;14.6;12;12.2;24.3;-1.0;
05/03/2025 11:42:02;118;0;141.22;-4;42.20;-6.32;106.8;21.10;77700;2838.052;-1757.937;1;203;500;130.6;14.5;14.4;12;12.6;24.3;-1.0;
05/03/2025 11:42:12;118;0;144.47;-4;41.75;-6.70;106.1;21.10;77438;2838.053;-1757.937;1;203;500;254.8;14.5;14.4;12;12.6;24.3;-1.0;
05/03/2025 11:42:22;118;0;143.67;-4;38.47;-6.70;105.0;21.10;77185;2838.054;-1757.937;1;203;500;375.8;14.5;14.4;12;12.6;24.3;-1.0;
05/03/2025 11:42:32;118;0;142.01;-4;38.38;-5.82;103.6;21.10;76920;2838.054;-1757.937;1;203;500;482.3;14.5;14.4;12;12.6;24.3;-1.0;
05/03/2025 11:42:42;118;0;139.08;-4;36.94;-5.14;101.1;21.10;76664;2838.054;-1757.937;1;203;500;504.8;14.5;14.6;12;12.6;24.3;-1.0;
05/03/2025 11:42:52;118;0;159.28;-4;34.59;-4.66;98.0;21.10;76637;2838.054;-1757.936;1;203;500;504.8;14.5;14.4;12;12.6;24.7;-1.0;
05/03/2025 11:43:12;117;0;147.53;-4;33.27;-4.45;91.8;21.10;76637;2838.052;-1757.935;1;203;500;506.5;14.5;14.4;12;12.6;24.7;-1.0;
05/03/2025 11:43:32;117;0;133.72;-4;32.39;-5.05;84.3;21.10;76640;2838.051;-1757.931;1;203;500;506.5;13.7;13.4;70;69.9;24.7;-1.0;
05/03/2025 11:43:52;117;0;140.52;-4;35.31;28.28;77.4;21.10;76628;2838.050;-1757.929;1;203;500;503.2;13.7;13.5;70;70.4;24.7;-1.0;
05/03/2025 11:44:12;117;0;144.14;-4;36.92;29.01;69.8;21.00;76632;2838.048;-1757.927;1;203;500;506.5;13.7;13.4;70;70.4;24.7;-1.0;
05/03/2025 11:44:32;117;0;148.21;-4;37.18;29.29;61.9;21.00;76635;2838.047;-1757.925;1;203;500;506.5;14.4;14.3;70;70.4;24.7;-1.0;
05/03/2025 11:44:52;117;0;152.01;-4;37.37;29.73;54.2;21.00;76636;2838.045;-1757.923;1;203;500;506.5;15.1;15.2;66;65.9;24.7;-1.0;
05/03/2025 11:45:12;117;0;155.34;-4;35.75;25.86;46.8;21.00;76621;2838.043;-1757.922;1;203;500;503.2;15.1;15.2;60;60.0;24.7;-1.0;
05/03/2025 11:45:32;117;0;159.82;-4;35.06;21.86;39.6;20.90;76619;2838.040;-1757.921;1;203;500;504.8;15.1;15.2;52;51.4;24.7;-1.0;
05/03/2025 11:45:52;117;0;161.33;-4;34.21;16.83;32.7;20.90;76630;2838.038;-1757.921;1;203;500;504.8;15.1;15.2;50;50.1;24.7;-1.0;
05/03/2025 11:46:12;117;0;165.50;-4;34.36;16.09;26.0;20.90;76618;2838.036;-1757.921;1;203;500;503.2;15.1;15.2;43;42.4;24.7;-1.0;
05/03/2025 11:46:32;117;0;165.80;-4;34.09;11.66;19.3;20.90;76627;2838.034;-1757.920;1;203;500;506.5;15.1;15.2;43;42.4;24.7;-1.0;
05/03/2025 11:46:52;117;0;164.08;-4;34.53;12.04;12.8;20.90;76625;2838.032;-1757.920;1;203;500;504.8;15.1;15.2;43;42.0;24.7;-1.0;
05/03/2025 11:47:12;117;0;160.41;-4;33.29;11.49;5.9;20.90;76623;2838.029;-1757.920;1;203;500;506.5;14.5;14.3;53;52.8;24.7;-1.0;
05/03/2025 11:47:20;115;0;161.73;-4;34.17;18.18;3.3;20.90;76628;2838.029;-1757.919;1;203;500;504.8;100.0;50.1;0;-0.5;24.7;-1.0;
05/03/2025 11:47:30;115;0;156.22;-4;23.08;-11.68;0.9;20.90;76628;2838.027;-1757.919;1;203;500;506.5;100.0;100.1;0;-0.5;24.6;-1.0;
05/03/2025 11:47:40;115;0;146.83;-4;-27.25;-11.23;0.1;20.90;76626;2838.028;-1757.919;1;203;500;508.1;100.0;100.4;0;-0.5;24.7;-1.0;
05/03/2025 11:48:00;119;0;167.15;-4;-35.41;-12.54;-0.3;20.90;76629;2838.028;-1757.919;1;203;500;504.8;100.0;100.7;0;-0.5;24.7;-1.0;
05/03/2025 11:48:10;119;0;177.64;-4;-56.29;-15.59;-0.2;20.90;76640;2838.035;-1757.931;0;203;500;504.8;100.0;100.7;0;-0.5;24.7;-1.0;
