Timestamp;NavState;SecurityLevel;Heading;Declination;Pitch;Roll;Depth;Temperature;Pa;Lat;Lon;DeadReckoning;DesiredH;BallastCmd;BallastPos;LinCmd;LinPos;AngCmd;AngPos;Voltage;Altitude;
16/02/2025 12:14:16;119;0;20.91;-4;-60.29;-0.59;0.1;19.90;76437;2838.436;-1801.733;0;159;500;508.1;100.0;100.7;0;-0.5;28.4;-1.0;
16/02/2025 12:14:26;116;0;344.61;-4;-51.96;-14.31;0.0;20.00;76440;2838.444;-1801.734;0;159;500;508.1;100.0;100.7;0;-0.5;28.4;-1.0;
16/02/2025 12:14:51;116;0;328.51;-4;-55.86;-17.83;0.0;20.00;76446;2838.447;-1801.734;0;159;500;509.7;100.0;100.7;0;-0.5;28.4;-1.0;
16/02/2025 12:15:09;116;0;304.69;-4;-59.66;-5.55;0.1;20.00;76456;2838.449;-1801.735;0;159;500;509.7;100.0;100.7;0;-0.5;28.4;-1.0;
16/02/2025 12:15:27;116;0;331.89;-4;-47.84;-18.79;0.2;20.10;76449;2838.451;-1801.736;0;159;500;509.7;100.0;100.7;0;-0.5;28.4;-1.0;
16/02/2025 12:15:47;116;0;341.31;-4;-48.30;-21.54;0.1;20.10;76454;2838.455;-1801.737;0;159;500;509.7;100.0;100.7;0;-0.5;28.4;-1.0;
16/02/2025 12:15:55;116;0;334.56;-4;-52.63;-0.00;0.1;20.10;76456;2838.457;-1801.737;0;159;500;509.7;100.0;100.7;0;-0.5;28.4;-1.0;
16/02/2025 12:16:15;116;0;326.80;-4;-62.95;-12.02;-0.0;20.10;76466;2838.461;-1801.738;0;159;500;509.7;100.0;100.7;0;-0.5;28.4;-1.0;
16/02/2025 12:16:35;116;0;310.19;-4;-58.78;-30.30;0.2;20.20;76468;2838.466;-1801.739;0;159;500;508.1;100.0;100.7;0;-0.5;28.4;-1.0;
16/02/2025 12:16:55;116;0;324.91;-4;-63.36;-18.18;0.1;20.20;76458;2838.469;-1801.740;0;159;500;509.7;100.0;100.7;0;-0.5;28.4;-1.0;
16/02/2025 12:17:15;116;0;326.44;-4;-55.08;-13.01;0.1;20.30;76473;2838.472;-1801.739;0;159;500;509.7;100.0;100.7;0;-0.5;28.4;-1.0;
16/02/2025 12:17:35;116;0;324.40;-4;-50.93;-10.32;-0.1;20.30;76477;2838.479;-1801.741;0;159;500;508.1;100.0;100.7;0;-0.5;28.4;-1.0;
16/02/2025 12:17:53;116;0;315.14;-4;-50.97;-11.30;0.0;20.30;76480;2838.481;-1801.741;0;159;500;509.7;100.0;100.7;0;-0.5;28.4;-1.0;
16/02/2025 12:18:13;116;0;327.48;-4;-60.73;-5.83;0.2;20.40;76485;2838.485;-1801.742;0;159;500;509.7;100.0;100.7;0;-0.5;28.4;-1.0;
16/02/2025 12:18:24;116;0;335.83;-4;-48.44;-4.75;0.1;20.40;76488;2838.487;-1801.742;0;159;500;509.7;100.0;100.7;0;-0.5;28.4;-1.0;
16/02/2025 12:19:21;116;0;290.35;-4;-63.23;-23.01;0.2;20.50;76502;2838.498;-1801.744;0;159;500;508.1;100.0;100.7;0;-0.5;28.4;-1.0;
16/02/2025 12:20:10;116;0;310.79;-4;-41.70;-6.91;0.2;20.60;76512;2838.509;-1801.746;0;160;500;509.7;100.0;100.7;0;-0.5;28.4;-1.0;
16/02/2025 12:20:23;116;0;317.24;-4;-59.47;-19.19;0.2;20.60;76499;2838.512;-1801.747;0;160;500;509.7;100.0;100.7;0;-0.5;28.4;-1.0;
16/02/2025 12:20:43;110;0;321.57;-4;-55.34;-28.19;-0.1;20.70;76512;2838.512;-1801.747;0;160;-50;393.5;100.0;99.7;-13;-13.1;28.4;-1.0;
16/02/2025 12:20:53;110;0;318.60;-4;-60.26;-31.31;0.1;20.70;76876;2838.513;-1801.748;1;160;-50;238.7;100.0;99.7;-13;-13.5;28.4;-1.0;
16/02/2025 12:21:03;110;0;314.72;-4;-62.54;-13.59;0.5;20.70;77111;2838.515;-1801.749;1;160;-50;79.0;100.0;99.7;-13;-13.5;28.4;-1.0;
16/02/2025 12:21:13;110;0;312.69;-4;-73.14;-12.89;0.8;20.80;77459;2838.517;-1801.750;1;160;-50;-46.8;100.0;99.7;-13;-13.5;28.4;-1.0;
16/02/2025 12:21:23;110;0;307.86;-4;-69.12;-13.16;1.2;20.80;77713;2838.518;-1801.752;1;160;-50;-46.8;48.1;48.2;-13;-13.5;28.4;-1.0;
16/02/2025 12:21:43;100;0;326.11;-4;-31.10;-18.84;4.1;20.80;77682;2838.524;-1801.756;1;159;-50;-45.2;48.1;47.9;-13;-13.5;28.4;-1.0;
16/02/2025 12:22:03;100;0;334.27;-4;-29.63;-19.03;7.7;20.90;77686;2838.530;-1801.760;1;159;-50;-43.5;48.1;47.6;-70;-69.9;28.4;-1.0;
16/02/2025 12:22:23;100;0;340.09;-4;-28.82;-44.71;11.3;20.90;77683;2838.537;-1801.764;1;159;-50;-41.9;48.4;48.5;-70;-70.4;28.4;-1.0;
16/02/2025 12:22:43;100;0;348.57;-4;-31.56;-45.88;15.2;21.00;77677;2838.543;-1801.767;1;159;-50;-40.3;48.4;48.5;-70;-70.4;28.4;0.0;
16/02/2025 12:23:03;100;0;357.08;-4;-30.70;-44.99;19.0;21.00;77673;2838.550;-1801.769;1;159;-50;-41.9;48.4;48.6;-70;-69.9;28.4;0.0;
16/02/2025 12:23:23;100;0;7.72;-4;-32.32;-44.75;22.9;21.00;77683;2838.557;-1801.771;1;159;-50;-41.9;47.8;47.7;-70;-70.4;28.4;0.0;
16/02/2025 12:23:43;100;0;16.38;-4;-29.57;-45.74;26.7;21.00;77685;2838.563;-1801.772;1;159;-50;-41.9;47.8;47.6;-70;-70.4;28.4;0.0;
16/02/2025 12:24:03;100;0;25.61;-4;-29.46;-45.06;30.4;21.00;77696;2838.570;-1801.773;1;160;-50;-43.5;47.8;47.6;-70;-70.4;28.4;0.0;
16/02/2025 12:24:23;100;0;35.67;-4;-30.31;-45.44;34.1;21.00;77687;2838.576;-1801.773;1;160;-50;-45.2;47.8;47.6;-70;-70.4;28.4;0.0;
16/02/2025 12:24:43;100;0;43.27;-4;-30.20;-45.16;37.7;21.00;77687;2838.581;-1801.773;1;160;-50;-41.9;47.8;47.6;-70;-70.4;28.4;0.0;
16/02/2025 12:25:03;100;0;50.79;-4;-30.61;-44.90;41.4;21.00;77690;2838.587;-1801.773;1;160;-50;-41.9;47.8;47.6;-70;-69.9;28.4;0.0;
16/02/2025 12:25:23;100;0;60.17;-4;-30.49;-45.07;45.2;21.00;77696;2838.592;-1801.772;1;160;-50;-41.9;47.8;47.6;-70;-69.9;28.4;0.0;
16/02/2025 12:25:43;100;0;68.92;-4;-29.92;-45.14;48.9;21.00;77702;2838.596;-1801.771;1;160;-50;-40.3;47.8;47.6;-70;-70.4;28.4;0.0;
16/02/2025 12:26:03;100;0;77.48;-4;-30.37;-44.84;52.5;21.00;77691;2838.600;-1801.770;1;160;-50;-41.9;47.8;47.6;-70;-69.9;28.4;0.0;
16/02/2025 12:26:23;100;0;85.37;-4;-29.61;-45.12;56.1;21.00;77687;2838.604;-1801.769;1;160;-50;-41.9;47.8;47.6;-61;-60.9;28.4;0.0;
16/02/2025 12:26:43;100;0;94.44;-4;-28.93;-40.27;59.3;21.00;77675;2838.607;-1801.768;1;160;-50;-41.9;48.1;48.3;-49;-49.2;28.4;0.0;
16/02/2025 12:27:03;100;0;103.17;-4;-29.21;-34.58;62.6;21.00;77683;2838.610;-1801.767;1;161;-50;-41.9;48.1;48.5;-38;-37.9;28.4;0.0;
16/02/2025 12:27:23;100;0;111.09;-4;-29.40;-29.10;65.9;21.00;77686;2838.612;-1801.766;1;161;-50;-41.9;48.1;48.5;-27;-27.1;28.4;0.0;
16/02/2025 12:27:43;100;0;119.10;-4;-29.41;-23.80;69.0;21.00;77684;2838.614;-1801.765;1;161;-50;-43.5;48.1;48.3;-13;-12.6;28.4;0.0;
16/02/2025 12:28:03;100;0;124.52;-4;-29.74;-17.29;72.3;20.90;77677;2838.616;-1801.765;1;161;-50;-41.9;48.1;48.5;-3;-3.2;28.4;0.0;
16/02/2025 12:28:23;100;0;127.25;-4;-30.18;-12.67;75.6;20.90;77675;2838.617;-1801.765;1;161;-50;-43.5;48.1;48.5;1;0.9;28.4;0.0;
16/02/2025 12:28:43;100;0;128.09;-4;-30.89;-10.80;78.9;20.90;77673;2838.619;-1801.765;1;161;-50;-41.9;48.1;48.5;1;1.4;28.4;0.0;
16/02/2025 12:29:03;100;0;131.78;-4;-30.45;-10.83;82.3;20.90;77679;2838.620;-1801.765;1;161;-50;-41.9;48.1;48.5;6;5.9;28.4;0.0;
16/02/2025 12:29:23;100;0;132.15;-4;-30.05;-8.54;85.7;20.90;77674;2838.622;-1801.764;1;161;-50;-41.9;48.1;48.5;6;5.9;28.4;0.0;
16/02/2025 12:29:43;100;0;131.92;-4;-30.79;-8.55;89.1;20.90;77681;2838.623;-1801.764;1;161;-50;-40.3;48.1;48.6;6;5.9;28.4;0.0;
16/02/2025 12:30:03;100;0;128.88;-4;-30.91;-8.59;92.8;20.90;77673;2838.625;-1801.764;1;161;-50;-43.5;48.1;48.5;2;1.8;28.4;0.0;
16/02/2025 12:30:23;100;0;130.29;-4;-30.11;-10.89;96.2;20.80;77671;2838.626;-1801.764;1;161;-50;-41.9;48.1;48.5;2;1.4;28.4;0.0;
16/02/2025 12:30:43;100;0;133.00;-4;-30.17;-10.96;99.6;20.80;77671;2838.627;-1801.764;1;161;-50;-41.9;48.1;48.5;6;6.3;28.4;0.0;
16/02/2025 12:31:03;100;0;136.26;-4;-30.86;-8.42;103.1;20.80;77667;2838.628;-1801.764;1;161;-50;-41.9;48.1;48.5;9;9.0;28.4;0.0;
16/02/2025 12:31:23;100;0;138.06;-4;-30.11;-7.07;106.5;20.80;77656;2838.630;-1801.764;1;161;-50;-41.9;48.1;48.5;9;9.5;28.4;0.0;
16/02/2025 12:31:43;100;0;145.63;-4;-30.67;-7.18;109.7;20.80;77650;2838.631;-1801.764;1;161;-50;-41.9;48.1;48.5;11;10.8;28.4;0.0;
16/02/2025 12:32:03;100;0;152.09;-4;-31.10;-5.88;113.2;20.80;77606;2838.631;-1801.765;1;161;-50;-41.9;48.1;48.5;13;13.1;28.4;0.0;
16/02/2025 12:32:23;100;0;153.89;-4;-30.60;-4.90;116.6;20.70;77579;2838.632;-1801.766;1;161;-50;-41.9;48.1;48.5;13;13.5;28.4;0.0;
16/02/2025 12:32:43;100;0;157.82;-4;-29.94;-5.01;120.0;20.70;77546;2838.633;-1801.767;1;161;-50;-41.9;48.1;48.5;19;19.4;28.4;0.0;
16/02/2025 12:33:03;100;0;157.86;-4;-30.50;-1.98;123.1;20.70;77539;2838.634;-1801.768;1;161;-50;-41.9;48.1;48.5;21;21.2;28.4;0.0;
16/02/2025 12:33:23;100;0;154.64;-4;-30.38;-1.00;126.3;20.60;77516;2838.634;-1801.769;1;161;-50;-43.5;48.1;48.5;16;15.8;28.4;0.0;
16/02/2025 12:33:43;100;0;143.60;-4;-31.00;-4.28;129.4;20.60;77499;2838.636;-1801.770;1;161;-50;-43.5;48.1;48.5;11;10.8;28.4;0.0;
16/02/2025 12:34:03;100;0;139.62;-4;-29.91;-6.60;132.8;20.60;77475;2838.637;-1801.770;1;161;-50;-41.9;48.1;48.5;11;10.4;28.4;0.0;
16/02/2025 12:34:23;100;0;136.36;-4;-29.99;-6.71;136.2;20.50;77468;2838.638;-1801.770;1;161;-50;-43.5;48.1;48.5;9;9.0;28.4;0.0;
16/02/2025 12:34:43;100;0;131.22;-4;-29.86;-7.42;139.6;20.50;77453;2838.639;-1801.770;1;161;-50;-41.9;48.1;48.5;6;5.9;28.4;0.0;
16/02/2025 12:35:03;100;0;131.34;-4;-29.81;-9.17;142.9;20.40;77446;2838.641;-1801.770;1;161;-50;-41.9;48.1;48.5;6;5.4;28.4;0.0;
16/02/2025 12:35:23;100;0;135.48;-4;-29.61;-9.12;146.3;20.40;77444;2838.642;-1801.770;1;161;-50;-41.9;48.1;48.5;9;9.0;28.4;0.0;
16/02/2025 12:35:43;100;0;136.16;-4;-30.22;-6.80;149.6;20.40;77415;2838.643;-1801.770;1;161;-50;-41.9;48.1;48.6;9;9.9;28.4;0.0;
16/02/2025 12:36:03;100;0;124.84;-4;-30.32;-7.10;153.0;20.30;77409;2838.645;-1801.770;1;161;-50;-43.5;48.1;48.5;-5;-5.0;28.4;0.0;
16/02/2025 12:36:23;100;0;121.41;-4;-29.67;-14.31;156.5;20.30;77382;2838.647;-1801.769;1;161;-50;-41.9;48.1;48.5;-11;-11.3;28.4;0.0;
16/02/2025 12:36:43;100;0;125.81;-4;-28.90;-17.37;159.9;20.20;77378;2838.648;-1801.769;1;161;-50;-43.5;48.4;48.5;-5;-5.0;28.4;0.0;
16/02/2025 12:37:03;100;0;135.55;-4;-29.74;-14.07;163.3;20.20;77368;2838.649;-1801.769;1;161;-50;-43.5;48.4;48.5;8;8.1;28.4;0.0;
16/02/2025 12:37:23;100;0;141.37;-4;-29.81;-7.58;166.9;20.20;77353;2838.650;-1801.769;1;161;-50;-43.5;48.4;48.6;10;10.4;28.4;0.0;
16/02/2025 12:37:43;100;0;147.93;-4;-30.24;-6.48;170.3;20.10;77344;2838.651;-1801.769;1;161;-50;-41.9;48.4;48.5;10;10.8;28.4;0.0;
16/02/2025 12:38:03;100;0;149.51;-4;-29.68;-6.36;173.9;20.10;77323;2838.652;-1801.770;1;161;-50;-41.9;48.4;48.5;10;10.4;28.4;0.0;
16/02/2025 12:38:23;100;0;145.63;-4;-29.80;-6.39;177.3;20.00;77312;2838.653;-1801.770;1;161;-50;-43.5;48.4;48.5;10;10.4;28.4;0.0;
16/02/2025 12:38:44;100;0;141.91;-4;-29.66;-6.41;180.7;20.00;77300;2838.654;-1801.771;1;161;-50;-41.9;48.4;48.5;10;10.8;28.4;0.0;
16/02/2025 12:39:04;100;0;138.45;-4;-29.64;-6.41;184.1;19.90;77282;2838.655;-1801.771;1;161;-50;-41.9;48.4;48.5;10;10.4;28.4;0.0;
16/02/2025 12:39:24;100;0;133.63;-4;-29.75;-6.51;187.4;19.90;77275;2838.656;-1801.771;1;161;-50;-41.9;48.4;48.5;8;8.1;28.4;0.0;
16/02/2025 12:39:44;100;0;131.28;-4;-29.32;-7.97;190.6;19.90;77274;2838.657;-1801.771;1;161;-50;-41.9;48.4;48.5;4;4.1;28.4;0.0;
16/02/2025 12:40:04;100;0;127.90;-4;-29.21;-9.95;193.8;19.80;77262;2838.659;-1801.770;1;161;-50;-41.9;48.4;48.5;1;0.9;28.4;0.0;
16/02/2025 12:40:24;100;0;130.40;-4;-29.27;-11.28;197.1;19.80;77247;2838.660;-1801.770;1;161;-50;-41.9;48.4;48.5;3;3.2;28.4;0.0;
16/02/2025 12:40:35;118;0;133.42;-4;-29.45;-9.91;199.0;19.80;77244;2838.661;-1801.770;1;161;150;-35.5;21.9;21.8;13;13.5;28.4;0.0;
16/02/2025 12:40:45;118;0;124.33;-4;-15.64;-5.79;200.3;19.70;77211;2838.661;-1801.769;1;161;150;90.3;21.9;21.5;13;13.5;28.0;-1.0;
16/02/2025 12:40:55;118;0;118.60;-4;12.38;-5.42;200.5;19.70;76929;2838.663;-1801.770;1;161;150;154.8;21.9;21.8;13;13.5;28.0;-1.0;
16/02/2025 12:41:05;118;0;138.23;-4;24.38;-5.73;199.7;19.70;76823;2838.664;-1801.770;1;161;150;154.8;21.9;21.9;13;13.5;28.4;-1.0;
16/02/2025 12:41:25;117;0;133.89;-4;28.85;-5.65;197.6;19.70;76819;2838.666;-1801.771;1;161;150;154.8;21.9;21.9;13;13.5;28.4;-1.0;
16/02/2025 12:41:45;117;0;127.53;-4;29.10;-5.67;195.2;19.60;76804;2838.668;-1801.772;1;161;150;154.8;21.9;21.9;37;37.0;28.4;-1.0;
16/02/2025 12:42:05;117;0;127.53;-4;30.76;7.39;193.1;19.60;76802;2838.671;-1801.773;1;161;150;154.8;21.9;21.9;37;37.9;28.4;-1.0;
16/02/2025 12:42:25;117;0;131.14;-4;31.03;7.34;191.0;19.50;76801;2838.673;-1801.774;1;161;150;154.8;21.9;21.9;37;37.9;28.4;-1.0;
16/02/2025 12:42:45;117;0;133.39;-4;31.17;7.34;188.8;19.50;76790;2838.675;-1801.774;1;161;150;154.8;21.9;21.9;37;37.5;28.4;-1.0;
16/02/2025 12:43:05;117;0;136.04;-4;31.07;7.40;186.5;19.40;76803;2838.677;-1801.775;1;161;150;154.8;21.9;21.9;37;37.9;28.4;-1.0;
16/02/2025 12:43:25;117;0;139.46;-4;30.96;7.35;184.4;19.40;76788;2838.679;-1801.776;1;161;150;154.8;21.9;21.9;35;34.7;28.4;-1.0;
16/02/2025 12:43:45;117;0;140.56;-4;30.80;5.54;182.2;19.40;76798;2838.681;-1801.777;1;161;150;154.8;21.9;21.8;35;34.3;28.4;-1.0;
16/02/2025 12:44:05;117;0;141.22;-4;30.91;5.43;180.2;19.30;76784;2838.683;-1801.779;1;161;150;154.8;21.9;21.9;32;31.6;28.4;-1.0;
16/02/2025 12:44:25;117;0;141.90;-4;30.54;4.04;178.1;19.30;76785;2838.685;-1801.780;1;161;150;154.8;21.9;21.9;32;31.6;28.4;-1.0;
16/02/2025 12:44:45;117;0;142.78;-4;30.55;3.94;176.1;19.20;76782;2838.687;-1801.781;1;161;170;172.6;21.9;21.9;29;28.9;28.4;-1.0;
16/02/2025 12:45:05;117;0;142.68;-4;30.17;2.32;174.0;19.20;76753;2838.689;-1801.782;1;161;170;171.0;21.9;21.9;33;33.4;28.4;-1.0;
16/02/2025 12:45:25;117;0;144.30;-4;30.62;5.27;171.8;19.20;76741;2838.690;-1801.783;1;161;170;172.6;21.9;21.9;33;33.8;28.4;-1.0;
16/02/2025 12:45:45;117;0;144.26;-4;30.91;5.26;169.6;19.10;76739;2838.692;-1801.784;1;161;170;172.6;21.9;21.9;33;33.8;28.4;-1.0;
16/02/2025 12:46:05;117;0;138.72;-4;30.53;5.43;167.2;19.10;76746;2838.694;-1801.785;1;161;170;172.6;21.9;21.9;36;36.1;28.4;-1.0;
16/02/2025 12:46:25;117;0;133.23;-4;30.28;6.86;164.9;19.10;76756;2838.696;-1801.786;1;161;170;172.6;21.9;21.9;36;36.6;28.4;-1.0;
16/02/2025 12:46:45;117;0;130.37;-4;30.16;6.67;162.7;19.10;76758;2838.698;-1801.787;1;161;170;172.6;21.9;21.9;36;36.6;28.4;-1.0;
16/02/2025 12:47:05;117;0;128.64;-4;30.17;6.66;160.7;19.00;76760;2838.700;-1801.787;1;161;170;171.0;21.9;21.9;36;36.6;28.4;-1.0;
16/02/2025 12:47:25;117;0;127.38;-4;30.56;6.77;158.6;19.00;76758;2838.703;-1801.788;1;161;170;172.6;21.9;21.9;36;36.6;28.4;-1.0;
16/02/2025 12:47:45;117;0;131.08;-4;30.31;6.71;156.4;19.00;76761;2838.705;-1801.789;1;161;170;172.6;21.9;21.9;36;36.6;28.4;-1.0;
16/02/2025 12:48:05;117;0;131.37;-4;30.29;6.72;154.4;19.00;76762;2838.707;-1801.790;1;161;170;172.6;21.9;21.9;36;36.6;28.4;-1.0;
16/02/2025 12:48:25;117;0;137.76;-4;30.36;6.59;152.2;19.00;76763;2838.709;-1801.791;1;161;170;172.6;21.9;21.9;36;36.6;28.4;-1.0;
16/02/2025 12:48:45;117;0;140.86;-4;30.26;6.73;150.1;19.00;76764;2838.711;-1801.792;1;161;170;172.6;21.9;21.9;36;36.6;28.4;-1.0;
16/02/2025 12:49:05;117;0;146.52;-4;30.34;6.61;147.8;18.90;76773;2838.713;-1801.793;1;161;170;171.0;21.9;21.9;32;31.6;28.4;-1.0;
16/02/2025 12:49:25;117;0;142.30;-4;29.88;5.14;145.6;18.90;76768;2838.714;-1801.794;1;161;170;172.6;21.9;21.9;34;33.8;28.4;-1.0;
16/02/2025 12:49:45;117;0;137.49;-4;30.00;5.28;143.5;18.90;76780;2838.716;-1801.795;1;161;170;172.6;21.9;21.9;34;33.8;28.4;-1.0;
16/02/2025 12:50:05;117;0;132.08;-4;29.85;5.21;141.5;18.90;76779;2838.719;-1801.796;1;161;170;171.0;21.9;21.9;36;36.1;28.4;-1.0;
16/02/2025 12:50:25;117;0;132.76;-4;30.36;6.70;139.6;18.90;76799;2838.721;-1801.797;1;161;190;193.5;21.9;21.9;36;36.6;28.4;-1.0;
16/02/2025 12:50:45;117;0;130.90;-4;29.89;6.83;137.5;18.90;76733;2838.723;-1801.798;1;161;190;193.5;21.9;21.9;36;36.6;28.4;-1.0;
16/02/2025 12:51:05;117;0;134.00;-4;29.76;6.83;135.3;18.90;76747;2838.725;-1801.798;1;161;190;193.5;21.9;21.9;36;36.6;28.4;-1.0;
16/02/2025 12:51:25;117;0;138.50;-4;29.45;6.94;133.1;18.80;76754;2838.727;-1801.799;1;161;190;193.5;21.9;21.9;36;36.6;28.4;-1.0;
16/02/2025 12:51:45;117;0;140.35;-4;29.46;6.95;131.0;18.90;76755;2838.729;-1801.800;1;161;190;193.5;21.9;21.9;36;36.6;28.4;-1.0;
16/02/2025 12:52:05;117;0;141.02;-4;29.89;6.78;128.8;18.80;76754;2838.730;-1801.801;1;161;190;195.2;21.9;21.9;36;36.6;28.4;-1.0;
16/02/2025 12:52:25;117;0;145.43;-4;29.61;6.86;126.5;18.80;76746;2838.732;-1801.802;1;161;190;193.5;21.9;21.9;32;32.0;28.4;-1.0;
16/02/2025 12:52:45;117;0;149.37;-4;29.41;4.24;124.3;18.80;76754;2838.734;-1801.804;1;161;190;191.9;21.9;21.8;28;27.5;28.4;-1.0;
16/02/2025 12:53:05;117;0;152.29;-4;28.84;1.56;122.0;18.80;76754;2838.735;-1801.805;1;161;190;195.2;21.5;21.2;25;24.4;28.4;-1.0;
16/02/2025 12:53:25;117;0;152.72;-4;30.41;-0.05;119.7;18.80;76760;2838.737;-1801.806;1;161;190;195.2;21.5;21.1;23;23.0;28.4;-1.0;
16/02/2025 12:53:45;117;0;144.93;-4;30.31;-0.80;117.3;18.80;76771;2838.739;-1801.807;1;161;190;195.2;21.5;21.2;34;33.8;28.4;-1.0;
16/02/2025 12:54:05;117;0;142.74;-4;30.54;5.94;114.9;18.80;76777;2838.740;-1801.808;1;161;190;193.5;21.5;21.2;34;34.7;28.4;-1.0;
16/02/2025 12:54:25;117;0;138.15;-4;30.67;6.05;112.5;18.80;76796;2838.742;-1801.809;1;161;190;195.2;21.5;21.2;36;36.1;28.4;-1.0;
16/02/2025 12:54:45;117;0;135.10;-4;30.96;6.74;110.2;18.80;76800;2838.744;-1801.810;1;161;190;195.2;21.5;21.2;36;36.6;28.4;-1.0;
16/02/2025 12:55:05;117;0;138.48;-4;30.09;6.76;107.9;18.80;76816;2838.746;-1801.811;1;161;190;193.5;21.5;21.4;36;36.6;28.4;-1.0;
16/02/2025 12:55:25;117;0;139.81;-4;30.97;6.64;105.8;18.80;76843;2838.748;-1801.812;1;161;190;193.5;21.5;21.2;34;31.1;28.4;-1.0;
16/02/2025 12:55:45;117;0;134.71;-4;30.80;5.26;103.7;18.80;76883;2838.750;-1801.813;1;161;190;193.5;21.5;21.2;36;36.1;28.4;-1.0;
16/02/2025 12:56:05;117;0;132.74;-4;30.97;6.76;101.5;18.90;76904;2838.752;-1801.814;1;161;190;195.2;21.5;21.2;36;36.6;28.4;-1.0;
16/02/2025 12:56:25;117;0;131.04;-4;30.74;6.75;99.5;18.90;76924;2838.754;-1801.814;1;161;210;211.3;21.5;21.2;36;36.6;28.4;-1.0;
16/02/2025 12:56:45;117;0;132.33;-4;30.42;6.76;97.3;18.90;76897;2838.756;-1801.815;1;161;210;214.5;21.5;21.2;36;36.6;28.4;-1.0;
16/02/2025 12:57:05;117;0;131.22;-4;30.24;6.71;95.1;18.90;76919;2838.758;-1801.816;1;161;210;214.5;21.5;21.2;36;36.6;28.4;-1.0;
16/02/2025 12:57:25;117;0;128.73;-4;30.62;6.78;92.7;18.90;76917;2838.761;-1801.817;1;161;210;214.5;21.5;21.2;36;36.6;28.4;-1.0;
16/02/2025 12:57:45;117;0;126.80;-4;30.39;6.79;90.4;19.00;76925;2838.763;-1801.817;1;161;210;214.5;21.5;21.2;38;37.9;28.4;-1.0;
16/02/2025 12:58:05;117;0;127.97;-4;30.53;8.09;87.9;19.00;76939;2838.765;-1801.818;1;161;210;212.9;21.5;21.2;38;38.4;28.4;-1.0;
16/02/2025 12:58:25;117;0;131.67;-4;30.64;7.80;85.4;19.00;76943;2838.767;-1801.818;1;161;210;214.5;21.5;21.2;36;35.2;28.4;-1.0;
16/02/2025 12:58:45;117;0;134.13;-4;30.31;6.67;82.9;19.00;76943;2838.769;-1801.819;1;161;210;216.1;21.5;21.2;36;36.1;28.4;-1.0;
16/02/2025 12:59:05;117;0;136.31;-4;30.07;6.48;80.3;19.00;76954;2838.770;-1801.819;1;161;210;214.5;21.5;21.2;36;36.1;28.4;-1.0;
16/02/2025 12:59:25;117;0;136.26;-4;30.06;6.57;77.8;19.10;76957;2838.772;-1801.820;1;161;210;214.5;21.5;21.2;36;36.1;28.4;-1.0;
16/02/2025 12:59:45;117;0;135.31;-4;30.64;6.61;75.2;19.10;76973;2838.774;-1801.821;1;161;210;214.5;21.5;21.2;36;36.1;28.4;-1.0;
16/02/2025 13:00:05;117;0;134.11;-4;30.46;6.66;72.6;19.10;76975;2838.776;-1801.821;1;161;210;214.5;21.5;21.2;36;36.1;28.4;-1.0;
16/02/2025 13:00:25;117;0;134.43;-4;30.09;6.61;69.9;19.10;76978;2838.777;-1801.822;1;161;210;214.5;21.5;21.1;36;36.1;28.4;-1.0;
16/02/2025 13:00:45;117;0;137.34;-4;30.45;6.54;67.3;19.10;76983;2838.779;-1801.822;1;161;210;214.5;21.5;21.2;36;36.1;28.4;-1.0;
16/02/2025 13:01:05;117;0;138.45;-4;30.01;6.57;64.6;19.20;76990;2838.781;-1801.823;1;161;210;214.5;21.5;21.2;36;36.1;28.4;-1.0;
16/02/2025 13:01:25;117;0;138.35;-4;30.20;6.50;62.0;19.20;76997;2838.782;-1801.823;1;161;210;214.5;21.5;21.2;36;36.1;28.4;-1.0;
16/02/2025 13:01:45;117;0;138.20;-4;30.78;6.60;59.3;19.20;76994;2838.784;-1801.824;1;161;210;214.5;21.5;21.2;36;36.1;28.4;-1.0;
16/02/2025 13:02:05;117;0;139.03;-4;30.12;6.56;56.6;19.20;76996;2838.785;-1801.825;1;161;210;214.5;21.5;21.2;36;36.1;28.4;-1.0;
16/02/2025 13:02:25;117;0;140.76;-4;29.72;6.45;53.8;19.20;76998;2838.787;-1801.825;1;161;210;214.5;21.5;21.2;36;36.1;28.4;-1.0;
16/02/2025 13:02:45;117;0;140.67;-4;30.76;6.61;51.0;19.30;77011;2838.788;-1801.826;1;161;210;214.5;21.5;21.2;36;36.1;28.4;-1.0;
16/02/2025 13:03:05;117;0;141.38;-4;29.95;6.54;48.3;19.30;77005;2838.790;-1801.827;1;161;210;214.5;21.5;21.2;36;36.1;28.4;-1.0;
16/02/2025 13:03:25;117;0;143.62;-4;29.79;6.56;45.6;19.30;77007;2838.791;-1801.827;1;161;210;214.5;21.5;21.2;36;36.1;28.4;-1.0;
16/02/2025 13:03:45;117;0;141.56;-4;29.34;6.41;43.1;19.30;77020;2838.793;-1801.828;1;161;210;214.5;21.5;21.2;36;36.1;28.4;-1.0;
16/02/2025 13:04:05;117;0;138.91;-4;30.65;6.62;40.4;19.30;77033;2838.794;-1801.829;1;161;210;214.5;21.5;21.2;36;36.1;28.4;-1.0;
16/02/2025 13:04:25;117;0;137.50;-4;30.41;6.61;37.8;19.40;77041;2838.796;-1801.830;1;161;210;216.1;21.5;21.2;36;36.1;28.4;-1.0;
16/02/2025 13:04:45;117;0;137.19;-4;29.67;6.58;35.2;19.40;77046;2838.798;-1801.830;1;161;210;216.1;21.5;21.2;36;36.1;28.4;-1.0;
16/02/2025 13:05:05;117;0;135.49;-4;30.06;6.69;32.7;19.40;77045;2838.800;-1801.831;1;161;210;214.5;21.5;21.2;36;36.1;28.4;-1.0;
16/02/2025 13:05:25;117;0;132.82;-4;30.50;6.63;30.1;19.40;77055;2838.801;-1801.831;1;161;210;214.5;21.5;21.2;36;36.1;28.4;-1.0;
16/02/2025 13:05:45;117;0;132.09;-4;29.66;6.56;27.4;19.50;77065;2838.803;-1801.832;1;161;210;214.5;21.5;21.2;36;36.1;28.4;-1.0;
16/02/2025 13:06:05;117;0;130.01;-4;29.31;6.67;24.7;19.50;77073;2838.805;-1801.832;1;161;210;212.9;21.5;21.2;39;38.8;28.4;-1.0;
16/02/2025 13:06:25;117;0;129.77;-4;29.57;8.35;22.0;19.50;77063;2838.807;-1801.832;1;161;210;214.5;21.5;21.2;39;39.3;28.4;-1.0;
16/02/2025 13:06:45;117;0;130.29;-4;29.41;8.15;19.2;19.50;77077;2838.809;-1801.832;1;161;210;214.5;21.5;21.2;39;39.3;28.4;-1.0;
16/02/2025 13:07:05;117;0;129.50;-4;30.28;8.42;16.4;19.50;77079;2838.810;-1801.833;1;161;210;214.5;21.5;21.2;39;39.3;28.4;-1.0;
16/02/2025 13:07:25;117;0;129.74;-4;30.52;8.12;13.6;19.50;77067;2838.812;-1801.833;1;161;210;214.5;21.5;21.2;39;39.3;28.4;-1.0;
16/02/2025 13:07:45;117;0;128.76;-4;31.88;8.31;10.8;19.60;77082;2838.814;-1801.833;1;161;210;214.5;21.5;21.2;39;39.3;28.4;-1.0;
16/02/2025 13:08:05;117;0;129.41;-4;30.29;7.85;8.2;19.60;77086;2838.816;-1801.834;1;161;210;214.5;21.5;21.2;39;38.8;28.4;-1.0;
16/02/2025 13:08:25;117;0;130.79;-4;29.00;8.50;5.5;19.60;77097;2838.818;-1801.834;1;161;210;214.5;21.5;21.2;39;38.8;28.4;-1.0;
16/02/2025 13:08:42;115;0;129.42;-4;31.01;9.22;3.1;19.60;77085;2838.819;-1801.834;1;161;500;221.0;100.0;64.7;0;-0.5;28.4;-1.0;
16/02/2025 13:08:52;115;0;114.96;-4;12.55;-13.19;2.0;19.60;77070;2838.820;-1801.833;1;161;500;340.3;100.0;100.1;0;-0.5;28.2;-1.0;
16/02/2025 13:09:02;115;0;116.95;-4;-58.40;-10.94;2.6;19.60;76800;2838.822;-1801.834;1;161;500;454.8;100.0;100.7;0;-0.5;28.2;-1.0;
16/02/2025 13:09:12;115;0;86.93;-4;-65.34;-5.47;2.2;19.70;76554;2838.823;-1801.835;1;161;500;506.5;100.0;100.9;0;-0.5;28.2;-1.0;
16/02/2025 13:09:22;115;0;84.18;-4;-35.33;2.79;-0.6;19.70;76450;2838.825;-1801.834;1;161;500;506.5;100.0;100.9;0;-0.5;28.4;-1.0;
16/02/2025 13:09:42;119;0;58.66;-4;-62.43;-10.02;0.0;19.70;76469;2838.825;-1801.834;1;161;500;509.7;100.0;100.9;0;-0.5;28.4;-1.0;
16/02/2025 13:09:53;119;0;23.83;-4;-44.42;-16.16;-0.3;19.70;76473;2838.786;-1801.684;0;161;500;508.1;100.0;100.9;0;-0.5;28.4;-1.0;
