Timestamp;NavState;SecurityLevel;Heading;Declination;Pitch;Roll;Depth;Temperature;Pa;Lat;Lon;DeadReckoning;DesiredH;BallastCmd;BallastPos;LinCmd;LinPos;AngCmd;AngPos;Voltage;Altitude;
02/03/2025 01:23:13;119;0;326.14;-4;-40.89;-18.21;0.1;16.40;75502;2837.787;-1800.747;0;315;500;504.8;100.0;100.6;0;-0.5;25.4;-1.0;
02/03/2025 01:23:23;116;0;358.50;-4;-53.94;-7.39;0.1;16.40;75506;2837.792;-1800.748;0;315;500;504.8;100.0;100.4;0;-0.5;25.4;-1.0;
02/03/2025 01:23:48;116;0;24.03;-4;-56.66;-38.16;0.1;16.50;75523;2837.794;-1800.748;0;315;500;506.5;100.0;100.7;0;-0.5;25.4;-1.0;
02/03/2025 01:24:15;116;0;61.79;-4;-58.62;-11.68;0.2;16.60;75519;2837.796;-1800.748;0;300;500;504.8;100.0;100.6;0;-0.5;25.4;-1.0;
02/03/2025 01:24:31;116;0;46.20;-4;-52.58;-8.54;0.1;16.60;75536;2837.798;-1800.747;0;300;500;504.8;100.0;100.6;0;-0.5;25.4;-1.0;
02/03/2025 01:24:51;116;0;37.17;-4;-56.16;-18.50;0.1;16.70;75544;2837.801;-1800.746;0;300;500;504.8;100.0;100.6;0;-0.9;25.4;-1.0;
02/03/2025 01:25:56;116;0;352.69;-4;-51.64;-4.42;-0.0;16.90;75563;2837.809;-1800.737;0;300;500;504.8;100.0;100.6;0;-0.5;25.4;-1.0;
02/03/2025 01:27:17;116;0;338.30;-4;-59.06;-15.00;0.1;17.30;75599;2837.826;-1800.731;0;300;500;506.5;100.0;100.6;0;-0.5;25.4;-1.0;
02/03/2025 01:28:29;116;0;338.21;-4;-52.63;-9.17;-0.0;17.60;75609;2837.840;-1800.729;0;300;500;504.8;100.0;100.6;0;-0.5;25.4;-1.0;
02/03/2025 01:28:41;116;0;340.64;-4;-47.39;-7.40;0.2;17.70;75623;2837.842;-1800.728;0;300;500;504.8;100.0;100.6;0;-0.5;25.4;-1.0;
02/03/2025 01:29:01;110;0;342.42;-4;-55.00;-11.92;-0.1;17.80;75618;2837.842;-1800.728;0;300;-110;383.9;100.0;100.6;-7;-7.2;25.4;-1.0;
02/03/2025 01:29:11;110;0;344.36;-4;-54.73;-22.23;-0.0;17.80;75996;2837.843;-1800.728;1;300;-110;240.3;100.0;100.6;-7;-7.7;25.3;-1.0;
02/03/2025 01:29:21;110;0;3.20;-4;-60.25;-10.97;0.3;17.80;76216;2837.844;-1800.728;1;300;-110;88.7;100.0;100.6;-7;-7.7;25.3;-1.0;
02/03/2025 01:29:31;110;0;3.31;-4;-72.27;-22.13;0.7;17.90;76529;2837.845;-1800.729;1;300;-110;-67.7;100.0;100.6;-7;-7.7;25.3;-1.0;
02/03/2025 01:29:41;110;0;5.36;-4;-65.09;-17.54;1.1;17.90;76870;2837.846;-1800.729;1;300;-110;-109.7;43.1;54.5;-7;-7.7;25.3;-1.0;
02/03/2025 01:29:51;110;0;9.00;-4;-56.69;-15.00;2.1;18.00;76911;2837.847;-1800.729;1;300;-110;-109.7;43.1;43.0;-7;-7.7;25.3;-1.0;
02/03/2025 01:30:11;100;0;19.57;-4;-22.75;-16.40;5.3;18.00;76926;2837.852;-1800.729;1;300;-110;-106.5;43.1;42.7;-7;-7.7;25.4;-1.0;
02/03/2025 01:30:31;100;0;27.59;-4;-20.61;-15.31;8.4;18.10;76925;2837.857;-1800.728;1;300;-110;-104.8;43.1;42.6;70;69.9;25.3;-1.0;
02/03/2025 01:30:51;100;0;25.15;-4;-24.72;23.54;11.0;18.10;76944;2837.861;-1800.727;1;300;-110;-103.2;41.6;41.5;70;69.9;25.4;-1.0;
02/03/2025 01:31:11;100;0;16.25;-4;-23.04;23.93;13.9;18.10;76947;2837.866;-1800.727;1;300;-110;-103.2;40.7;40.8;70;69.9;25.4;0.0;
02/03/2025 01:31:31;100;0;5.60;-4;-19.99;23.81;16.6;18.20;76946;2837.871;-1800.727;1;300;-110;-103.2;40.7;40.5;70;69.9;25.4;0.0;
02/03/2025 01:31:51;100;0;354.38;-4;-19.12;23.91;19.0;18.20;76962;2837.875;-1800.728;1;300;-110;-104.8;40.7;40.5;70;69.9;25.4;0.0;
02/03/2025 01:32:11;100;0;342.80;-4;-19.13;23.49;21.5;18.20;76961;2837.880;-1800.730;1;300;-110;-106.5;40.7;40.5;70;69.9;25.4;0.0;
02/03/2025 01:32:31;100;0;331.74;-4;-18.49;23.53;23.8;18.20;76964;2837.884;-1800.732;1;300;-110;-103.2;41.2;41.2;70;69.9;25.4;0.0;
02/03/2025 01:32:51;100;0;321.04;-4;-18.93;23.84;26.1;18.20;76974;2837.888;-1800.735;1;300;-110;-103.2;41.5;41.4;60;60.0;25.4;0.0;
02/03/2025 01:33:11;100;0;310.16;-4;-19.35;18.06;28.5;18.20;76974;2837.891;-1800.739;1;300;-110;-103.2;41.5;41.4;43;42.9;25.4;0.0;
02/03/2025 01:33:31;100;0;301.29;-4;-18.20;9.43;30.7;18.20;76982;2837.894;-1800.742;1;300;-110;-101.6;42.0;42.3;29;28.4;25.4;0.0;
02/03/2025 01:33:51;100;0;295.79;-4;-19.21;2.37;33.0;18.30;76991;2837.897;-1800.746;1;300;-110;-103.2;42.0;42.3;20;19.9;25.3;0.0;
02/03/2025 01:34:11;100;0;294.02;-4;-19.30;-1.87;35.4;18.30;76984;2837.900;-1800.750;1;300;-110;-103.2;42.0;42.3;18;18.1;25.4;0.0;
02/03/2025 01:34:31;100;0;291.35;-4;-19.59;-3.03;37.7;18.30;76997;2837.902;-1800.754;1;300;-110;-103.2;42.0;42.3;18;17.6;25.4;0.0;
02/03/2025 01:34:51;100;0;290.36;-4;-19.36;-3.02;40.2;18.40;77007;2837.905;-1800.758;1;300;-110;-103.2;42.0;42.3;15;14.9;25.4;0.0;
02/03/2025 01:35:11;100;0;289.75;-4;-19.45;-4.56;42.6;18.40;76999;2837.908;-1800.763;1;300;-110;-103.2;42.0;42.1;15;14.4;25.4;0.0;
02/03/2025 01:35:31;100;0;289.41;-4;-19.14;-4.49;45.0;18.40;77004;2837.910;-1800.767;1;300;-110;-104.8;42.0;42.3;15;14.4;25.4;0.0;
02/03/2025 01:35:51;100;0;288.36;-4;-19.24;-4.55;47.4;18.40;77011;2837.913;-1800.771;1;300;-110;-103.2;42.0;42.3;15;14.4;25.4;0.0;
02/03/2025 01:36:11;100;0;287.93;-4;-19.16;-4.52;49.7;18.40;77017;2837.915;-1800.775;1;300;-110;-103.2;42.0;42.3;15;14.4;25.4;0.0;
02/03/2025 01:36:31;100;0;287.46;-4;-19.07;-4.51;52.0;18.40;77024;2837.917;-1800.779;1;300;-110;-103.2;42.0;42.3;15;14.4;25.4;0.0;
02/03/2025 01:36:51;100;0;287.96;-4;-19.43;-4.54;54.3;18.50;77018;2837.920;-1800.783;1;300;-110;-104.8;42.0;42.3;15;14.4;25.4;0.0;
02/03/2025 01:37:11;100;0;288.24;-4;-18.81;-4.54;56.7;18.50;77011;2837.922;-1800.787;1;300;-110;-103.2;42.4;42.4;15;14.4;25.4;0.0;
02/03/2025 01:37:31;100;0;287.62;-4;-19.74;-4.57;58.9;18.50;76991;2837.924;-1800.791;1;300;-110;-103.2;42.4;42.7;15;14.4;25.4;0.0;
02/03/2025 01:37:51;100;0;289.16;-4;-19.65;-4.57;61.2;18.50;76965;2837.927;-1800.795;1;300;-110;-103.2;42.4;42.7;15;14.4;25.4;0.0;
02/03/2025 01:38:11;100;0;290.94;-4;-19.57;-4.56;63.3;18.50;76957;2837.929;-1800.799;1;300;-110;-103.2;42.4;42.7;18;18.1;25.4;0.0;
02/03/2025 01:38:31;100;0;284.34;-4;-19.82;-2.57;65.3;18.50;76934;2837.931;-1800.802;1;300;-110;-103.2;42.4;42.7;15;14.9;25.4;0.0;
02/03/2025 01:38:51;100;0;282.98;-4;-20.74;-4.47;67.5;18.50;76933;2837.933;-1800.806;1;300;-110;-103.2;42.4;42.6;15;14.4;25.4;0.0;
02/03/2025 01:39:11;100;0;283.29;-4;-19.94;-4.41;69.9;18.40;76917;2837.936;-1800.810;1;300;-110;-103.2;42.4;42.6;15;14.4;25.4;0.0;
02/03/2025 01:39:31;100;0;281.47;-4;-19.71;-4.53;72.2;18.40;76901;2837.938;-1800.814;1;300;-110;-103.2;42.4;42.7;15;14.4;25.4;0.0;
02/03/2025 01:39:51;100;0;283.26;-4;-19.58;-4.50;74.5;18.40;76898;2837.940;-1800.818;1;300;-110;-103.2;42.4;42.7;15;14.4;25.4;0.0;
02/03/2025 01:40:11;100;0;282.81;-4;-19.85;-4.53;76.7;18.40;76894;2837.942;-1800.822;1;300;-110;-104.8;42.4;42.7;15;14.4;25.4;0.0;
02/03/2025 01:40:31;100;0;281.92;-4;-19.07;-4.68;78.7;18.40;76888;2837.944;-1800.826;1;300;-130;-132.3;42.4;42.6;15;14.4;25.4;0.0;
02/03/2025 01:40:51;100;0;279.57;-4;-18.67;-4.37;80.7;18.40;76941;2837.946;-1800.830;1;300;-130;-132.3;42.8;42.9;15;14.4;25.4;0.0;
02/03/2025 01:41:11;100;0;278.09;-4;-20.28;-4.42;83.1;18.40;76941;2837.948;-1800.834;1;300;-130;-132.3;42.8;43.0;15;14.4;25.4;0.0;
02/03/2025 01:41:31;100;0;278.56;-4;-20.68;-4.37;85.5;18.30;76933;2837.950;-1800.838;1;300;-130;-133.9;42.8;43.2;15;14.4;25.4;0.0;
02/03/2025 01:41:51;100;0;277.21;-4;-20.65;-4.39;88.4;18.30;76915;2837.951;-1800.843;1;300;-130;-133.9;42.8;43.0;13;13.1;25.4;0.0;
02/03/2025 01:42:11;100;0;274.39;-4;-19.85;-5.11;91.2;18.30;76910;2837.953;-1800.847;1;300;-130;-133.9;42.8;43.0;11;10.8;25.4;0.0;
02/03/2025 01:42:31;100;0;272.28;-4;-19.63;-6.25;93.7;18.30;76891;2837.955;-1800.852;1;300;-130;-133.9;42.8;43.2;11;10.4;25.4;0.0;
02/03/2025 01:42:51;100;0;274.52;-4;-19.46;-6.39;96.2;18.30;76883;2837.956;-1800.856;1;300;-130;-132.3;42.8;43.0;11;10.4;25.4;0.0;
02/03/2025 01:43:11;100;0;276.85;-4;-20.01;-6.36;98.7;18.20;76888;2837.958;-1800.861;1;300;-130;-132.3;42.8;43.0;13;13.1;25.4;0.0;
02/03/2025 01:43:31;100;0;278.55;-4;-19.54;-4.66;101.3;18.20;76880;2837.960;-1800.865;1;300;-130;-132.3;42.8;43.0;13;13.5;25.4;0.0;
02/03/2025 01:43:51;100;0;279.45;-4;-19.50;-4.83;103.8;18.20;76881;2837.962;-1800.870;1;300;-130;-132.3;42.8;43.0;13;13.1;25.4;0.0;
02/03/2025 01:44:11;100;0;280.12;-4;-19.82;-4.85;106.2;18.20;76874;2837.964;-1800.874;1;300;-130;-132.3;42.8;43.2;13;13.1;25.4;0.0;
02/03/2025 01:44:31;100;0;276.78;-4;-20.01;-4.84;108.9;18.10;76842;2837.966;-1800.878;1;300;-130;-133.9;42.8;43.2;13;13.5;25.4;0.0;
02/03/2025 01:44:51;100;0;274.90;-4;-20.11;-4.80;111.5;18.10;76840;2837.968;-1800.883;1;300;-130;-132.3;42.8;43.0;13;13.1;25.4;0.0;
02/03/2025 01:45:11;100;0;274.28;-4;-20.02;-4.76;114.2;18.10;76828;2837.970;-1800.888;1;300;-130;-132.3;42.8;43.2;10;9.9;25.4;0.0;
02/03/2025 01:45:31;100;0;274.67;-4;-19.95;-6.58;116.8;18.10;76825;2837.971;-1800.892;1;300;-130;-133.9;42.8;43.2;12;12.2;25.4;0.0;
02/03/2025 01:45:51;100;0;274.66;-4;-20.31;-5.08;119.5;18.00;76818;2837.973;-1800.897;1;300;-130;-132.3;42.8;43.0;12;12.6;25.4;0.0;
02/03/2025 01:46:11;100;0;272.63;-4;-19.99;-5.13;122.1;18.00;76788;2837.975;-1800.901;1;300;-130;-132.3;42.8;43.0;12;12.6;25.3;0.0;
02/03/2025 01:46:31;100;0;273.52;-4;-19.84;-5.13;124.8;18.00;76775;2837.976;-1800.906;1;300;-130;-133.9;42.8;43.0;10;9.9;25.3;0.0;
02/03/2025 01:46:51;100;0;276.53;-4;-19.51;-6.69;127.2;17.90;76763;2837.978;-1800.910;1;300;-130;-133.9;42.8;43.0;13;13.1;25.4;0.0;
02/03/2025 01:47:11;100;0;282.37;-4;-19.90;-4.81;129.8;17.90;76755;2837.980;-1800.915;1;300;-130;-133.9;42.8;43.2;13;13.5;25.4;0.0;
02/03/2025 01:47:31;100;0;283.89;-4;-19.98;-4.84;132.4;17.90;76751;2837.983;-1800.919;1;300;-130;-132.3;42.8;43.2;13;13.5;25.4;0.0;
02/03/2025 01:47:51;100;0;284.00;-4;-20.06;-4.78;135.0;17.90;76741;2837.985;-1800.923;1;300;-130;-130.6;42.8;43.2;13;13.5;25.4;0.0;
02/03/2025 01:48:11;100;0;286.60;-4;-19.48;-4.81;137.8;17.80;76740;2837.987;-1800.928;1;300;-130;-133.9;42.8;43.0;13;13.5;25.4;0.0;
02/03/2025 01:48:31;100;0;286.41;-4;-19.62;-4.72;140.3;17.80;76730;2837.990;-1800.933;1;300;-130;-133.9;42.8;43.2;13;13.5;25.4;0.0;
02/03/2025 01:48:51;100;0;288.78;-4;-19.44;-4.72;143.0;17.80;76737;2837.992;-1800.937;1;300;-130;-132.3;42.8;43.2;13;13.5;25.4;0.0;
02/03/2025 01:49:11;100;0;292.04;-4;-19.74;-4.70;145.6;17.70;76727;2837.995;-1800.941;1;300;-130;-133.9;42.8;43.2;16;15.8;25.3;0.0;
02/03/2025 01:49:31;100;0;290.03;-4;-19.74;-3.43;148.3;17.70;76706;2837.998;-1800.946;1;300;-130;-133.9;42.8;43.0;16;16.2;25.4;0.0;
02/03/2025 01:49:51;100;0;288.44;-4;-20.13;-3.32;151.0;17.70;76711;2838.000;-1800.950;1;300;-130;-132.3;42.8;43.2;14;14.0;25.4;0.0;
02/03/2025 01:50:11;100;0;288.90;-4;-20.07;-4.60;153.6;17.60;76702;2838.003;-1800.955;1;300;-130;-133.9;42.8;43.2;14;14.0;25.4;0.0;
02/03/2025 01:50:31;100;0;289.43;-4;-19.75;-4.65;156.3;17.60;76705;2838.005;-1800.959;1;300;-130;-132.3;42.8;43.0;14;13.5;25.4;0.0;
02/03/2025 01:50:51;100;0;289.97;-4;-19.78;-4.67;159.1;17.60;76690;2838.008;-1800.964;1;300;-130;-132.3;42.8;43.0;14;14.0;25.4;0.0;
02/03/2025 01:51:11;100;0;289.76;-4;-19.68;-4.62;161.8;17.50;76689;2838.011;-1800.968;1;300;-130;-133.9;42.8;43.2;14;14.0;25.3;0.0;
02/03/2025 01:51:31;100;0;288.27;-4;-19.90;-4.67;164.6;17.50;76684;2838.013;-1800.973;1;300;-130;-132.3;42.8;43.2;14;14.0;25.4;0.0;
02/03/2025 01:51:51;100;0;287.33;-4;-20.04;-4.62;167.3;17.50;76691;2838.016;-1800.977;1;300;-130;-133.9;42.8;43.2;14;14.0;25.4;0.0;
02/03/2025 01:52:11;100;0;286.96;-4;-20.12;-4.60;170.2;17.40;76676;2838.018;-1800.982;1;300;-130;-132.3;42.8;43.2;14;14.0;25.4;0.0;
02/03/2025 01:52:31;100;0;285.23;-4;-19.91;-4.68;172.9;17.40;76661;2838.021;-1800.987;1;300;-130;-132.3;42.8;43.0;14;13.5;25.3;0.0;
02/03/2025 01:52:51;100;0;282.48;-4;-19.71;-4.71;175.7;17.40;76662;2838.023;-1800.991;1;300;-130;-132.3;42.8;43.2;14;14.0;25.4;0.0;
02/03/2025 01:53:11;100;0;281.41;-4;-19.78;-4.62;178.2;17.40;76647;2838.025;-1800.996;1;300;-130;-133.9;42.8;43.0;14;13.5;25.4;0.0;
02/03/2025 01:53:31;100;0;280.59;-4;-19.61;-4.63;181.1;17.30;76648;2838.027;-1801.001;1;300;-130;-132.3;42.8;43.0;14;14.0;25.4;0.0;
02/03/2025 01:53:51;100;0;282.00;-4;-19.46;-4.67;183.5;17.30;76644;2838.029;-1801.005;1;300;-130;-133.9;42.8;43.0;14;14.0;25.4;0.0;
02/03/2025 01:54:11;100;0;279.71;-4;-19.84;-4.71;186.2;17.30;76627;2838.031;-1801.010;1;300;-130;-132.3;42.8;43.2;14;14.0;25.4;0.0;
02/03/2025 01:54:31;100;0;278.21;-4;-19.25;-4.73;188.9;17.20;76612;2838.033;-1801.014;1;300;-130;-132.3;42.8;43.0;14;14.0;25.4;0.0;
02/03/2025 01:54:51;100;0;277.60;-4;-19.37;-4.80;191.4;17.20;76594;2838.035;-1801.019;1;300;-130;-132.3;42.8;43.2;14;14.0;25.4;0.0;
02/03/2025 01:55:11;100;0;276.28;-4;-19.46;-4.76;194.0;17.10;76601;2838.037;-1801.023;1;300;-130;-133.9;42.8;43.2;12;12.2;25.4;0.0;
02/03/2025 01:55:32;100;0;275.25;-4;-19.18;-5.68;196.4;17.10;76592;2838.039;-1801.028;1;300;-130;-133.9;42.8;43.2;12;11.7;25.4;0.0;
02/03/2025 01:55:52;100;0;277.46;-4;-19.31;-5.68;199.1;17.10;76585;2838.041;-1801.033;1;300;-130;-133.9;42.8;43.0;12;11.7;25.4;0.0;
02/03/2025 01:56:12;100;0;278.72;-4;-19.12;-5.67;201.8;17.10;76583;2838.043;-1801.037;1;300;-130;-132.3;42.8;43.0;12;11.7;25.3;0.0;
02/03/2025 01:56:32;100;0;280.01;-4;-19.32;-5.66;204.3;17.00;76579;2838.045;-1801.042;1;300;-130;-133.9;42.8;43.2;14;14.4;25.4;0.0;
02/03/2025 01:56:52;100;0;282.05;-4;-19.49;-4.18;206.8;17.00;76575;2838.047;-1801.046;1;300;-130;-132.3;42.8;43.0;14;14.9;25.4;0.0;
02/03/2025 01:57:12;100;0;283.45;-4;-19.68;-4.18;209.4;16.90;76571;2838.049;-1801.051;1;300;-130;-135.5;42.8;43.2;14;14.9;25.4;0.0;
02/03/2025 01:57:32;100;0;282.01;-4;-19.67;-4.21;212.2;16.90;76556;2838.051;-1801.055;1;300;-130;-132.3;42.8;43.0;14;14.9;25.4;0.0;
02/03/2025 01:57:52;100;0;283.03;-4;-19.55;-4.20;214.8;16.90;76554;2838.053;-1801.060;1;300;-130;-132.3;42.8;43.2;14;14.4;25.4;0.0;
02/03/2025 01:58:12;100;0;283.24;-4;-19.23;-4.20;217.6;16.90;76545;2838.056;-1801.065;1;300;-130;-133.9;42.8;43.2;14;14.4;25.4;0.0;
02/03/2025 01:58:32;100;0;282.55;-4;-19.29;-4.16;220.3;16.80;76537;2838.058;-1801.069;1;300;-130;-133.9;42.8;43.2;14;14.9;25.3;0.0;
02/03/2025 01:58:52;100;0;282.55;-4;-19.28;-4.17;222.7;16.80;76533;2838.060;-1801.074;1;300;-130;-133.9;42.8;43.2;14;14.9;25.4;0.0;
02/03/2025 01:59:12;100;0;282.46;-4;-19.04;-4.03;225.5;16.80;76527;2838.062;-1801.079;1;300;-130;-132.3;42.8;43.2;14;14.9;25.4;0.0;
02/03/2025 01:59:32;100;0;282.43;-4;-19.26;-4.12;228.2;16.70;76534;2838.065;-1801.083;1;300;-130;-133.9;42.8;43.0;14;14.9;25.4;0.0;
02/03/2025 01:59:52;100;0;279.58;-4;-19.02;-4.21;230.9;16.70;76521;2838.067;-1801.088;1;300;-130;-133.9;42.8;43.0;14;14.9;25.4;0.0;
02/03/2025 02:00:12;100;0;277.27;-4;-19.01;-4.28;233.5;16.70;76506;2838.068;-1801.093;1;300;-130;-133.9;42.8;43.0;14;14.9;25.4;0.0;
02/03/2025 02:00:32;100;0;275.20;-4;-19.06;-4.21;236.1;16.60;76508;2838.070;-1801.097;1;300;-130;-132.3;42.8;43.0;12;12.2;25.4;0.0;
02/03/2025 02:00:52;100;0;276.80;-4;-19.36;-5.53;238.8;16.60;76512;2838.072;-1801.102;1;300;-130;-132.3;42.8;43.0;12;12.2;25.4;0.0;
02/03/2025 02:01:12;100;0;278.53;-4;-19.28;-5.50;241.7;16.60;76495;2838.074;-1801.107;1;300;-130;-132.3;42.8;43.2;12;12.2;25.3;0.0;
02/03/2025 02:01:32;100;0;281.61;-4;-19.15;-5.52;244.4;16.50;76480;2838.076;-1801.112;1;300;-130;-132.3;42.8;43.2;14;14.0;25.4;0.0;
02/03/2025 02:01:52;100;0;283.00;-4;-19.58;-4.24;247.5;16.50;76478;2838.079;-1801.117;1;300;-130;-133.9;42.8;43.0;14;14.4;25.4;0.0;
02/03/2025 02:02:12;100;0;282.87;-4;-19.50;-4.25;250.4;16.50;76472;2838.081;-1801.122;1;300;-130;-135.5;42.8;43.2;14;14.4;25.4;0.0;
02/03/2025 02:02:32;100;0;284.11;-4;-19.30;-4.28;253.3;16.50;76473;2838.083;-1801.127;1;300;-130;-132.3;42.8;43.2;14;14.4;25.4;0.0;
02/03/2025 02:02:52;100;0;286.01;-4;-19.32;-4.30;256.3;16.40;76469;2838.086;-1801.132;1;300;-130;-132.3;42.8;43.2;14;14.4;25.4;0.0;
02/03/2025 02:03:12;100;0;287.34;-4;-19.37;-4.24;259.7;16.40;76446;2838.089;-1801.138;1;300;-130;-133.9;42.8;43.2;14;14.4;25.3;0.0;
02/03/2025 02:03:32;100;0;288.60;-4;-19.53;-4.28;262.6;16.40;76455;2838.091;-1801.143;1;300;-130;-133.9;42.8;43.2;14;14.4;25.4;0.0;
02/03/2025 02:03:52;100;0;290.16;-4;-19.27;-4.16;265.6;16.30;76446;2838.094;-1801.148;1;300;-130;-133.9;42.8;43.2;14;14.4;25.4;0.0;
02/03/2025 02:04:12;100;0;294.24;-4;-19.16;-4.29;268.5;16.30;76447;2838.097;-1801.152;1;300;-130;-133.9;42.8;43.0;16;15.8;25.4;0.0;
02/03/2025 02:04:32;100;0;294.75;-4;-19.36;-3.35;271.7;16.30;76432;2838.100;-1801.157;1;300;-130;-133.9;42.8;43.2;16;16.2;25.4;0.0;
02/03/2025 02:04:52;100;0;293.77;-4;-19.24;-3.33;274.4;16.20;76425;2838.103;-1801.162;1;300;-130;-132.3;42.8;43.0;16;16.2;25.3;0.0;
02/03/2025 02:05:12;100;0;292.87;-4;-19.31;-3.30;277.4;16.20;76428;2838.106;-1801.167;1;300;-130;-133.9;42.8;43.0;14;14.0;25.4;0.0;
02/03/2025 02:05:32;100;0;294.56;-4;-19.11;-4.70;280.2;16.20;76419;2838.109;-1801.171;1;300;-130;-132.3;42.8;43.2;16;15.8;25.3;0.0;
02/03/2025 02:05:52;100;0;295.11;-4;-19.33;-3.46;282.9;16.10;76420;2838.112;-1801.176;1;300;-130;-132.3;42.8;43.2;16;16.2;25.4;0.0;
02/03/2025 02:06:12;100;0;291.31;-4;-19.48;-3.39;285.7;16.10;76389;2838.115;-1801.181;1;300;-130;-133.9;42.8;43.0;16;16.2;25.4;0.0;
02/03/2025 02:06:32;100;0;288.01;-4;-19.43;-3.44;288.3;16.10;76393;2838.118;-1801.185;1;300;-130;-132.3;42.8;43.2;14;14.0;25.4;0.0;
02/03/2025 02:06:52;100;0;287.16;-4;-19.34;-4.80;291.0;16.10;76389;2838.120;-1801.190;1;300;-130;-132.3;42.8;43.2;14;13.5;25.4;0.0;
02/03/2025 02:07:12;100;0;287.38;-4;-19.58;-4.75;293.7;16.00;76381;2838.123;-1801.194;1;300;-130;-133.9;42.8;43.2;14;13.5;25.3;0.0;
02/03/2025 02:07:32;100;0;287.56;-4;-19.51;-4.71;296.4;16.00;76373;2838.125;-1801.199;1;300;-130;-135.5;42.8;43.2;14;13.5;25.4;0.0;
02/03/2025 02:07:52;100;0;288.00;-4;-19.39;-4.78;299.0;16.00;76374;2838.128;-1801.203;1;300;-130;-133.9;42.8;43.2;14;13.5;25.4;0.0;
02/03/2025 02:08:12;100;0;288.43;-4;-18.69;-4.90;301.7;15.90;76359;2838.130;-1801.208;1;300;-130;-132.3;43.2;43.2;14;13.5;25.4;0.0;
02/03/2025 02:08:32;100;0;287.76;-4;-18.85;-4.87;304.1;15.90;76346;2838.133;-1801.212;1;300;-130;-133.9;43.5;43.6;14;13.5;25.4;0.0;
02/03/2025 02:08:52;100;0;286.77;-4;-20.12;-4.89;306.6;15.90;76341;2838.135;-1801.216;1;300;-130;-132.3;43.5;43.7;14;13.5;25.4;0.0;
02/03/2025 02:09:12;100;0;286.88;-4;-20.15;-4.86;309.0;15.80;76322;2838.137;-1801.220;1;300;-130;-132.3;43.5;43.9;14;13.5;25.4;0.0;
02/03/2025 02:09:32;100;0;283.73;-4;-20.24;-4.84;311.6;15.80;76331;2838.140;-1801.225;1;300;-130;-132.3;43.5;43.9;14;13.5;25.4;0.0;
02/03/2025 02:09:52;100;0;281.48;-4;-20.30;-4.86;314.2;15.80;76322;2838.142;-1801.229;1;300;-130;-133.9;43.5;43.7;14;13.5;25.4;0.0;
02/03/2025 02:10:12;100;0;276.63;-4;-19.82;-4.88;316.6;15.70;76303;2838.144;-1801.233;1;300;-130;-132.3;43.5;43.9;14;13.5;25.4;0.0;
02/03/2025 02:10:32;100;0;277.58;-4;-19.89;-4.88;318.9;15.70;76294;2838.145;-1801.237;1;300;-130;-133.9;43.5;43.7;14;13.5;25.4;0.0;
02/03/2025 02:10:52;100;0;279.08;-4;-20.18;-4.72;321.2;15.70;76287;2838.147;-1801.241;1;300;-130;-132.3;43.5;43.7;14;13.5;25.4;0.0;
02/03/2025 02:11:12;100;0;281.52;-4;-20.09;-4.86;323.6;15.60;76280;2838.149;-1801.246;1;300;-130;-130.6;43.5;43.7;14;13.5;25.4;0.0;
02/03/2025 02:11:32;100;0;282.37;-4;-20.40;-4.78;326.1;15.60;76269;2838.152;-1801.250;1;300;-130;-132.3;43.5;43.9;14;13.5;25.4;0.0;
02/03/2025 02:11:52;100;0;283.39;-4;-20.77;-4.70;328.6;15.60;76276;2838.154;-1801.254;1;300;-130;-133.9;43.5;43.7;14;13.5;25.4;0.0;
02/03/2025 02:12:12;100;0;283.33;-4;-19.88;-4.56;331.2;15.50;76260;2838.156;-1801.258;1;300;-130;-133.9;43.5;43.7;14;13.5;25.4;0.0;
02/03/2025 02:12:32;100;0;284.55;-4;-20.66;-4.58;333.6;15.50;76267;2838.158;-1801.262;1;300;-130;-133.9;43.5;43.9;14;13.5;25.3;0.0;
02/03/2025 02:12:52;100;0;286.82;-4;-20.32;-4.90;336.1;15.50;76249;2838.161;-1801.267;1;300;-130;-133.9;43.5;43.7;14;13.5;25.4;0.0;
02/03/2025 02:13:12;100;0;289.18;-4;-20.05;-4.85;338.5;15.40;76241;2838.163;-1801.271;1;300;-130;-133.9;43.5;43.7;14;13.5;25.4;0.0;
02/03/2025 02:13:32;100;0;293.02;-4;-19.99;-4.86;340.9;15.40;76242;2838.166;-1801.275;1;300;-130;-133.9;43.5;43.9;18;18.1;25.4;0.0;
02/03/2025 02:13:52;100;0;293.74;-4;-20.26;-2.45;343.5;15.40;76229;2838.168;-1801.279;1;300;-130;-132.3;43.5;43.9;18;18.1;25.4;0.0;
02/03/2025 02:14:12;100;0;294.33;-4;-20.38;-2.51;345.7;15.30;76229;2838.171;-1801.283;1;300;-130;-133.9;43.5;43.9;21;21.2;25.4;0.0;
02/03/2025 02:14:32;100;0;293.05;-4;-20.44;-0.66;348.2;15.30;76230;2838.174;-1801.287;1;300;-130;-133.9;43.5;43.9;17;17.1;25.4;0.0;
02/03/2025 02:14:52;100;0;291.52;-4;-20.06;-3.24;350.4;15.30;76218;2838.176;-1801.290;1;300;-130;-132.3;43.5;43.7;17;16.7;25.3;0.0;
02/03/2025 02:15:12;100;0;291.30;-4;-20.14;-3.20;352.7;15.30;76208;2838.179;-1801.294;1;300;-130;-132.3;43.5;43.9;17;16.7;25.4;0.0;
02/03/2025 02:15:32;100;0;290.63;-4;-20.57;-3.20;354.9;15.20;76191;2838.181;-1801.298;1;300;-130;-133.9;43.5;43.9;17;16.7;25.4;0.0;
02/03/2025 02:15:52;100;0;290.51;-4;-20.45;-3.19;357.3;15.20;76188;2838.184;-1801.302;1;300;-130;-135.5;43.5;43.7;17;16.7;25.4;0.0;
02/03/2025 02:16:12;100;0;291.32;-4;-20.25;-3.22;359.8;15.20;76188;2838.186;-1801.306;1;300;-130;-132.3;43.5;43.7;17;16.7;25.4;0.0;
02/03/2025 02:16:32;100;0;289.23;-4;-20.54;-3.19;362.1;15.10;76172;2838.189;-1801.310;1;300;-130;-132.3;43.5;43.7;17;16.7;25.4;0.0;
02/03/2025 02:16:52;100;0;287.27;-4;-20.73;-3.14;364.5;15.10;76166;2838.191;-1801.314;1;300;-130;-132.3;43.5;43.9;15;14.4;25.4;0.0;
02/03/2025 02:17:12;100;0;285.33;-4;-20.54;-4.51;366.9;15.10;76158;2838.193;-1801.318;1;300;-130;-132.3;43.5;43.9;15;14.4;25.4;0.0;
02/03/2025 02:17:32;100;0;285.67;-4;-20.72;-4.33;369.6;15.00;76163;2838.196;-1801.322;1;300;-130;-133.9;43.5;43.9;15;14.0;25.4;0.0;
02/03/2025 02:17:52;100;0;286.41;-4;-20.82;-4.24;372.1;15.00;76142;2838.198;-1801.326;1;300;-130;-132.3;43.5;43.9;15;14.4;25.4;0.0;
02/03/2025 02:18:12;100;0;284.23;-4;-20.66;-4.36;374.6;15.00;76146;2838.200;-1801.331;1;300;-130;-133.9;43.5;43.9;15;14.4;25.4;0.0;
02/03/2025 02:18:32;100;0;281.97;-4;-20.82;-4.35;377.2;14.90;76138;2838.202;-1801.335;1;300;-130;-132.3;43.5;43.7;15;14.4;25.4;0.0;
02/03/2025 02:18:52;100;0;280.07;-4;-20.97;-4.43;379.8;14.90;76133;2838.204;-1801.339;1;300;-130;-133.9;43.5;43.9;15;14.4;25.4;0.0;
02/03/2025 02:19:12;100;0;279.76;-4;-20.70;-4.09;382.3;14.90;76132;2838.206;-1801.343;1;300;-130;-132.3;43.5;43.9;15;14.4;25.4;0.0;
02/03/2025 02:19:32;100;0;280.23;-4;-20.91;-4.25;385.1;14.80;76134;2838.208;-1801.348;1;300;-130;-133.9;43.5;43.7;15;14.4;25.4;0.0;
02/03/2025 02:19:52;100;0;279.12;-4;-20.85;-4.31;387.8;14.80;76122;2838.210;-1801.353;1;300;-130;-132.3;43.5;43.9;15;14.4;25.3;0.0;
02/03/2025 02:20:12;100;0;278.96;-4;-20.91;-4.28;390.6;14.80;76122;2838.212;-1801.357;1;300;-130;-133.9;43.5;43.9;15;14.0;25.4;0.0;
02/03/2025 02:20:32;100;0;280.22;-4;-20.68;-4.30;393.3;14.80;76118;2838.214;-1801.362;1;300;-130;-132.3;43.5;43.9;15;14.4;25.4;0.0;
02/03/2025 02:20:52;100;0;280.28;-4;-20.69;-4.28;396.1;14.70;76100;2838.217;-1801.366;1;300;-130;-132.3;43.5;43.9;15;14.4;25.4;0.0;
02/03/2025 02:21:12;100;0;279.66;-4;-20.72;-4.34;398.7;14.70;76101;2838.219;-1801.371;1;300;-130;-133.9;43.5;43.7;15;14.4;25.4;0.0;
02/03/2025 02:21:32;100;0;280.51;-4;-20.73;-4.26;401.5;14.70;76102;2838.221;-1801.375;1;300;-130;-133.9;43.5;43.9;15;14.4;25.4;0.0;
02/03/2025 02:21:52;100;0;279.68;-4;-20.68;-4.25;404.3;14.60;76093;2838.223;-1801.380;1;300;-130;-133.9;43.5;43.7;15;14.4;25.4;0.0;
02/03/2025 02:22:12;100;0;278.40;-4;-20.57;-4.33;407.1;14.60;76091;2838.225;-1801.384;1;300;-130;-132.3;43.5;43.7;13;13.1;25.4;0.0;
02/03/2025 02:22:32;100;0;277.70;-4;-19.69;-4.78;409.7;14.60;76079;2838.226;-1801.389;1;300;-130;-133.9;43.5;43.9;13;13.5;25.4;0.0;
02/03/2025 02:22:52;100;0;276.90;-4;-19.85;-4.91;412.2;14.60;76080;2838.228;-1801.393;1;300;-130;-133.9;43.5;43.9;13;13.5;25.4;0.0;
02/03/2025 02:23:12;100;0;276.17;-4;-19.95;-4.97;414.8;14.50;76068;2838.230;-1801.398;1;300;-130;-132.3;43.5;43.9;13;13.5;25.4;0.0;
02/03/2025 02:23:32;100;0;276.51;-4;-19.76;-4.91;417.5;14.50;76064;2838.232;-1801.402;1;300;-130;-133.9;43.5;43.9;13;13.5;25.4;0.0;
02/03/2025 02:23:52;100;0;277.10;-4;-20.51;-4.84;420.3;14.50;76053;2838.234;-1801.407;1;300;-130;-133.9;43.5;43.9;13;13.5;25.4;0.0;
02/03/2025 02:24:12;100;0;276.49;-4;-19.54;-5.28;422.7;14.50;76055;2838.236;-1801.411;1;300;-130;-133.9;43.5;43.9;13;13.5;25.4;0.0;
02/03/2025 02:24:32;100;0;276.29;-4;-20.35;-4.84;425.3;14.40;76051;2838.237;-1801.416;1;300;-130;-132.3;43.5;43.9;13;13.5;25.4;0.0;
02/03/2025 02:24:52;100;0;276.50;-4;-19.90;-4.63;428.0;14.40;76035;2838.239;-1801.420;1;300;-130;-132.3;43.5;43.9;13;13.5;25.4;0.0;
02/03/2025 02:25:12;100;0;274.26;-4;-19.58;-5.00;430.8;14.40;76039;2838.241;-1801.425;1;300;-130;-135.5;43.5;43.9;10;9.5;25.4;0.0;
02/03/2025 02:25:32;100;0;274.05;-4;-19.37;-6.97;433.5;14.40;76035;2838.243;-1801.430;1;300;-130;-132.3;43.5;43.9;10;9.5;25.4;0.0;
02/03/2025 02:25:52;100;0;278.36;-4;-19.78;-6.76;436.3;14.30;76017;2838.245;-1801.435;1;300;-130;-132.3;43.5;43.9;13;13.1;25.4;0.0;
02/03/2025 02:26:12;100;0;280.54;-4;-19.94;-4.95;439.2;14.30;76018;2838.247;-1801.440;1;300;-130;-133.9;43.5;43.9;13;13.1;25.4;0.0;
02/03/2025 02:26:32;100;0;281.30;-4;-20.43;-4.81;442.2;14.30;76012;2838.249;-1801.445;1;300;-130;-133.9;43.5;43.9;13;13.5;25.4;0.0;
02/03/2025 02:26:52;100;0;284.53;-4;-19.97;-4.36;445.1;14.20;76007;2838.251;-1801.450;1;300;-130;-133.9;43.5;43.9;13;13.5;25.4;0.0;
02/03/2025 02:27:12;100;0;287.63;-4;-20.16;-4.64;448.1;14.20;76003;2838.254;-1801.455;1;300;-130;-132.3;43.5;43.9;13;13.1;25.4;0.0;
02/03/2025 02:27:32;100;0;288.71;-4;-20.35;-4.82;451.1;14.20;76004;2838.257;-1801.459;1;300;-130;-132.3;43.5;43.9;13;13.1;25.3;0.0;
02/03/2025 02:27:52;100;0;292.42;-4;-19.97;-4.89;454.0;14.20;76000;2838.260;-1801.464;1;300;-130;-133.9;43.5;43.9;15;14.9;25.4;0.0;
02/03/2025 02:28:12;100;0;295.22;-4;-20.01;-4.01;456.9;14.10;75996;2838.263;-1801.469;1;300;-130;-133.9;43.5;43.9;15;14.9;25.4;0.0;
02/03/2025 02:28:32;100;0;296.31;-4;-19.99;-3.98;459.9;14.10;75992;2838.266;-1801.473;1;300;-130;-132.3;43.5;43.9;17;17.1;25.4;0.0;
02/03/2025 02:28:52;100;0;295.89;-4;-20.13;-2.86;462.9;14.10;75996;2838.269;-1801.478;1;300;-130;-133.9;43.5;43.9;17;17.1;25.4;0.0;
02/03/2025 02:29:12;100;0;297.06;-4;-19.73;-3.10;465.6;14.10;75975;2838.272;-1801.482;1;300;-130;-132.3;43.5;43.9;20;19.9;25.4;0.0;
02/03/2025 02:29:32;100;0;298.40;-4;-19.82;-1.47;468.3;14.00;75974;2838.275;-1801.486;1;300;-130;-133.9;43.5;43.9;22;22.1;25.4;0.0;
02/03/2025 02:29:52;100;0;297.30;-4;-20.67;-0.31;471.1;14.00;75973;2838.278;-1801.491;1;300;-130;-132.3;43.5;43.9;22;22.6;25.4;0.0;
02/03/2025 02:30:12;100;0;295.64;-4;-19.42;-0.20;474.0;14.00;75955;2838.281;-1801.495;1;300;-130;-133.9;43.5;43.9;17;17.1;25.4;0.0;
02/03/2025 02:30:32;100;0;294.35;-4;-19.76;-2.89;476.8;14.00;75967;2838.284;-1801.500;1;300;-130;-132.3;43.5;44.0;17;17.1;25.4;0.0;
02/03/2025 02:30:53;100;0;295.51;-4;-19.90;-3.16;479.6;13.90;75958;2838.287;-1801.504;1;300;-130;-133.9;43.5;43.9;17;17.1;25.4;0.0;
02/03/2025 02:31:13;100;0;293.03;-4;-18.87;-3.32;482.3;13.90;75950;2838.290;-1801.509;1;300;-130;-133.9;43.9;43.9;17;17.1;25.4;0.0;
02/03/2025 02:31:33;100;0;289.02;-4;-19.47;-3.70;485.1;13.90;75948;2838.293;-1801.514;1;300;-130;-132.3;43.9;43.9;15;14.9;25.3;0.0;
02/03/2025 02:31:53;100;0;290.40;-4;-19.35;-4.59;487.6;13.90;75958;2838.295;-1801.518;1;300;-130;-133.9;43.9;43.9;15;14.4;25.3;0.0;
02/03/2025 02:32:13;100;0;292.83;-4;-18.16;-4.33;490.6;13.80;75950;2838.298;-1801.523;1;300;-130;-132.3;44.4;44.5;15;14.4;25.4;0.0;
02/03/2025 02:32:33;100;0;293.97;-4;-20.96;-4.40;493.3;13.80;75943;2838.301;-1801.527;1;300;-130;-132.3;44.4;44.6;17;17.6;25.4;0.0;
02/03/2025 02:32:53;100;0;294.81;-4;-21.84;-2.68;496.2;13.80;75933;2838.304;-1801.531;1;300;-130;-133.9;44.4;44.6;17;17.6;25.4;0.0;
02/03/2025 02:33:13;100;0;293.11;-4;-21.66;-2.69;499.2;13.80;75921;2838.307;-1801.536;1;300;-130;-132.3;44.4;44.6;17;17.6;25.4;0.0;
02/03/2025 02:33:33;100;0;293.38;-4;-22.03;-2.68;502.2;13.70;75913;2838.310;-1801.540;1;300;-130;-132.3;43.8;43.7;17;17.6;25.3;0.0;
02/03/2025 02:33:53;100;0;293.53;-4;-20.87;-2.47;505.1;13.70;75916;2838.313;-1801.545;1;300;-130;-133.9;43.8;43.7;17;18.1;25.4;0.0;
02/03/2025 02:34:13;100;0;290.83;-4;-20.96;-2.64;508.0;13.70;75913;2838.315;-1801.549;1;300;-130;-132.3;43.8;43.6;15;14.9;25.4;0.0;
02/03/2025 02:34:33;100;0;290.39;-4;-20.94;-4.06;510.9;13.70;75900;2838.318;-1801.554;1;300;-130;-133.9;43.8;43.7;15;14.9;25.4;0.0;
02/03/2025 02:34:53;100;0;288.04;-4;-20.54;-4.12;513.9;13.60;75901;2838.321;-1801.559;1;300;-130;-132.3;43.8;43.7;15;14.9;25.4;0.0;
02/03/2025 02:35:13;100;0;286.26;-4;-20.33;-4.22;516.8;13.60;75899;2838.323;-1801.564;1;300;-130;-133.9;43.8;43.7;15;14.9;25.4;0.0;
02/03/2025 02:35:33;100;0;285.05;-4;-20.30;-4.18;519.5;13.60;75893;2838.326;-1801.568;1;300;-130;-133.9;43.8;43.7;15;14.9;25.4;0.0;
02/03/2025 02:35:53;100;0;284.82;-4;-20.38;-4.15;522.3;13.60;75884;2838.328;-1801.573;1;300;-130;-132.3;43.8;43.7;15;14.9;25.4;0.0;
02/03/2025 02:36:13;100;0;284.23;-4;-20.18;-4.17;525.2;13.60;75882;2838.330;-1801.578;1;300;-130;-133.9;43.8;43.7;15;14.9;25.4;0.0;
02/03/2025 02:36:33;100;0;284.00;-4;-20.29;-4.18;528.0;13.50;75877;2838.333;-1801.582;1;300;-130;-132.3;43.8;43.7;15;14.9;25.4;0.0;
02/03/2025 02:36:53;100;0;283.73;-4;-20.22;-4.20;530.7;13.50;75869;2838.335;-1801.587;1;300;-130;-135.5;43.8;43.6;15;14.9;25.4;0.0;
02/03/2025 02:37:13;100;0;283.27;-4;-20.00;-4.24;533.5;13.50;75874;2838.337;-1801.592;1;300;-130;-135.5;43.8;43.6;15;14.9;25.4;0.0;
02/03/2025 02:37:33;100;0;283.67;-4;-19.83;-4.24;536.1;13.50;75862;2838.339;-1801.596;1;300;-130;-132.3;43.8;43.6;15;14.4;25.4;0.0;
02/03/2025 02:37:53;100;0;284.63;-4;-19.91;-4.24;538.5;13.40;75865;2838.342;-1801.600;1;300;-130;-133.9;43.8;43.7;15;14.4;25.4;0.0;
02/03/2025 02:38:13;100;0;283.57;-4;-19.94;-4.28;541.2;13.40;75869;2838.344;-1801.605;1;300;-130;-132.3;43.8;43.7;15;14.9;25.4;0.0;
02/03/2025 02:38:33;100;0;281.51;-4;-20.02;-4.21;543.8;13.40;75851;2838.346;-1801.609;1;300;-130;-132.3;43.8;43.6;15;14.9;25.4;0.0;
02/03/2025 02:38:53;100;0;280.21;-4;-20.04;-4.21;546.5;13.40;75863;2838.348;-1801.614;1;300;-130;-132.3;43.8;43.7;15;14.9;25.4;0.0;
02/03/2025 02:39:13;100;0;278.32;-4;-20.12;-4.20;549.3;13.30;75848;2838.350;-1801.619;1;300;-130;-132.3;43.8;43.7;15;14.9;25.4;0.0;
02/03/2025 02:39:33;100;0;277.88;-4;-20.05;-4.20;551.8;13.30;75851;2838.352;-1801.623;1;300;-130;-132.3;43.8;43.7;15;14.9;25.4;0.0;
02/03/2025 02:39:53;100;0;277.67;-4;-19.94;-4.19;554.5;13.30;75857;2838.354;-1801.628;1;300;-130;-132.3;43.8;43.7;15;14.9;25.4;0.0;
02/03/2025 02:40:13;100;0;277.69;-4;-19.90;-4.23;557.1;13.30;75842;2838.356;-1801.632;1;300;-130;-132.3;43.8;43.6;15;14.9;25.4;0.0;
02/03/2025 02:40:33;100;0;278.11;-4;-19.74;-4.25;559.8;13.30;75835;2838.358;-1801.637;1;300;-130;-132.3;43.8;43.7;15;14.4;25.4;0.0;
02/03/2025 02:40:53;100;0;279.83;-4;-19.84;-4.07;562.2;13.30;75832;2838.360;-1801.641;1;300;-130;-133.9;43.8;43.6;15;14.9;25.4;0.0;
02/03/2025 02:41:13;100;0;281.18;-4;-19.39;-4.36;564.6;13.20;75823;2838.362;-1801.645;1;300;-130;-135.5;43.8;43.6;15;14.4;25.4;0.0;
02/03/2025 02:41:33;100;0;282.97;-4;-20.05;-4.30;567.1;13.20;75821;2838.364;-1801.650;1;300;-130;-132.3;43.8;43.7;15;14.4;25.4;0.0;
02/03/2025 02:41:53;100;0;285.50;-4;-19.76;-4.24;569.6;13.20;75817;2838.366;-1801.654;1;300;-130;-133.9;43.8;43.7;15;14.9;25.4;0.0;
02/03/2025 02:42:13;100;0;286.82;-4;-19.53;-4.27;571.9;13.20;75810;2838.369;-1801.658;1;300;-130;-133.9;43.8;43.7;15;14.4;25.4;0.0;
02/03/2025 02:42:33;100;0;288.07;-4;-19.66;-4.27;574.5;13.10;75808;2838.371;-1801.662;1;300;-130;-132.3;43.8;43.6;15;14.9;25.4;0.0;
02/03/2025 02:42:53;100;0;289.43;-4;-19.74;-4.28;576.8;13.10;75811;2838.374;-1801.666;1;300;-130;-133.9;43.8;43.6;15;14.9;25.4;0.0;
02/03/2025 02:43:13;100;0;291.67;-4;-19.68;-4.27;579.2;13.10;75794;2838.376;-1801.670;1;300;-130;-132.3;43.8;43.7;17;17.1;25.3;0.0;
02/03/2025 02:43:33;100;0;291.84;-4;-19.95;-2.92;581.7;13.10;75802;2838.379;-1801.674;1;300;-130;-132.3;43.8;43.7;17;17.1;25.4;0.0;
02/03/2025 02:43:53;100;0;292.68;-4;-19.88;-2.87;584.0;13.10;75795;2838.381;-1801.678;1;300;-130;-133.9;43.8;43.6;17;17.1;25.4;0.0;
02/03/2025 02:44:13;100;0;293.68;-4;-19.95;-2.90;586.5;13.00;75777;2838.384;-1801.682;1;300;-130;-132.3;43.8;43.7;17;17.1;25.4;0.0;
02/03/2025 02:44:33;100;0;293.68;-4;-19.92;-2.92;588.8;13.00;75778;2838.387;-1801.686;1;300;-130;-132.3;43.8;43.7;21;21.2;25.4;0.0;
02/03/2025 02:44:53;100;0;292.93;-4;-19.84;-0.81;591.2;13.00;75780;2838.389;-1801.690;1;300;-130;-133.9;43.8;43.7;18;18.1;25.4;0.0;
02/03/2025 02:45:13;100;0;291.58;-4;-19.79;-2.78;593.3;13.00;75777;2838.392;-1801.693;1;300;-130;-133.9;43.8;43.7;18;18.1;25.3;0.0;
02/03/2025 02:45:33;100;0;291.82;-4;-19.74;-2.75;595.5;13.00;75776;2838.394;-1801.697;1;300;-130;-133.9;43.8;43.7;18;17.6;25.3;0.0;
02/03/2025 02:45:53;100;0;292.12;-4;-19.85;-2.83;597.7;12.90;75760;2838.397;-1801.701;1;300;-130;-132.3;43.8;43.6;18;18.1;25.4;0.0;
02/03/2025 02:46:13;100;0;292.18;-4;-19.87;-2.80;599.8;12.90;75756;2838.399;-1801.704;1;300;-130;-132.3;43.8;43.6;20;19.9;25.3;0.0;
02/03/2025 02:46:33;100;0;291.26;-4;-20.11;-1.53;602.1;12.90;75759;2838.402;-1801.708;1;300;-130;-132.3;43.8;43.6;17;17.1;25.4;0.0;
02/03/2025 02:46:53;100;0;291.11;-4;-19.81;-3.19;604.5;12.90;75760;2838.404;-1801.712;1;300;-130;-132.3;43.8;43.6;17;16.7;25.4;0.0;
02/03/2025 02:47:13;100;0;292.23;-4;-19.80;-3.30;606.6;12.80;75751;2838.407;-1801.716;1;300;-130;-132.3;43.8;43.7;20;19.9;25.4;0.0;
02/03/2025 02:47:33;100;0;291.75;-4;-19.89;-1.47;608.8;12.80;75751;2838.409;-1801.720;1;300;-130;-132.3;43.8;43.7;20;20.3;25.4;0.0;
02/03/2025 02:47:53;100;0;287.72;-4;-20.34;-1.51;611.1;12.80;75745;2838.412;-1801.724;1;300;-130;-132.3;43.8;43.7;16;15.8;25.4;0.0;
02/03/2025 02:48:13;100;0;287.61;-4;-20.05;-3.74;613.5;12.80;75745;2838.414;-1801.728;1;300;-130;-132.3;43.8;43.6;16;15.8;25.4;0.0;
02/03/2025 02:48:33;100;0;287.31;-4;-19.94;-3.65;615.8;12.80;75738;2838.416;-1801.732;1;300;-130;-132.3;43.8;43.7;16;15.8;25.4;0.0;
02/03/2025 02:48:53;100;0;287.33;-4;-19.95;-3.56;618.0;12.70;75723;2838.419;-1801.735;1;300;-130;-132.3;43.8;43.6;16;15.8;25.4;0.0;
02/03/2025 02:49:13;100;0;287.38;-4;-20.18;-3.67;620.4;12.70;75729;2838.421;-1801.739;1;300;-130;-133.9;43.8;43.6;16;15.8;25.4;0.0;
02/03/2025 02:49:33;100;0;284.78;-4;-20.21;-3.69;622.9;12.70;75722;2838.423;-1801.744;1;300;-130;-133.9;43.8;43.6;16;15.8;25.4;0.0;
02/03/2025 02:49:53;100;0;282.22;-4;-19.92;-3.74;625.1;12.70;75710;2838.425;-1801.748;1;300;-130;-133.9;43.8;43.7;16;15.8;25.4;0.0;
02/03/2025 02:50:13;100;0;284.34;-4;-20.12;-3.56;627.5;12.70;75716;2838.428;-1801.752;1;300;-130;-133.9;43.8;43.6;16;15.8;25.4;0.0;
02/03/2025 02:50:33;100;0;286.24;-4;-19.79;-3.76;629.9;12.60;75706;2838.430;-1801.756;1;300;-130;-133.9;43.8;43.6;16;15.8;25.4;0.0;
02/03/2025 02:50:53;100;0;286.46;-4;-19.85;-3.76;632.3;12.60;75699;2838.432;-1801.760;1;300;-130;-133.9;43.8;43.6;16;15.8;25.4;0.0;
02/03/2025 02:51:13;100;0;283.13;-4;-20.23;-3.83;634.9;12.60;75696;2838.435;-1801.764;1;300;-130;-132.3;43.8;43.7;16;15.8;25.4;0.0;
02/03/2025 02:51:33;100;0;280.36;-4;-20.19;-3.75;637.4;12.60;75697;2838.437;-1801.769;1;300;-130;-133.9;43.8;43.7;16;15.8;25.4;0.0;
02/03/2025 02:51:53;100;0;278.52;-4;-19.88;-3.69;640.0;12.60;75684;2838.439;-1801.773;1;300;-130;-132.3;43.8;43.6;16;15.8;25.4;0.0;
02/03/2025 02:52:13;100;0;277.82;-4;-19.94;-3.70;642.6;12.50;75680;2838.440;-1801.778;1;300;-130;-133.9;43.8;43.6;16;15.8;25.4;0.0;
02/03/2025 02:52:33;100;0;277.01;-4;-19.96;-3.74;645.4;12.50;75678;2838.442;-1801.782;1;300;-130;-132.3;43.8;43.6;13;13.1;25.4;0.0;
02/03/2025 02:52:53;100;0;276.55;-4;-19.32;-5.19;648.0;12.50;75671;2838.444;-1801.787;1;300;-130;-132.3;43.8;43.7;13;13.1;25.4;0.0;
02/03/2025 02:53:13;100;0;277.51;-4;-19.07;-5.18;650.6;12.50;75667;2838.446;-1801.792;1;300;-130;-133.9;43.8;43.6;13;13.1;25.4;0.0;
02/03/2025 02:53:33;100;0;279.68;-4;-19.11;-5.17;653.0;12.50;75654;2838.448;-1801.796;1;300;-130;-133.9;43.8;43.6;15;14.9;25.4;0.0;
02/03/2025 02:53:53;100;0;280.62;-4;-19.07;-4.25;655.5;12.40;75655;2838.450;-1801.800;1;300;-130;-133.9;43.8;43.6;15;14.9;25.4;0.0;
02/03/2025 02:54:13;100;0;281.72;-4;-19.03;-4.14;657.9;12.40;75646;2838.452;-1801.805;1;300;-130;-133.9;43.8;43.6;15;15.3;25.4;0.0;
02/03/2025 02:54:33;100;0;283.22;-4;-18.67;-3.83;660.4;12.40;75645;2838.454;-1801.809;1;300;-130;-133.9;44.2;44.2;15;14.9;25.4;0.0;
02/03/2025 02:54:53;100;0;283.93;-4;-20.00;-4.12;663.0;12.40;75640;2838.457;-1801.814;1;300;-130;-132.3;44.2;44.3;15;14.9;25.4;0.0;
02/03/2025 02:55:13;100;0;285.09;-4;-19.23;-4.14;665.5;12.40;75641;2838.459;-1801.818;1;300;-130;-132.3;44.2;44.3;15;15.3;25.4;0.0;
02/03/2025 02:55:33;100;0;286.14;-4;-20.35;-4.00;668.1;12.30;75633;2838.461;-1801.822;1;300;-130;-133.9;44.2;44.3;15;14.9;25.4;0.0;
02/03/2025 02:55:53;100;0;285.60;-4;-19.71;-4.03;670.8;12.30;75623;2838.464;-1801.827;1;300;-130;-132.3;44.2;44.5;15;14.9;25.4;0.0;
02/03/2025 02:56:13;100;0;280.76;-4;-20.51;-4.03;673.4;12.30;75624;2838.466;-1801.831;1;300;-130;-132.3;44.2;44.3;15;14.9;25.4;0.0;
02/03/2025 02:56:33;100;0;276.24;-4;-20.29;-4.05;676.1;12.30;75614;2838.468;-1801.836;1;300;-130;-132.3;44.2;44.3;13;12.6;25.3;0.0;
02/03/2025 02:56:53;100;0;274.63;-4;-20.30;-5.29;678.7;12.30;75604;2838.469;-1801.841;1;300;-130;-132.3;44.2;44.3;13;12.6;25.4;0.0;
02/03/2025 02:57:13;100;0;274.69;-4;-20.84;-5.13;681.3;12.20;75594;2838.471;-1801.845;1;300;-130;-133.9;44.2;44.3;13;12.6;25.4;0.0;
02/03/2025 02:57:33;100;0;267.61;-4;-20.99;-5.25;684.1;12.20;75590;2838.472;-1801.850;1;300;-130;-133.9;44.2;44.3;4;4.1;25.4;0.0;
02/03/2025 02:57:53;100;0;263.71;-4;-21.10;-9.14;686.8;12.20;75580;2838.474;-1801.854;1;300;-130;-132.3;44.2;44.5;-2;-1.8;25.4;0.0;
02/03/2025 02:58:13;100;0;266.65;-4;-19.52;-12.42;689.6;12.10;75573;2838.475;-1801.859;1;300;-130;-133.9;44.2;44.3;1;0.9;25.4;0.0;
02/03/2025 02:58:33;100;0;271.26;-4;-19.72;-10.88;692.1;12.10;75570;2838.476;-1801.863;1;300;-130;-133.9;44.2;44.3;10;9.9;25.4;0.0;
02/03/2025 02:58:53;100;0;274.64;-4;-20.03;-6.47;694.9;12.10;75580;2838.478;-1801.868;1;300;-130;-132.3;44.2;44.3;10;9.9;25.4;0.0;
02/03/2025 02:59:13;100;0;277.02;-4;-20.07;-6.55;697.7;12.10;75570;2838.480;-1801.873;1;300;-130;-133.9;44.2;44.3;13;13.1;25.4;0.0;
02/03/2025 02:59:33;100;0;277.99;-4;-20.52;-4.71;700.5;12.10;75568;2838.482;-1801.878;1;300;-130;-132.3;44.2;44.3;13;13.5;25.3;0.0;
02/03/2025 02:59:53;100;0;280.38;-4;-20.22;-4.69;703.3;12.10;75561;2838.484;-1801.882;1;300;-130;-133.9;44.2;44.3;13;13.5;25.4;0.0;
02/03/2025 03:00:13;100;0;282.12;-4;-20.30;-4.66;706.2;12.00;75554;2838.486;-1801.887;1;300;-130;-132.3;44.2;44.3;15;14.9;25.4;0.0;
02/03/2025 03:00:33;100;0;283.01;-4;-20.37;-3.92;709.0;12.00;75558;2838.488;-1801.892;1;300;-130;-132.3;44.2;44.3;15;15.3;25.4;0.0;
02/03/2025 03:00:53;100;0;285.31;-4;-20.48;-3.84;711.9;12.00;75556;2838.491;-1801.897;1;300;-130;-133.9;44.2;44.3;15;15.3;25.3;0.0;
02/03/2025 03:01:13;100;0;284.95;-4;-20.34;-3.88;714.7;12.00;75546;2838.493;-1801.901;1;300;-130;-133.9;44.2;44.3;15;15.3;25.4;0.0;
02/03/2025 03:01:33;100;0;283.32;-4;-20.40;-3.93;717.6;11.90;75545;2838.496;-1801.906;1;300;-130;-132.3;44.2;44.3;15;15.3;25.4;0.0;
02/03/2025 03:01:53;100;0;281.56;-4;-20.56;-3.95;720.3;11.90;75534;2838.498;-1801.911;1;300;-130;-132.3;44.2;44.3;15;15.3;25.4;0.0;
02/03/2025 03:02:13;100;0;280.76;-4;-20.42;-3.90;723.2;11.90;75538;2838.500;-1801.916;1;300;-130;-133.9;44.2;44.3;15;15.3;25.4;0.0;
02/03/2025 03:02:33;100;0;280.95;-4;-20.30;-3.84;726.0;11.90;75525;2838.502;-1801.920;1;300;-130;-132.3;44.2;44.5;15;15.3;25.4;0.0;
02/03/2025 03:02:53;100;0;282.26;-4;-20.11;-3.89;728.8;11.90;75526;2838.504;-1801.925;1;300;-130;-133.9;44.2;44.3;15;15.3;25.4;0.0;
02/03/2025 03:03:13;100;0;284.24;-4;-20.25;-3.98;731.6;11.80;75522;2838.507;-1801.930;1;300;-130;-132.3;44.2;44.3;15;15.3;25.4;0.0;
02/03/2025 03:03:33;100;0;285.16;-4;-20.37;-3.95;734.4;11.80;75520;2838.509;-1801.934;1;300;-130;-132.3;44.2;44.3;15;15.3;25.4;0.0;
02/03/2025 03:03:53;100;0;286.18;-4;-20.22;-3.81;737.2;11.80;75508;2838.511;-1801.939;1;300;-130;-133.9;44.2;44.3;15;15.3;25.4;0.0;
02/03/2025 03:04:13;100;0;289.63;-4;-20.21;-3.95;739.9;11.80;75511;2838.514;-1801.944;1;300;-130;-132.3;44.2;44.3;15;15.3;25.4;0.0;
02/03/2025 03:04:33;100;0;292.61;-4;-19.92;-3.90;742.6;11.80;75509;2838.517;-1801.948;1;300;-130;-133.9;44.2;44.3;17;17.1;25.3;0.0;
02/03/2025 03:04:53;100;0;292.17;-4;-19.81;-2.91;745.4;11.70;75497;2838.520;-1801.953;1;300;-130;-132.3;44.2;44.5;17;17.6;25.4;0.0;
02/03/2025 03:05:13;100;0;291.55;-4;-20.41;-2.84;748.0;11.70;75492;2838.522;-1801.957;1;300;-130;-132.3;44.2;44.3;17;17.6;25.4;0.0;
02/03/2025 03:05:33;100;0;288.21;-4;-19.92;-3.04;750.7;11.70;75495;2838.525;-1801.961;1;300;-130;-133.9;44.2;44.5;15;14.9;25.4;0.0;
02/03/2025 03:05:54;100;0;289.35;-4;-19.72;-4.12;753.4;11.70;75492;2838.527;-1801.966;1;300;-130;-133.9;44.2;44.3;15;14.9;25.4;0.0;
02/03/2025 03:06:14;100;0;288.63;-4;-20.17;-4.23;756.0;11.70;75485;2838.530;-1801.970;1;300;-130;-133.9;44.2;44.5;15;14.4;25.4;0.0;
02/03/2025 03:06:34;100;0;287.52;-4;-20.08;-4.22;758.6;11.60;75481;2838.532;-1801.974;1;300;-130;-132.3;44.2;44.3;15;14.4;25.4;0.0;
02/03/2025 03:06:54;100;0;287.70;-4;-19.77;-4.32;761.1;11.60;75487;2838.535;-1801.979;1;300;-130;-132.3;44.2;44.3;15;14.9;25.4;0.0;
02/03/2025 03:07:14;100;0;289.01;-4;-19.86;-4.23;763.8;11.60;75479;2838.537;-1801.983;1;300;-130;-133.9;44.2;44.5;15;14.4;25.4;0.0;
02/03/2025 03:07:34;100;0;290.15;-4;-19.84;-4.20;766.3;11.60;75475;2838.540;-1801.987;1;300;-130;-135.5;44.2;44.3;15;14.4;25.4;0.0;
02/03/2025 03:07:54;100;0;291.17;-4;-19.98;-4.28;768.7;11.60;75471;2838.543;-1801.991;1;300;-130;-132.3;44.2;44.3;17;17.1;25.4;0.0;
02/03/2025 03:08:14;100;0;291.86;-4;-19.86;-2.91;771.3;11.50;75459;2838.545;-1801.996;1;300;-130;-132.3;44.2;44.3;17;17.1;25.4;0.0;
02/03/2025 03:08:34;100;0;291.81;-4;-20.17;-2.86;773.8;11.50;75464;2838.548;-1802.000;1;300;-130;-133.9;44.2;44.3;17;17.1;25.4;0.0;
02/03/2025 03:08:54;100;0;292.09;-4;-20.17;-2.97;776.2;11.50;75469;2838.550;-1802.004;1;300;-130;-133.9;44.2;44.3;17;17.1;25.3;0.0;
02/03/2025 03:09:14;100;0;290.98;-4;-20.24;-3.15;778.6;11.50;75464;2838.553;-1802.008;1;300;-130;-132.3;44.2;44.3;17;17.1;25.4;0.0;
02/03/2025 03:09:34;100;0;292.44;-4;-20.17;-2.94;781.1;11.50;75461;2838.556;-1802.012;1;300;-130;-133.9;44.2;44.3;17;17.1;25.4;0.0;
02/03/2025 03:09:54;100;0;292.69;-4;-20.05;-3.07;783.6;11.50;75461;2838.558;-1802.016;1;300;-130;-133.9;44.2;44.3;17;17.1;25.4;0.0;
02/03/2025 03:10:14;100;0;292.52;-4;-20.21;-3.10;786.1;11.40;75456;2838.561;-1802.020;1;300;-130;-132.3;44.2;44.3;17;17.1;25.4;0.0;
02/03/2025 03:10:34;100;0;287.33;-4;-19.77;-3.18;788.9;11.40;75453;2838.564;-1802.025;1;300;-130;-132.3;44.2;44.5;15;14.9;25.4;0.0;
02/03/2025 03:10:54;100;0;287.92;-4;-19.93;-4.33;791.3;11.40;75449;2838.566;-1802.029;1;300;-130;-132.3;44.2;44.5;15;14.4;25.4;0.0;
02/03/2025 03:11:14;100;0;288.20;-4;-19.61;-4.48;793.8;11.40;75442;2838.568;-1802.033;1;300;-130;-132.3;44.2;44.3;15;14.4;25.4;0.0;
02/03/2025 03:11:34;100;0;285.25;-4;-20.70;-4.16;796.2;11.40;75446;2838.571;-1802.037;1;300;-130;-132.3;44.2;44.3;15;14.4;25.3;0.0;
02/03/2025 03:11:54;100;0;282.75;-4;-20.10;-4.47;798.7;11.30;75435;2838.573;-1802.041;1;300;-130;-133.9;44.2;44.3;15;14.4;25.4;0.0;
02/03/2025 03:12:14;100;0;283.83;-4;-19.42;-4.61;801.2;11.30;75443;2838.575;-1802.046;1;300;-130;-133.9;44.2;44.3;15;14.4;25.4;0.0;
02/03/2025 03:12:34;100;0;284.41;-4;-19.48;-4.36;803.5;11.30;75433;2838.577;-1802.050;1;300;-130;-133.9;44.2;44.3;15;14.4;25.4;0.0;
02/03/2025 03:12:54;100;0;283.60;-4;-20.13;-4.32;805.9;11.30;75420;2838.580;-1802.054;1;300;-130;-133.9;44.2;44.3;15;14.4;25.4;0.0;
02/03/2025 03:13:14;100;0;283.77;-4;-20.68;-4.66;808.1;11.30;75422;2838.582;-1802.058;1;300;-130;-133.9;44.2;44.3;15;14.4;25.3;0.0;
02/03/2025 03:13:34;100;0;280.96;-4;-20.20;-4.60;810.7;11.30;75425;2838.584;-1802.062;1;300;-130;-133.9;44.2;44.3;15;14.4;25.4;0.0;
02/03/2025 03:13:54;100;0;274.17;-4;-19.36;-4.74;813.0;11.30;75420;2838.585;-1802.066;1;300;-130;-132.3;44.2;44.3;15;14.4;25.3;0.0;
02/03/2025 03:14:14;100;0;276.43;-4;-19.32;-4.76;815.2;11.20;75418;2838.587;-1802.070;1;300;-130;-137.1;44.2;44.5;15;14.4;25.4;0.0;
02/03/2025 03:14:34;100;0;274.06;-4;-19.04;-4.60;817.3;11.20;75406;2838.589;-1802.074;1;300;-130;-132.3;44.2;44.5;15;14.4;25.4;0.0;
02/03/2025 03:14:54;100;0;281.38;-4;-21.28;-3.92;819.3;11.20;75403;2838.591;-1802.078;1;300;-130;-132.3;44.2;44.3;15;14.4;25.4;0.0;
02/03/2025 03:15:14;100;0;273.15;-4;-17.97;-4.50;822.1;11.20;75396;2838.592;-1802.083;1;300;-130;-133.9;44.8;45.1;9;9.0;25.4;0.0;
02/03/2025 03:15:34;100;0;274.76;-4;-19.99;-7.17;824.3;11.20;75404;2838.594;-1802.087;1;300;-130;-133.9;44.8;45.1;14;14.0;25.4;0.0;
02/03/2025 03:15:54;100;0;272.10;-4;-22.11;-4.32;826.5;11.10;75390;2838.596;-1802.091;1;300;-130;-133.9;44.2;44.2;14;14.4;25.4;0.0;
02/03/2025 03:16:14;100;0;271.07;-4;-20.24;-4.78;829.0;11.10;75399;2838.597;-1802.095;1;300;-130;-132.3;44.2;44.0;10;9.9;25.4;0.0;
02/03/2025 03:16:34;100;0;273.29;-4;-20.55;-6.63;831.4;11.10;75395;2838.599;-1802.099;1;300;-130;-132.3;44.2;44.0;13;13.1;25.3;0.0;
02/03/2025 03:16:54;100;0;267.59;-4;-20.19;-4.88;833.8;11.10;75384;2838.600;-1802.103;1;300;-130;-132.3;44.2;43.9;7;7.2;25.4;0.0;
02/03/2025 03:17:14;100;0;261.57;-4;-18.49;-8.17;836.1;11.10;75383;2838.601;-1802.108;1;300;-130;-132.3;44.6;44.8;-4;-4.1;25.4;0.0;
02/03/2025 03:17:34;100;0;264.19;-4;-19.71;-13.73;838.5;11.10;75378;2838.602;-1802.112;1;300;-130;-132.3;44.6;44.8;0;0.0;25.4;0.0;
02/03/2025 03:17:54;100;0;273.55;-4;-21.04;-11.50;840.9;11.00;75373;2838.604;-1802.116;1;300;-130;-132.3;44.6;44.8;13;13.5;25.4;0.0;
02/03/2025 03:18:14;100;0;270.97;-4;-20.46;-4.77;843.5;11.00;75371;2838.605;-1802.120;1;300;-130;-133.9;44.6;44.9;9;9.0;25.4;0.0;
02/03/2025 03:18:34;100;0;273.86;-4;-20.34;-7.11;845.8;11.00;75359;2838.607;-1802.125;1;300;-130;-132.3;44.6;44.9;14;14.0;25.4;0.0;
02/03/2025 03:18:54;100;0;274.20;-4;-20.47;-4.53;848.2;11.00;75362;2838.609;-1802.129;1;300;-130;-132.3;44.6;44.9;14;14.4;25.4;0.0;
02/03/2025 03:19:14;100;0;278.84;-4;-21.70;-4.46;850.5;11.00;75354;2838.611;-1802.133;1;300;-130;-132.3;44.6;44.9;14;14.4;25.4;0.0;
02/03/2025 03:19:34;100;0;278.96;-4;-20.60;-4.39;852.8;11.00;75361;2838.613;-1802.137;1;300;-130;-133.9;44.6;44.9;14;14.0;25.3;0.0;
02/03/2025 03:19:54;100;0;281.36;-4;-20.35;-4.48;855.2;11.00;75350;2838.615;-1802.141;1;300;-130;-133.9;44.6;44.9;14;14.0;25.3;0.0;
02/03/2025 03:20:14;100;0;281.15;-4;-20.83;-4.37;857.4;10.90;75359;2838.617;-1802.145;1;300;-130;-133.9;44.6;44.9;14;14.0;25.4;0.0;
02/03/2025 03:20:34;100;0;279.88;-4;-20.81;-4.42;859.5;10.90;75350;2838.618;-1802.148;1;300;-130;-133.9;44.6;44.9;14;14.0;25.4;0.0;
02/03/2025 03:20:54;100;0;279.83;-4;-20.77;-4.45;861.6;10.90;75328;2838.620;-1802.152;1;300;-130;-133.9;44.6;44.8;14;14.4;25.4;0.0;
02/03/2025 03:21:14;100;0;280.49;-4;-20.97;-4.41;863.7;10.90;75343;2838.622;-1802.155;1;300;-130;-133.9;44.6;44.8;14;14.0;25.3;0.0;
02/03/2025 03:21:34;100;0;281.56;-4;-20.96;-4.45;865.7;10.90;75338;2838.624;-1802.159;1;300;-150;-151.6;44.6;44.8;14;14.0;25.4;0.0;
02/03/2025 03:21:54;100;0;280.12;-4;-20.92;-4.38;867.9;10.80;75374;2838.626;-1802.163;1;300;-150;-154.8;44.6;44.8;14;14.4;25.4;0.0;
02/03/2025 03:22:14;100;0;281.01;-4;-21.21;-4.62;870.4;10.80;75377;2838.628;-1802.167;1;300;-150;-153.2;44.6;44.8;14;14.0;25.4;0.0;
02/03/2025 03:22:34;100;0;279.94;-4;-20.74;-4.47;872.9;10.80;75374;2838.630;-1802.171;1;300;-150;-153.2;44.6;44.9;14;14.0;25.4;0.0;
02/03/2025 03:22:54;100;0;279.66;-4;-20.22;-4.41;875.5;10.80;75367;2838.632;-1802.176;1;300;-150;-154.8;44.6;44.9;14;14.0;25.4;0.0;
02/03/2025 03:23:14;100;0;279.03;-4;-20.73;-4.51;878.0;10.80;75370;2838.634;-1802.180;1;300;-150;-153.2;44.6;44.9;14;14.0;25.3;0.0;
02/03/2025 03:23:34;100;0;277.59;-4;-21.11;-4.67;880.6;10.80;75361;2838.636;-1802.184;1;300;-150;-153.2;44.6;44.9;14;14.4;25.4;0.0;
02/03/2025 03:23:54;100;0;281.42;-4;-20.51;-4.39;883.6;10.80;75367;2838.638;-1802.189;1;300;-150;-153.2;44.6;44.9;14;14.4;25.4;0.0;
02/03/2025 03:24:14;100;0;281.50;-4;-21.04;-4.35;886.7;10.70;75359;2838.640;-1802.194;1;300;-150;-153.2;44.6;44.9;14;14.4;25.3;0.0;
02/03/2025 03:24:34;100;0;282.25;-4;-20.75;-4.50;889.9;10.70;75353;2838.643;-1802.199;1;300;-150;-153.2;44.6;44.8;14;14.0;25.4;0.0;
02/03/2025 03:24:54;100;0;281.82;-4;-20.53;-4.37;893.2;10.70;75355;2838.645;-1802.204;1;300;-150;-153.2;44.6;44.8;14;14.4;25.3;0.0;
02/03/2025 03:25:14;100;0;282.07;-4;-20.11;-4.48;896.2;10.70;75343;2838.647;-1802.209;1;300;-150;-154.8;44.6;44.9;14;14.0;25.4;41.3;
02/03/2025 03:25:34;100;0;282.65;-4;-20.30;-4.24;899.2;10.70;75344;2838.650;-1802.214;1;300;-150;-153.2;44.6;44.9;14;14.0;25.4;38.7;
02/03/2025 03:25:54;100;0;281.71;-4;-20.60;-4.46;902.1;10.70;75341;2838.652;-1802.219;1;300;-150;-153.2;44.6;44.9;14;14.0;25.4;36.3;
02/03/2025 03:26:14;100;0;281.92;-4;-20.99;-4.33;905.2;10.60;75336;2838.654;-1802.224;1;300;-150;-153.2;44.6;44.9;14;14.4;25.4;33.8;
02/03/2025 03:26:32;118;0;283.36;-4;-20.36;-4.27;907.8;10.60;75334;2838.656;-1802.229;1;300;450;-151.6;22.6;22.7;6;5.4;25.4;31.6;
02/03/2025 03:26:42;118;0;67.67;-4;-7.22;-9.91;908.9;10.60;75318;2838.657;-1802.227;1;300;450;-22.6;22.6;22.5;6;5.4;24.0;-1.0;
02/03/2025 03:26:52;118;0;43.72;-4;18.03;-9.56;909.1;10.60;75049;2838.658;-1802.227;1;300;450;100.0;22.6;22.7;6;5.4;23.7;-1.0;
02/03/2025 03:27:02;118;0;36.19;-4;27.04;-9.95;908.3;10.60;74799;2838.660;-1802.227;1;300;450;222.6;22.6;22.8;6;5.4;24.0;-1.0;
02/03/2025 03:27:12;118;0;36.35;-4;26.30;-9.67;907.3;10.60;74548;2838.661;-1802.227;1;300;450;345.2;22.6;22.7;6;5.4;24.0;-1.0;
02/03/2025 03:27:22;118;0;40.53;-4;23.81;-9.22;906.2;10.60;74303;2838.663;-1802.226;1;300;450;453.2;22.6;22.8;6;5.4;24.0;-1.0;
02/03/2025 03:27:32;118;0;298.86;-4;21.68;-8.68;904.6;10.60;74075;2838.665;-1802.228;1;300;450;451.6;22.6;22.8;6;5.4;25.3;-1.0;
02/03/2025 03:27:42;118;0;276.39;-4;19.27;-8.51;902.8;10.70;74079;2838.666;-1802.231;1;300;450;453.2;22.6;22.7;6;5.4;25.3;-1.0;
02/03/2025 03:28:02;117;0;268.46;-4;16.96;-8.55;899.9;10.70;74089;2838.667;-1802.237;1;300;450;453.2;22.6;22.7;6;5.4;25.3;-1.0;
02/03/2025 03:28:22;117;0;262.69;-4;16.99;-8.69;896.7;10.70;74079;2838.668;-1802.243;1;300;450;451.6;21.7;21.5;52;52.3;25.3;-1.0;
02/03/2025 03:28:42;117;0;269.36;-4;21.30;16.13;893.6;10.80;74097;2838.669;-1802.248;1;300;450;453.2;21.7;21.9;39;38.8;25.3;-1.0;
02/03/2025 03:29:02;117;0;271.98;-4;22.48;8.84;889.5;10.80;74074;2838.671;-1802.254;1;300;450;453.2;22.5;22.5;39;38.8;25.3;-1.0;
02/03/2025 03:29:22;117;0;275.54;-4;20.70;8.52;885.3;10.80;74074;2838.673;-1802.261;1;300;450;453.2;22.5;22.5;36;36.1;25.3;-1.0;
02/03/2025 03:29:42;117;0;277.99;-4;19.89;7.08;881.3;10.80;74074;2838.675;-1802.267;1;300;450;453.2;22.5;22.7;32;32.0;25.3;-1.0;
02/03/2025 03:30:02;117;0;279.39;-4;19.99;5.05;877.6;10.70;74065;2838.677;-1802.273;1;300;450;453.2;22.5;22.7;30;29.8;25.4;-1.0;
02/03/2025 03:30:22;117;0;280.39;-4;19.47;3.67;874.0;10.70;74065;2838.680;-1802.279;1;300;450;453.2;22.5;22.5;30;29.8;25.4;-1.0;
02/03/2025 03:30:42;117;0;281.18;-4;19.74;3.91;870.5;10.70;74055;2838.682;-1802.285;1;300;450;453.2;22.5;22.5;30;29.8;25.4;-1.0;
02/03/2025 03:31:02;117;0;281.13;-4;18.80;4.22;867.0;10.70;74055;2838.684;-1802.291;1;300;450;453.2;22.1;22.1;30;29.8;25.3;-1.0;
02/03/2025 03:31:22;117;0;283.40;-4;22.12;3.65;863.5;10.70;74044;2838.687;-1802.296;1;300;450;453.2;22.8;22.7;28;28.0;25.3;-1.0;
02/03/2025 03:31:42;117;0;284.55;-4;19.79;2.92;860.1;10.70;74042;2838.689;-1802.302;1;300;450;453.2;22.8;23.0;28;28.0;25.4;-1.0;
02/03/2025 03:32:02;117;0;285.47;-4;19.35;2.92;856.7;10.60;74044;2838.692;-1802.308;1;300;450;453.2;22.8;22.8;28;28.0;25.4;-1.0;
02/03/2025 03:32:22;117;0;282.95;-4;19.76;2.42;853.2;10.60;74025;2838.694;-1802.313;1;300;450;453.2;22.8;22.8;28;27.5;25.3;-1.0;
02/03/2025 03:32:42;117;0;282.08;-4;18.38;2.76;850.1;10.60;74031;2838.697;-1802.319;1;300;450;453.2;22.3;22.1;28;28.0;25.4;-1.0;
02/03/2025 03:33:02;117;0;284.45;-4;19.90;2.55;847.4;10.60;74037;2838.699;-1802.324;1;300;450;453.2;22.3;21.9;28;27.5;25.4;-1.0;
02/03/2025 03:33:22;117;0;284.57;-4;21.62;2.86;844.2;10.60;74030;2838.701;-1802.328;1;300;450;451.6;22.3;21.5;28;27.5;25.3;-1.0;
02/03/2025 03:33:42;117;0;284.79;-4;22.21;3.10;840.6;10.60;74028;2838.704;-1802.334;1;300;450;453.2;22.9;23.0;28;28.0;25.3;-1.0;
02/03/2025 03:34:02;117;0;285.36;-4;19.98;3.07;836.8;10.60;74028;2838.707;-1802.340;1;300;450;451.6;22.9;23.0;28;28.0;25.4;-1.0;
02/03/2025 03:34:22;117;0;284.77;-4;19.16;2.90;833.2;10.60;74031;2838.709;-1802.346;1;300;450;454.8;22.9;23.1;28;28.0;25.4;-1.0;
02/03/2025 03:34:42;117;0;285.11;-4;18.17;2.83;830.0;10.60;74035;2838.712;-1802.352;1;300;450;454.8;22.4;22.2;28;28.0;25.3;-1.0;
02/03/2025 03:35:02;117;0;285.32;-4;19.49;2.72;827.0;10.50;74015;2838.715;-1802.357;1;300;450;454.8;22.4;21.9;28;28.0;25.4;-1.0;
02/03/2025 03:35:22;117;0;284.06;-4;19.87;2.75;823.8;10.50;74020;2838.717;-1802.362;1;300;450;453.2;22.4;22.1;28;27.5;25.3;-1.0;
02/03/2025 03:35:42;117;0;283.86;-4;20.24;2.95;820.6;10.50;74018;2838.719;-1802.367;1;300;450;454.8;22.4;22.1;28;27.5;25.4;-1.0;
02/03/2025 03:36:02;117;0;284.15;-4;20.50;2.91;817.2;10.50;74021;2838.722;-1802.373;1;300;450;453.2;22.4;22.1;28;27.5;25.4;-1.0;
02/03/2025 03:36:22;117;0;279.74;-4;20.07;3.72;813.7;10.50;74015;2838.724;-1802.378;1;300;450;453.2;22.4;22.4;30;30.2;25.3;-1.0;
02/03/2025 03:36:42;117;0;281.88;-4;20.51;4.04;810.5;10.50;74017;2838.726;-1802.384;1;300;450;453.2;22.4;22.5;28;28.0;25.4;-1.0;
02/03/2025 03:37:02;117;0;282.73;-4;20.66;2.92;806.8;10.50;74020;2838.729;-1802.389;1;300;450;453.2;22.4;22.5;28;27.5;25.3;-1.0;
02/03/2025 03:37:22;117;0;282.98;-4;19.64;2.85;803.3;10.40;74010;2838.731;-1802.395;1;300;450;453.2;22.4;22.5;28;27.5;25.4;-1.0;
02/03/2025 03:37:42;117;0;282.07;-4;19.73;3.06;799.8;10.40;73999;2838.734;-1802.401;1;300;450;451.6;22.4;22.5;28;28.0;25.4;-1.0;
02/03/2025 03:38:02;117;0;282.09;-4;19.59;2.88;796.5;10.40;74013;2838.736;-1802.406;1;300;450;453.2;22.4;22.5;28;27.5;25.4;-1.0;
02/03/2025 03:38:22;117;0;283.51;-4;19.80;2.94;793.0;10.40;74025;2838.739;-1802.412;1;300;450;453.2;22.4;22.5;28;28.0;25.3;-1.0;
02/03/2025 03:38:42;117;0;283.36;-4;20.04;2.35;789.4;10.40;74015;2838.741;-1802.418;1;300;450;454.8;22.4;22.5;28;27.5;25.4;-1.0;
02/03/2025 03:39:02;117;0;283.11;-4;20.11;2.99;785.7;10.40;74008;2838.744;-1802.424;1;300;450;453.2;22.4;22.7;28;27.5;25.4;-1.0;
02/03/2025 03:39:22;117;0;284.67;-4;20.25;3.01;782.0;10.40;74008;2838.746;-1802.430;1;300;450;453.2;22.4;22.5;28;27.5;25.4;-1.0;
02/03/2025 03:39:42;117;0;291.04;-4;18.88;2.65;778.5;10.40;74016;2838.749;-1802.435;1;300;450;453.2;22.0;22.1;28;27.5;25.4;-1.0;
02/03/2025 03:40:02;117;0;289.23;-4;20.35;3.04;775.2;10.40;74019;2838.752;-1802.441;1;300;450;451.6;22.0;21.6;28;27.5;25.4;-1.0;
02/03/2025 03:40:22;117;0;290.32;-4;20.44;2.69;771.9;10.40;74003;2838.755;-1802.446;1;300;450;453.2;22.0;21.6;28;27.5;25.4;-1.0;
02/03/2025 03:40:42;117;0;292.29;-4;21.03;3.38;768.2;10.40;74006;2838.758;-1802.452;1;300;450;453.2;22.0;21.6;28;27.5;25.4;-1.0;
02/03/2025 03:41:02;117;0;293.44;-4;21.22;2.90;764.5;10.40;74007;2838.762;-1802.457;1;300;450;451.6;22.0;21.6;28;28.0;25.4;-1.0;
02/03/2025 03:41:23;117;0;295.94;-4;20.89;3.11;760.9;10.40;74017;2838.765;-1802.462;1;300;450;453.2;22.0;21.5;26;26.2;25.3;-1.0;
02/03/2025 03:41:43;117;0;293.03;-4;21.43;1.67;757.0;10.40;74012;2838.768;-1802.468;1;300;450;454.8;22.0;22.1;28;28.0;25.4;-1.0;
02/03/2025 03:42:03;117;0;295.56;-4;20.72;3.35;752.9;10.30;74005;2838.772;-1802.474;1;300;450;454.8;22.0;22.2;28;28.9;25.3;-1.0;
02/03/2025 03:42:23;117;0;295.93;-4;20.18;3.49;749.1;10.30;74010;2838.776;-1802.480;1;300;450;454.8;22.0;22.2;28;28.9;25.4;-1.0;
02/03/2025 03:42:43;117;0;295.74;-4;20.34;3.26;745.4;10.30;74002;2838.779;-1802.485;1;300;450;453.2;22.0;22.2;28;28.9;25.4;-1.0;
02/03/2025 03:43:03;117;0;295.29;-4;20.43;3.33;741.6;10.30;74011;2838.783;-1802.491;1;300;450;453.2;22.0;22.4;28;28.9;25.4;-1.0;
02/03/2025 03:43:23;117;0;295.00;-4;20.59;3.18;737.8;10.30;74005;2838.786;-1802.497;1;300;450;454.8;22.0;22.2;28;28.9;25.4;-1.0;
02/03/2025 03:43:43;117;0;295.45;-4;20.20;3.42;734.1;10.30;74003;2838.790;-1802.502;1;300;450;453.2;22.0;22.2;26;26.2;25.3;-1.0;
02/03/2025 03:44:03;117;0;294.48;-4;20.02;1.89;730.4;10.30;74005;2838.793;-1802.508;1;300;450;453.2;22.0;22.2;26;25.7;25.3;-1.0;
02/03/2025 03:44:23;117;0;292.49;-4;20.06;1.87;726.9;10.30;74003;2838.796;-1802.514;1;300;450;454.8;22.0;22.2;26;25.7;25.4;-1.0;
02/03/2025 03:44:43;117;0;291.47;-4;20.32;1.88;723.3;10.30;74006;2838.799;-1802.519;1;300;450;453.2;22.0;22.2;28;28.0;25.4;-1.0;
02/03/2025 03:45:03;117;0;292.51;-4;20.49;3.30;719.7;10.30;73998;2838.803;-1802.525;1;300;450;453.2;22.0;22.2;28;28.4;25.4;-1.0;
02/03/2025 03:45:23;117;0;293.21;-4;20.16;3.30;716.1;10.30;74001;2838.806;-1802.530;1;300;450;453.2;22.0;22.2;28;28.4;25.4;-1.0;
02/03/2025 03:45:43;117;0;291.81;-4;20.07;3.54;712.6;10.30;73985;2838.809;-1802.536;1;300;450;453.2;22.0;22.2;28;28.4;25.4;-1.0;
02/03/2025 03:46:03;117;0;291.30;-4;20.11;3.46;709.2;10.30;73991;2838.812;-1802.541;1;300;450;453.2;22.0;22.4;28;28.4;25.4;-1.0;
02/03/2025 03:46:23;117;0;290.71;-4;20.36;3.35;705.9;10.30;73991;2838.815;-1802.546;1;300;450;453.2;22.0;22.2;28;28.4;25.3;-1.0;
02/03/2025 03:46:43;117;0;291.08;-4;20.51;3.33;702.5;10.30;73988;2838.818;-1802.552;1;300;450;453.2;22.0;22.2;28;28.4;25.4;-1.0;
02/03/2025 03:47:03;117;0;290.60;-4;20.42;3.49;699.1;10.30;73983;2838.821;-1802.557;1;300;450;453.2;22.0;22.2;28;28.4;25.4;-1.0;
02/03/2025 03:47:23;117;0;288.60;-4;19.79;3.38;695.8;10.30;73979;2838.824;-1802.562;1;300;450;454.8;22.0;22.2;28;28.4;25.4;-1.0;
02/03/2025 03:47:43;117;0;288.54;-4;19.84;3.39;692.6;10.30;73979;2838.826;-1802.567;1;300;450;453.2;22.0;22.2;28;28.4;25.4;-1.0;
02/03/2025 03:48:03;117;0;288.49;-4;20.91;3.56;689.5;10.30;73986;2838.829;-1802.572;1;300;450;453.2;22.0;22.4;28;28.9;25.4;-1.0;
02/03/2025 03:48:23;117;0;287.16;-4;19.94;3.42;686.2;10.30;73992;2838.832;-1802.578;1;300;450;453.2;22.0;22.2;28;28.4;25.4;-1.0;
02/03/2025 03:48:43;117;0;287.17;-4;20.71;3.44;683.1;10.30;73981;2838.834;-1802.583;1;300;450;454.8;22.0;22.4;28;28.4;25.3;-1.0;
02/03/2025 03:49:03;117;0;287.26;-4;20.36;3.84;679.9;10.30;73984;2838.837;-1802.588;1;300;450;454.8;22.0;22.2;28;28.4;25.3;-1.0;
02/03/2025 03:49:23;117;0;286.83;-4;20.22;3.04;676.8;10.30;73988;2838.840;-1802.593;1;300;450;454.8;22.0;22.2;28;28.4;25.4;-1.0;
02/03/2025 03:49:43;117;0;286.37;-4;19.94;3.28;673.7;10.30;73981;2838.842;-1802.598;1;300;450;453.2;22.0;22.2;28;28.4;25.3;-1.0;
02/03/2025 03:50:03;117;0;286.29;-4;19.78;3.30;670.9;10.30;73980;2838.845;-1802.603;1;300;450;453.2;22.0;22.2;28;28.4;25.4;-1.0;
02/03/2025 03:50:23;117;0;286.02;-4;20.71;3.45;667.9;10.30;73981;2838.847;-1802.607;1;300;450;454.8;22.0;22.2;28;28.4;25.3;-1.0;
02/03/2025 03:50:43;117;0;285.29;-4;19.80;3.53;665.0;10.30;73988;2838.850;-1802.612;1;300;450;454.8;22.0;22.2;28;28.4;25.4;-1.0;
02/03/2025 03:51:03;117;0;288.52;-4;21.24;3.60;662.1;10.30;73984;2838.852;-1802.617;1;300;450;454.8;22.0;22.2;28;28.9;25.3;-1.0;
02/03/2025 03:51:23;117;0;289.52;-4;20.92;3.58;659.1;10.30;73989;2838.855;-1802.622;1;300;450;454.8;22.0;22.2;28;28.4;25.4;-1.0;
02/03/2025 03:51:43;117;0;290.07;-4;20.03;3.33;656.0;10.30;73992;2838.858;-1802.627;1;300;450;454.8;22.0;22.2;28;28.4;25.4;-1.0;
02/03/2025 03:52:03;117;0;293.37;-4;20.30;3.34;653.2;10.30;73988;2838.861;-1802.631;1;300;450;453.2;22.0;22.2;26;26.2;25.4;-1.0;
02/03/2025 03:52:23;117;0;291.89;-4;20.13;2.03;650.2;10.30;73992;2838.863;-1802.636;1;300;450;454.8;22.0;22.4;26;26.2;25.4;-1.0;
02/03/2025 03:52:43;117;0;291.11;-4;20.19;2.07;647.5;10.30;74003;2838.866;-1802.640;1;300;450;454.8;22.0;22.2;26;25.7;25.4;-1.0;
02/03/2025 03:53:03;117;0;290.81;-4;20.18;1.97;644.6;10.30;73992;2838.869;-1802.645;1;300;450;454.8;22.0;22.2;26;26.2;25.3;-1.0;
02/03/2025 03:53:23;117;0;290.06;-4;20.09;1.97;641.8;10.30;73992;2838.872;-1802.650;1;300;450;454.8;22.0;22.2;26;25.7;25.4;-1.0;
02/03/2025 03:53:43;117;0;290.12;-4;20.12;2.02;638.8;10.30;74002;2838.874;-1802.654;1;300;450;453.2;22.0;22.2;26;26.2;25.3;-1.0;
02/03/2025 03:54:03;117;0;289.03;-4;19.92;2.00;635.9;10.30;74009;2838.877;-1802.659;1;300;450;454.8;22.0;22.2;26;26.2;25.4;-1.0;
02/03/2025 03:54:23;117;0;288.18;-4;19.87;2.01;632.9;10.30;74017;2838.880;-1802.664;1;300;450;454.8;22.0;22.2;26;26.2;25.4;-1.0;
02/03/2025 03:54:43;117;0;287.06;-4;19.81;1.96;630.0;10.30;74021;2838.882;-1802.669;1;300;450;453.2;22.0;22.2;26;26.2;25.3;-1.0;
02/03/2025 03:55:03;117;0;286.17;-4;19.79;2.06;627.3;10.30;74024;2838.885;-1802.673;1;300;450;454.8;22.0;22.2;26;26.2;25.4;-1.0;
