Timestamp;NavState;SecurityLevel;Heading;Declination;Pitch;Roll;Depth;Temperature;Pa;Lat;Lon;DeadReckoning;DesiredH;BallastCmd;BallastPos;LinCmd;LinPos;AngCmd;AngPos;Voltage;Altitude;
17/02/2025 16:22:48;119;0;105.24;-4;-50.64;-4.27;0.1;17.50;75787;2837.812;-1758.898;0;148;500;506.5;100.0;100.7;0;-0.5;28.1;-1.0;
17/02/2025 16:22:58;116;0;122.96;-4;-59.73;-18.23;0.1;17.50;75795;2837.816;-1758.897;0;148;500;508.1;100.0;100.6;0;-0.5;28.1;-1.0;
17/02/2025 16:23:31;116;0;105.12;-4;-55.24;-15.87;0.1;17.60;75803;2837.815;-1758.898;0;148;500;508.1;100.0;100.7;0;-0.9;28.2;-1.0;
17/02/2025 16:23:49;116;0;95.82;-4;-51.73;-21.46;0.1;17.70;75811;2837.815;-1758.897;0;-9999;500;506.5;100.0;100.7;0;-0.5;28.1;-1.0;
17/02/2025 16:24:10;116;0;95.30;-4;-55.36;-8.73;0.0;17.70;75825;2837.816;-1758.895;0;148;500;508.1;100.0;100.7;0;-0.5;28.1;-1.0;
17/02/2025 16:25:13;116;0;96.22;-4;-54.94;-9.46;0.1;17.90;75842;2837.815;-1758.891;0;148;500;508.1;100.0;100.7;0;-0.5;28.1;-1.0;
17/02/2025 16:26:20;116;0;117.01;-4;-58.55;-16.58;0.1;18.20;75870;2837.816;-1758.886;0;148;500;508.1;100.0;100.7;0;-0.9;28.1;-1.0;
17/02/2025 16:27:01;116;0;127.69;-4;-60.95;-16.01;0.1;18.40;75890;2837.816;-1758.883;0;-9999;500;508.1;100.0;100.7;0;-0.9;28.1;-1.0;
17/02/2025 16:27:12;116;0;126.92;-4;-57.06;-12.86;-0.0;18.40;75889;2837.816;-1758.882;0;149;500;509.7;100.0;100.6;0;-0.5;28.1;-1.0;
17/02/2025 16:28:15;116;0;83.19;-4;-50.24;-16.90;0.0;18.70;75904;2837.816;-1758.878;0;149;500;508.1;100.0;100.7;0;-0.9;28.1;-1.0;
17/02/2025 16:29:43;116;0;91.53;-4;-57.12;-21.68;0.2;19.10;75938;2837.816;-1758.872;0;149;500;508.1;100.0;100.7;0;-0.9;28.2;-1.0;
17/02/2025 16:30:03;110;0;89.66;-4;-57.81;-26.34;-0.2;19.20;75950;2837.816;-1758.872;0;149;-50;396.8;100.0;99.9;-9;-9.0;28.2;-1.0;
17/02/2025 16:30:13;110;0;82.74;-4;-51.41;-21.72;0.1;19.30;76289;2837.816;-1758.872;1;149;-50;248.4;100.0;99.7;-9;-9.5;28.1;-1.0;
17/02/2025 16:30:23;110;0;93.01;-4;-62.52;-23.19;0.4;19.30;76527;2837.816;-1758.871;1;149;-50;91.9;100.0;99.9;-9;-9.5;28.1;-1.0;
17/02/2025 16:30:33;110;0;89.73;-4;-65.45;-12.08;0.8;19.30;76856;2837.816;-1758.871;1;149;-50;-48.4;100.0;99.7;-9;-9.5;28.1;-1.0;
17/02/2025 16:30:43;110;0;76.33;-4;-63.95;-15.46;1.0;19.40;77145;2837.816;-1758.871;1;149;-50;-48.4;50.0;49.9;-9;-9.5;28.1;-1.0;
17/02/2025 16:31:03;100;0;76.16;-4;-35.95;-17.08;4.2;19.50;77119;2837.817;-1758.869;1;149;-50;-46.8;50.0;49.8;-9;-9.5;28.2;-1.0;
17/02/2025 16:31:23;100;0;86.48;-4;-33.36;-16.67;8.2;19.50;77106;2837.817;-1758.865;1;150;-50;-46.8;49.0;48.7;-65;-65.4;28.1;-1.0;
17/02/2025 16:31:43;100;0;96.01;-4;-31.98;-42.97;12.2;19.60;77122;2837.817;-1758.861;1;150;-50;-45.2;49.0;48.7;-54;-53.7;28.1;-1.0;
17/02/2025 16:32:03;100;0;106.11;-4;-31.91;-36.50;16.3;19.60;77133;2837.816;-1758.858;1;150;-50;-45.2;49.0;48.7;-42;-42.0;28.1;0.0;
17/02/2025 16:32:23;100;0;115.09;-4;-31.39;-30.83;20.3;19.60;77133;2837.815;-1758.854;1;150;-50;-45.2;49.0;48.7;-30;-29.8;28.1;0.0;
17/02/2025 16:32:43;100;0;124.76;-4;-31.01;-24.95;24.3;19.70;77151;2837.813;-1758.851;1;150;-50;-45.2;49.0;48.9;-15;-14.4;28.1;0.0;
17/02/2025 16:33:03;100;0;130.64;-4;-31.20;-18.01;28.3;19.70;77151;2837.811;-1758.848;1;150;-50;-45.2;49.0;48.7;-5;-4.5;28.1;0.0;
17/02/2025 16:33:23;100;0;139.26;-4;-31.36;-13.35;32.4;19.70;77155;2837.809;-1758.846;1;150;-50;-45.2;49.0;48.9;7;7.2;28.1;0.0;
17/02/2025 16:33:43;100;0;144.14;-4;-32.93;-7.68;36.5;19.70;77139;2837.806;-1758.844;1;150;-50;-45.2;48.1;48.0;11;10.8;28.1;0.0;
17/02/2025 16:34:03;100;0;144.42;-4;-31.18;-6.00;40.8;19.70;77135;2837.804;-1758.841;1;150;-50;-45.2;48.1;48.0;11;11.3;28.2;0.0;
17/02/2025 16:34:23;100;0;145.24;-4;-30.77;-5.95;44.8;19.70;77147;2837.801;-1758.839;1;150;-50;-45.2;48.1;48.0;11;11.3;28.2;0.0;
17/02/2025 16:34:43;100;0;146.47;-4;-30.79;-5.99;48.7;19.70;77141;2837.799;-1758.837;1;150;-50;-46.8;48.1;48.0;11;10.8;28.1;0.0;
17/02/2025 16:35:03;100;0;146.24;-4;-30.67;-6.12;52.6;19.70;77152;2837.796;-1758.835;1;150;-50;-45.2;48.1;48.0;11;10.8;28.1;0.0;
17/02/2025 16:35:23;100;0;146.65;-4;-30.85;-6.03;56.4;19.70;77152;2837.793;-1758.833;1;150;-50;-45.2;48.1;48.0;11;11.3;28.2;0.0;
17/02/2025 16:35:43;100;0;144.32;-4;-30.65;-5.98;60.3;19.70;77152;2837.791;-1758.831;1;150;-50;-46.8;48.1;48.0;11;11.3;28.1;0.0;
17/02/2025 16:36:03;100;0;142.36;-4;-30.80;-6.03;64.3;19.70;77152;2837.789;-1758.829;1;150;-50;-45.2;48.1;48.0;11;10.8;28.2;0.0;
17/02/2025 16:36:23;100;0;140.71;-4;-30.99;-5.90;68.3;19.70;77155;2837.786;-1758.826;1;150;-50;-48.4;48.1;48.0;8;8.1;28.1;0.0;
17/02/2025 16:36:43;100;0;143.26;-4;-30.55;-7.75;72.3;19.70;77155;2837.784;-1758.824;1;151;-50;-45.2;48.1;47.9;10;9.9;28.2;0.0;
17/02/2025 16:37:03;100;0;143.36;-4;-30.11;-6.63;76.3;19.70;77147;2837.781;-1758.822;1;151;-50;-45.2;48.1;48.0;10;10.4;28.1;0.0;
17/02/2025 16:37:23;100;0;142.83;-4;-30.71;-6.46;80.1;19.70;77149;2837.779;-1758.819;1;151;-50;-45.2;48.1;48.0;10;10.4;28.1;0.0;
17/02/2025 16:37:43;100;0;141.01;-4;-29.47;-6.47;83.9;19.70;77144;2837.776;-1758.817;1;151;-50;-45.2;48.1;48.0;8;8.1;28.2;0.0;
17/02/2025 16:38:03;100;0;142.88;-4;-30.30;-7.83;87.6;19.70;77139;2837.774;-1758.815;1;151;-50;-45.2;48.1;48.0;8;8.1;28.2;0.0;
17/02/2025 16:38:23;100;0;142.90;-4;-30.16;-7.72;91.5;19.70;77131;2837.771;-1758.813;1;151;-50;-48.4;48.1;48.0;8;7.7;28.1;0.0;
17/02/2025 16:38:43;100;0;145.73;-4;-30.60;-7.81;95.2;19.70;77123;2837.769;-1758.811;1;151;-50;-48.4;48.1;48.0;11;10.8;28.2;0.0;
17/02/2025 16:39:03;100;0;142.94;-4;-29.85;-6.18;99.1;19.70;77107;2837.766;-1758.808;1;151;-50;-45.2;48.1;48.0;9;9.0;28.1;0.0;
17/02/2025 16:39:23;100;0;145.80;-4;-30.03;-7.34;102.7;19.60;77063;2837.764;-1758.806;1;151;-50;-46.8;48.1;47.9;11;10.8;28.1;0.0;
17/02/2025 16:39:43;100;0;143.84;-4;-30.88;-5.87;106.4;19.60;77060;2837.761;-1758.804;1;151;-50;-45.2;48.1;47.9;11;11.7;28.1;0.0;
17/02/2025 16:40:03;100;0;137.69;-4;-29.82;-5.92;110.1;19.60;77019;2837.759;-1758.802;1;151;-50;-45.2;48.1;48.0;4;4.1;28.2;0.0;
17/02/2025 16:40:23;100;0;136.38;-4;-29.99;-9.93;113.7;19.50;76997;2837.757;-1758.799;1;151;-50;-46.8;48.1;47.9;2;1.8;28.1;0.0;
17/02/2025 16:40:43;100;0;135.62;-4;-29.43;-11.13;117.3;19.50;76973;2837.755;-1758.797;1;151;-50;-45.2;48.1;48.0;2;1.4;28.1;0.0;
17/02/2025 16:41:04;100;0;140.84;-4;-30.04;-11.03;120.8;19.50;76966;2837.753;-1758.795;1;151;-50;-46.8;48.1;47.9;7;7.2;28.1;0.0;
17/02/2025 16:41:24;100;0;140.18;-4;-30.03;-7.59;124.7;19.40;76947;2837.750;-1758.792;1;151;-50;-45.2;48.1;48.0;7;7.7;28.2;0.0;
17/02/2025 16:41:44;100;0;134.86;-4;-29.08;-7.80;128.3;19.40;76919;2837.748;-1758.790;1;151;-50;-45.2;48.1;47.9;-1;-0.9;28.1;0.0;
17/02/2025 16:42:04;100;0;133.87;-4;-28.55;-12.38;131.7;19.40;76897;2837.746;-1758.787;1;151;-50;-45.2;48.5;48.7;-1;-1.4;28.1;0.0;
17/02/2025 16:42:24;100;0;132.36;-4;-29.23;-12.37;135.2;19.30;76878;2837.744;-1758.784;1;151;-50;-45.2;48.5;49.0;-5;-5.4;28.1;0.0;
17/02/2025 16:42:44;100;0;138.83;-4;-29.66;-14.55;138.8;19.30;76865;2837.742;-1758.782;1;151;-50;-45.2;48.5;48.9;5;5.0;28.2;0.0;
17/02/2025 16:43:04;100;0;144.61;-4;-30.92;-9.03;142.5;19.20;76855;2837.740;-1758.780;1;151;-50;-45.2;48.5;48.9;10;10.4;28.1;0.0;
17/02/2025 16:43:24;100;0;146.66;-4;-31.59;-6.34;146.5;19.20;76837;2837.737;-1758.778;1;151;-50;-45.2;48.5;48.9;10;10.4;28.1;0.0;
17/02/2025 16:43:44;100;0;147.99;-4;-31.31;-6.22;150.6;19.10;76817;2837.735;-1758.776;1;151;-50;-46.8;48.5;49.0;10;10.4;28.1;0.0;
17/02/2025 16:44:04;100;0;145.54;-4;-30.84;-6.38;154.6;19.10;76802;2837.732;-1758.774;1;152;-50;-45.2;48.5;48.9;10;10.8;28.1;0.0;
17/02/2025 16:44:24;100;0;143.94;-4;-31.12;-6.38;158.6;19.10;76798;2837.729;-1758.772;1;152;-50;-45.2;48.5;49.0;10;10.8;28.1;0.0;
17/02/2025 16:44:44;100;0;146.50;-4;-30.64;-6.41;162.5;19.00;76778;2837.727;-1758.770;1;152;-50;-46.8;48.5;49.0;10;10.4;28.1;0.0;
17/02/2025 16:45:04;100;0;141.90;-4;-30.31;-6.53;166.4;19.00;76758;2837.724;-1758.767;1;152;-50;-43.5;48.5;48.9;7;6.8;28.1;0.0;
17/02/2025 16:45:24;100;0;134.85;-4;-29.34;-8.64;170.1;18.90;76748;2837.722;-1758.765;1;152;-50;-45.2;48.5;49.0;-3;-3.2;28.1;0.0;
17/02/2025 16:45:44;100;0;133.00;-4;-30.30;-13.29;173.7;18.90;76735;2837.720;-1758.762;1;152;-50;-45.2;48.5;49.0;-6;-5.9;28.1;0.0;
17/02/2025 16:46:04;100;0;134.96;-4;-29.44;-14.64;177.3;18.80;76710;2837.718;-1758.759;1;152;-50;-45.2;48.5;49.0;-3;-2.7;28.1;0.0;
17/02/2025 16:46:24;100;0;135.84;-4;-29.79;-12.74;180.9;18.80;76706;2837.716;-1758.757;1;152;-50;-45.2;48.5;49.0;-1;-0.5;28.1;0.0;
17/02/2025 16:46:44;100;0;135.96;-4;-29.56;-11.69;184.5;18.70;76689;2837.714;-1758.755;1;152;-50;-45.2;48.5;49.0;-1;-0.5;28.1;0.0;
17/02/2025 16:47:04;100;0;137.11;-4;-30.73;-11.84;188.1;18.70;76682;2837.712;-1758.752;1;152;-50;-46.8;48.5;48.9;1;0.9;28.1;0.0;
17/02/2025 16:47:24;100;0;135.92;-4;-31.01;-10.94;192.1;18.60;76674;2837.710;-1758.750;1;152;-50;-45.2;48.5;49.0;-1;-1.4;28.1;0.0;
17/02/2025 16:47:44;100;0;138.38;-4;-31.05;-12.57;196.1;18.60;76659;2837.707;-1758.747;1;152;-50;-45.2;48.5;49.0;2;1.8;28.1;0.0;
17/02/2025 16:47:59;118;0;143.20;-4;-30.85;-10.54;199.2;18.50;76649;2837.705;-1758.745;1;152;150;-41.9;34.0;33.9;10;9.9;28.1;0.0;
17/02/2025 16:48:09;118;0;133.18;-4;-21.62;-7.39;200.7;18.50;76631;2837.704;-1758.744;1;152;150;85.5;34.0;33.6;10;10.4;27.7;-1.0;
17/02/2025 16:48:19;118;0;129.34;-4;-8.76;-7.05;201.8;18.50;76350;2837.703;-1758.742;1;152;150;154.8;34.0;33.6;10;10.4;27.7;-1.0;
17/02/2025 16:48:29;118;0;148.89;-4;-3.78;-7.33;202.2;18.50;76219;2837.703;-1758.742;1;152;150;154.8;34.0;33.6;10;10.4;28.1;-1.0;
17/02/2025 16:48:49;117;0;147.77;-4;-1.18;-7.29;202.3;18.40;76217;2837.703;-1758.742;1;152;150;154.8;34.0;33.4;10;10.4;28.1;-1.0;
17/02/2025 16:49:09;117;0;144.47;-4;-1.40;-7.24;202.1;18.40;76206;2837.703;-1758.742;1;152;150;154.8;24.6;24.6;70;69.9;28.2;-1.0;
17/02/2025 16:49:29;117;0;141.69;-4;29.04;24.91;201.6;18.30;76211;2837.703;-1758.742;1;152;150;156.5;24.6;24.9;41;41.1;28.1;-1.0;
17/02/2025 16:49:49;117;0;141.96;-4;25.77;8.74;200.1;18.30;76198;2837.702;-1758.741;1;152;150;158.1;23.3;23.1;35;35.2;28.1;-1.0;
17/02/2025 16:50:09;117;0;140.21;-4;28.27;5.57;198.6;18.20;76184;2837.701;-1758.740;1;152;150;158.1;22.8;22.7;37;37.0;28.1;-1.0;
17/02/2025 16:50:29;117;0;137.41;-4;29.49;7.12;196.9;18.10;76184;2837.700;-1758.739;1;152;150;158.1;22.8;22.7;41;41.1;28.2;-1.0;
17/02/2025 16:50:49;117;0;137.08;-4;29.46;9.35;195.0;18.10;76178;2837.699;-1758.737;1;153;150;156.5;22.8;22.7;44;44.2;28.1;-1.0;
17/02/2025 16:51:09;117;0;139.39;-4;29.32;11.19;193.2;18.00;76175;2837.698;-1758.736;1;153;150;158.1;22.8;22.7;40;40.2;28.1;-1.0;
17/02/2025 16:51:29;117;0;140.88;-4;28.96;8.34;191.2;18.00;76168;2837.697;-1758.735;1;153;150;158.1;22.5;22.4;37;37.0;28.1;-1.0;
17/02/2025 16:51:49;117;0;142.07;-4;29.44;6.82;189.3;17.90;76160;2837.696;-1758.734;1;153;150;158.1;22.5;22.4;37;37.0;28.1;-1.0;
17/02/2025 16:52:09;117;0;144.50;-4;29.41;6.93;187.5;17.90;76157;2837.695;-1758.733;1;153;150;158.1;22.5;22.4;34;33.4;28.1;-1.0;
17/02/2025 16:52:29;117;0;146.27;-4;29.26;4.59;185.6;17.80;76154;2837.693;-1758.732;1;153;150;156.5;22.5;22.4;34;32.9;28.1;-1.0;
17/02/2025 16:52:49;117;0;148.57;-4;29.61;4.75;183.7;17.80;76161;2837.692;-1758.731;1;153;150;158.1;22.5;22.4;31;31.1;28.2;-1.0;
17/02/2025 16:53:09;117;0;149.39;-4;29.12;3.50;181.7;17.80;76166;2837.691;-1758.730;1;153;150;156.5;22.5;22.4;31;30.7;28.1;-1.0;
17/02/2025 16:53:29;117;0;152.21;-4;29.39;3.42;179.7;17.70;76165;2837.689;-1758.729;1;153;170;172.6;22.5;22.4;31;30.7;28.1;-1.0;
17/02/2025 16:53:49;117;0;153.13;-4;29.13;3.61;177.5;17.70;76139;2837.688;-1758.728;1;153;170;172.6;22.5;22.4;31;30.7;28.1;-1.0;
17/02/2025 16:54:09;117;0;155.31;-4;28.93;3.66;175.3;17.70;76154;2837.686;-1758.727;1;153;170;171.0;22.2;21.9;31;30.7;28.1;-1.0;
17/02/2025 16:54:29;117;0;157.79;-4;30.28;3.52;173.0;17.60;76132;2837.685;-1758.726;1;153;170;172.6;22.2;21.6;31;30.7;28.1;-1.0;
17/02/2025 16:54:49;117;0;163.59;-4;29.81;3.39;170.7;17.60;76139;2837.683;-1758.726;1;153;170;172.6;22.2;21.6;28;28.0;28.1;-1.0;
17/02/2025 16:55:09;117;0;164.72;-4;30.14;1.91;168.4;17.60;76144;2837.681;-1758.725;1;153;170;172.6;22.2;21.6;28;28.0;28.1;-1.0;
17/02/2025 16:55:29;117;0;164.90;-4;29.96;1.95;166.0;17.60;76146;2837.679;-1758.724;1;153;170;172.6;22.2;21.6;26;26.2;28.1;-1.0;
17/02/2025 16:55:49;117;0;164.34;-4;30.08;0.97;163.8;17.50;76144;2837.678;-1758.724;1;153;170;172.6;22.2;21.6;26;26.2;28.1;-1.0;
17/02/2025 16:56:09;117;0;161.09;-4;29.72;1.03;161.5;17.50;76163;2837.676;-1758.723;1;153;170;172.6;22.2;21.6;29;28.9;28.1;-1.0;
17/02/2025 16:56:29;117;0;159.31;-4;30.09;2.81;159.2;17.50;76165;2837.674;-1758.722;1;153;170;172.6;22.2;21.6;29;28.9;28.1;-1.0;
17/02/2025 16:56:49;117;0;158.81;-4;29.97;2.81;156.9;17.50;76170;2837.672;-1758.722;1;153;170;172.6;22.2;21.6;29;29.3;28.1;-1.0;
17/02/2025 16:57:09;117;0;160.02;-4;29.88;2.82;154.6;17.50;76168;2837.671;-1758.721;1;152;170;172.6;22.2;21.6;29;29.3;28.1;-1.0;
17/02/2025 16:57:29;117;0;159.15;-4;29.93;2.81;152.2;17.40;76163;2837.669;-1758.720;1;152;170;172.6;22.2;21.8;29;29.3;28.1;-1.0;
17/02/2025 16:57:49;117;0;158.20;-4;29.69;2.77;149.9;17.40;76167;2837.667;-1758.719;1;152;170;172.6;22.2;21.6;29;29.3;28.1;-1.0;
17/02/2025 16:58:09;117;0;157.11;-4;29.88;2.83;147.5;17.40;76165;2837.666;-1758.719;1;152;170;172.6;22.2;21.6;29;29.3;28.1;-1.0;
17/02/2025 16:58:29;117;0;153.90;-4;29.63;2.89;145.3;17.40;76174;2837.664;-1758.718;1;152;170;172.6;22.2;21.6;29;29.3;28.1;-1.0;
17/02/2025 16:58:49;117;0;149.90;-4;29.60;2.88;143.0;17.40;76187;2837.663;-1758.716;1;152;170;172.6;22.2;21.6;29;29.3;28.1;-1.0;
17/02/2025 16:59:09;117;0;145.34;-4;29.92;2.89;140.8;17.40;76195;2837.661;-1758.715;1;152;170;172.6;22.2;21.6;32;32.0;28.1;-1.0;
17/02/2025 16:59:29;117;0;143.24;-4;29.91;4.50;138.4;17.40;76201;2837.660;-1758.714;1;153;170;172.6;22.2;21.6;34;33.8;28.1;-1.0;
17/02/2025 16:59:49;117;0;143.15;-4;30.37;5.57;136.2;17.30;76191;2837.658;-1758.713;1;153;170;172.6;22.2;21.6;34;34.3;28.1;-1.0;
17/02/2025 17:00:09;117;0;143.21;-4;30.63;5.69;133.8;17.30;76203;2837.657;-1758.711;1;153;170;172.6;22.2;21.6;34;34.3;28.2;-1.0;
17/02/2025 17:00:29;117;0;144.42;-4;30.28;5.64;131.3;17.30;76209;2837.655;-1758.710;1;153;170;172.6;22.2;21.8;34;34.3;28.1;-1.0;
17/02/2025 17:00:49;117;0;147.08;-4;30.62;5.62;128.8;17.30;76204;2837.654;-1758.709;1;153;170;172.6;22.2;21.6;32;32.0;28.1;-1.0;
17/02/2025 17:01:09;117;0;150.38;-4;30.22;4.16;126.2;17.30;76221;2837.652;-1758.707;1;153;170;172.6;22.2;21.6;32;31.6;28.1;-1.0;
17/02/2025 17:01:29;117;0;152.21;-4;30.24;4.14;123.6;17.30;76224;2837.650;-1758.706;1;153;170;172.6;22.2;21.8;30;29.8;28.2;-1.0;
17/02/2025 17:01:49;117;0;149.93;-4;30.38;2.83;121.1;17.30;76233;2837.648;-1758.705;1;153;170;172.6;22.2;21.6;30;29.3;28.1;-1.0;
17/02/2025 17:02:09;117;0;148.21;-4;29.86;2.75;118.5;17.30;76248;2837.647;-1758.704;1;153;170;174.2;22.2;21.6;30;29.3;28.1;-1.0;
17/02/2025 17:02:29;117;0;150.01;-4;29.31;2.72;116.1;17.30;76246;2837.645;-1758.703;1;153;170;172.6;22.2;21.6;30;29.3;28.1;-1.0;
17/02/2025 17:02:49;117;0;146.68;-4;30.14;2.78;113.7;17.30;76265;2837.643;-1758.701;1;153;170;172.6;22.2;21.6;32;32.0;28.1;-1.0;
17/02/2025 17:03:09;117;0;141.53;-4;29.77;4.77;111.3;17.30;76271;2837.642;-1758.700;1;153;170;172.6;22.2;21.6;36;36.1;28.1;-1.0;
17/02/2025 17:03:29;117;0;141.88;-4;29.98;6.62;109.0;17.30;76282;2837.641;-1758.698;1;153;170;172.6;22.2;21.8;36;36.6;28.1;-1.0;
17/02/2025 17:03:49;117;0;142.00;-4;30.04;6.61;106.7;17.30;76299;2837.639;-1758.697;1;153;170;172.6;22.2;21.6;36;36.6;28.2;-1.0;
17/02/2025 17:04:09;117;0;145.48;-4;30.13;6.61;104.4;17.30;76307;2837.638;-1758.696;1;153;170;172.6;22.2;21.6;33;32.9;28.1;-1.0;
17/02/2025 17:04:29;117;0;148.74;-4;30.44;4.44;102.0;17.30;76324;2837.636;-1758.695;1;153;170;172.6;22.2;21.6;31;31.1;28.2;-1.0;
17/02/2025 17:04:49;117;0;149.48;-4;29.45;3.56;99.7;17.30;76347;2837.635;-1758.694;1;153;170;174.2;22.2;21.6;31;30.7;28.1;-1.0;
17/02/2025 17:05:09;117;0;149.71;-4;29.27;3.53;97.5;17.40;76364;2837.633;-1758.692;1;153;170;172.6;22.2;21.6;31;30.7;28.1;-1.0;
17/02/2025 17:05:29;117;0;150.32;-4;29.44;3.58;95.5;17.40;76364;2837.632;-1758.691;1;153;170;172.6;22.2;21.6;31;30.7;28.1;-1.0;
17/02/2025 17:05:49;117;0;150.01;-4;29.37;3.52;93.5;17.40;76382;2837.630;-1758.690;1;153;190;193.5;22.2;21.6;31;30.7;28.1;-1.0;
17/02/2025 17:06:09;117;0;151.77;-4;29.21;3.66;91.4;17.40;76348;2837.629;-1758.690;1;153;190;193.5;22.2;21.6;31;30.7;28.1;-1.0;
17/02/2025 17:06:29;117;0;156.04;-4;29.49;3.63;89.3;17.40;76378;2837.627;-1758.689;1;153;190;193.5;22.2;21.6;31;30.7;28.1;-1.0;
17/02/2025 17:06:49;117;0;155.70;-4;29.14;3.54;86.9;17.40;76383;2837.625;-1758.688;1;153;190;193.5;22.2;21.6;31;30.7;28.1;-1.0;
17/02/2025 17:07:09;117;0;149.41;-4;29.60;3.74;84.5;17.50;76409;2837.624;-1758.687;1;153;190;191.9;22.2;21.6;31;30.7;28.1;-1.0;
17/02/2025 17:07:29;117;0;146.81;-4;29.22;3.66;82.2;17.50;76434;2837.622;-1758.685;1;153;190;193.5;22.2;21.6;31;30.7;28.1;-1.0;
17/02/2025 17:07:49;117;0;144.18;-4;29.01;3.61;79.7;17.50;76450;2837.621;-1758.684;1;153;190;193.5;22.2;21.6;34;34.7;28.1;-1.0;
17/02/2025 17:08:09;117;0;146.49;-4;29.49;6.11;77.4;17.60;76457;2837.619;-1758.683;1;153;190;193.5;22.2;21.8;32;32.0;28.1;-1.0;
17/02/2025 17:08:29;117;0;146.32;-4;28.72;4.12;75.0;17.60;76483;2837.617;-1758.681;1;153;190;195.2;21.8;21.8;32;32.0;28.1;-1.0;
17/02/2025 17:08:49;117;0;145.89;-4;28.98;4.17;72.8;17.60;76491;2837.616;-1758.680;1;153;190;193.5;21.5;21.5;32;31.6;28.1;-1.0;
17/02/2025 17:09:09;117;0;143.88;-4;29.89;4.13;70.5;17.60;76495;2837.615;-1758.679;1;153;190;193.5;21.5;21.4;34;34.3;28.1;-1.0;
17/02/2025 17:09:29;117;0;144.12;-4;30.51;5.99;68.2;17.70;76517;2837.613;-1758.677;1;153;190;191.9;21.5;21.2;34;35.2;28.1;-1.0;
17/02/2025 17:09:49;117;0;143.71;-4;29.95;6.04;65.7;17.70;76535;2837.612;-1758.676;1;153;190;193.5;21.5;21.2;34;35.2;28.1;-1.0;
17/02/2025 17:10:09;117;0;142.01;-4;30.13;6.10;63.3;17.70;76545;2837.610;-1758.675;1;153;190;193.5;21.5;21.2;36;36.1;28.1;-1.0;
17/02/2025 17:10:29;117;0;142.42;-4;30.32;6.88;60.9;17.80;76554;2837.609;-1758.673;1;153;190;193.5;21.5;21.4;36;36.6;28.1;-1.0;
17/02/2025 17:10:49;117;0;141.53;-4;30.31;6.90;58.5;17.80;76559;2837.607;-1758.672;1;153;190;193.5;21.5;21.2;36;36.6;28.2;-1.0;
17/02/2025 17:11:09;117;0;141.52;-4;30.22;6.89;56.2;17.80;76572;2837.606;-1758.670;1;153;190;193.5;21.5;21.4;36;36.6;28.1;-1.0;
17/02/2025 17:11:29;117;0;143.38;-4;30.24;6.85;53.9;17.90;76581;2837.604;-1758.669;1;153;190;193.5;21.5;21.2;36;36.6;28.1;-1.0;
17/02/2025 17:11:49;117;0;143.80;-4;30.29;6.89;51.6;17.90;76590;2837.603;-1758.668;1;153;190;193.5;21.5;21.2;36;36.6;28.2;-1.0;
17/02/2025 17:12:09;117;0;144.69;-4;30.45;6.86;49.2;17.90;76595;2837.601;-1758.666;1;154;190;193.5;21.5;21.2;36;36.6;28.1;-1.0;
17/02/2025 17:12:29;117;0;144.41;-4;30.46;6.96;46.8;18.00;76606;2837.600;-1758.665;1;154;190;191.9;21.5;21.4;36;36.6;28.1;-1.0;
17/02/2025 17:12:49;117;0;146.31;-4;30.21;6.88;44.5;18.00;76609;2837.598;-1758.664;1;154;190;191.9;21.5;21.2;34;31.6;28.1;-1.0;
17/02/2025 17:13:09;117;0;144.83;-4;30.60;5.31;42.0;18.00;76619;2837.597;-1758.663;1;154;190;193.5;21.5;21.2;34;33.8;28.1;-1.0;
17/02/2025 17:13:29;117;0;142.95;-4;30.43;5.30;39.5;18.10;76622;2837.595;-1758.661;1;154;190;191.9;21.5;21.2;37;37.0;28.1;-1.0;
17/02/2025 17:13:49;117;0;142.46;-4;30.72;7.60;37.2;18.10;76629;2837.594;-1758.660;1;154;190;193.5;21.5;21.2;37;37.9;28.1;-1.0;
17/02/2025 17:14:09;117;0;142.87;-4;30.77;7.55;34.6;18.10;76641;2837.593;-1758.658;1;154;190;193.5;21.5;21.2;37;37.9;28.1;-1.0;
17/02/2025 17:14:29;117;0;142.15;-4;30.22;7.48;32.1;18.10;76635;2837.591;-1758.657;1;154;190;193.5;21.5;21.2;37;37.9;28.1;-1.0;
17/02/2025 17:14:50;117;0;140.05;-4;30.64;7.51;29.5;18.20;76642;2837.590;-1758.655;1;154;190;193.5;21.5;21.4;40;40.2;28.1;-1.0;
17/02/2025 17:15:10;117;0;140.42;-4;30.44;8.90;27.0;18.20;76657;2837.588;-1758.654;1;154;190;193.5;21.5;21.2;40;40.6;28.1;-1.0;
17/02/2025 17:15:30;117;0;144.11;-4;29.55;8.89;24.6;18.20;76656;2837.587;-1758.652;1;154;190;191.9;21.5;21.4;36;36.1;28.1;-1.0;
17/02/2025 17:15:50;117;0;139.22;-4;30.33;6.62;22.2;18.30;76681;2837.585;-1758.651;1;154;190;195.2;21.5;21.2;42;42.0;28.1;-1.0;
17/02/2025 17:16:10;117;0;139.45;-4;30.39;9.95;19.7;18.30;76694;2837.584;-1758.649;1;154;190;191.9;21.5;21.2;42;42.4;28.1;-1.0;
17/02/2025 17:16:30;117;0;141.21;-4;30.65;9.97;17.3;18.30;76696;2837.582;-1758.648;1;154;190;193.5;21.5;21.2;39;37.5;28.1;-1.0;
17/02/2025 17:16:50;117;0;141.87;-4;29.83;7.41;14.7;18.40;76706;2837.581;-1758.646;1;154;190;193.5;21.5;21.2;39;37.9;28.2;-1.0;
17/02/2025 17:17:10;117;0;142.59;-4;30.19;7.44;12.3;18.40;76721;2837.579;-1758.645;1;154;190;193.5;21.5;21.2;37;36.6;28.2;-1.0;
17/02/2025 17:17:30;117;0;141.38;-4;29.13;6.75;9.8;18.50;76722;2837.578;-1758.643;1;154;190;193.5;21.5;21.2;39;38.8;28.1;-1.0;
17/02/2025 17:17:50;117;0;140.09;-4;31.46;8.17;7.3;18.50;76729;2837.576;-1758.642;1;154;190;193.5;21.5;21.4;41;41.1;28.1;-1.0;
17/02/2025 17:18:10;117;0;138.71;-4;31.49;9.90;4.9;18.50;76728;2837.575;-1758.640;1;154;190;193.5;21.5;21.2;43;42.9;28.1;-1.0;
17/02/2025 17:18:25;115;0;141.06;-4;31.04;11.51;2.9;18.50;76732;2837.574;-1758.639;1;154;500;201.6;100.0;63.9;0;-0.5;28.1;-1.0;
17/02/2025 17:18:35;115;0;123.50;-4;13.32;-12.43;1.9;18.60;76716;2837.573;-1758.638;1;155;500;321.0;100.0;100.0;0;-0.5;27.9;-1.0;
17/02/2025 17:18:45;115;0;127.75;-4;-59.82;-14.53;2.5;18.60;76447;2837.573;-1758.638;1;155;500;440.3;100.0;100.4;0;-0.5;27.9;-1.0;
17/02/2025 17:18:55;115;0;110.94;-4;-69.27;-11.31;2.5;18.60;76193;2837.573;-1758.638;1;155;500;508.1;100.0;100.6;0;-0.9;27.9;-1.0;
17/02/2025 17:19:05;115;0;96.74;-4;-46.91;-16.49;-0.4;18.60;76059;2837.573;-1758.636;1;155;500;508.1;100.0;100.6;0;-0.5;28.1;-1.0;
17/02/2025 17:19:25;119;0;100.32;-4;-62.55;-19.34;0.1;18.70;76077;2837.573;-1758.636;1;155;500;511.3;100.0;100.6;0;-0.5;28.1;-1.0;
17/02/2025 17:19:35;119;0;89.23;-4;-39.86;-13.47;-0.1;18.70;76084;2837.525;-1758.643;0;155;500;509.7;100.0;100.6;0;-0.5;28.1;-1.0;
