Timestamp;NavState;SecurityLevel;Heading;Declination;Pitch;Roll;Depth;Temperature;Pa;Lat;Lon;DeadReckoning;DesiredH;BallastCmd;BallastPos;LinCmd;LinPos;AngCmd;AngPos;Voltage;Altitude;
19/02/2025 02:35:43;119;0;68.89;-4;-53.77;-16.29;0.2;17.50;75807;2837.463;-1758.661;0;147;500;508.1;100.0;100.7;0;-0.5;27.8;-1.0;
19/02/2025 02:35:52;116;0;84.15;-4;-45.23;-10.39;0.2;17.50;75807;2837.465;-1758.659;0;146;500;508.1;100.0;100.7;0;-0.5;27.8;-1.0;
19/02/2025 02:36:17;116;0;85.97;-4;-47.49;-13.26;0.1;17.60;75818;2837.467;-1758.655;0;147;500;509.7;100.0;100.7;0;-0.5;27.8;-1.0;
19/02/2025 02:36:44;116;0;73.89;-4;-50.32;-16.49;0.2;17.60;75812;2837.466;-1758.654;0;147;500;508.1;100.0;100.7;0;-0.5;27.8;-1.0;
19/02/2025 02:37:04;116;0;55.70;-4;-56.25;-30.05;0.3;17.70;75829;2837.469;-1758.650;0;-9999;500;509.7;100.0;100.7;0;-0.5;27.8;-1.0;
19/02/2025 02:37:18;116;0;77.96;-4;-50.68;-16.93;0.2;17.70;75830;2837.469;-1758.649;0;148;500;509.7;100.0;100.7;0;-0.5;27.8;-1.0;
19/02/2025 02:37:29;116;0;84.79;-4;-47.31;-20.44;0.3;17.70;75839;2837.470;-1758.650;0;148;500;509.7;100.0;100.7;0;-0.5;27.8;-1.0;
19/02/2025 02:38:32;116;0;52.89;-4;-57.45;-7.65;0.3;18.00;75863;2837.475;-1758.646;0;148;500;508.1;100.0;100.6;0;0.0;27.8;-1.0;
19/02/2025 02:40:41;116;0;66.27;-4;-50.29;-20.94;0.1;18.50;75898;2837.484;-1758.647;0;149;500;509.7;100.0;100.7;0;0.0;27.8;-1.0;
19/02/2025 02:40:58;116;0;95.67;-4;-48.80;-18.73;0.1;18.60;75910;2837.486;-1758.646;0;149;500;509.7;100.0;100.7;0;0.0;27.7;-1.0;
19/02/2025 02:42:01;116;0;64.03;-4;-53.94;-14.56;0.2;18.90;75928;2837.491;-1758.645;0;149;500;509.7;100.0;100.7;0;-0.5;27.8;-1.0;
19/02/2025 02:42:38;116;0;89.50;-4;-51.30;-16.96;0.1;19.00;75945;2837.494;-1758.644;0;150;500;509.7;100.0;100.7;0;-0.5;27.8;-1.0;
19/02/2025 02:42:58;110;0;71.99;-4;-49.89;0.10;0.1;19.10;75955;2837.494;-1758.644;0;150;-70;388.7;100.0;100.0;-7;-7.2;27.8;-1.0;
19/02/2025 02:43:08;110;0;72.10;-4;-53.28;-17.72;0.3;19.20;76303;2837.494;-1758.644;1;150;-70;238.7;100.0;99.9;-7;-7.7;27.8;-1.0;
19/02/2025 02:43:18;110;0;28.85;-4;-54.84;-19.13;0.5;19.20;76546;2837.494;-1758.644;1;150;-70;82.3;100.0;99.9;-7;-7.7;27.8;-1.0;
19/02/2025 02:43:28;110;0;57.24;-4;-73.91;-33.68;0.9;19.20;76870;2837.495;-1758.644;1;150;-70;-69.4;100.0;99.9;-7;-7.7;27.8;-1.0;
19/02/2025 02:43:38;110;0;38.70;-4;-66.98;-44.18;1.4;19.30;77188;2837.495;-1758.644;1;150;-70;-69.4;50.0;49.9;-7;-7.7;27.8;-1.0;
19/02/2025 02:43:58;100;0;37.98;-4;-38.34;-16.48;4.7;19.30;77153;2837.497;-1758.643;1;150;-70;-69.4;50.0;49.6;-7;-7.7;27.8;-1.0;
19/02/2025 02:44:18;100;0;36.12;-4;-32.24;-15.46;9.0;19.40;77164;2837.500;-1758.641;1;151;-70;-66.1;49.3;49.0;-70;-69.9;27.8;-1.0;
19/02/2025 02:44:38;100;0;42.73;-4;-32.11;-44.57;13.1;19.50;77163;2837.503;-1758.638;1;151;-70;-64.5;48.7;48.7;-70;-70.4;27.8;-1.0;
19/02/2025 02:44:58;100;0;52.34;-4;-32.06;-45.69;17.3;19.50;77181;2837.505;-1758.635;1;151;-70;-64.5;48.1;48.0;-70;-70.4;27.8;0.0;
19/02/2025 02:45:18;100;0;60.44;-4;-31.69;-44.79;21.3;19.60;77179;2837.507;-1758.632;1;152;-70;-64.5;48.1;47.9;-70;-70.4;27.8;0.0;
19/02/2025 02:45:38;100;0;69.13;-4;-33.61;-44.57;25.4;19.60;77194;2837.508;-1758.629;1;152;-70;-64.5;47.0;47.0;-70;-70.4;27.8;0.0;
19/02/2025 02:45:58;100;0;80.45;-4;-28.68;-45.14;29.4;19.60;77199;2837.509;-1758.625;1;152;-70;-62.9;47.4;47.6;-70;-70.4;27.8;0.0;
19/02/2025 02:46:18;100;0;89.81;-4;-29.27;-44.88;33.1;19.70;77214;2837.509;-1758.621;1;153;-70;-64.5;47.4;47.9;-61;-60.5;27.8;0.0;
19/02/2025 02:46:38;100;0;101.20;-4;-28.02;-40.54;36.8;19.70;77210;2837.508;-1758.617;1;153;-70;-64.5;48.0;48.2;-48;-47.8;27.8;0.0;
19/02/2025 02:46:58;100;0;111.69;-4;-29.44;-33.75;40.4;19.70;77210;2837.507;-1758.614;1;153;-70;-64.5;48.0;48.3;-35;-35.2;27.8;0.0;
19/02/2025 02:47:18;100;0;122.09;-4;-29.95;-27.94;44.1;19.70;77210;2837.506;-1758.611;1;154;-70;-64.5;48.0;48.3;-22;-22.1;27.8;0.0;
19/02/2025 02:47:38;100;0;131.55;-4;-30.46;-21.27;47.8;19.70;77210;2837.504;-1758.609;1;154;-70;-64.5;48.0;48.5;-6;-5.9;27.8;0.0;
19/02/2025 02:47:58;100;0;133.83;-4;-30.36;-13.84;51.7;19.70;77210;2837.502;-1758.606;1;154;-70;-64.5;48.0;48.5;-2;-1.8;27.8;0.0;
19/02/2025 02:48:18;100;0;139.15;-4;-30.65;-11.63;55.4;19.70;77213;2837.500;-1758.604;1;154;-70;-62.9;48.0;48.5;6;5.9;27.8;0.0;
19/02/2025 02:48:38;100;0;141.69;-4;-30.84;-8.45;59.2;19.70;77202;2837.497;-1758.602;1;154;-70;-66.1;48.0;48.5;9;9.5;27.8;0.0;
19/02/2025 02:48:58;100;0;143.91;-4;-31.01;-6.81;63.1;19.70;77205;2837.495;-1758.600;1;154;-70;-62.9;48.0;48.5;11;10.8;27.8;0.0;
19/02/2025 02:49:18;100;0;142.18;-4;-31.09;-5.88;66.9;19.70;77214;2837.492;-1758.597;1;154;-70;-64.5;48.0;48.5;9;9.0;27.8;0.0;
19/02/2025 02:49:38;100;0;144.88;-4;-30.76;-7.34;70.7;19.60;77201;2837.490;-1758.595;1;154;-70;-62.9;48.0;48.5;11;10.8;27.8;0.0;
19/02/2025 02:49:58;100;0;141.87;-4;-31.05;-5.97;74.5;19.70;77206;2837.488;-1758.593;1;154;-70;-64.5;48.0;48.5;9;9.0;27.8;0.0;
19/02/2025 02:50:18;100;0;138.68;-4;-31.12;-7.23;78.3;19.60;77191;2837.485;-1758.591;1;154;-70;-62.9;48.0;48.5;5;5.0;27.8;0.0;
19/02/2025 02:50:38;100;0;141.72;-4;-31.75;-9.36;82.4;19.60;77187;2837.483;-1758.589;1;155;-70;-64.5;48.0;48.5;8;8.1;27.8;0.0;
19/02/2025 02:50:58;100;0;140.52;-4;-31.09;-7.28;86.6;19.60;77177;2837.480;-1758.586;1;155;-70;-62.9;48.0;48.5;6;5.9;27.8;0.0;
19/02/2025 02:51:18;100;0;137.92;-4;-31.16;-9.03;90.5;19.60;77186;2837.478;-1758.584;1;155;-70;-62.9;48.0;48.5;2;1.8;27.8;0.0;
19/02/2025 02:51:38;100;0;143.47;-4;-31.37;-10.86;94.8;19.60;77150;2837.475;-1758.582;1;155;-70;-64.5;48.0;48.5;9;9.0;27.8;0.0;
19/02/2025 02:51:58;100;0;153.87;-4;-32.25;-7.23;98.8;19.60;77137;2837.472;-1758.580;1;155;-70;-64.5;47.3;47.3;13;13.1;27.8;0.0;
19/02/2025 02:52:18;100;0;161.36;-4;-29.73;-4.59;103.1;19.50;77126;2837.469;-1758.579;1;155;-70;-64.5;47.3;47.1;13;13.5;27.8;0.0;
19/02/2025 02:52:38;100;0;163.60;-4;-28.93;-4.54;106.9;19.50;77106;2837.466;-1758.578;1;155;-70;-64.5;47.6;47.7;16;15.8;27.8;0.0;
19/02/2025 02:52:58;100;0;159.46;-4;-29.51;-3.28;110.7;19.50;77104;2837.463;-1758.577;1;155;-70;-64.5;47.6;47.9;13;13.1;27.8;0.0;
19/02/2025 02:53:18;100;0;152.05;-4;-29.68;-5.34;114.3;19.50;77090;2837.460;-1758.575;1;155;-70;-62.9;47.6;48.0;13;12.6;27.8;0.0;
19/02/2025 02:53:38;100;0;143.73;-4;-29.30;-5.48;117.9;19.40;77083;2837.458;-1758.573;1;155;-70;-64.5;47.6;47.9;10;9.9;27.8;0.0;
19/02/2025 02:53:58;100;0;142.65;-4;-29.49;-6.84;121.6;19.40;77064;2837.455;-1758.571;1;155;-70;-62.9;47.6;48.0;8;8.1;27.8;0.0;
19/02/2025 02:54:18;100;0;142.35;-4;-29.45;-7.99;125.3;19.40;77043;2837.453;-1758.569;1;155;-70;-62.9;47.6;47.9;8;7.7;27.8;0.0;
19/02/2025 02:54:38;100;0;140.16;-4;-29.53;-7.91;128.9;19.40;77050;2837.451;-1758.567;1;155;-70;-62.9;47.6;47.9;5;5.0;27.8;0.0;
19/02/2025 02:54:58;100;0;139.60;-4;-28.90;-9.07;132.6;19.30;77041;2837.448;-1758.564;1;155;-70;-64.5;48.0;48.0;5;4.5;27.8;0.0;
19/02/2025 02:55:18;100;0;136.35;-4;-29.10;-9.26;136.3;19.30;77025;2837.446;-1758.562;1;155;-70;-64.5;48.0;48.3;0;0.0;27.8;0.0;
19/02/2025 02:55:38;100;0;136.82;-4;-29.59;-11.75;139.8;19.30;77027;2837.444;-1758.560;1;155;-70;-62.9;48.0;48.2;0;-0.5;27.8;0.0;
19/02/2025 02:55:58;100;0;134.57;-4;-30.20;-11.77;143.6;19.20;77004;2837.442;-1758.557;1;156;-70;-64.5;48.0;48.2;-5;-5.4;27.8;0.0;
19/02/2025 02:56:18;100;0;132.84;-4;-29.11;-14.06;147.4;19.20;76999;2837.440;-1758.554;1;156;-70;-62.9;48.0;48.2;-8;-8.1;27.8;0.0;
19/02/2025 02:56:38;100;0;142.34;-4;-28.92;-15.92;151.1;19.20;76990;2837.437;-1758.552;1;156;-70;-64.5;48.3;48.2;7;7.2;27.8;0.0;
19/02/2025 02:56:58;100;0;148.10;-4;-28.63;-8.20;154.7;19.10;76979;2837.434;-1758.550;1;156;-70;-62.9;48.7;49.0;11;10.8;27.8;0.0;
19/02/2025 02:57:18;100;0;148.15;-4;-30.49;-5.84;158.2;19.10;76973;2837.432;-1758.549;1;156;-70;-62.9;48.7;49.0;11;11.3;27.8;0.0;
19/02/2025 02:57:38;100;0;151.19;-4;-30.40;-5.91;161.9;19.10;76957;2837.429;-1758.547;1;156;-70;-64.5;48.7;49.0;11;11.3;27.8;0.0;
19/02/2025 02:57:58;100;0;153.64;-4;-30.96;-5.97;165.6;19.00;76959;2837.427;-1758.546;1;156;-70;-62.9;48.7;49.0;11;11.3;27.8;0.0;
19/02/2025 02:58:18;100;0;153.84;-4;-31.24;-6.03;169.4;19.00;76944;2837.424;-1758.544;1;156;-70;-64.5;48.7;49.2;11;11.3;27.8;0.0;
19/02/2025 02:58:38;100;0;145.08;-4;-32.01;-6.07;173.2;19.00;76945;2837.422;-1758.542;1;156;-70;-62.9;48.1;48.0;9;8.6;27.8;0.0;
19/02/2025 02:58:58;100;0;142.46;-4;-29.44;-7.38;177.1;18.90;76935;2837.419;-1758.540;1;156;-70;-64.5;48.1;47.7;7;7.2;27.8;0.0;
19/02/2025 02:59:18;100;0;139.03;-4;-28.92;-8.19;180.8;18.90;76914;2837.417;-1758.538;1;156;-70;-64.5;48.4;48.5;2;1.8;27.8;0.0;
19/02/2025 02:59:38;100;0;138.62;-4;-29.28;-10.62;184.3;18.90;76909;2837.414;-1758.535;1;157;-70;-62.9;48.4;48.6;0;0.0;27.8;0.0;
19/02/2025 02:59:58;100;0;133.94;-4;-30.10;-11.86;187.6;18.80;76895;2837.413;-1758.533;1;157;-70;-62.9;48.4;48.6;-8;-8.1;27.8;0.0;
19/02/2025 03:00:18;100;0;139.43;-4;-29.94;-15.79;191.3;18.80;76882;2837.410;-1758.531;1;157;-70;-64.5;48.4;48.6;1;1.4;27.8;0.0;
19/02/2025 03:00:38;100;0;145.84;-4;-30.16;-10.75;194.9;18.80;76860;2837.408;-1758.529;1;157;-70;-62.9;48.4;48.6;9;9.0;27.8;0.0;
19/02/2025 03:00:58;100;0;150.52;-4;-29.99;-6.82;198.4;18.70;76855;2837.405;-1758.527;1;157;-70;-62.9;48.4;48.6;12;9.9;27.8;0.0;
19/02/2025 03:01:01;118;0;150.97;-4;-30.18;-5.05;199.0;18.70;76848;2837.405;-1758.527;1;157;150;-61.3;34.0;34.0;8;7.7;27.8;0.0;
19/02/2025 03:01:11;118;0;137.39;-4;-21.28;-8.56;200.3;18.70;76823;2837.404;-1758.526;1;157;150;67.7;34.0;33.9;8;7.7;27.4;-1.0;
19/02/2025 03:01:21;118;0;134.84;-4;-8.98;-8.35;201.3;18.70;76560;2837.403;-1758.525;1;157;150;153.2;34.0;33.7;8;7.7;27.3;-1.0;
19/02/2025 03:01:31;118;0;151.76;-4;-4.99;-8.44;201.5;18.70;76385;2837.402;-1758.525;1;157;150;153.2;34.0;33.6;8;7.7;27.8;-1.0;
19/02/2025 03:01:51;117;0;146.34;-4;-3.53;-8.53;201.5;18.60;76387;2837.403;-1758.525;1;157;150;154.8;34.0;33.6;8;7.7;27.8;-1.0;
19/02/2025 03:02:11;117;0;142.23;-4;-3.69;-8.76;201.3;18.60;76378;2837.403;-1758.525;1;157;150;153.2;23.9;23.9;27;27.5;27.8;-1.0;
19/02/2025 03:02:31;117;0;144.82;-4;25.63;2.72;200.8;18.60;76379;2837.402;-1758.525;1;157;150;156.5;22.6;22.5;27;27.5;27.8;-1.0;
19/02/2025 03:02:51;117;0;142.60;-4;28.34;2.16;199.3;18.50;76366;2837.402;-1758.524;1;157;150;156.5;22.1;21.9;33;32.9;27.8;-1.0;
19/02/2025 03:03:11;117;0;141.38;-4;29.78;5.13;197.5;18.50;76366;2837.401;-1758.523;1;157;150;158.1;22.1;21.9;33;33.4;27.8;-1.0;
19/02/2025 03:03:31;117;0;140.30;-4;29.72;5.07;195.4;18.40;76365;2837.399;-1758.522;1;157;150;158.1;22.1;21.9;36;36.1;27.8;-1.0;
19/02/2025 03:03:51;117;0;136.47;-4;29.72;6.79;193.2;18.40;76353;2837.398;-1758.520;1;157;150;158.1;22.1;21.8;42;42.0;27.8;-1.0;
19/02/2025 03:04:11;117;0;135.36;-4;30.26;9.91;190.9;18.30;76360;2837.397;-1758.519;1;158;150;158.1;22.1;21.8;45;45.1;27.8;-1.0;
19/02/2025 03:04:31;117;0;135.03;-4;30.28;11.60;188.7;18.30;76357;2837.396;-1758.517;1;158;150;153.2;22.1;21.9;45;45.1;27.8;-1.0;
19/02/2025 03:04:51;117;0;137.51;-4;30.13;11.59;186.4;18.30;76345;2837.394;-1758.516;1;158;150;156.5;22.1;21.8;42;41.5;27.8;-1.0;
19/02/2025 03:05:11;117;0;144.43;-4;30.52;9.15;184.1;18.20;76356;2837.393;-1758.515;1;158;150;156.5;22.1;21.9;32;31.6;27.8;-1.0;
19/02/2025 03:05:31;117;0;145.77;-4;29.63;4.03;181.7;18.20;76363;2837.391;-1758.514;1;158;150;158.1;22.1;21.8;32;31.6;27.8;-1.0;
19/02/2025 03:05:51;117;0;147.98;-4;29.88;3.98;179.4;18.20;76361;2837.390;-1758.513;1;158;150;158.1;22.1;21.8;29;28.9;27.8;-1.0;
19/02/2025 03:06:11;117;0;148.12;-4;29.21;2.47;176.8;18.10;76379;2837.388;-1758.511;1;158;150;156.5;22.1;21.9;29;28.9;27.8;-1.0;
19/02/2025 03:06:31;117;0;146.13;-4;29.01;2.47;174.4;18.10;76377;2837.386;-1758.510;1;158;150;158.1;22.1;21.8;31;31.1;27.8;-1.0;
19/02/2025 03:06:51;117;0;149.31;-4;28.57;3.88;171.9;18.10;76384;2837.385;-1758.509;1;158;150;156.5;21.7;21.5;29;28.9;27.8;-1.0;
19/02/2025 03:07:11;117;0;152.38;-4;29.57;2.07;169.6;18.10;76386;2837.383;-1758.508;1;158;150;158.1;21.7;21.5;29;28.0;27.8;-1.0;
19/02/2025 03:07:31;117;0;152.63;-4;29.84;2.08;167.4;18.10;76388;2837.381;-1758.507;1;158;150;158.1;21.7;21.4;29;28.0;27.8;-1.0;
19/02/2025 03:07:51;117;0;154.11;-4;29.79;2.00;165.1;18.00;76386;2837.380;-1758.506;1;158;150;158.1;21.7;21.4;29;28.0;27.8;-1.0;
19/02/2025 03:08:11;117;0;150.39;-4;29.82;2.23;162.7;18.00;76393;2837.378;-1758.505;1;158;150;158.1;21.7;21.4;29;28.0;27.8;-1.0;
19/02/2025 03:08:31;117;0;142.89;-4;30.34;2.35;160.4;18.00;76385;2837.377;-1758.504;1;158;150;158.1;21.7;21.4;34;33.8;27.8;-1.0;
19/02/2025 03:08:51;117;0;138.09;-4;30.62;5.80;158.0;18.00;76397;2837.375;-1758.503;1;158;150;158.1;21.7;21.5;41;41.1;27.8;-1.0;
19/02/2025 03:09:11;117;0;136.31;-4;31.22;9.60;155.5;18.00;76399;2837.374;-1758.501;1;159;150;156.5;21.7;21.4;46;46.0;27.8;-1.0;
19/02/2025 03:09:31;117;0;132.89;-4;31.36;12.33;152.9;18.00;76399;2837.373;-1758.500;1;159;150;158.1;21.7;21.5;52;51.9;27.8;-1.0;
19/02/2025 03:09:51;117;0;128.82;-4;32.27;15.55;150.3;17.90;76402;2837.372;-1758.498;1;159;150;158.1;22.3;22.5;59;59.1;27.8;-1.0;
19/02/2025 03:10:11;117;0;129.37;-4;31.50;19.61;147.7;17.90;76409;2837.370;-1758.496;1;159;150;158.1;22.3;22.7;59;59.6;27.8;-1.0;
19/02/2025 03:10:31;117;0;135.56;-4;31.05;19.87;145.1;17.90;76404;2837.369;-1758.494;1;159;150;158.1;22.3;22.7;47;46.5;27.8;-1.0;
19/02/2025 03:10:51;117;0;139.48;-4;29.52;12.02;142.6;17.90;76422;2837.368;-1758.493;1;159;150;159.7;22.3;22.7;41;40.6;27.8;-1.0;
19/02/2025 03:11:11;117;0;140.84;-4;28.90;8.75;140.4;17.90;76419;2837.366;-1758.492;1;159;150;158.1;22.0;21.9;38;37.5;27.8;-1.0;
19/02/2025 03:11:31;117;0;145.86;-4;29.43;7.14;138.0;17.90;76434;2837.365;-1758.490;1;160;150;158.1;22.0;21.8;33;32.9;27.8;-1.0;
19/02/2025 03:11:51;117;0;148.16;-4;29.72;4.45;136.0;17.90;76439;2837.363;-1758.490;1;160;150;158.1;22.0;21.8;31;31.1;27.8;-1.0;
19/02/2025 03:12:11;117;0;150.32;-4;29.02;3.58;133.8;17.90;76434;2837.362;-1758.489;1;160;150;158.1;22.0;21.8;31;30.7;27.8;-1.0;
19/02/2025 03:12:31;117;0;152.27;-4;29.52;3.52;131.7;17.90;76448;2837.360;-1758.488;1;160;150;158.1;22.0;21.8;29;28.9;27.8;-1.0;
19/02/2025 03:12:51;117;0;152.07;-4;29.03;2.13;129.7;17.90;76449;2837.359;-1758.487;1;160;150;156.5;22.0;21.8;29;28.4;27.8;-1.0;
19/02/2025 03:13:11;117;0;150.03;-4;28.99;2.25;127.7;17.90;76449;2837.357;-1758.486;1;160;170;172.6;21.7;21.6;29;28.4;27.8;-1.0;
19/02/2025 03:13:32;117;0;150.83;-4;29.10;2.12;125.6;17.90;76428;2837.356;-1758.485;1;160;170;174.2;21.7;21.4;29;28.4;27.8;-1.0;
19/02/2025 03:13:52;117;0;149.38;-4;29.37;2.34;123.5;17.90;76437;2837.354;-1758.484;1;160;170;174.2;21.7;21.4;29;28.4;27.8;-1.0;
19/02/2025 03:14:12;117;0;147.81;-4;29.69;2.19;121.4;17.90;76429;2837.353;-1758.483;1;160;170;172.6;21.7;21.4;32;32.0;27.8;-1.0;
19/02/2025 03:14:32;117;0;149.03;-4;29.99;4.78;119.2;17.90;76437;2837.352;-1758.482;1;160;170;174.2;21.7;21.5;32;32.5;27.8;-1.0;
19/02/2025 03:14:52;117;0;150.89;-4;30.27;4.69;117.0;17.90;76449;2837.350;-1758.481;1;160;170;172.6;21.7;21.4;30;29.8;27.8;-1.0;
19/02/2025 03:15:12;117;0;150.36;-4;30.42;2.87;114.7;17.90;76451;2837.349;-1758.480;1;160;170;174.2;21.7;21.5;30;29.3;27.8;-1.0;
19/02/2025 03:15:32;117;0;149.93;-4;30.09;2.86;112.3;17.90;76463;2837.347;-1758.479;1;160;170;174.2;21.7;21.5;30;29.3;27.8;-1.0;
19/02/2025 03:15:52;117;0;148.99;-4;29.39;2.69;109.9;17.90;76466;2837.345;-1758.478;1;160;170;174.2;21.7;21.5;30;29.3;27.8;-1.0;
19/02/2025 03:16:12;117;0;146.62;-4;29.74;2.92;107.6;17.90;76474;2837.344;-1758.477;1;160;170;172.6;21.7;21.4;33;33.4;27.8;-1.0;
19/02/2025 03:16:32;117;0;144.87;-4;29.68;5.09;105.4;17.90;76487;2837.342;-1758.476;1;160;170;174.2;21.7;21.4;35;35.2;27.8;-1.0;
19/02/2025 03:16:52;117;0;141.64;-4;30.21;6.45;103.3;17.90;76491;2837.341;-1758.475;1;160;170;174.2;21.7;21.4;39;38.8;27.8;-1.0;
19/02/2025 03:17:12;117;0;138.29;-4;30.70;8.30;101.1;17.90;76505;2837.340;-1758.474;1;161;170;174.2;21.7;21.5;47;46.9;27.8;-1.0;
19/02/2025 03:17:32;117;0;138.09;-4;30.97;12.34;98.9;17.90;76515;2837.339;-1758.472;1;161;170;175.8;21.7;21.5;47;46.9;27.8;-1.0;
19/02/2025 03:17:52;117;0;135.92;-4;30.50;12.84;96.6;17.90;76532;2837.337;-1758.471;1;161;170;174.2;21.7;21.4;51;51.4;27.8;-1.0;
19/02/2025 03:18:12;117;0;137.76;-4;31.08;15.18;94.2;17.90;76529;2837.336;-1758.469;1;161;170;174.2;21.7;21.5;48;47.8;27.8;-1.0;
19/02/2025 03:18:32;117;0;142.40;-4;31.03;12.64;91.7;18.00;76557;2837.335;-1758.468;1;161;170;174.2;21.7;21.5;40;40.2;27.8;-1.0;
19/02/2025 03:18:52;117;0;146.27;-4;30.23;8.28;89.3;18.00;76589;2837.333;-1758.467;1;161;170;174.2;21.7;21.4;35;35.2;27.8;-1.0;
19/02/2025 03:19:12;117;0;147.36;-4;29.49;5.65;87.1;18.00;76589;2837.331;-1758.466;1;161;170;172.6;21.7;21.4;33;32.9;27.8;-1.0;
19/02/2025 03:19:32;117;0;147.33;-4;29.53;4.47;84.8;18.00;76608;2837.330;-1758.465;1;161;170;174.2;21.7;21.4;33;32.5;27.8;-1.0;
19/02/2025 03:19:52;117;0;146.99;-4;29.36;4.38;82.7;18.00;76615;2837.329;-1758.464;1;162;170;172.6;21.7;21.4;35;35.2;27.8;-1.0;
19/02/2025 03:20:12;117;0;148.53;-4;30.06;6.25;80.5;18.10;76641;2837.327;-1758.463;1;162;170;174.2;21.7;21.4;33;32.9;27.8;-1.0;
19/02/2025 03:20:32;117;0;149.25;-4;30.01;4.39;78.2;18.10;76641;2837.326;-1758.462;1;162;170;174.2;21.7;21.4;33;32.5;27.8;-1.0;
19/02/2025 03:20:52;117;0;145.60;-4;29.21;4.56;75.9;18.10;76654;2837.324;-1758.461;1;162;170;174.2;21.7;21.4;37;37.5;27.8;-1.0;
19/02/2025 03:21:12;117;0;146.79;-4;30.57;7.47;73.8;18.10;76667;2837.323;-1758.460;1;162;170;174.2;21.7;21.4;34;33.8;27.8;-1.0;
19/02/2025 03:21:32;117;0;146.56;-4;30.20;5.87;71.3;18.20;76669;2837.321;-1758.458;1;162;170;174.2;21.7;21.4;36;36.1;27.8;-1.0;
19/02/2025 03:21:52;117;0;144.98;-4;29.71;6.69;68.9;18.20;76681;2837.320;-1758.457;1;162;170;172.6;21.7;21.4;38;37.9;27.8;-1.0;
19/02/2025 03:22:12;117;0;143.39;-4;30.11;7.75;66.7;18.20;76681;2837.318;-1758.456;1;162;170;174.2;21.7;21.4;40;40.2;27.8;-1.0;
19/02/2025 03:22:32;117;0;142.19;-4;30.75;9.09;64.3;18.20;76694;2837.317;-1758.455;1;162;170;174.2;21.7;21.4;42;42.0;27.8;-1.0;
19/02/2025 03:22:52;117;0;139.59;-4;30.69;10.25;61.9;18.30;76701;2837.315;-1758.453;1;163;170;174.2;21.7;21.4;48;47.8;27.8;-1.0;
19/02/2025 03:23:12;117;0;139.94;-4;30.23;13.30;59.4;18.30;76711;2837.314;-1758.452;1;163;170;174.2;21.7;21.5;48;48.3;27.8;-1.0;
19/02/2025 03:23:32;117;0;142.14;-4;30.67;13.29;56.9;18.30;76718;2837.312;-1758.451;1;163;170;172.6;21.7;21.4;44;43.8;27.8;-1.0;
19/02/2025 03:23:52;117;0;142.87;-4;30.56;10.39;54.4;18.30;76723;2837.311;-1758.449;1;163;170;174.2;21.7;21.4;44;43.3;27.8;-1.0;
19/02/2025 03:24:12;117;0;142.45;-4;29.91;10.43;52.0;18.40;76727;2837.309;-1758.448;1;163;170;174.2;21.7;21.5;44;43.3;27.8;-1.0;
19/02/2025 03:24:32;117;0;143.97;-4;30.79;10.46;49.5;18.40;76735;2837.308;-1758.447;1;163;170;174.2;21.7;21.4;41;41.1;27.8;-1.0;
19/02/2025 03:24:52;117;0;147.32;-4;30.67;8.66;47.1;18.40;76733;2837.306;-1758.446;1;163;170;174.2;21.7;21.4;36;36.1;27.8;-1.0;
19/02/2025 03:25:12;117;0;147.04;-4;30.09;6.74;44.5;18.40;76746;2837.305;-1758.444;1;164;170;174.2;21.7;21.4;38;37.9;27.8;-1.0;
19/02/2025 03:25:32;117;0;146.57;-4;29.89;7.79;41.9;18.50;76758;2837.303;-1758.443;1;164;170;172.6;21.7;21.4;38;38.4;27.8;-1.0;
19/02/2025 03:25:52;117;0;148.58;-4;28.82;7.69;39.5;18.50;76768;2837.301;-1758.442;1;164;170;172.6;21.3;21.4;36;35.6;27.8;-1.0;
19/02/2025 03:26:12;117;0;146.30;-4;30.59;6.52;37.0;18.50;76784;2837.300;-1758.441;1;164;170;174.2;21.3;21.4;39;38.8;27.8;-1.0;
19/02/2025 03:26:32;117;0;145.67;-4;30.47;8.42;34.4;18.50;76774;2837.298;-1758.440;1;164;170;174.2;21.3;21.4;39;39.3;27.8;-1.0;
19/02/2025 03:26:52;117;0;145.91;-4;29.43;8.51;32.0;18.50;76775;2837.296;-1758.438;1;164;170;174.2;21.3;21.4;39;39.3;27.8;-1.0;
19/02/2025 03:27:12;117;0;146.04;-4;30.85;8.49;29.7;18.60;76788;2837.295;-1758.437;1;164;170;172.6;21.3;21.4;39;39.3;27.8;-1.0;
19/02/2025 03:27:32;117;0;145.19;-4;29.10;8.70;27.2;18.60;76793;2837.293;-1758.436;1;165;170;174.2;21.3;21.5;43;43.3;27.8;-1.0;
19/02/2025 03:27:52;117;0;144.57;-4;30.26;10.60;24.6;18.60;76800;2837.291;-1758.435;1;165;170;174.2;21.3;21.4;43;43.3;27.8;-1.0;
19/02/2025 03:28:12;117;0;146.00;-4;30.05;10.44;22.0;18.70;76802;2837.290;-1758.433;1;165;170;174.2;21.3;21.4;43;43.3;27.8;-1.0;
19/02/2025 03:28:32;117;0;146.95;-4;31.22;10.50;19.5;18.70;76803;2837.288;-1758.432;1;165;170;174.2;21.3;21.4;40;40.2;27.8;-1.0;
19/02/2025 03:28:52;117;0;144.09;-4;31.19;8.44;16.6;18.70;76808;2837.286;-1758.431;1;165;170;174.2;21.3;21.4;45;45.1;27.8;-1.0;
19/02/2025 03:29:12;117;0;150.72;-4;29.19;11.47;14.1;18.70;76815;2837.284;-1758.429;1;165;170;174.2;21.3;21.4;35;35.2;27.8;-1.0;
19/02/2025 03:29:32;117;0;149.60;-4;31.65;6.50;11.3;18.70;76806;2837.283;-1758.428;1;166;170;175.8;21.3;21.4;38;37.9;27.8;-1.0;
19/02/2025 03:29:52;117;0;150.96;-4;28.66;7.79;8.7;18.80;76807;2837.281;-1758.427;1;166;170;172.6;20.9;20.6;36;36.1;27.8;-1.0;
19/02/2025 03:30:12;117;0;151.41;-4;28.50;5.92;6.2;18.80;76823;2837.279;-1758.426;1;166;170;172.6;20.5;20.5;36;35.6;27.8;-1.0;
19/02/2025 03:30:32;117;0;144.50;-4;37.93;7.69;4.0;18.80;76821;2837.278;-1758.425;1;166;170;174.2;22.9;23.0;43;43.3;27.8;-1.0;
19/02/2025 03:30:39;115;0;150.04;-4;30.29;11.47;3.1;18.80;76824;2837.277;-1758.425;1;166;500;180.6;100.0;64.8;0;-0.5;27.8;-1.0;
19/02/2025 03:30:49;115;0;136.28;-4;8.76;-13.04;2.0;18.80;76795;2837.276;-1758.423;1;166;500;298.4;100.0;100.1;0;-0.5;27.5;-1.0;
19/02/2025 03:30:59;115;0;137.31;-4;-63.14;-11.42;2.7;18.80;76529;2837.276;-1758.423;1;166;500;422.6;100.0;100.7;0;-0.5;27.5;-1.0;
19/02/2025 03:31:09;115;0;135.05;-4;-76.69;-21.61;2.4;18.90;76284;2837.276;-1758.423;1;166;500;508.1;100.0;100.7;0;-0.5;27.4;-1.0;
19/02/2025 03:31:19;115;0;137.02;-4;-34.94;-9.13;-0.0;18.90;76096;2837.275;-1758.422;1;166;500;504.8;100.0;100.7;0;-0.5;27.8;-1.0;
19/02/2025 03:31:39;119;0;74.70;-4;-48.46;-20.03;0.1;18.90;76119;2837.275;-1758.422;1;166;500;508.1;100.0;100.7;0;-0.5;27.8;-1.0;
19/02/2025 03:31:49;119;0;74.02;-4;-53.46;-15.86;0.2;19.00;76111;2837.438;-1758.481;0;166;500;508.1;100.0;100.7;0;-0.5;27.8;-1.0;
