Timestamp;NavState;SecurityLevel;Heading;Declination;Pitch;Roll;Depth;Temperature;Pa;Lat;Lon;DeadReckoning;DesiredH;BallastCmd;BallastPos;LinCmd;LinPos;AngCmd;AngPos;Voltage;Altitude;
14/02/2025 21:43:05;119;0;252.80;-4;-55.86;-16.08;0.0;18.10;75926;2837.643;-1758.935;0;139;500;509.7;100.0;100.6;0;-0.5;28.6;-1.0;
14/02/2025 21:43:15;116;0;251.93;-4;-53.16;-16.84;0.1;18.10;75931;2837.655;-1758.937;0;139;500;508.1;100.0;100.7;0;-0.5;28.6;-1.0;
14/02/2025 21:43:40;116;0;249.81;-4;-57.32;-18.53;0.1;18.20;75941;2837.658;-1758.939;0;139;500;508.1;100.0;100.7;0;-0.5;28.6;-1.0;
14/02/2025 21:43:58;116;0;245.94;-4;-58.88;-17.61;0.2;18.20;75945;2837.658;-1758.938;0;139;500;508.1;100.0;100.6;0;-0.5;28.6;-1.0;
14/02/2025 21:44:18;116;0;240.69;-4;-55.89;-13.15;0.1;18.30;75944;2837.657;-1758.939;0;139;500;509.7;100.0;100.7;0;-0.5;28.6;-1.0;
14/02/2025 21:44:38;116;0;235.81;-4;-47.95;-10.72;0.1;18.30;75955;2837.659;-1758.939;0;139;500;508.1;100.0;100.7;0;-0.5;28.6;-1.0;
14/02/2025 21:45:41;116;0;238.68;-4;-56.49;-11.59;0.1;18.50;75977;2837.662;-1758.938;0;139;500;508.1;100.0;100.7;0;-0.5;28.6;-1.0;
14/02/2025 21:46:50;116;0;245.97;-4;-54.10;-14.35;0.2;18.70;76005;2837.666;-1758.937;0;140;500;509.7;100.0;100.6;0;-0.5;28.6;-1.0;
14/02/2025 21:48:17;116;0;240.09;-4;-53.37;-22.37;0.0;19.10;76021;2837.671;-1758.936;0;140;500;508.1;100.0;100.7;0;-0.5;28.6;-1.0;
14/02/2025 21:48:37;110;0;230.05;-4;-53.95;-10.01;-0.0;19.10;76026;2837.671;-1758.936;0;140;-50;393.5;100.0;99.9;-7;-7.2;28.6;-1.0;
14/02/2025 21:48:47;110;0;215.88;-4;-53.55;-18.35;0.3;19.20;76379;2837.671;-1758.937;1;140;-50;243.5;100.0;99.9;-7;-7.7;28.5;-1.0;
14/02/2025 21:48:57;110;0;225.34;-4;-61.65;-14.16;0.6;19.20;76616;2837.671;-1758.937;1;140;-50;87.1;100.0;99.7;-7;-7.7;28.5;-1.0;
14/02/2025 21:49:07;110;0;227.69;-4;-71.64;-10.70;1.0;19.30;76945;2837.671;-1758.937;1;140;-50;-48.4;100.0;99.9;-7;-7.7;28.5;-1.0;
14/02/2025 21:49:17;110;0;223.80;-4;-65.20;-20.19;1.0;19.30;77216;2837.671;-1758.938;1;140;-50;-48.4;42.3;42.3;-7;-7.7;28.6;-1.0;
14/02/2025 21:49:37;100;0;243.22;-4;-28.14;-17.23;3.8;19.40;77200;2837.670;-1758.941;1;140;-50;-46.8;42.3;42.0;-7;-7.7;28.6;-1.0;
14/02/2025 21:49:57;100;0;256.19;-4;-19.22;-16.23;6.4;19.40;77203;2837.670;-1758.945;1;140;-50;-41.9;42.3;41.8;70;69.9;28.6;-1.0;
14/02/2025 21:50:17;100;0;258.66;-4;-21.88;23.64;8.9;19.50;77208;2837.669;-1758.949;1;139;-50;-40.3;42.3;41.8;70;70.4;28.6;-1.0;
14/02/2025 21:50:37;100;0;247.81;-4;-22.20;23.38;11.6;19.50;77205;2837.668;-1758.952;1;139;-50;-40.3;41.7;41.7;70;70.4;28.6;-1.0;
14/02/2025 21:50:57;100;0;233.79;-4;-21.22;23.24;14.4;19.50;77212;2837.667;-1758.956;1;139;-50;-40.3;41.7;41.5;70;70.4;28.6;0.0;
14/02/2025 21:51:17;100;0;221.44;-4;-19.86;23.71;17.0;19.50;77209;2837.664;-1758.959;1;139;-50;-40.3;41.7;41.5;70;70.4;28.6;0.0;
14/02/2025 21:51:37;100;0;210.59;-4;-19.98;23.21;19.6;19.50;77221;2837.662;-1758.961;1;138;-50;-41.9;41.7;41.5;70;70.4;28.6;0.0;
14/02/2025 21:51:57;100;0;200.96;-4;-19.92;23.43;22.0;19.50;77215;2837.659;-1758.963;1;138;-50;-41.9;41.7;41.4;70;70.4;28.6;0.0;
14/02/2025 21:52:17;100;0;188.35;-4;-19.28;23.37;24.3;19.50;77220;2837.656;-1758.964;1;138;-50;-40.3;41.7;41.5;70;70.4;28.6;0.0;
14/02/2025 21:52:37;100;0;176.72;-4;-19.61;23.40;26.6;19.50;77219;2837.654;-1758.964;1;138;-50;-40.3;41.7;41.5;63;63.2;28.6;0.0;
14/02/2025 21:52:57;100;0;166.80;-4;-20.00;19.20;28.9;19.50;77217;2837.651;-1758.963;1;138;-50;-40.3;41.7;41.5;50;50.1;28.6;0.0;
14/02/2025 21:53:17;100;0;157.65;-4;-18.97;12.53;31.1;19.50;77225;2837.648;-1758.962;1;138;-50;-40.3;42.0;42.1;34;33.8;28.6;0.0;
14/02/2025 21:53:38;100;0;151.80;-4;-18.80;4.59;33.4;19.50;77227;2837.646;-1758.961;1;138;-50;-40.3;42.3;42.9;25;24.8;28.6;0.0;
14/02/2025 21:53:58;100;0;148.23;-4;-19.57;-0.01;35.7;19.50;77221;2837.644;-1758.960;1;138;-50;-41.9;42.3;42.9;20;19.4;28.6;0.0;
14/02/2025 21:54:18;100;0;147.08;-4;-19.71;-2.44;38.0;19.60;77223;2837.641;-1758.958;1;138;-50;-40.3;42.3;42.9;20;19.4;28.6;0.0;
14/02/2025 21:54:38;100;0;146.06;-4;-19.51;-2.40;40.4;19.60;77242;2837.639;-1758.957;1;137;-50;-41.9;42.3;42.9;20;19.4;28.6;0.0;
14/02/2025 21:54:58;100;0;144.26;-4;-19.59;-2.44;42.8;19.60;77240;2837.637;-1758.955;1;137;-50;-40.3;42.3;42.9;18;18.1;28.6;0.0;
14/02/2025 21:55:18;100;0;143.36;-4;-19.36;-3.33;45.2;19.60;77239;2837.634;-1758.953;1;137;-50;-41.9;42.3;42.9;18;17.6;28.6;0.0;
14/02/2025 21:55:38;100;0;142.78;-4;-19.33;-3.32;47.7;19.60;77242;2837.632;-1758.951;1;137;-50;-40.3;42.3;42.9;18;17.6;28.6;0.0;
14/02/2025 21:55:58;100;0;141.65;-4;-19.56;-3.29;50.1;19.60;77241;2837.630;-1758.950;1;137;-50;-40.3;42.3;42.9;16;15.8;28.6;0.0;
14/02/2025 21:56:18;100;0;141.61;-4;-19.36;-4.52;52.6;19.60;77249;2837.627;-1758.948;1;137;-50;-41.9;42.3;42.9;16;15.3;28.6;0.0;
14/02/2025 21:56:38;100;0;141.06;-4;-19.46;-4.40;55.1;19.60;77249;2837.625;-1758.946;1;137;-50;-41.9;42.3;42.9;16;15.3;28.6;0.0;
14/02/2025 21:56:58;100;0;142.44;-4;-19.65;-4.39;57.6;19.60;77252;2837.623;-1758.944;1;137;-50;-40.3;42.3;42.9;16;15.3;28.6;0.0;
14/02/2025 21:57:18;100;0;144.20;-4;-19.72;-4.45;60.3;19.60;77254;2837.620;-1758.942;1;137;-50;-41.9;42.3;42.9;18;18.1;28.6;0.0;
14/02/2025 21:57:38;100;0;146.14;-4;-19.49;-2.64;62.8;19.60;77261;2837.618;-1758.940;1;137;-50;-40.3;42.3;42.9;18;19.0;28.6;0.0;
14/02/2025 21:57:58;100;0;144.21;-4;-19.32;-2.76;65.2;19.60;77272;2837.615;-1758.938;1;137;-50;-40.3;42.3;42.9;18;19.0;28.5;0.0;
14/02/2025 21:58:18;100;0;144.45;-4;-19.63;-2.73;67.7;19.60;77261;2837.613;-1758.937;1;137;-50;-41.9;42.3;42.9;18;19.0;28.5;0.0;
14/02/2025 21:58:38;100;0;144.26;-4;-19.90;-2.76;70.3;19.60;77277;2837.610;-1758.935;1;137;-50;-41.9;42.3;42.9;18;18.5;28.6;0.0;
14/02/2025 21:58:58;100;0;141.89;-4;-19.63;-2.67;72.9;19.60;77274;2837.608;-1758.933;1;137;-50;-40.3;42.3;42.9;18;18.5;28.6;0.0;
14/02/2025 21:59:18;100;0;139.92;-4;-19.14;-2.69;75.6;19.60;77283;2837.605;-1758.930;1;137;-50;-40.3;42.3;42.7;16;15.8;28.6;0.0;
14/02/2025 21:59:38;100;0;137.94;-4;-19.25;-4.42;78.1;19.60;77291;2837.603;-1758.928;1;137;-50;-40.3;42.3;42.9;16;15.3;28.6;0.0;
14/02/2025 21:59:58;100;0;137.83;-4;-18.95;-4.39;80.7;19.60;77286;2837.601;-1758.926;1;137;-50;-41.9;42.7;42.7;16;15.3;28.6;0.0;
14/02/2025 22:00:18;100;0;139.16;-4;-18.92;-4.33;83.1;19.60;77289;2837.598;-1758.924;1;137;-50;-40.3;43.0;43.0;16;15.3;28.6;0.0;
14/02/2025 22:00:38;100;0;140.81;-4;-19.93;-4.36;85.6;19.60;77283;2837.596;-1758.922;1;137;-50;-40.3;43.0;43.3;16;15.8;28.6;0.0;
14/02/2025 22:00:58;100;0;141.68;-4;-19.93;-4.33;88.1;19.60;77286;2837.594;-1758.920;1;137;-50;-40.3;43.0;43.3;16;15.3;28.6;0.0;
14/02/2025 22:01:18;100;0;141.74;-4;-19.89;-4.34;90.6;19.60;77294;2837.592;-1758.918;1;137;-50;-40.3;43.0;43.3;16;15.3;28.6;0.0;
14/02/2025 22:01:38;100;0;142.22;-4;-19.80;-4.35;93.1;19.60;77294;2837.589;-1758.916;1;137;-50;-40.3;43.0;43.3;16;15.3;28.6;0.0;
14/02/2025 22:01:58;100;0;143.42;-4;-20.06;-4.35;95.5;19.60;77294;2837.587;-1758.915;1;137;-50;-41.9;43.0;43.3;18;18.1;28.6;0.0;
14/02/2025 22:02:18;100;0;144.35;-4;-20.13;-2.77;97.9;19.60;77303;2837.585;-1758.913;1;137;-50;-40.3;43.0;43.3;18;18.5;28.6;0.0;
14/02/2025 22:02:38;100;0;142.63;-4;-20.04;-2.81;100.5;19.60;77300;2837.582;-1758.911;1;137;-50;-40.3;43.0;43.3;18;18.5;28.6;0.0;
14/02/2025 22:02:58;100;0;141.70;-4;-20.13;-2.81;103.0;19.60;77309;2837.580;-1758.909;1;137;-50;-41.9;43.0;43.3;18;18.5;28.6;0.0;
14/02/2025 22:03:18;100;0;140.34;-4;-20.29;-2.83;105.5;19.60;77317;2837.578;-1758.907;1;137;-50;-41.9;43.0;43.3;16;15.8;28.6;0.0;
14/02/2025 22:03:38;100;0;141.14;-4;-20.18;-4.56;108.0;19.60;77309;2837.575;-1758.905;1;137;-50;-40.3;43.0;43.3;16;15.3;28.6;0.0;
14/02/2025 22:03:58;100;0;140.92;-4;-20.09;-4.57;110.6;19.60;77320;2837.573;-1758.903;1;137;-50;-41.9;43.0;43.3;16;15.3;28.6;0.0;
14/02/2025 22:04:18;100;0;141.90;-4;-20.30;-4.48;113.2;19.60;77326;2837.571;-1758.901;1;137;-50;-41.9;43.0;43.3;16;15.3;28.6;0.0;
14/02/2025 22:04:38;100;0;142.33;-4;-19.97;-4.47;115.7;19.60;77326;2837.568;-1758.899;1;137;-50;-41.9;43.0;43.3;16;15.3;28.6;0.0;
14/02/2025 22:04:58;100;0;141.32;-4;-19.95;-4.52;118.3;19.60;77326;2837.566;-1758.898;1;137;-50;-40.3;43.0;43.4;16;15.3;28.6;0.0;
14/02/2025 22:05:18;100;0;140.58;-4;-19.94;-4.52;120.9;19.60;77324;2837.564;-1758.896;1;137;-50;-40.3;43.0;43.3;16;15.3;28.6;0.0;
14/02/2025 22:05:38;100;0;140.09;-4;-19.86;-4.49;123.5;19.60;77337;2837.561;-1758.893;1;137;-50;-40.3;43.0;43.3;16;15.3;28.6;0.0;
14/02/2025 22:05:58;100;0;139.64;-4;-19.98;-4.51;126.0;19.60;77346;2837.559;-1758.891;1;136;-50;-41.9;43.0;43.3;16;15.3;28.6;0.0;
14/02/2025 22:06:18;100;0;139.11;-4;-19.84;-4.51;128.6;19.60;77337;2837.557;-1758.889;1;136;-50;-40.3;43.0;43.3;16;15.3;28.6;0.0;
14/02/2025 22:06:38;100;0;139.10;-4;-19.77;-4.48;131.2;19.60;77340;2837.554;-1758.887;1;136;-50;-40.3;43.0;43.3;16;15.3;28.6;0.0;
14/02/2025 22:06:58;100;0;138.76;-4;-19.96;-4.47;133.8;19.60;77346;2837.552;-1758.885;1;136;-50;-40.3;43.0;43.3;16;15.3;28.6;0.0;
14/02/2025 22:07:18;100;0;138.73;-4;-19.88;-4.49;136.5;19.60;77340;2837.550;-1758.883;1;136;-50;-41.9;43.0;43.3;16;15.3;28.6;0.0;
14/02/2025 22:07:38;100;0;140.89;-4;-20.02;-4.56;139.2;19.60;77345;2837.547;-1758.881;1;136;-50;-40.3;43.0;43.3;16;15.3;28.6;0.0;
14/02/2025 22:07:58;100;0;138.73;-4;-20.17;-4.44;141.8;19.60;77334;2837.545;-1758.879;1;136;-50;-40.3;43.0;43.3;16;15.3;28.6;0.0;
14/02/2025 22:08:18;100;0;136.78;-4;-19.80;-4.52;144.5;19.60;77332;2837.543;-1758.876;1;136;-50;-40.3;43.0;43.3;16;15.3;28.6;0.0;
14/02/2025 22:08:38;100;0;130.69;-4;-19.42;-4.57;147.1;19.60;77326;2837.541;-1758.874;1;136;-50;-41.9;43.0;43.3;16;15.3;28.6;0.0;
14/02/2025 22:08:58;100;0;129.92;-4;-19.14;-4.53;149.5;19.60;77304;2837.539;-1758.871;1;136;-50;-41.9;43.0;43.3;16;15.3;28.6;0.0;
14/02/2025 22:09:18;100;0;131.00;-4;-19.42;-4.61;151.8;19.60;77288;2837.537;-1758.869;1;136;-50;-40.3;43.0;43.3;16;14.9;28.6;0.0;
14/02/2025 22:09:38;100;0;129.88;-4;-19.91;-4.51;154.2;19.60;77272;2837.535;-1758.867;1;136;-50;-41.9;43.0;43.2;16;15.3;28.5;0.0;
14/02/2025 22:09:58;100;0;132.32;-4;-19.69;-4.51;156.7;19.60;77251;2837.533;-1758.864;1;136;-50;-40.3;43.0;43.3;16;15.3;28.6;0.0;
14/02/2025 22:10:18;100;0;128.75;-4;-19.46;-4.54;159.2;19.50;77229;2837.531;-1758.862;1;136;-50;-41.9;43.0;43.3;16;15.3;28.6;0.0;
14/02/2025 22:10:38;100;0;128.47;-4;-19.05;-4.56;161.5;19.50;77202;2837.530;-1758.859;1;137;-50;-40.3;43.0;43.3;16;15.3;28.6;0.0;
14/02/2025 22:10:58;100;0;132.16;-4;-18.95;-4.59;163.7;19.50;77191;2837.528;-1758.857;1;137;-50;-40.3;43.3;43.3;16;15.3;28.6;0.0;
14/02/2025 22:11:18;100;0;132.71;-4;-19.06;-4.55;165.8;19.50;77170;2837.526;-1758.855;1;137;-50;-40.3;43.3;43.3;16;15.3;28.6;0.0;
14/02/2025 22:11:38;100;0;133.33;-4;-19.39;-4.55;168.0;19.40;77162;2837.524;-1758.853;1;137;-50;-41.9;43.3;43.3;16;15.3;28.6;0.0;
14/02/2025 22:11:58;100;0;132.69;-4;-20.01;-4.54;170.2;19.40;77141;2837.523;-1758.851;1;137;-50;-40.3;43.3;43.3;16;15.3;28.6;0.0;
14/02/2025 22:12:18;100;0;139.99;-4;-19.18;-4.41;172.4;19.40;77125;2837.521;-1758.850;1;137;-50;-41.9;43.3;43.3;16;15.3;28.6;0.0;
14/02/2025 22:12:38;100;0;150.77;-4;-18.97;-4.45;174.5;19.40;77116;2837.519;-1758.848;1;136;-50;-40.3;43.6;43.7;27;27.1;28.6;0.0;
14/02/2025 22:12:58;100;0;151.93;-4;-20.59;1.53;176.5;19.30;77100;2837.517;-1758.847;1;136;-70;-71.0;43.6;43.9;29;28.9;28.6;0.0;
14/02/2025 22:13:18;100;0;150.73;-4;-19.88;2.87;178.7;19.30;77153;2837.514;-1758.846;1;136;-70;-72.6;43.6;43.9;27;27.1;28.6;0.0;
14/02/2025 22:13:38;100;0;150.26;-4;-20.79;1.32;181.1;19.30;77140;2837.512;-1758.845;1;136;-70;-72.6;43.6;43.9;27;26.6;28.6;0.0;
14/02/2025 22:13:58;100;0;152.51;-4;-20.56;1.44;183.5;19.20;77131;2837.510;-1758.844;1;136;-70;-72.6;43.6;43.9;30;29.8;28.6;0.0;
14/02/2025 22:14:18;100;0;151.56;-4;-20.60;3.20;186.1;19.20;77130;2837.507;-1758.842;1;136;-70;-72.6;43.6;44.0;30;30.2;28.6;0.0;
14/02/2025 22:14:38;100;0;148.86;-4;-20.43;3.20;188.8;19.10;77103;2837.504;-1758.841;1;136;-70;-72.6;43.6;43.9;23;23.0;28.6;0.0;
14/02/2025 22:14:58;100;0;147.69;-4;-20.40;-0.53;191.4;19.10;77088;2837.502;-1758.839;1;136;-70;-74.2;43.6;43.9;23;22.6;28.6;0.0;
14/02/2025 22:15:18;100;0;147.11;-4;-20.42;-0.59;194.0;19.10;77082;2837.499;-1758.837;1;136;-70;-72.6;43.6;43.9;23;22.6;28.6;0.0;
14/02/2025 22:15:38;100;0;143.54;-4;-20.11;-0.46;196.7;19.00;77062;2837.496;-1758.835;1;136;-70;-72.6;43.6;43.9;18;18.1;28.6;0.0;
14/02/2025 22:15:58;100;0;139.51;-4;-19.82;-2.92;199.2;19.00;77070;2837.494;-1758.833;1;136;-70;-72.6;43.6;44.0;18;18.1;28.6;0.0;
14/02/2025 22:16:18;100;0;137.51;-4;-19.96;-2.98;201.8;19.00;77044;2837.492;-1758.831;1;136;-70;-74.2;43.6;43.9;18;18.1;28.6;0.0;
14/02/2025 22:16:38;100;0;136.73;-4;-19.83;-2.94;204.5;18.90;77046;2837.490;-1758.829;1;136;-70;-72.6;43.6;43.9;16;15.8;28.6;0.0;
14/02/2025 22:16:58;100;0;135.73;-4;-20.12;-4.42;207.0;18.90;77031;2837.488;-1758.827;1;136;-70;-72.6;43.6;43.9;16;15.3;28.6;0.0;
14/02/2025 22:17:18;100;0;131.62;-4;-19.40;-4.32;209.6;18.80;77030;2837.485;-1758.824;1;136;-70;-74.2;43.6;43.9;16;15.3;28.6;0.0;
14/02/2025 22:17:38;100;0;128.10;-4;-19.31;-4.37;212.0;18.80;77027;2837.484;-1758.822;1;136;-70;-74.2;43.6;44.0;16;15.3;28.6;0.0;
14/02/2025 22:17:58;100;0;126.38;-4;-19.25;-4.45;214.4;18.80;77014;2837.482;-1758.819;1;136;-70;-72.6;43.6;43.9;16;15.3;28.6;0.0;
14/02/2025 22:18:18;100;0;128.96;-4;-19.66;-4.38;216.7;18.80;77002;2837.480;-1758.817;1;136;-70;-72.6;43.6;43.9;16;15.3;28.6;0.0;
14/02/2025 22:18:38;100;0;128.16;-4;-19.52;-4.40;219.1;18.70;76987;2837.479;-1758.814;1;136;-70;-74.2;43.6;43.9;16;15.3;28.6;0.0;
14/02/2025 22:18:58;100;0;124.60;-4;-19.14;-4.41;221.2;18.70;76971;2837.477;-1758.812;1;136;-70;-72.6;43.6;43.9;14;14.0;28.6;0.0;
14/02/2025 22:19:18;100;0;123.39;-4;-19.65;-4.98;223.4;18.60;76959;2837.476;-1758.810;1;136;-70;-74.2;43.6;43.9;14;14.0;28.6;0.0;
14/02/2025 22:19:38;100;0;121.61;-4;-19.59;-4.92;225.6;18.60;76939;2837.475;-1758.808;1;136;-70;-72.6;43.6;43.9;11;10.8;28.6;0.0;
14/02/2025 22:19:58;100;0;120.07;-4;-19.81;-6.65;227.6;18.60;76942;2837.474;-1758.805;1;136;-70;-72.6;43.6;43.9;9;9.0;28.6;0.0;
14/02/2025 22:20:18;100;0;120.86;-4;-19.97;-7.39;230.0;18.50;76918;2837.472;-1758.803;1;136;-70;-72.6;43.6;43.9;9;9.0;28.6;0.0;
14/02/2025 22:20:38;100;0;122.60;-4;-19.70;-7.40;232.0;18.50;76919;2837.471;-1758.801;1;136;-70;-72.6;43.6;43.9;12;12.2;28.6;0.0;
14/02/2025 22:20:58;100;0;120.39;-4;-19.95;-5.74;234.2;18.40;76907;2837.470;-1758.798;1;136;-70;-72.6;43.6;44.0;9;9.0;28.6;0.0;
14/02/2025 22:21:18;100;0;121.58;-4;-19.61;-7.53;236.5;18.40;76899;2837.469;-1758.796;1;136;-70;-74.2;43.6;44.0;9;9.0;28.6;0.0;
14/02/2025 22:21:38;100;0;125.07;-4;-19.89;-7.45;238.9;18.30;76885;2837.467;-1758.793;1;136;-70;-72.6;43.6;44.0;14;14.0;28.6;0.0;
14/02/2025 22:21:58;100;0;128.27;-4;-19.86;-4.64;241.4;18.30;76874;2837.465;-1758.791;1;136;-70;-74.2;43.6;43.9;14;14.4;28.6;0.0;
14/02/2025 22:22:18;100;0;129.25;-4;-20.11;-4.64;244.1;18.30;76870;2837.463;-1758.788;1;136;-70;-74.2;43.6;43.9;14;14.4;28.6;0.0;
14/02/2025 22:22:38;100;0;130.72;-4;-19.82;-4.67;246.6;18.20;76847;2837.461;-1758.786;1;137;-70;-74.2;43.6;43.9;16;16.2;28.6;0.0;
14/02/2025 22:22:58;100;0;129.04;-4;-20.07;-3.60;249.3;18.20;76832;2837.459;-1758.783;1;137;-70;-72.6;43.6;43.9;16;16.7;28.6;0.0;
14/02/2025 22:23:18;100;0;127.55;-4;-19.88;-3.54;252.0;18.10;76828;2837.458;-1758.780;1;137;-70;-74.2;43.6;44.0;14;14.0;28.6;0.0;
14/02/2025 22:23:38;100;0;127.32;-4;-19.49;-5.33;254.9;18.10;76822;2837.455;-1758.777;1;137;-70;-72.6;43.6;44.0;14;13.5;28.6;0.0;
14/02/2025 22:23:58;100;0;126.05;-4;-19.71;-5.23;257.6;18.00;76801;2837.454;-1758.774;1;137;-70;-72.6;43.6;43.9;14;13.5;28.6;0.0;
14/02/2025 22:24:18;100;0;128.23;-4;-19.66;-5.25;260.4;18.00;76794;2837.452;-1758.771;1;137;-70;-74.2;43.6;44.0;14;13.5;28.6;0.0;
14/02/2025 22:24:38;100;0;127.69;-4;-19.55;-5.19;263.4;18.00;76791;2837.449;-1758.768;1;137;-70;-74.2;43.6;44.0;14;13.5;28.6;0.0;
14/02/2025 22:24:58;100;0;127.63;-4;-19.52;-5.25;266.5;17.90;76784;2837.447;-1758.765;1;137;-70;-72.6;43.6;43.9;14;13.5;28.6;0.0;
14/02/2025 22:25:18;100;0;127.03;-4;-19.64;-5.26;269.6;17.90;76766;2837.445;-1758.762;1;137;-70;-72.6;43.6;44.0;14;13.5;28.6;0.0;
14/02/2025 22:25:38;100;0;126.40;-4;-19.10;-5.15;272.6;17.80;76751;2837.443;-1758.759;1;137;-70;-72.6;43.6;43.9;14;13.5;28.6;0.0;
14/02/2025 22:25:58;100;0;121.46;-4;-18.73;-5.35;275.4;17.80;76759;2837.441;-1758.755;1;137;-70;-74.2;44.0;44.3;7;7.2;28.6;0.0;
14/02/2025 22:26:18;100;0;113.42;-4;-20.94;-8.60;278.3;17.80;76740;2837.440;-1758.752;1;137;-70;-74.2;44.0;44.3;-4;-4.5;28.6;0.0;
14/02/2025 22:26:38;100;0;117.78;-4;-19.69;-14.24;281.5;17.70;76720;2837.438;-1758.748;1;137;-70;-72.6;44.0;44.3;2;1.8;28.6;0.0;
14/02/2025 22:26:58;100;0;122.54;-4;-19.87;-10.84;284.7;17.70;76703;2837.436;-1758.745;1;138;-70;-74.2;44.0;44.3;7;7.2;28.6;0.0;
14/02/2025 22:27:18;100;0;127.89;-4;-19.97;-8.14;287.8;17.60;76690;2837.434;-1758.742;1;138;-70;-74.2;44.0;44.3;13;13.1;28.6;0.0;
14/02/2025 22:27:38;100;0;131.33;-4;-20.51;-5.15;290.9;17.60;76686;2837.432;-1758.739;1;138;-70;-72.6;44.0;44.3;15;14.9;28.6;0.0;
14/02/2025 22:27:58;100;0;132.61;-4;-20.82;-4.13;294.0;17.50;76674;2837.429;-1758.736;1;138;-70;-74.2;44.0;44.3;15;15.3;28.6;0.0;
14/02/2025 22:28:18;100;0;132.36;-4;-20.15;-4.13;297.3;17.50;76663;2837.427;-1758.733;1;138;-70;-74.2;44.0;44.3;15;15.3;28.6;0.0;
14/02/2025 22:28:38;100;0;132.99;-4;-20.58;-4.13;300.3;17.40;76648;2837.424;-1758.730;1;138;-70;-77.4;44.0;44.3;15;15.3;28.6;0.0;
14/02/2025 22:28:58;100;0;132.37;-4;-20.58;-4.16;303.6;17.40;76647;2837.422;-1758.727;1;138;-70;-72.6;44.0;44.5;15;15.3;28.6;0.0;
14/02/2025 22:29:18;100;0;132.82;-4;-20.49;-4.14;306.8;17.40;76647;2837.419;-1758.724;1;138;-70;-74.2;44.0;44.3;15;15.3;28.6;0.0;
14/02/2025 22:29:39;100;0;133.15;-4;-20.68;-4.15;310.2;17.30;76629;2837.417;-1758.721;1;138;-70;-74.2;44.0;44.3;15;15.3;28.6;0.0;
14/02/2025 22:29:59;100;0;133.60;-4;-20.43;-4.13;313.6;17.20;76624;2837.414;-1758.717;1;138;-70;-74.2;44.0;44.3;15;15.8;28.6;0.0;
14/02/2025 22:30:19;100;0;135.02;-4;-20.81;-4.04;317.0;17.20;76628;2837.411;-1758.714;1;138;-70;-74.2;44.0;44.3;15;15.3;28.6;0.0;
14/02/2025 22:30:39;100;0;136.52;-4;-20.70;-4.10;320.4;17.20;76622;2837.408;-1758.711;1;138;-70;-74.2;44.0;44.3;15;15.3;28.6;0.0;
14/02/2025 22:30:59;100;0;135.72;-4;-20.19;-4.07;323.8;17.10;76607;2837.405;-1758.708;1;138;-70;-72.6;44.0;44.3;15;15.3;28.6;0.0;
14/02/2025 22:31:19;100;0;133.38;-4;-20.20;-4.10;327.0;17.10;76587;2837.403;-1758.705;1;138;-70;-74.2;44.0;44.5;15;15.8;28.6;0.0;
14/02/2025 22:31:39;100;0;131.78;-4;-20.32;-4.14;330.4;17.10;76572;2837.400;-1758.702;1;138;-70;-75.8;44.0;44.3;15;15.3;28.6;0.0;
14/02/2025 22:31:59;100;0;130.99;-4;-20.39;-4.12;333.6;17.00;76573;2837.397;-1758.699;1;138;-70;-74.2;44.0;44.5;15;15.3;28.6;0.0;
14/02/2025 22:32:19;100;0;128.27;-4;-20.51;-4.15;336.9;17.00;76551;2837.395;-1758.696;1;138;-70;-72.6;44.0;44.3;13;13.1;28.6;0.0;
14/02/2025 22:32:39;100;0;126.43;-4;-20.37;-5.37;340.1;16.90;76551;2837.393;-1758.692;1;138;-70;-74.2;44.0;44.3;11;10.4;28.6;0.0;
14/02/2025 22:32:59;100;0;124.24;-4;-20.12;-6.46;343.5;16.90;76551;2837.391;-1758.688;1;138;-70;-74.2;44.0;44.3;9;9.0;28.6;0.0;
14/02/2025 22:33:19;100;0;128.55;-4;-20.03;-7.35;346.8;16.80;76528;2837.388;-1758.685;1;138;-70;-75.8;44.0;44.3;13;13.1;28.6;0.0;
14/02/2025 22:33:39;100;0;131.39;-4;-20.21;-5.02;350.0;16.80;76522;2837.386;-1758.682;1;138;-70;-72.6;44.0;44.3;13;14.0;28.6;0.0;
14/02/2025 22:33:59;100;0;133.57;-4;-20.18;-5.03;353.1;16.80;76513;2837.383;-1758.679;1;138;-70;-72.6;44.0;44.3;15;14.9;28.6;0.0;
14/02/2025 22:34:19;100;0;135.52;-4;-19.84;-4.11;356.3;16.70;76506;2837.381;-1758.676;1;138;-70;-74.2;44.0;44.3;15;15.3;28.6;0.0;
14/02/2025 22:34:39;100;0;135.68;-4;-20.27;-4.22;359.5;16.70;76492;2837.378;-1758.673;1;139;-70;-72.6;44.0;44.3;15;15.3;28.6;0.0;
14/02/2025 22:34:59;100;0;136.94;-4;-20.09;-4.30;362.7;16.60;76484;2837.375;-1758.670;1;139;-70;-75.8;44.0;44.5;15;15.3;28.6;0.0;
14/02/2025 22:35:19;100;0;137.43;-4;-20.41;-4.29;365.9;16.60;76483;2837.372;-1758.668;1;138;-70;-74.2;44.0;44.3;15;15.3;28.6;0.0;
14/02/2025 22:35:39;100;0;138.98;-4;-19.94;-4.31;369.1;16.60;76468;2837.369;-1758.665;1;138;-70;-74.2;44.0;44.3;15;15.3;28.6;0.0;
14/02/2025 22:35:59;100;0;141.55;-4;-20.12;-4.05;372.2;16.50;76478;2837.366;-1758.662;1;138;-70;-72.6;44.0;44.3;15;15.3;28.6;0.0;
14/02/2025 22:36:19;100;0;142.52;-4;-20.30;-4.22;375.4;16.50;76458;2837.363;-1758.660;1;138;-70;-74.2;44.0;44.3;15;15.3;28.6;0.0;
14/02/2025 22:36:39;100;0;143.84;-4;-19.66;-4.16;378.7;16.50;76459;2837.360;-1758.658;1;138;-70;-74.2;44.0;44.3;15;15.3;28.6;0.0;
14/02/2025 22:36:59;100;0;146.06;-4;-20.50;-4.23;381.9;16.40;76439;2837.357;-1758.655;1;138;-70;-74.2;44.0;44.3;17;17.6;28.6;0.0;
14/02/2025 22:37:19;100;0;144.42;-4;-19.60;-2.93;385.1;16.40;76432;2837.354;-1758.653;1;138;-70;-72.6;44.0;44.3;17;18.1;28.6;0.0;
14/02/2025 22:37:39;100;0;142.94;-4;-20.06;-2.83;388.2;16.30;76434;2837.351;-1758.651;1;138;-70;-74.2;44.0;44.3;17;18.1;28.6;0.0;
14/02/2025 22:37:59;100;0;139.11;-4;-20.26;-2.92;391.3;16.30;76427;2837.348;-1758.648;1;138;-70;-74.2;44.0;44.3;15;14.9;28.6;0.0;
14/02/2025 22:38:19;100;0;136.95;-4;-19.81;-4.75;394.3;16.20;76416;2837.346;-1758.645;1;138;-70;-74.2;44.0;44.3;15;14.4;28.6;0.0;
14/02/2025 22:38:39;100;0;132.04;-4;-19.74;-4.68;397.1;16.20;76409;2837.343;-1758.643;1;138;-70;-74.2;44.0;44.3;15;14.4;28.6;0.0;
14/02/2025 22:38:59;100;0;127.49;-4;-20.11;-4.93;399.9;16.20;76413;2837.342;-1758.640;1;138;-70;-74.2;44.0;44.5;13;13.1;28.6;0.0;
14/02/2025 22:39:19;100;0;126.05;-4;-20.29;-5.29;402.7;16.10;76398;2837.340;-1758.637;1;138;-70;-74.2;44.0;44.3;13;13.1;28.6;0.0;
14/02/2025 22:39:39;100;0;124.31;-4;-19.77;-5.23;405.4;16.10;76392;2837.338;-1758.634;1;138;-70;-72.6;44.0;44.5;10;9.9;28.6;0.0;
14/02/2025 22:39:59;100;0;124.20;-4;-19.66;-6.51;408.0;16.10;76391;2837.336;-1758.631;1;138;-70;-74.2;44.0;44.3;10;10.8;28.6;0.0;
14/02/2025 22:40:19;100;0;125.25;-4;-19.91;-6.48;410.5;16.00;76381;2837.335;-1758.629;1;139;-70;-74.2;44.0;44.5;10;10.8;28.6;0.0;
14/02/2025 22:40:39;100;0;125.75;-4;-20.19;-6.47;413.2;16.00;76375;2837.333;-1758.626;1;139;-70;-74.2;44.0;44.3;10;11.3;28.6;0.0;
14/02/2025 22:40:59;100;0;125.52;-4;-20.24;-6.48;415.8;16.00;76377;2837.331;-1758.623;1;139;-70;-74.2;44.0;44.5;10;10.8;28.6;0.0;
14/02/2025 22:41:19;100;0;126.03;-4;-19.90;-6.38;418.4;15.90;76371;2837.329;-1758.620;1;139;-70;-74.2;44.0;44.5;10;10.8;28.6;0.0;
14/02/2025 22:41:39;100;0;124.98;-4;-19.60;-6.37;421.0;15.90;76363;2837.328;-1758.618;1;139;-70;-72.6;44.0;44.3;10;10.8;28.6;0.0;
14/02/2025 22:41:59;100;0;122.47;-4;-19.49;-6.51;423.4;15.90;76360;2837.326;-1758.615;1;139;-70;-74.2;44.0;44.3;7;7.2;28.6;0.0;
14/02/2025 22:42:19;100;0;124.25;-4;-20.00;-8.71;426.0;15.80;76350;2837.324;-1758.612;1;139;-70;-72.6;44.0;44.3;9;9.5;28.6;0.0;
14/02/2025 22:42:39;100;0;128.61;-4;-19.67;-6.84;428.7;15.80;76335;2837.322;-1758.610;1;139;-70;-74.2;44.0;44.3;13;13.1;28.6;0.0;
14/02/2025 22:42:59;100;0;127.98;-4;-19.91;-4.82;431.5;15.80;76325;2837.321;-1758.607;1;140;-70;-74.2;44.0;44.3;11;10.8;28.6;0.0;
14/02/2025 22:43:19;100;0;128.87;-4;-20.09;-6.69;434.2;15.70;76322;2837.319;-1758.604;1;140;-70;-74.2;44.0;44.3;11;10.4;28.6;0.0;
14/02/2025 22:43:39;100;0;131.17;-4;-20.04;-6.65;437.1;15.70;76317;2837.316;-1758.601;1;140;-70;-74.2;44.0;44.5;13;13.1;28.6;0.0;
14/02/2025 22:43:59;100;0;132.35;-4;-19.92;-5.17;440.2;15.70;76304;2837.314;-1758.598;1;140;-70;-74.2;44.0;44.3;13;13.5;28.6;0.0;
14/02/2025 22:44:19;100;0;130.74;-4;-20.21;-5.28;443.1;15.60;76298;2837.312;-1758.595;1;140;-70;-74.2;44.0;44.3;13;13.1;28.6;0.0;
14/02/2025 22:44:39;100;0;130.01;-4;-20.58;-5.33;446.2;15.60;76297;2837.309;-1758.592;1;140;-70;-74.2;44.0;44.5;13;13.5;28.6;0.0;
14/02/2025 22:44:59;100;0;130.12;-4;-19.65;-5.49;449.4;15.60;76281;2837.307;-1758.589;1;140;-70;-74.2;44.0;44.3;13;13.5;28.6;0.0;
14/02/2025 22:45:19;100;0;132.83;-4;-20.25;-5.21;452.6;15.50;76283;2837.304;-1758.586;1;140;-70;-74.2;44.0;44.3;13;13.5;28.6;0.0;
14/02/2025 22:45:39;100;0;134.80;-4;-20.27;-5.34;455.9;15.50;76282;2837.302;-1758.583;1;140;-70;-74.2;44.0;44.3;13;13.1;28.6;0.0;
14/02/2025 22:45:59;100;0;137.29;-4;-19.60;-5.20;459.3;15.50;76273;2837.299;-1758.580;1;140;-70;-74.2;44.0;44.3;13;13.5;28.6;0.0;
14/02/2025 22:46:19;100;0;137.42;-4;-19.15;-5.28;462.7;15.40;76275;2837.296;-1758.577;1;140;-70;-74.2;44.0;44.3;13;13.5;28.6;0.0;
14/02/2025 22:46:39;100;0;137.60;-4;-19.35;-5.25;465.7;15.40;76267;2837.293;-1758.574;1;140;-70;-74.2;44.0;44.3;13;13.1;28.5;0.0;
14/02/2025 22:46:59;100;0;139.03;-4;-19.46;-5.25;468.6;15.40;76268;2837.290;-1758.572;1;140;-70;-72.6;44.0;44.5;13;13.5;28.5;0.0;
14/02/2025 22:47:19;100;0;139.26;-4;-20.12;-5.36;471.4;15.30;76254;2837.288;-1758.570;1;140;-70;-74.2;44.0;44.3;13;13.5;28.6;0.0;
14/02/2025 22:47:39;100;0;140.51;-4;-19.39;-5.20;474.2;15.30;76255;2837.285;-1758.567;1;140;-70;-74.2;44.0;44.3;13;13.5;28.6;0.0;
14/02/2025 22:47:59;100;0;140.05;-4;-18.93;-4.96;476.8;15.30;76242;2837.282;-1758.565;1;140;-70;-75.8;44.3;44.3;13;13.5;28.6;0.0;
14/02/2025 22:48:19;100;0;139.36;-4;-19.32;-5.41;479.3;15.20;76240;2837.280;-1758.563;1;140;-70;-74.2;44.3;44.3;13;13.1;28.6;0.0;
14/02/2025 22:48:39;100;0;138.58;-4;-18.74;-5.08;481.6;15.20;76225;2837.278;-1758.561;1;140;-70;-74.2;44.7;44.6;13;13.5;28.6;0.0;
14/02/2025 22:48:59;100;0;137.45;-4;-20.37;-4.99;484.0;15.20;76234;2837.276;-1758.559;1;140;-70;-74.2;44.7;44.9;13;13.5;28.6;0.0;
14/02/2025 22:49:19;100;0;137.78;-4;-20.93;-5.27;486.3;15.20;76227;2837.274;-1758.557;1;140;-70;-74.2;44.7;44.9;13;13.5;28.6;0.0;
14/02/2025 22:49:39;100;0;138.70;-4;-20.77;-5.40;488.8;15.10;76223;2837.272;-1758.555;1;140;-70;-72.6;44.7;44.9;13;13.1;28.6;0.0;
14/02/2025 22:49:59;100;0;141.05;-4;-20.50;-5.21;491.1;15.10;76213;2837.270;-1758.554;1;140;-70;-74.2;44.7;44.9;15;14.9;28.6;0.0;
14/02/2025 22:50:19;100;0;141.53;-4;-22.12;-4.24;493.6;15.10;76214;2837.268;-1758.552;1;140;-70;-74.2;44.1;44.0;15;15.3;28.6;0.0;
14/02/2025 22:50:39;100;0;140.61;-4;-18.71;-4.26;495.9;15.10;76204;2837.266;-1758.550;1;140;-70;-72.6;44.4;44.5;15;15.3;28.6;0.0;
14/02/2025 22:50:59;100;0;142.73;-4;-19.88;-4.15;498.0;15.00;76189;2837.264;-1758.549;1;140;-70;-74.2;44.4;44.6;15;15.3;28.6;0.0;
14/02/2025 22:51:19;100;0;146.06;-4;-19.95;-4.16;499.9;15.00;76185;2837.262;-1758.547;1;140;-90;-90.3;44.4;44.6;17;17.1;28.6;0.0;
14/02/2025 22:51:39;100;0;144.78;-4;-20.45;-3.00;502.0;15.00;76218;2837.260;-1758.546;1;140;-90;-90.3;44.4;44.6;17;17.6;28.6;0.0;
14/02/2025 22:51:59;100;0;143.91;-4;-19.79;-3.13;504.3;14.90;76199;2837.258;-1758.544;1;140;-90;-91.9;44.4;44.6;15;14.4;28.6;0.0;
14/02/2025 22:52:19;100;0;148.54;-4;-19.79;-4.69;506.5;14.90;76206;2837.256;-1758.543;1;140;-90;-91.9;44.4;44.8;18;18.1;28.6;0.0;
14/02/2025 22:52:39;100;0;148.81;-4;-20.89;-2.89;508.7;14.90;76185;2837.254;-1758.542;1;139;-90;-93.5;44.4;44.6;18;18.1;28.6;0.0;
14/02/2025 22:52:59;100;0;148.15;-4;-20.52;-2.72;511.3;14.90;76183;2837.251;-1758.540;1;139;-90;-93.5;44.4;44.8;18;18.1;28.6;0.0;
14/02/2025 22:53:19;100;0;146.69;-4;-20.11;-2.83;514.0;14.80;76172;2837.248;-1758.539;1;139;-90;-93.5;44.4;44.6;18;18.1;28.6;0.0;
14/02/2025 22:53:39;100;0;145.86;-4;-20.56;-2.85;516.5;14.80;76170;2837.246;-1758.537;1;139;-90;-93.5;44.4;44.6;18;18.1;28.6;0.0;
14/02/2025 22:53:59;100;0;145.89;-4;-20.43;-2.71;519.1;14.80;76160;2837.243;-1758.535;1;139;-90;-96.8;44.4;44.6;18;18.1;28.6;0.0;
14/02/2025 22:54:19;100;0;144.28;-4;-20.81;-2.63;521.7;14.70;76145;2837.241;-1758.533;1;139;-90;-95.2;44.4;44.6;16;15.3;28.5;0.0;
14/02/2025 22:54:39;100;0;143.02;-4;-20.03;-4.25;524.3;14.70;76147;2837.239;-1758.531;1;139;-90;-93.5;44.4;44.6;16;15.3;28.6;0.0;
14/02/2025 22:54:59;100;0;142.16;-4;-20.06;-4.22;526.9;14.70;76140;2837.236;-1758.530;1;139;-90;-93.5;44.4;44.6;16;15.3;28.6;0.0;
14/02/2025 22:55:19;100;0;139.91;-4;-20.49;-4.13;529.3;14.60;76128;2837.234;-1758.528;1;139;-90;-93.5;44.4;44.6;16;15.3;28.6;0.0;
14/02/2025 22:55:39;100;0;139.35;-4;-20.04;-4.22;531.9;14.60;76129;2837.232;-1758.526;1;139;-90;-93.5;44.4;44.6;16;15.3;28.6;0.0;
14/02/2025 22:55:59;100;0;138.43;-4;-19.64;-4.27;534.4;14.60;76123;2837.230;-1758.523;1;139;-90;-93.5;44.4;44.6;16;15.3;28.6;0.0;
14/02/2025 22:56:19;100;0;137.55;-4;-19.92;-4.31;536.9;14.50;76113;2837.227;-1758.521;1;139;-90;-93.5;44.4;44.8;16;15.3;28.6;0.0;
14/02/2025 22:56:39;100;0;136.49;-4;-19.36;-4.19;539.2;14.50;76106;2837.225;-1758.519;1;139;-90;-93.5;44.4;44.6;16;15.3;28.5;0.0;
14/02/2025 22:56:59;100;0;135.86;-4;-19.40;-4.27;541.8;14.50;76107;2837.223;-1758.517;1;139;-90;-93.5;44.4;44.6;16;15.3;28.6;0.0;
14/02/2025 22:57:19;100;0;136.32;-4;-20.23;-4.01;544.2;14.50;76108;2837.221;-1758.515;1;139;-90;-93.5;44.4;44.6;16;15.3;28.6;0.0;
14/02/2025 22:57:39;100;0;137.93;-4;-19.95;-4.46;546.9;14.40;76102;2837.219;-1758.513;1;139;-90;-93.5;44.4;44.6;16;15.3;28.6;0.0;
14/02/2025 22:57:59;100;0;136.26;-4;-19.76;-4.18;549.5;14.40;76095;2837.217;-1758.510;1;139;-90;-93.5;44.4;44.8;16;15.3;28.6;0.0;
14/02/2025 22:58:19;100;0;141.28;-4;-18.65;-3.96;552.3;14.40;76090;2837.214;-1758.508;1;138;-90;-93.5;44.8;45.1;16;15.3;28.6;0.0;
14/02/2025 22:58:39;100;0;141.39;-4;-21.36;-4.32;554.9;14.30;76087;2837.212;-1758.506;1;138;-90;-91.9;44.8;45.2;16;15.3;28.6;0.0;
14/02/2025 22:58:59;100;0;140.57;-4;-20.21;-4.49;557.7;14.30;76079;2837.209;-1758.504;1;138;-90;-93.5;44.8;45.4;16;15.3;28.6;0.0;
14/02/2025 22:59:19;100;0;141.68;-4;-20.92;-4.17;560.5;14.30;76072;2837.207;-1758.502;1;138;-90;-93.5;44.8;45.2;16;15.3;28.6;0.0;
14/02/2025 22:59:39;100;0;140.64;-4;-21.70;-4.38;563.2;14.30;76080;2837.204;-1758.500;1;138;-90;-93.5;44.8;45.2;16;15.3;28.6;0.0;
14/02/2025 22:59:59;100;0;145.86;-4;-21.25;-4.23;566.2;14.20;76066;2837.201;-1758.498;1;138;-90;-93.5;44.8;45.2;18;18.1;28.6;0.0;
14/02/2025 23:00:19;100;0;149.43;-4;-19.94;-2.95;569.0;14.20;76068;2837.199;-1758.496;1;138;-90;-93.5;44.8;45.4;22;22.1;28.6;0.0;
14/02/2025 23:00:39;100;0;149.41;-4;-21.19;-0.67;571.5;14.20;76061;2837.196;-1758.495;1;137;-90;-93.5;44.8;45.4;22;22.6;28.6;0.0;
14/02/2025 23:00:59;100;0;146.06;-4;-21.93;-0.62;573.9;14.20;76059;2837.194;-1758.493;1;137;-90;-93.5;44.8;45.4;19;18.5;28.6;0.0;
14/02/2025 23:01:19;100;0;144.28;-4;-21.98;-2.44;576.5;14.10;76049;2837.192;-1758.492;1;137;-90;-93.5;44.8;45.4;19;19.0;28.6;0.0;
14/02/2025 23:01:39;100;0;145.35;-4;-21.45;-2.18;579.2;14.10;76050;2837.189;-1758.490;1;137;-90;-91.9;44.8;45.4;19;19.0;28.6;0.0;
14/02/2025 23:01:59;100;0;145.05;-4;-21.57;-2.27;581.8;14.10;76054;2837.187;-1758.488;1;137;-90;-93.5;44.8;45.4;19;19.0;28.6;0.0;
14/02/2025 23:02:19;100;0;146.73;-4;-21.42;-2.25;584.5;14.10;76038;2837.184;-1758.487;1;136;-90;-95.2;44.8;45.4;21;21.2;28.6;0.0;
14/02/2025 23:02:39;100;0;143.49;-4;-22.48;-1.21;587.2;14.00;76037;2837.182;-1758.485;1;136;-90;-93.5;44.1;44.0;18;18.5;28.6;0.0;
14/02/2025 23:02:59;100;0;138.89;-4;-19.64;-2.57;589.9;14.00;76030;2837.179;-1758.483;1;136;-90;-91.9;44.1;43.9;16;15.8;28.6;0.0;
14/02/2025 23:03:19;100;0;140.53;-4;-18.77;-3.91;592.5;14.00;76038;2837.177;-1758.480;1;136;-90;-93.5;44.5;44.6;16;15.8;28.6;0.0;
14/02/2025 23:03:39;100;0;137.14;-4;-20.10;-3.88;595.3;14.00;76027;2837.175;-1758.478;1;136;-90;-93.5;44.5;44.8;16;15.8;28.6;0.0;
14/02/2025 23:03:59;100;0;139.34;-4;-20.17;-3.75;597.9;13.90;76020;2837.172;-1758.476;1;136;-90;-93.5;44.5;44.8;16;15.8;28.6;0.0;
14/02/2025 23:04:19;100;0;138.92;-4;-19.91;-3.99;600.6;13.90;76005;2837.170;-1758.474;1;136;-90;-93.5;44.5;44.8;16;15.8;28.6;0.0;
14/02/2025 23:04:39;100;0;136.53;-4;-19.57;-3.74;603.3;13.90;76016;2837.168;-1758.471;1;136;-90;-93.5;44.5;44.8;16;15.8;28.6;0.0;
14/02/2025 23:04:59;100;0;136.23;-4;-19.77;-3.82;605.9;13.90;76022;2837.165;-1758.469;1;136;-90;-95.2;44.5;44.8;16;15.8;28.6;0.0;
14/02/2025 23:05:19;100;0;140.76;-4;-21.69;-3.55;608.6;13.90;76007;2837.163;-1758.467;1;135;-90;-93.5;44.5;44.8;16;15.8;28.6;0.0;
14/02/2025 23:05:40;100;0;144.49;-4;-20.68;-3.90;611.4;13.90;76024;2837.161;-1758.465;1;135;-90;-93.5;44.5;44.8;19;19.0;28.6;0.0;
14/02/2025 23:06:00;100;0;140.10;-4;-20.75;-2.38;614.2;13.80;76006;2837.158;-1758.463;1;135;-90;-93.5;44.5;44.8;16;15.8;28.6;0.0;
14/02/2025 23:06:20;100;0;140.28;-4;-21.15;-3.95;617.0;13.80;76007;2837.156;-1758.461;1;135;-90;-93.5;44.5;44.8;16;16.2;28.6;0.0;
14/02/2025 23:06:40;100;0;142.64;-4;-20.20;-3.87;619.9;13.80;76007;2837.153;-1758.459;1;134;-90;-93.5;44.5;44.8;18;18.1;28.6;0.0;
14/02/2025 23:07:00;100;0;140.50;-4;-20.50;-2.63;623.1;13.80;76004;2837.150;-1758.456;1;134;-90;-93.5;44.5;44.9;18;18.5;28.6;0.0;
14/02/2025 23:07:20;100;0;141.15;-4;-21.39;-2.25;626.6;13.70;75999;2837.147;-1758.453;1;134;-90;-93.5;44.5;44.8;18;18.5;28.6;0.0;
14/02/2025 23:07:40;100;0;141.79;-4;-19.70;-2.52;630.0;13.70;75995;2837.144;-1758.451;1;133;-90;-93.5;44.5;44.9;18;18.5;28.6;0.0;
14/02/2025 23:08:00;100;0;140.77;-4;-20.62;-2.18;633.4;13.70;75986;2837.141;-1758.448;1;133;-90;-95.2;44.5;44.8;18;18.5;28.6;22.7;
14/02/2025 23:08:02;118;0;139.95;-4;-20.38;-2.43;633.9;13.70;75994;2837.140;-1758.448;1;133;310;-90.3;25.5;25.5;7;7.2;28.6;22.6;
14/02/2025 23:08:12;118;0;119.20;-4;-5.59;-9.61;635.2;13.70;75983;2837.139;-1758.446;1;133;310;38.7;25.5;25.2;7;7.2;27.7;-1.0;
14/02/2025 23:08:22;118;0;107.87;-4;15.47;-9.20;635.6;13.70;75710;2837.139;-1758.445;1;133;310;162.9;25.5;25.5;7;6.8;27.8;-1.0;
14/02/2025 23:08:32;118;0;105.95;-4;20.43;-9.20;635.3;13.70;75436;2837.139;-1758.445;1;133;310;287.1;25.5;25.6;7;6.8;27.7;-1.0;
14/02/2025 23:08:42;118;0;105.73;-4;18.78;-9.13;634.8;13.70;75183;2837.139;-1758.445;1;134;310;312.9;25.5;25.6;7;6.8;27.8;-1.0;
14/02/2025 23:08:52;118;0;136.33;-4;18.97;-8.75;634.2;13.70;75142;2837.139;-1758.444;1;134;310;312.9;25.5;25.8;7;7.2;28.5;-1.0;
14/02/2025 23:09:12;117;0;127.24;-4;19.04;-9.07;632.7;13.70;75152;2837.138;-1758.443;1;134;310;311.3;25.5;25.6;7;7.2;28.5;-1.0;
14/02/2025 23:09:32;117;0;123.65;-4;19.45;-9.14;630.8;13.70;75150;2837.136;-1758.441;1;134;310;311.3;25.5;25.8;31;31.1;28.6;-1.0;
14/02/2025 23:09:52;117;0;123.38;-4;19.01;3.92;628.7;13.70;75147;2837.135;-1758.439;1;134;310;312.9;25.5;25.8;31;31.6;28.6;-1.0;
14/02/2025 23:10:12;117;0;117.10;-4;17.19;3.84;626.9;13.70;75137;2837.134;-1758.436;1;135;310;312.9;24.6;24.3;39;38.8;28.6;-1.0;
14/02/2025 23:10:33;117;0;117.16;-4;22.15;8.31;625.2;13.60;75136;2837.133;-1758.435;1;135;310;312.9;25.3;25.5;39;39.3;28.6;-1.0;
14/02/2025 23:10:53;117;0;121.05;-4;21.66;8.14;622.7;13.60;75141;2837.132;-1758.432;1;135;310;312.9;25.3;25.6;34;33.8;28.6;-1.0;
14/02/2025 23:11:13;117;0;121.78;-4;20.14;5.17;620.3;13.60;75132;2837.131;-1758.430;1;136;310;312.9;25.3;25.6;34;34.3;28.6;-1.0;
14/02/2025 23:11:33;117;0;121.96;-4;20.04;5.76;618.2;13.60;75134;2837.130;-1758.427;1;136;310;312.9;25.3;25.6;34;34.3;28.6;-1.0;
14/02/2025 23:11:53;117;0;122.11;-4;20.18;5.26;615.8;13.60;75134;2837.128;-1758.425;1;137;310;312.9;25.3;25.6;36;36.1;28.6;-1.0;
14/02/2025 23:12:13;117;0;123.43;-4;21.31;6.60;613.3;13.50;75116;2837.127;-1758.422;1;137;310;312.9;25.3;25.6;34;33.4;28.5;-1.0;
14/02/2025 23:12:33;117;0;125.60;-4;20.80;5.71;610.8;13.50;75130;2837.125;-1758.420;1;138;310;312.9;25.3;25.6;34;34.7;28.6;-1.0;
14/02/2025 23:12:53;117;0;126.25;-4;20.88;5.55;608.0;13.50;75122;2837.123;-1758.417;1;138;310;312.9;25.3;25.6;32;32.0;28.6;-1.0;
14/02/2025 23:13:13;117;0;124.93;-4;19.54;4.40;605.2;13.50;75113;2837.121;-1758.414;1;139;310;312.9;25.3;25.6;35;35.6;28.5;-1.0;
14/02/2025 23:13:33;117;0;126.15;-4;20.78;6.57;602.8;13.50;75110;2837.120;-1758.411;1;140;310;312.9;25.3;25.6;35;36.6;28.6;-1.0;
14/02/2025 23:13:53;117;0;129.27;-4;20.33;6.66;600.2;13.50;75109;2837.118;-1758.409;1;140;310;312.9;25.3;25.8;32;32.0;28.6;-1.0;
14/02/2025 23:14:13;117;0;129.68;-4;19.68;4.11;597.7;13.40;75101;2837.116;-1758.407;1;141;310;312.9;25.3;25.6;32;32.0;28.6;-1.0;
14/02/2025 23:14:33;117;0;127.85;-4;20.18;4.23;595.5;13.40;75102;2837.115;-1758.404;1;141;310;312.9;25.3;25.5;34;33.8;28.5;-1.0;
14/02/2025 23:14:53;117;0;127.26;-4;20.48;5.79;593.1;13.40;75097;2837.113;-1758.402;1;142;310;314.5;25.3;25.6;36;36.1;28.6;-1.0;
14/02/2025 23:15:13;117;0;128.79;-4;20.63;6.75;590.7;13.40;75084;2837.111;-1758.400;1;142;310;314.5;25.3;25.6;34;33.8;28.5;-1.0;
14/02/2025 23:15:33;117;0;129.88;-4;20.39;5.69;588.3;13.40;75076;2837.109;-1758.397;1;143;310;312.9;25.3;25.6;34;34.7;28.6;-1.0;
14/02/2025 23:15:53;117;0;130.64;-4;20.77;5.78;585.9;13.40;75080;2837.108;-1758.395;1;144;310;312.9;25.3;25.6;34;34.7;28.6;-1.0;
14/02/2025 23:16:13;117;0;131.70;-4;20.03;5.82;583.5;13.30;75087;2837.106;-1758.393;1;145;310;312.9;25.3;25.6;34;34.7;28.6;-1.0;
14/02/2025 23:16:33;117;0;131.04;-4;19.57;5.69;581.2;13.30;75090;2837.104;-1758.391;1;145;310;314.5;25.3;25.8;34;34.7;28.6;-1.0;
14/02/2025 23:16:53;117;0;131.76;-4;19.77;5.53;579.0;13.30;75082;2837.103;-1758.389;1;146;310;312.9;25.3;25.6;34;34.7;28.6;-1.0;
14/02/2025 23:17:13;117;0;134.52;-4;19.89;5.56;576.8;13.30;75069;2837.101;-1758.387;1;147;310;312.9;25.3;25.8;34;34.7;28.6;-1.0;
14/02/2025 23:17:33;117;0;134.66;-4;19.83;5.72;574.6;13.30;75069;2837.099;-1758.385;1;148;310;312.9;25.3;25.6;34;34.7;28.5;-1.0;
14/02/2025 23:17:53;117;0;135.05;-4;19.81;5.80;572.5;13.30;75072;2837.097;-1758.383;1;149;310;312.9;25.3;25.6;34;34.7;28.6;-1.0;
14/02/2025 23:18:13;117;0;135.78;-4;19.81;5.86;570.5;13.30;75059;2837.096;-1758.381;1;150;330;333.9;25.3;25.5;34;34.7;28.6;-1.0;
14/02/2025 23:18:33;117;0;136.42;-4;19.61;5.68;568.5;13.30;75023;2837.094;-1758.380;1;151;330;333.9;25.3;25.6;34;34.7;28.6;-1.0;
14/02/2025 23:18:53;117;0;135.92;-4;19.81;5.84;566.7;13.30;75020;2837.093;-1758.378;1;152;350;353.2;25.3;25.6;34;34.7;28.6;-1.0;
14/02/2025 23:19:13;117;0;131.39;-4;18.94;5.99;564.7;13.30;74996;2837.091;-1758.376;1;154;370;372.6;25.0;25.2;45;45.1;28.6;-1.0;
14/02/2025 23:19:33;117;0;136.05;-4;19.72;11.51;562.7;13.20;74940;2837.089;-1758.375;1;156;370;372.6;25.0;25.3;39;38.8;28.6;-1.0;
14/02/2025 23:19:53;117;0;139.28;-4;19.44;7.79;560.5;13.20;74931;2837.087;-1758.373;1;159;370;371.0;25.0;25.3;39;38.4;28.6;-1.0;
14/02/2025 23:20:13;117;0;142.35;-4;19.75;7.64;558.5;13.20;74932;2837.086;-1758.372;1;161;370;371.0;25.0;25.2;37;37.0;28.6;-1.0;
14/02/2025 23:20:33;117;0;144.11;-4;19.21;6.90;556.3;13.20;74932;2837.083;-1758.370;1;165;370;372.6;25.0;25.3;41;41.1;28.5;-1.0;
14/02/2025 23:20:53;117;0;148.12;-4;19.38;9.14;554.2;13.20;74940;2837.081;-1758.369;1;169;370;371.0;25.0;25.2;39;38.8;28.6;-1.0;
14/02/2025 23:21:13;117;0;150.92;-4;19.58;7.47;552.2;13.20;74923;2837.079;-1758.368;1;174;370;372.6;25.0;25.3;41;41.1;28.6;-1.0;
14/02/2025 23:21:33;117;0;154.84;-4;19.62;9.13;550.1;13.20;74918;2837.077;-1758.367;1;185;370;372.6;25.0;25.3;53;53.2;28.6;-1.0;
14/02/2025 23:21:53;117;0;162.32;-4;19.60;15.52;548.0;13.20;74925;2837.075;-1758.366;1;230;370;372.6;25.0;25.3;70;69.9;28.6;-1.0;
14/02/2025 23:22:13;117;0;175.21;-4;19.35;25.14;545.7;13.20;74921;2837.072;-1758.366;1;342;370;371.0;25.0;25.3;70;69.9;28.5;-1.0;
14/02/2025 23:22:33;117;0;190.61;-4;19.48;24.98;543.4;13.10;74921;2837.069;-1758.367;1;2;370;371.0;25.0;25.3;70;69.9;28.6;-1.0;
14/02/2025 23:22:53;117;0;205.51;-4;19.93;24.94;541.0;13.10;74925;2837.067;-1758.369;1;14;370;372.6;25.0;25.3;70;69.9;28.6;-1.0;
14/02/2025 23:23:13;117;0;220.04;-4;19.52;24.94;538.6;13.10;74923;2837.064;-1758.372;1;23;370;371.0;25.0;25.3;70;69.9;28.6;-1.0;
14/02/2025 23:23:33;117;0;234.30;-4;20.37;24.76;536.0;13.10;74917;2837.063;-1758.375;1;32;370;371.0;25.0;25.3;70;69.9;28.6;-1.0;
14/02/2025 23:23:53;117;0;247.50;-4;19.24;24.83;533.2;13.10;74928;2837.061;-1758.379;1;41;370;371.0;25.0;25.5;70;69.9;28.6;-1.0;
14/02/2025 23:24:13;117;0;262.44;-4;19.27;24.75;530.5;13.10;74914;2837.061;-1758.384;1;49;370;372.6;25.0;25.3;70;69.9;28.6;-1.0;
14/02/2025 23:24:33;117;0;276.10;-4;19.14;24.81;527.8;13.10;74909;2837.062;-1758.388;1;57;370;372.6;25.0;25.3;70;69.9;28.6;-1.0;
14/02/2025 23:24:53;117;0;290.40;-4;18.51;24.69;525.1;13.10;74919;2837.063;-1758.393;1;64;370;372.6;24.5;24.6;70;69.9;28.6;-1.0;
14/02/2025 23:25:13;117;0;303.40;-4;20.89;24.56;522.6;13.10;74910;2837.065;-1758.396;1;71;370;372.6;24.5;24.2;70;69.9;28.6;-1.0;
14/02/2025 23:25:33;117;0;316.49;-4;21.16;24.58;519.9;13.10;74907;2837.068;-1758.399;1;77;370;371.0;24.5;24.2;70;69.9;28.6;-1.0;
14/02/2025 23:25:53;117;0;327.42;-4;21.39;24.97;517.0;13.00;74900;2837.071;-1758.401;1;84;370;372.6;24.5;24.2;70;69.9;28.6;-1.0;
14/02/2025 23:26:13;117;0;338.67;-4;21.60;24.78;514.1;13.00;74911;2837.074;-1758.403;1;91;370;372.6;24.5;24.2;70;69.9;28.5;-1.0;
14/02/2025 23:26:33;117;0;349.26;-4;21.52;24.75;511.4;13.00;74905;2837.078;-1758.404;1;97;370;372.6;24.5;24.2;70;69.9;28.6;-1.0;
14/02/2025 23:26:53;117;0;359.13;-4;21.72;24.57;508.6;13.00;74900;2837.081;-1758.405;1;102;370;372.6;24.5;24.2;70;69.9;28.6;-1.0;
14/02/2025 23:27:13;117;0;10.18;-4;21.80;25.12;505.9;13.00;74895;2837.085;-1758.404;1;108;370;372.6;24.5;24.2;70;69.9;28.6;-1.0;
14/02/2025 23:27:33;117;0;20.47;-4;21.66;25.08;503.0;13.00;74892;2837.088;-1758.403;1;114;370;372.6;24.5;24.2;70;69.9;28.6;-1.0;
14/02/2025 23:27:53;117;0;31.29;-4;21.65;24.92;500.0;13.00;74892;2837.091;-1758.402;1;120;370;372.6;24.5;24.2;70;69.9;28.6;-1.0;
14/02/2025 23:28:13;117;0;41.78;-4;21.60;25.12;497.0;13.00;74886;2837.094;-1758.399;1;125;370;371.0;24.5;24.2;70;69.9;28.6;-1.0;
14/02/2025 23:28:33;117;0;52.44;-4;21.45;24.88;494.0;13.00;74909;2837.097;-1758.396;1;131;370;371.0;24.5;24.2;70;69.9;28.6;-1.0;
14/02/2025 23:28:53;117;0;63.61;-4;21.56;24.81;491.0;13.00;74897;2837.099;-1758.393;1;137;370;372.6;24.5;24.2;70;69.9;28.6;-1.0;
14/02/2025 23:29:13;117;0;75.18;-4;21.38;24.83;488.0;13.00;74895;2837.100;-1758.389;1;143;370;371.0;24.5;24.2;70;69.9;28.6;-1.0;
14/02/2025 23:29:33;117;0;87.36;-4;21.24;24.80;485.0;13.00;74895;2837.100;-1758.386;1;148;370;372.6;24.5;24.2;70;69.9;28.6;-1.0;
14/02/2025 23:29:53;117;0;99.98;-4;21.29;24.68;482.1;13.00;74898;2837.100;-1758.382;1;153;370;371.0;24.5;24.2;70;69.9;28.6;-1.0;
14/02/2025 23:30:13;117;0;112.12;-4;21.44;24.73;479.2;13.00;74895;2837.099;-1758.378;1;158;370;372.6;24.5;24.0;70;69.9;28.6;-1.0;
14/02/2025 23:30:33;117;0;122.85;-4;21.46;24.82;476.2;13.00;74893;2837.097;-1758.375;1;162;370;372.6;24.5;24.2;70;69.9;28.6;-1.0;
14/02/2025 23:30:53;117;0;134.55;-4;21.13;24.83;473.3;13.00;74907;2837.094;-1758.373;1;166;370;372.6;24.5;24.0;60;59.6;28.6;-1.0;
14/02/2025 23:31:13;117;0;142.61;-4;21.44;18.75;470.4;13.00;74907;2837.092;-1758.371;1;170;370;371.0;24.5;24.0;51;51.0;28.6;-1.0;
14/02/2025 23:31:33;117;0;146.42;-4;21.47;14.17;467.5;13.00;74909;2837.089;-1758.369;1;174;370;371.0;24.5;24.0;51;50.5;28.6;-1.0;
14/02/2025 23:31:53;117;0;149.79;-4;21.52;14.10;464.6;13.00;74910;2837.086;-1758.367;1;180;370;372.6;24.5;24.7;55;55.1;28.6;-1.0;
14/02/2025 23:32:13;117;0;157.07;-4;20.52;16.43;461.6;13.00;74921;2837.083;-1758.366;1;187;370;372.6;24.5;24.7;55;55.5;28.6;-1.0;
14/02/2025 23:32:33;117;0;164.06;-4;20.50;16.69;459.0;13.00;74920;2837.080;-1758.365;1;195;370;372.6;24.5;24.7;55;55.5;28.6;-1.0;
14/02/2025 23:32:53;117;0;171.04;-4;21.04;16.74;456.2;13.00;74925;2837.077;-1758.365;1;211;370;372.6;24.5;24.7;69;69.5;28.6;-1.0;
14/02/2025 23:33:13;117;0;181.75;-4;20.68;24.56;453.2;13.00;74930;2837.074;-1758.365;1;289;370;372.6;24.5;24.7;69;69.5;28.6;-1.0;
14/02/2025 23:33:33;117;0;191.91;-4;20.91;24.66;450.3;13.00;74928;2837.070;-1758.367;1;356;370;372.6;24.5;24.7;69;69.5;28.6;-1.0;
14/02/2025 23:33:53;117;0;205.16;-4;20.44;24.35;447.2;13.00;74928;2837.067;-1758.369;1;13;370;372.6;24.5;24.7;69;69.5;28.6;-1.0;
14/02/2025 23:34:13;117;0;220.75;-4;20.44;24.28;444.2;13.00;74928;2837.064;-1758.372;1;25;370;372.6;24.5;24.9;69;69.5;28.6;-1.0;
14/02/2025 23:34:33;117;0;233.05;-4;20.10;24.34;441.3;13.00;74933;2837.062;-1758.376;1;33;370;372.6;24.5;24.7;69;69.5;28.6;-1.0;
14/02/2025 23:34:53;117;0;245.76;-4;20.38;24.72;438.3;13.00;74937;2837.061;-1758.380;1;41;370;371.0;24.5;24.7;69;69.5;28.6;-1.0;
14/02/2025 23:35:13;117;0;259.67;-4;21.03;24.43;435.3;13.00;74930;2837.060;-1758.385;1;49;370;371.0;24.5;24.7;69;69.5;28.6;-1.0;
14/02/2025 23:35:33;117;0;273.97;-4;20.33;24.25;432.3;13.00;74940;2837.061;-1758.390;1;56;370;372.6;24.5;24.7;69;69.5;28.6;-1.0;
14/02/2025 23:35:53;117;0;287.62;-4;20.40;24.46;429.3;13.00;74942;2837.062;-1758.394;1;63;370;372.6;24.5;24.9;69;69.5;28.6;-1.0;
14/02/2025 23:36:13;117;0;300.95;-4;20.06;24.80;426.5;13.00;74932;2837.064;-1758.398;1;70;370;372.6;24.5;24.7;69;69.5;28.6;-1.0;
14/02/2025 23:36:33;117;0;313.44;-4;20.45;24.65;423.5;13.00;74942;2837.067;-1758.402;1;77;370;371.0;24.5;24.7;69;69.0;28.6;-1.0;
14/02/2025 23:36:53;117;0;326.91;-4;20.41;24.51;420.5;13.00;74952;2837.070;-1758.404;1;84;370;372.6;24.5;24.7;69;69.5;28.6;-1.0;
14/02/2025 23:37:13;117;0;338.55;-4;20.56;24.48;417.5;13.00;74947;2837.074;-1758.406;1;90;370;372.6;24.5;24.7;69;69.5;28.6;-1.0;
14/02/2025 23:37:33;117;0;349.51;-4;20.38;24.47;414.6;13.00;74950;2837.078;-1758.407;1;96;370;372.6;24.5;24.7;69;69.5;28.6;-1.0;
14/02/2025 23:37:53;117;0;2.60;-4;20.52;24.52;411.6;13.10;74963;2837.082;-1758.408;1;103;370;371.0;24.5;24.7;69;69.5;28.6;-1.0;
14/02/2025 23:38:13;117;0;14.07;-4;20.21;24.33;408.6;13.00;74961;2837.086;-1758.407;1;109;370;372.6;24.5;24.7;69;69.5;28.6;-1.0;
14/02/2025 23:38:33;117;0;22.57;-4;20.13;24.39;405.7;13.10;74957;2837.089;-1758.406;1;115;370;371.0;24.5;24.7;69;69.5;28.6;-1.0;
14/02/2025 23:38:53;117;0;32.10;-4;19.80;24.53;402.9;13.10;74981;2837.093;-1758.404;1;120;370;369.4;24.5;24.7;69;69.5;28.6;-1.0;
14/02/2025 23:39:13;117;0;42.01;-4;19.91;24.48;400.2;13.10;74989;2837.096;-1758.402;1;125;370;372.6;24.5;24.7;69;69.5;28.6;-1.0;
14/02/2025 23:39:33;117;0;52.54;-4;20.38;24.54;397.5;13.10;74983;2837.098;-1758.399;1;130;370;371.0;24.5;24.7;69;69.5;28.6;-1.0;
14/02/2025 23:39:53;117;0;64.19;-4;19.85;24.53;394.8;13.10;74990;2837.100;-1758.396;1;135;370;372.6;24.5;24.7;69;69.5;28.6;-1.0;
14/02/2025 23:40:13;117;0;76.39;-4;20.26;24.45;392.2;13.10;74993;2837.101;-1758.392;1;140;370;372.6;24.5;24.7;69;69.5;28.6;-1.0;
14/02/2025 23:40:33;117;0;90.40;-4;20.37;24.50;389.5;13.10;74992;2837.101;-1758.389;1;144;370;372.6;24.5;24.9;69;69.5;28.6;-1.0;
14/02/2025 23:40:53;117;0;103.47;-4;20.54;24.35;386.9;13.10;74997;2837.100;-1758.386;1;148;370;372.6;24.5;24.7;69;69.5;28.6;-1.0;
14/02/2025 23:41:13;117;0;116.79;-4;20.43;24.56;384.3;13.10;74997;2837.099;-1758.383;1;151;370;371.0;24.5;24.7;66;65.9;28.5;-1.0;
14/02/2025 23:41:33;117;0;130.92;-4;20.45;21.87;381.5;13.20;75004;2837.097;-1758.380;1;154;370;372.6;24.5;24.7;46;46.0;28.6;-1.0;
14/02/2025 23:41:53;117;0;137.82;-4;20.63;11.66;378.8;13.20;75006;2837.095;-1758.378;1;155;370;372.6;24.5;24.7;38;37.9;28.6;-1.0;
14/02/2025 23:42:13;117;0;141.71;-4;20.35;7.38;376.3;13.20;75019;2837.092;-1758.376;1;157;370;372.6;24.5;24.7;35;35.2;28.6;-1.0;
14/02/2025 23:42:33;117;0;144.73;-4;20.43;6.68;373.6;13.20;75006;2837.090;-1758.374;1;159;370;372.6;24.5;24.7;35;36.6;28.6;-1.0;
14/02/2025 23:42:53;117;0;145.35;-4;19.87;6.65;371.0;13.20;75010;2837.087;-1758.372;1;161;370;372.6;24.5;24.7;35;36.6;28.6;-1.0;
14/02/2025 23:43:13;117;0;145.82;-4;20.02;6.82;368.4;13.20;75025;2837.084;-1758.370;1;165;370;372.6;24.5;24.7;40;40.2;28.6;-1.0;
14/02/2025 23:43:33;117;0;148.47;-4;19.77;8.76;365.6;13.20;75020;2837.082;-1758.369;1;170;370;372.6;24.5;24.7;42;42.0;28.6;-1.0;
14/02/2025 23:43:54;117;0;152.17;-4;20.02;9.78;362.8;13.30;75035;2837.079;-1758.367;1;180;370;372.6;24.5;24.7;53;52.8;28.6;-1.0;
14/02/2025 23:44:14;117;0;158.35;-4;20.03;15.59;360.1;13.30;75042;2837.076;-1758.366;1;210;370;372.6;24.5;24.7;70;69.9;28.6;-1.0;
14/02/2025 23:44:34;117;0;169.82;-4;20.29;24.89;357.1;13.30;75040;2837.072;-1758.366;1;325;370;374.2;24.5;24.7;70;69.9;28.6;-1.0;
14/02/2025 23:44:54;117;0;181.93;-4;20.08;25.30;354.1;13.30;75049;2837.068;-1758.366;1;352;370;372.6;24.5;24.7;70;69.9;28.6;-1.0;
14/02/2025 23:45:14;117;0;194.69;-4;20.03;24.84;351.0;13.30;75035;2837.065;-1758.368;1;3;370;372.6;24.5;24.7;70;69.9;28.6;-1.0;
14/02/2025 23:45:34;117;0;207.15;-4;19.87;24.71;348.0;13.30;75045;2837.062;-1758.370;1;12;370;372.6;24.5;24.7;70;69.9;28.6;-1.0;
14/02/2025 23:45:54;117;0;220.52;-4;19.59;24.89;345.2;13.30;75051;2837.059;-1758.373;1;19;370;372.6;24.5;24.7;70;69.9;28.6;-1.0;
14/02/2025 23:46:14;117;0;234.12;-4;19.60;24.82;342.3;13.30;75047;2837.057;-1758.377;1;27;370;372.6;24.5;24.7;70;69.9;28.6;-1.0;
14/02/2025 23:46:34;117;0;247.33;-4;19.69;24.84;339.5;13.30;75050;2837.056;-1758.381;1;34;370;372.6;24.5;24.7;70;69.9;28.6;-1.0;
14/02/2025 23:46:54;117;0;259.84;-4;19.79;24.65;336.8;13.40;75062;2837.056;-1758.385;1;41;370;372.6;24.5;24.7;70;69.9;28.6;-1.0;
14/02/2025 23:47:14;117;0;272.85;-4;20.12;24.80;334.1;13.40;75070;2837.056;-1758.390;1;48;370;372.6;24.5;24.9;70;69.9;28.6;-1.0;
14/02/2025 23:47:34;117;0;285.75;-4;20.26;24.84;331.3;13.40;75077;2837.057;-1758.394;1;54;370;372.6;24.5;24.7;70;69.9;28.6;-1.0;
14/02/2025 23:47:54;117;0;297.17;-4;20.24;24.69;328.4;13.40;75080;2837.059;-1758.398;1;61;370;372.6;24.5;24.7;70;69.9;28.6;-1.0;
14/02/2025 23:48:14;117;0;309.71;-4;20.09;24.66;325.5;13.40;75082;2837.062;-1758.402;1;68;370;372.6;24.5;24.9;70;69.9;28.6;-1.0;
14/02/2025 23:48:34;117;0;320.90;-4;20.28;24.66;322.7;13.40;75078;2837.065;-1758.405;1;74;370;371.0;24.5;24.7;70;69.9;28.6;-1.0;
14/02/2025 23:48:54;117;0;331.03;-4;20.31;24.69;319.7;13.50;75093;2837.068;-1758.407;1;81;370;372.6;24.5;24.7;70;69.9;28.6;-1.0;
14/02/2025 23:49:14;117;0;341.20;-4;20.38;24.91;316.7;13.50;75088;2837.072;-1758.409;1;87;370;372.6;24.5;24.7;70;69.9;28.6;-1.0;
14/02/2025 23:49:34;117;0;351.61;-4;20.15;24.88;313.5;13.50;75090;2837.076;-1758.410;1;94;370;372.6;24.5;24.7;70;69.9;28.6;-1.0;
14/02/2025 23:49:54;117;0;0.36;-4;20.37;24.93;310.3;13.50;75090;2837.081;-1758.410;1;100;370;372.6;24.5;24.7;70;69.9;28.6;-1.0;
14/02/2025 23:50:14;117;0;11.52;-4;20.23;24.82;307.1;13.50;75107;2837.085;-1758.410;1;106;370;372.6;24.5;24.7;70;69.9;28.6;-1.0;
14/02/2025 23:50:34;117;0;21.36;-4;20.26;24.81;303.9;13.50;75093;2837.089;-1758.408;1;112;370;372.6;24.5;24.7;70;69.9;28.6;-1.0;
14/02/2025 23:50:54;117;0;31.28;-4;20.07;24.84;300.6;13.60;75100;2837.093;-1758.406;1;119;370;372.6;24.5;24.7;70;69.9;28.6;-1.0;
14/02/2025 23:51:14;117;0;42.63;-4;19.93;24.93;297.5;13.60;75112;2837.096;-1758.403;1;124;370;372.6;24.5;24.7;70;70.4;28.6;-1.0;
14/02/2025 23:51:34;117;0;53.63;-4;19.97;24.81;294.3;13.60;75121;2837.099;-1758.400;1;130;370;374.2;24.5;24.9;70;69.9;28.6;-1.0;
14/02/2025 23:51:54;117;0;66.81;-4;19.96;24.93;291.2;13.60;75121;2837.100;-1758.396;1;136;370;372.6;24.5;24.7;70;69.9;28.6;-1.0;
14/02/2025 23:52:14;117;0;79.84;-4;19.84;25.00;288.1;13.60;75126;2837.101;-1758.392;1;141;370;372.6;24.5;24.9;70;69.9;28.6;-1.0;
14/02/2025 23:52:34;117;0;90.98;-4;20.02;24.83;285.1;13.60;75133;2837.101;-1758.388;1;146;370;372.6;24.5;24.7;70;69.9;28.6;-1.0;
14/02/2025 23:52:54;117;0;103.11;-4;20.07;24.71;282.0;13.60;75133;2837.101;-1758.384;1;150;370;372.6;24.5;24.7;70;69.9;28.6;-1.0;
14/02/2025 23:53:14;117;0;116.45;-4;19.94;24.63;279.0;13.70;75140;2837.099;-1758.381;1;155;370;372.6;24.5;24.7;70;69.9;28.6;-1.0;
14/02/2025 23:53:34;117;0;129.81;-4;20.14;24.59;275.9;13.70;75145;2837.097;-1758.377;1;158;370;372.6;24.5;24.7;57;56.9;28.5;-1.0;
14/02/2025 23:53:54;117;0;137.79;-4;20.58;17.15;272.9;13.70;75146;2837.094;-1758.375;1;161;370;372.6;24.5;24.7;46;46.0;28.6;-1.0;
14/02/2025 23:54:14;117;0;141.87;-4;20.49;11.22;269.6;13.70;75146;2837.091;-1758.372;1;165;370;372.6;24.5;24.7;46;45.1;28.6;-1.0;
14/02/2025 23:54:34;117;0;141.58;-4;20.61;11.41;266.7;13.70;75142;2837.089;-1758.370;1;169;370;372.6;24.5;24.7;54;54.2;28.5;-1.0;
14/02/2025 23:54:54;117;0;145.09;-4;20.11;16.14;263.8;13.80;75149;2837.086;-1758.368;1;175;370;372.6;24.5;24.9;56;56.0;28.6;-1.0;
14/02/2025 23:55:14;117;0;150.98;-4;19.85;17.20;260.8;13.70;75153;2837.083;-1758.366;1;183;370;372.6;24.5;24.7;60;60.0;28.6;-1.0;
14/02/2025 23:55:34;117;0;159.19;-4;20.13;19.25;257.9;13.80;75175;2837.079;-1758.365;1;195;370;372.6;24.5;24.7;64;64.1;28.6;-1.0;
14/02/2025 23:55:54;117;0;170.65;-4;20.31;21.63;254.9;13.80;75182;2837.076;-1758.365;1;225;370;372.6;24.5;24.7;70;69.9;28.6;-1.0;
14/02/2025 23:56:14;117;0;184.69;-4;19.72;24.66;251.9;13.80;75189;2837.072;-1758.366;1;329;370;372.6;24.5;24.7;70;69.9;28.6;-1.0;
14/02/2025 23:56:34;117;0;198.67;-4;19.88;24.95;248.9;13.80;75186;2837.069;-1758.367;1;5;370;372.6;24.5;24.7;70;70.4;28.6;-1.0;
14/02/2025 23:56:54;117;0;212.67;-4;19.91;24.89;245.9;13.90;75194;2837.066;-1758.370;1;19;370;369.4;24.5;24.7;70;69.9;28.6;-1.0;
14/02/2025 23:57:14;117;0;227.08;-4;19.91;24.73;242.9;13.90;75184;2837.063;-1758.374;1;29;370;372.6;24.5;24.7;70;69.9;28.6;-1.0;
14/02/2025 23:57:34;117;0;241.54;-4;19.67;24.94;239.9;13.90;75209;2837.062;-1758.378;1;38;370;372.6;24.5;24.7;70;69.9;28.6;-1.0;
14/02/2025 23:57:54;117;0;257.46;-4;19.68;24.92;237.0;13.90;75204;2837.061;-1758.383;1;47;370;372.6;24.5;24.7;70;69.9;28.6;-1.0;
14/02/2025 23:58:14;117;0;273.20;-4;19.81;24.95;234.3;13.90;75225;2837.062;-1758.387;1;54;370;374.2;24.5;24.7;70;69.9;28.6;-1.0;
14/02/2025 23:58:34;117;0;287.23;-4;19.88;24.91;231.4;14.00;75224;2837.063;-1758.391;1;62;370;372.6;24.5;24.7;70;69.9;28.6;-1.0;
14/02/2025 23:58:54;117;0;302.10;-4;19.88;25.13;228.7;14.00;75242;2837.065;-1758.395;1;70;370;369.4;24.5;24.9;70;70.4;28.6;-1.0;
14/02/2025 23:59:14;117;0;315.15;-4;20.12;24.85;225.9;14.00;75244;2837.068;-1758.398;1;77;370;372.6;24.5;24.7;70;69.9;28.6;-1.0;
14/02/2025 23:59:34;117;0;327.94;-4;19.48;24.33;223.2;14.00;75261;2837.071;-1758.401;1;84;370;372.6;24.5;24.7;70;69.9;28.6;-1.0;
14/02/2025 23:59:54;117;0;338.93;-4;19.54;24.70;220.6;14.10;75259;2837.074;-1758.403;1;90;370;372.6;24.5;24.7;70;69.9;28.6;-1.0;
15/02/2025 00:00:14;117;0;350.50;-4;19.45;24.87;218.0;14.10;75252;2837.078;-1758.404;1;97;370;372.6;24.5;24.7;70;69.9;28.6;-1.0;
15/02/2025 00:00:34;117;0;2.70;-4;19.51;24.75;215.6;14.10;75271;2837.081;-1758.404;1;102;370;371.0;24.5;24.7;70;69.9;28.6;-1.0;
15/02/2025 00:00:54;117;0;14.45;-4;19.53;24.82;213.1;14.10;75276;2837.084;-1758.403;1;108;370;374.2;24.5;24.7;70;69.9;28.6;-1.0;
15/02/2025 00:01:14;117;0;26.49;-4;19.31;24.88;210.7;14.20;75275;2837.087;-1758.402;1;114;370;372.6;24.5;24.7;70;69.9;28.6;-1.0;
15/02/2025 00:01:34;117;0;40.05;-4;19.34;24.81;208.4;14.20;75296;2837.090;-1758.400;1;119;370;372.6;24.5;24.7;70;69.9;28.6;-1.0;
15/02/2025 00:01:54;117;0;53.22;-4;19.27;24.20;206.1;14.20;75293;2837.092;-1758.398;1;124;370;372.6;24.5;24.7;70;69.9;28.6;-1.0;
15/02/2025 00:02:14;117;0;67.11;-4;20.36;24.84;203.8;14.20;75304;2837.093;-1758.395;1;128;370;372.6;24.5;24.7;70;69.9;28.6;-1.0;
15/02/2025 00:02:34;117;0;79.95;-4;19.82;24.76;201.6;14.20;75301;2837.094;-1758.392;1;132;370;372.6;24.5;24.7;70;69.9;28.6;-1.0;
15/02/2025 00:02:54;117;0;93.18;-4;19.45;24.88;199.5;14.30;75303;2837.094;-1758.389;1;136;370;372.6;24.5;24.7;70;69.9;28.6;-1.0;
15/02/2025 00:03:14;117;0;105.08;-4;19.58;24.54;197.4;14.30;75325;2837.094;-1758.387;1;139;370;372.6;24.5;24.7;68;67.7;28.6;-1.0;
15/02/2025 00:03:34;117;0;117.13;-4;19.78;23.20;195.4;14.30;75334;2837.093;-1758.385;1;140;370;372.6;24.5;24.7;48;47.8;28.6;-1.0;
15/02/2025 00:03:54;117;0;123.61;-4;19.93;12.02;193.5;14.40;75335;2837.092;-1758.383;1;142;390;393.5;24.5;24.7;41;41.1;28.6;-1.0;
15/02/2025 00:04:14;117;0;127.55;-4;19.35;8.91;191.5;14.40;75296;2837.090;-1758.381;1;144;410;412.9;24.5;24.7;38;37.9;28.6;-1.0;
15/02/2025 00:04:34;117;0;130.93;-4;18.85;7.00;189.7;14.40;75272;2837.089;-1758.379;1;145;430;433.9;24.2;24.2;35;34.7;28.5;-1.0;
15/02/2025 00:04:54;117;0;136.90;-4;19.32;5.73;187.7;14.40;75224;2837.087;-1758.377;1;146;450;453.2;24.2;23.7;32;32.0;28.6;-1.0;
15/02/2025 00:05:14;117;0;137.06;-4;18.33;4.10;185.6;14.50;75197;2837.085;-1758.375;1;147;450;453.2;23.7;23.7;32;31.6;28.6;-1.0;
15/02/2025 00:05:34;117;0;138.88;-4;17.64;4.06;183.5;14.50;75207;2837.083;-1758.374;1;148;450;453.2;23.0;23.0;32;31.6;28.5;-1.0;
15/02/2025 00:05:54;117;0;140.47;-4;19.38;4.11;181.6;14.50;75216;2837.081;-1758.372;1;149;470;472.6;23.0;22.4;32;31.6;28.6;-1.0;
15/02/2025 00:06:14;117;0;140.69;-4;19.78;4.26;179.2;14.60;75188;2837.079;-1758.370;1;152;470;471.0;23.0;22.4;32;31.6;28.6;-1.0;
15/02/2025 00:06:34;117;0;140.82;-4;19.87;4.10;176.8;14.60;75211;2837.077;-1758.368;1;159;470;472.6;23.0;23.0;39;38.8;28.6;-1.0;
15/02/2025 00:06:54;117;0;146.73;-4;19.40;8.39;174.3;14.60;75219;2837.075;-1758.367;1;210;470;471.0;23.0;23.1;70;70.4;28.6;-1.0;
15/02/2025 00:07:14;117;0;163.63;-4;18.64;25.43;171.7;14.70;75255;2837.071;-1758.366;1;340;470;472.6;22.6;21.9;-70;-69.9;28.6;-1.0;
15/02/2025 00:07:34;117;0;149.99;-4;9.56;-46.80;169.4;14.70;75261;2837.069;-1758.364;1;336;470;471.0;19.4;19.3;-70;-69.9;28.5;-1.0;
15/02/2025 00:07:54;117;0;137.44;-4;8.99;-47.80;167.7;14.80;75285;2837.067;-1758.362;1;331;490;491.9;16.1;16.2;-70;-69.9;28.6;-1.0;
15/02/2025 00:08:14;117;0;119.73;-4;14.59;-47.88;165.6;14.80;75244;2837.065;-1758.360;1;323;490;495.2;14.5;14.4;-70;-69.9;28.6;-1.0;
15/02/2025 00:08:34;117;0;106.48;-4;19.71;-47.29;163.0;14.90;75263;2837.064;-1758.356;1;315;490;495.2;14.5;13.7;-70;-69.9;28.6;-1.0;
15/02/2025 00:08:54;117;0;92.46;-4;21.31;-46.62;159.6;14.90;75281;2837.064;-1758.352;1;306;490;495.2;14.5;13.8;-70;-69.9;28.5;-1.0;
15/02/2025 00:09:14;117;0;77.75;-4;21.09;-46.99;156.0;15.00;75288;2837.066;-1758.347;1;296;490;495.2;14.5;13.7;-70;-69.9;28.6;-1.0;
15/02/2025 00:09:34;117;0;64.54;-4;21.39;-46.32;152.4;15.00;75296;2837.068;-1758.343;1;286;490;496.8;14.5;13.7;-70;-69.9;28.5;-1.0;
15/02/2025 00:09:54;117;0;54.07;-4;21.66;-46.93;148.7;15.10;75325;2837.071;-1758.339;1;278;490;496.8;14.5;13.8;-70;-69.9;28.6;-1.0;
15/02/2025 00:10:14;117;0;41.13;-4;20.90;-47.30;145.0;15.10;75347;2837.074;-1758.336;1;269;490;496.8;14.5;13.8;-70;-69.9;28.6;-1.0;
15/02/2025 00:10:34;117;0;28.59;-4;20.55;-46.94;141.3;15.20;75367;2837.078;-1758.334;1;261;490;495.2;14.5;13.8;-70;-69.9;28.6;-1.0;
15/02/2025 00:10:54;117;0;15.25;-4;20.09;-47.54;137.7;15.20;75382;2837.083;-1758.333;1;253;490;496.8;14.5;13.8;-70;-69.9;28.6;-1.0;
15/02/2025 00:11:14;117;0;3.66;-4;20.57;-47.24;134.2;15.30;75406;2837.088;-1758.333;1;245;490;496.8;14.5;13.7;-70;-69.9;28.6;-1.0;
15/02/2025 00:11:34;117;0;350.94;-4;19.95;-46.67;130.7;15.30;75436;2837.092;-1758.334;1;237;490;495.2;14.5;13.7;-70;-69.9;28.5;-1.0;
15/02/2025 00:11:54;117;0;340.18;-4;20.54;-46.57;127.2;15.40;75455;2837.097;-1758.336;1;230;490;496.8;14.5;13.7;-70;-69.9;28.6;-1.0;
15/02/2025 00:12:14;117;0;329.02;-4;21.14;-47.12;123.7;15.50;75470;2837.101;-1758.339;1;222;490;495.2;14.5;13.8;-70;-69.9;28.6;-1.0;
15/02/2025 00:12:34;117;0;318.40;-4;20.81;-47.23;119.9;15.50;75486;2837.104;-1758.343;1;215;490;495.2;14.5;13.8;-70;-69.9;28.6;-1.0;
15/02/2025 00:12:54;117;0;306.99;-4;21.44;-45.99;116.1;15.60;75499;2837.107;-1758.348;1;207;490;495.2;14.5;13.8;-70;-69.9;28.5;-1.0;
15/02/2025 00:13:14;117;0;297.70;-4;21.15;-45.25;112.0;15.60;75504;2837.110;-1758.353;1;198;490;496.8;14.5;13.7;-70;-69.9;28.6;-1.0;
15/02/2025 00:13:34;117;0;287.41;-4;20.27;-46.80;108.0;15.70;75560;2837.112;-1758.359;1;190;490;495.2;14.5;13.7;-70;-69.9;28.6;-1.0;
15/02/2025 00:13:54;117;0;275.59;-4;20.34;-46.84;104.2;15.80;75598;2837.112;-1758.365;1;182;490;495.2;14.5;13.7;-70;-69.9;28.6;-1.0;
15/02/2025 00:14:14;117;0;264.20;-4;20.13;-46.76;100.7;15.90;75626;2837.112;-1758.371;1;175;490;496.8;14.5;13.7;-70;-69.9;28.6;-1.0;
15/02/2025 00:14:34;117;0;252.14;-4;20.58;-46.96;97.0;15.90;75645;2837.111;-1758.376;1;168;490;496.8;14.5;13.7;-70;-69.9;28.6;-1.0;
15/02/2025 00:14:54;117;0;238.75;-4;20.84;-46.86;93.3;16.00;75656;2837.109;-1758.381;1;161;490;496.8;14.5;14.6;-65;-65.0;28.6;-1.0;
15/02/2025 00:15:14;117;0;224.87;-4;20.74;-44.02;89.5;16.10;75675;2837.106;-1758.385;1;153;490;495.2;14.5;14.7;-57;-56.9;28.5;-1.0;
15/02/2025 00:15:34;117;0;211.00;-4;21.34;-39.85;85.6;16.20;75688;2837.102;-1758.388;1;146;490;496.8;14.5;14.7;-49;-48.7;28.6;-1.0;
15/02/2025 00:15:54;117;0;196.34;-4;22.28;-35.75;81.7;16.20;75690;2837.097;-1758.390;1;139;490;496.8;15.2;15.3;-39;-38.4;28.6;-1.0;
15/02/2025 00:16:14;117;0;181.17;-4;22.63;-30.35;77.8;16.30;75707;2837.093;-1758.391;1;133;490;498.4;16.0;16.2;-28;-28.0;28.5;-1.0;
15/02/2025 00:16:34;117;0;164.29;-4;22.98;-24.83;73.9;16.40;75718;2837.089;-1758.390;1;127;490;496.8;16.9;17.2;-13;-12.6;28.6;-1.0;
15/02/2025 00:16:54;117;0;149.04;-4;24.00;-17.33;69.8;16.40;75732;2837.085;-1758.387;1;123;490;496.8;18.1;18.4;4;4.5;28.6;-1.0;
15/02/2025 00:17:14;117;0;136.51;-4;23.84;-9.35;65.8;16.50;75745;2837.082;-1758.384;1;119;490;496.8;19.2;19.4;19;19.0;28.6;-1.0;
