Timestamp;NavState;SecurityLevel;Heading;Declination;Pitch;Roll;Depth;Temperature;Pa;Lat;Lon;DeadReckoning;DesiredH;BallastCmd;BallastPos;LinCmd;LinPos;AngCmd;AngPos;Voltage;Altitude;
15/02/2025 03:06:26;119;0;59.73;-4;-54.88;-10.74;0.3;17.80;75888;2836.782;-1758.144;0;326;500;509.7;100.0;100.7;0;-0.9;28.6;-1.0;
15/02/2025 03:06:36;116;0;42.97;-4;-56.15;-16.97;0.2;17.80;75902;2836.782;-1758.142;0;326;500;508.1;100.0;100.7;0;-0.5;28.5;-1.0;
15/02/2025 03:07:02;116;0;64.78;-4;-46.97;-11.36;0.1;17.90;75911;2836.781;-1758.142;0;326;500;509.7;100.0;100.7;0;-0.5;28.5;-1.0;
15/02/2025 03:07:22;116;0;72.59;-4;-55.22;-7.02;0.2;18.00;75910;2836.780;-1758.140;0;326;500;508.1;100.0;100.7;0;-0.5;28.5;-1.0;
15/02/2025 03:07:41;116;0;74.08;-4;-50.18;-9.64;0.2;18.00;75917;2836.780;-1758.138;0;326;500;508.1;100.0;100.7;0;-0.5;28.6;-1.0;
15/02/2025 03:08:01;116;0;66.86;-4;-61.67;-17.52;0.2;18.00;75931;2836.779;-1758.135;0;326;500;508.1;100.0;100.7;0;-0.5;28.5;-1.0;
15/02/2025 03:09:04;116;0;90.01;-4;-54.21;-20.90;0.2;18.20;75939;2836.777;-1758.134;0;325;500;508.1;100.0;100.7;0;-0.5;28.5;-1.0;
15/02/2025 03:09:15;116;0;74.72;-4;-54.18;-7.78;0.2;18.30;75941;2836.776;-1758.134;0;325;500;508.1;100.0;100.7;0;-0.5;28.6;-1.0;
15/02/2025 03:10:18;116;0;58.90;-4;-56.81;-2.14;0.2;18.50;75960;2836.775;-1758.133;0;326;500;508.1;100.0;100.7;0;-0.5;28.5;-1.0;
15/02/2025 03:10:48;116;0;70.01;-4;-50.05;-7.18;0.2;18.60;75972;2836.775;-1758.133;0;326;500;509.7;100.0;100.7;0;-0.9;28.5;-1.0;
15/02/2025 03:11:08;110;0;91.90;-4;-54.10;-13.35;0.1;18.70;75972;2836.775;-1758.133;0;326;-50;393.5;100.0;99.7;-9;-9.0;28.6;-1.0;
15/02/2025 03:11:18;110;0;95.99;-4;-49.44;-23.42;0.2;18.70;76328;2836.776;-1758.133;1;325;-50;246.8;100.0;99.7;-9;-9.5;28.5;-1.0;
15/02/2025 03:11:28;110;0;79.29;-4;-61.80;-15.52;0.6;18.80;76567;2836.776;-1758.133;1;325;-50;88.7;100.0;99.9;-9;-9.5;28.5;-1.0;
15/02/2025 03:11:38;110;0;87.58;-4;-79.22;-15.52;0.9;18.80;76900;2836.776;-1758.133;1;325;-50;-50.0;100.0;99.7;-9;-9.5;28.5;-1.0;
15/02/2025 03:11:48;110;0;60.56;-4;-68.88;-20.14;1.1;18.80;77175;2836.777;-1758.133;1;325;-50;-50.0;41.7;41.7;-9;-9.5;28.6;-1.0;
15/02/2025 03:12:08;100;0;70.77;-4;-26.19;-16.80;3.8;18.90;77148;2836.779;-1758.131;1;325;-50;-46.8;41.7;41.2;-9;-9.5;28.6;-1.0;
15/02/2025 03:12:28;100;0;75.71;-4;-16.30;-16.94;6.1;19.00;77156;2836.781;-1758.128;1;324;-50;-43.5;42.9;43.2;70;69.9;28.6;-1.0;
15/02/2025 03:12:48;100;0;70.58;-4;-21.83;23.00;8.4;19.00;77164;2836.783;-1758.125;1;324;-50;-43.5;42.9;43.3;70;70.4;28.6;-1.0;
15/02/2025 03:13:08;100;0;61.04;-4;-24.36;23.72;10.9;19.00;77171;2836.785;-1758.123;1;323;-50;-43.5;41.5;41.5;70;70.4;28.6;-1.0;
15/02/2025 03:13:28;100;0;47.17;-4;-19.88;22.83;13.3;19.10;77178;2836.788;-1758.121;1;323;-50;-41.9;41.5;41.2;70;70.4;28.6;0.0;
15/02/2025 03:13:48;100;0;37.53;-4;-19.89;23.82;15.7;19.10;77182;2836.791;-1758.119;1;322;-50;-43.5;41.5;41.2;70;70.4;28.6;0.0;
15/02/2025 03:14:08;100;0;25.73;-4;-19.20;23.30;17.9;19.10;77191;2836.795;-1758.118;1;322;-50;-41.9;41.5;41.2;70;70.4;28.6;0.0;
15/02/2025 03:14:28;100;0;16.26;-4;-19.90;23.49;20.1;19.10;77187;2836.799;-1758.118;1;322;-50;-43.5;41.5;41.2;70;70.4;28.6;0.0;
15/02/2025 03:14:48;100;0;5.60;-4;-19.18;23.52;22.4;19.10;77193;2836.803;-1758.118;1;321;-50;-41.9;41.5;41.2;70;70.4;28.5;0.0;
15/02/2025 03:15:08;100;0;356.14;-4;-19.49;23.29;24.6;19.10;77189;2836.806;-1758.119;1;321;-50;-43.5;41.5;41.2;62;61.4;28.6;0.0;
15/02/2025 03:15:28;100;0;345.10;-4;-18.90;18.28;26.8;19.10;77191;2836.810;-1758.120;1;321;-50;-43.5;41.9;42.1;46;45.6;28.6;0.0;
15/02/2025 03:15:48;100;0;336.27;-4;-19.36;10.37;29.0;19.20;77196;2836.814;-1758.122;1;320;-50;-43.5;41.9;42.1;34;33.8;28.6;0.0;
15/02/2025 03:16:08;100;0;329.51;-4;-18.41;4.79;31.1;19.20;77193;2836.817;-1758.124;1;320;-50;-43.5;42.4;42.9;23;22.6;28.5;0.0;
15/02/2025 03:16:28;100;0;325.38;-4;-19.63;-0.98;33.4;19.20;77192;2836.821;-1758.126;1;320;-50;-43.5;42.4;42.7;18;18.1;28.6;0.0;
15/02/2025 03:16:48;100;0;322.71;-4;-19.94;-3.46;35.7;19.20;77200;2836.824;-1758.129;1;320;-50;-43.5;42.4;42.7;15;14.9;28.6;0.0;
15/02/2025 03:17:08;100;0;320.76;-4;-19.02;-4.82;38.0;19.20;77202;2836.827;-1758.132;1;320;-50;-41.9;42.4;42.7;15;14.9;28.6;0.0;
15/02/2025 03:17:28;100;0;319.61;-4;-19.06;-4.89;40.3;19.20;77202;2836.830;-1758.134;1;320;-50;-43.5;42.4;42.9;15;14.9;28.6;0.0;
15/02/2025 03:17:48;100;0;320.29;-4;-19.16;-4.90;42.5;19.20;77215;2836.834;-1758.137;1;320;-50;-43.5;42.4;42.7;15;14.4;28.5;0.0;
15/02/2025 03:18:08;100;0;321.63;-4;-19.62;-4.94;44.8;19.30;77220;2836.837;-1758.140;1;320;-50;-43.5;42.4;42.7;15;14.4;28.6;0.0;
15/02/2025 03:18:28;100;0;324.42;-4;-18.88;-4.89;47.1;19.30;77218;2836.840;-1758.142;1;320;-50;-43.5;42.7;42.7;17;17.1;28.6;0.0;
15/02/2025 03:18:48;100;0;325.55;-4;-18.95;-3.42;49.4;19.30;77225;2836.844;-1758.144;1;320;-50;-43.5;43.0;43.3;19;19.0;28.6;0.0;
15/02/2025 03:19:08;100;0;324.04;-4;-20.54;-2.34;51.7;19.30;77231;2836.847;-1758.147;1;320;-50;-41.9;43.0;43.3;17;17.1;28.6;0.0;
15/02/2025 03:19:28;100;0;323.83;-4;-20.53;-3.65;54.1;19.30;77233;2836.850;-1758.149;1;319;-50;-41.9;43.0;43.3;17;17.1;28.6;0.0;
15/02/2025 03:19:48;100;0;323.44;-4;-20.41;-3.64;56.5;19.30;77238;2836.854;-1758.152;1;319;-50;-41.9;43.0;43.4;17;17.1;28.5;0.0;
15/02/2025 03:20:08;100;0;321.72;-4;-20.74;-3.61;59.0;19.30;77241;2836.857;-1758.155;1;319;-50;-43.5;43.0;43.3;17;17.1;28.6;0.0;
15/02/2025 03:20:28;100;0;322.11;-4;-20.79;-3.65;61.5;19.30;77248;2836.861;-1758.157;1;319;-50;-41.9;43.0;43.3;17;17.1;28.6;0.0;
15/02/2025 03:20:48;100;0;321.66;-4;-20.23;-3.55;64.0;19.30;77250;2836.864;-1758.160;1;319;-50;-41.9;43.0;43.4;17;17.1;28.5;0.0;
15/02/2025 03:21:08;100;0;320.88;-4;-20.61;-3.67;66.4;19.40;77258;2836.867;-1758.163;1;319;-50;-43.5;43.0;43.3;17;17.1;28.6;0.0;
15/02/2025 03:21:28;100;0;321.70;-4;-20.58;-3.65;68.9;19.40;77271;2836.871;-1758.165;1;319;-50;-43.5;43.0;43.3;17;17.1;28.6;0.0;
15/02/2025 03:21:48;100;0;320.62;-4;-20.34;-3.65;71.4;19.40;77266;2836.874;-1758.168;1;319;-50;-43.5;43.0;43.4;15;14.9;28.5;0.0;
15/02/2025 03:22:08;100;0;320.45;-4;-20.27;-4.86;73.9;19.40;77262;2836.878;-1758.171;1;319;-50;-43.5;43.0;43.4;15;14.4;28.6;0.0;
15/02/2025 03:22:28;100;0;320.66;-4;-20.64;-4.90;76.4;19.40;77276;2836.881;-1758.174;1;319;-50;-41.9;43.0;43.3;15;14.4;28.6;0.0;
15/02/2025 03:22:48;100;0;321.16;-4;-20.39;-4.87;78.9;19.40;77264;2836.884;-1758.176;1;319;-50;-43.5;43.0;43.3;15;14.4;28.6;0.0;
15/02/2025 03:23:08;100;0;320.97;-4;-20.43;-4.83;81.4;19.40;77272;2836.888;-1758.179;1;318;-50;-43.5;43.0;43.3;17;17.1;28.6;0.0;
15/02/2025 03:23:29;100;0;322.73;-4;-20.56;-3.31;84.0;19.40;77272;2836.891;-1758.182;1;318;-50;-41.9;43.0;43.3;17;17.6;28.5;0.0;
15/02/2025 03:23:49;100;0;323.32;-4;-20.37;-3.37;86.6;19.40;77272;2836.895;-1758.185;1;318;-50;-43.5;43.0;43.3;19;19.0;28.6;0.0;
15/02/2025 03:24:09;100;0;321.51;-4;-20.51;-2.50;89.1;19.40;77264;2836.898;-1758.187;1;318;-50;-41.9;43.0;43.3;17;17.1;28.6;0.0;
15/02/2025 03:24:29;100;0;321.18;-4;-20.81;-3.88;91.7;19.40;77284;2836.902;-1758.190;1;318;-50;-41.9;43.0;43.4;17;16.7;28.6;0.0;
15/02/2025 03:24:49;100;0;319.46;-4;-20.56;-3.81;94.3;19.40;77291;2836.905;-1758.193;1;318;-50;-41.9;43.0;43.3;17;16.7;28.6;0.0;
15/02/2025 03:25:09;100;0;317.86;-4;-20.32;-3.85;96.8;19.40;77285;2836.908;-1758.196;1;318;-50;-43.5;43.0;43.4;15;14.4;28.6;0.0;
15/02/2025 03:25:29;100;0;317.71;-4;-20.25;-5.13;99.3;19.40;77288;2836.912;-1758.199;1;318;-50;-43.5;43.0;43.4;15;14.4;28.6;0.0;
15/02/2025 03:25:49;100;0;316.98;-4;-20.46;-5.09;101.9;19.40;77294;2836.915;-1758.202;1;318;-50;-41.9;43.0;43.3;15;14.4;28.6;0.0;
15/02/2025 03:26:09;100;0;314.34;-4;-20.67;-5.05;104.3;19.40;77288;2836.918;-1758.205;1;318;-50;-45.2;43.0;43.4;15;14.4;28.6;0.0;
15/02/2025 03:26:29;100;0;314.26;-4;-20.28;-5.07;106.9;19.40;77294;2836.921;-1758.208;1;318;-50;-41.9;43.0;43.3;15;14.4;28.6;0.0;
15/02/2025 03:26:49;100;0;315.00;-4;-21.33;-4.95;109.6;19.40;77285;2836.925;-1758.211;1;317;-50;-43.5;43.0;43.4;15;14.4;28.6;0.0;
15/02/2025 03:27:09;100;0;308.52;-4;-20.20;-5.09;112.4;19.40;77251;2836.928;-1758.215;1;318;-50;-43.5;43.0;43.4;15;14.0;28.5;0.0;
15/02/2025 03:27:29;100;0;302.55;-4;-20.10;-5.25;114.9;19.40;77253;2836.931;-1758.218;1;318;-50;-41.9;43.0;43.3;12;11.7;28.5;0.0;
15/02/2025 03:27:49;100;0;297.33;-4;-19.89;-6.31;117.5;19.40;77240;2836.933;-1758.222;1;318;-50;-43.5;43.0;43.3;6;5.9;28.6;0.0;
15/02/2025 03:28:09;100;0;300.31;-4;-19.50;-9.40;120.0;19.40;77217;2836.936;-1758.226;1;318;-50;-41.9;43.0;43.3;10;9.9;28.6;0.0;
15/02/2025 03:28:29;100;0;305.01;-4;-19.77;-6.84;122.6;19.40;77204;2836.939;-1758.229;1;318;-50;-41.9;43.0;43.4;14;14.0;28.6;0.0;
15/02/2025 03:28:49;100;0;310.18;-4;-20.24;-4.88;125.3;19.40;77186;2836.942;-1758.233;1;318;-50;-43.5;43.0;43.3;14;14.4;28.6;0.0;
15/02/2025 03:29:09;100;0;313.26;-4;-19.90;-4.86;128.0;19.30;77176;2836.945;-1758.236;1;318;-50;-43.5;43.0;43.3;14;14.4;28.6;0.0;
15/02/2025 03:29:29;100;0;314.12;-4;-19.80;-4.97;130.7;19.30;77165;2836.948;-1758.239;1;318;-50;-43.5;43.0;43.3;14;14.4;28.5;0.0;
15/02/2025 03:29:49;100;0;316.12;-4;-20.11;-4.90;133.2;19.30;77153;2836.952;-1758.243;1;318;-50;-43.5;43.0;43.3;14;14.4;28.6;0.0;
15/02/2025 03:30:09;100;0;317.35;-4;-20.19;-4.86;135.8;19.30;77137;2836.955;-1758.246;1;318;-50;-43.5;43.0;43.4;14;14.4;28.5;0.0;
15/02/2025 03:30:29;100;0;320.00;-4;-19.96;-4.85;138.4;19.30;77112;2836.959;-1758.249;1;318;-50;-43.5;43.0;43.3;16;15.8;28.6;0.0;
15/02/2025 03:30:49;100;0;323.20;-4;-19.59;-4.04;140.9;19.20;77100;2836.962;-1758.251;1;318;-50;-43.5;43.0;43.3;19;19.0;28.5;0.0;
15/02/2025 03:31:09;100;0;324.01;-4;-19.57;-2.49;143.2;19.20;77084;2836.965;-1758.254;1;318;-50;-41.9;43.0;43.4;19;19.4;28.5;0.0;
15/02/2025 03:31:29;100;0;323.81;-4;-19.56;-2.47;145.2;19.20;77071;2836.968;-1758.256;1;317;-50;-41.9;43.0;43.3;22;22.1;28.6;0.0;
15/02/2025 03:31:49;100;0;319.38;-4;-19.87;-0.87;147.4;19.10;77050;2836.971;-1758.258;1;317;-50;-43.5;43.0;43.4;17;17.1;28.5;0.0;
15/02/2025 03:32:09;100;0;313.67;-4;-19.64;-3.78;149.5;19.10;77042;2836.974;-1758.261;1;317;-50;-41.9;43.0;43.3;15;14.9;28.6;0.0;
15/02/2025 03:32:29;100;0;310.77;-4;-19.39;-4.87;151.7;19.10;77038;2836.977;-1758.264;1;317;-50;-41.9;43.0;43.3;15;14.4;28.6;0.0;
15/02/2025 03:32:49;100;0;307.90;-4;-19.32;-4.83;153.7;19.00;77028;2836.980;-1758.267;1;317;-70;-69.4;43.0;43.4;15;14.4;28.6;0.0;
15/02/2025 03:33:09;100;0;306.99;-4;-18.85;-4.80;155.9;19.00;77082;2836.982;-1758.270;1;317;-70;-72.6;43.4;43.3;15;14.4;28.6;0.0;
15/02/2025 03:33:29;100;0;306.73;-4;-18.80;-4.78;158.1;19.00;77077;2836.985;-1758.273;1;317;-70;-72.6;43.7;43.7;15;14.4;28.6;0.0;
15/02/2025 03:33:49;100;0;308.18;-4;-20.52;-4.67;160.5;19.00;77056;2836.988;-1758.276;1;317;-70;-75.8;43.7;44.0;15;14.4;28.6;0.0;
15/02/2025 03:34:09;100;0;309.30;-4;-20.68;-4.65;163.1;18.90;77037;2836.991;-1758.280;1;317;-70;-72.6;43.7;44.0;15;14.4;28.6;0.0;
15/02/2025 03:34:29;100;0;305.96;-4;-20.56;-4.69;165.7;18.90;77022;2836.994;-1758.283;1;317;-70;-72.6;43.7;43.9;15;14.4;28.6;0.0;
15/02/2025 03:34:49;100;0;306.48;-4;-20.71;-4.67;168.3;18.80;77009;2836.997;-1758.287;1;318;-70;-74.2;43.7;44.0;15;14.4;28.6;0.0;
15/02/2025 03:35:09;100;0;301.17;-4;-20.16;-4.77;170.8;18.80;76988;2836.999;-1758.290;1;318;-70;-71.0;43.7;44.0;10;9.5;28.5;0.0;
15/02/2025 03:35:29;100;0;302.12;-4;-19.57;-7.31;173.4;18.80;76961;2837.002;-1758.294;1;318;-70;-72.6;43.7;44.0;12;12.6;28.6;0.0;
15/02/2025 03:35:49;100;0;303.49;-4;-19.96;-5.53;175.7;18.70;76943;2837.005;-1758.297;1;319;-70;-72.6;43.7;44.0;12;13.1;28.6;0.0;
15/02/2025 03:36:09;100;0;304.59;-4;-19.94;-5.52;178.2;18.70;76923;2837.007;-1758.301;1;319;-70;-72.6;43.7;44.0;12;13.1;28.5;0.0;
15/02/2025 03:36:29;100;0;304.97;-4;-20.08;-5.53;180.6;18.60;76910;2837.010;-1758.304;1;319;-70;-72.6;43.7;44.0;12;13.1;28.5;0.0;
15/02/2025 03:36:49;100;0;304.66;-4;-20.26;-5.50;183.1;18.60;76901;2837.013;-1758.307;1;320;-70;-72.6;43.7;44.0;12;13.1;28.6;0.0;
15/02/2025 03:37:09;100;0;305.47;-4;-20.41;-5.49;185.8;18.60;76899;2837.016;-1758.311;1;320;-70;-72.6;43.7;44.0;12;12.6;28.6;0.0;
15/02/2025 03:37:29;100;0;307.74;-4;-20.34;-5.48;188.7;18.50;76886;2837.019;-1758.315;1;320;-70;-72.6;43.7;44.0;12;13.1;28.6;0.0;
15/02/2025 03:37:49;100;0;310.17;-4;-20.43;-5.48;191.5;18.50;76869;2837.022;-1758.319;1;321;-70;-72.6;43.7;44.0;12;13.1;28.5;0.0;
15/02/2025 03:38:09;100;0;308.96;-4;-20.10;-5.48;194.4;18.40;76865;2837.025;-1758.322;1;321;-70;-74.2;43.7;44.0;12;13.1;28.5;0.0;
15/02/2025 03:38:29;100;0;308.49;-4;-19.95;-5.45;197.1;18.40;76839;2837.029;-1758.326;1;322;-70;-72.6;43.7;44.0;12;13.1;28.6;0.0;
15/02/2025 03:38:49;100;0;308.67;-4;-19.91;-5.52;199.9;18.30;76844;2837.032;-1758.330;1;322;-70;-72.6;43.7;44.0;12;13.1;28.5;0.0;
15/02/2025 03:39:09;100;0;306.70;-4;-20.06;-5.57;202.7;18.30;76829;2837.035;-1758.333;1;323;-70;-74.2;43.7;44.0;9;8.6;28.5;0.0;
15/02/2025 03:39:29;100;0;309.48;-4;-19.81;-7.68;205.7;18.20;76812;2837.038;-1758.337;1;324;-70;-72.6;43.7;44.0;9;8.6;28.6;0.0;
15/02/2025 03:39:49;100;0;312.00;-4;-19.87;-7.66;208.7;18.20;76793;2837.042;-1758.341;1;325;-70;-74.2;43.7;44.0;11;10.8;28.6;0.0;
15/02/2025 03:40:09;100;0;314.59;-4;-20.20;-6.21;211.8;18.20;76790;2837.046;-1758.345;1;326;-70;-72.6;43.7;44.0;11;11.7;28.5;0.0;
15/02/2025 03:40:29;100;0;312.79;-4;-20.37;-6.16;215.0;18.10;76783;2837.049;-1758.349;1;327;-70;-72.6;43.7;44.0;9;9.0;28.6;0.0;
15/02/2025 03:40:49;100;0;309.59;-4;-20.02;-7.38;218.5;18.10;76775;2837.053;-1758.353;1;330;-70;-74.2;43.7;44.0;-2;-1.8;28.6;0.0;
15/02/2025 03:41:09;100;0;306.86;-4;-19.73;-12.98;221.8;18.00;76756;2837.057;-1758.357;1;334;-70;-72.6;43.7;44.0;-15;-14.9;28.6;0.0;
15/02/2025 03:41:29;100;0;309.45;-4;-18.73;-19.43;225.1;18.00;76747;2837.060;-1758.362;1;341;-70;-72.6;44.1;44.0;-23;-23.0;28.6;0.0;
15/02/2025 03:41:49;100;0;318.27;-4;-18.59;-23.47;228.2;17.90;76740;2837.064;-1758.365;1;351;-70;-72.6;44.5;44.8;-29;-28.9;28.5;0.0;
15/02/2025 03:42:09;100;0;328.61;-4;-19.88;-26.16;231.5;17.90;76724;2837.069;-1758.368;1;13;-70;-71.0;44.5;44.8;-50;-50.1;28.5;0.0;
15/02/2025 03:42:29;100;0;341.02;-4;-19.89;-35.99;234.9;17.90;76724;2837.074;-1758.370;1;88;-70;-72.6;44.5;44.8;-70;-69.9;28.5;0.0;
15/02/2025 03:42:49;100;0;353.30;-4;-20.26;-45.55;238.4;17.80;76714;2837.079;-1758.371;1;144;-70;-72.6;44.5;44.8;-70;-69.9;28.5;0.0;
15/02/2025 03:43:09;100;0;6.17;-4;-20.08;-45.59;241.7;17.80;76708;2837.085;-1758.371;1;160;-70;-72.6;44.5;44.8;-70;-69.9;28.6;0.0;
15/02/2025 03:43:29;100;0;17.62;-4;-20.29;-45.36;245.3;17.70;76698;2837.090;-1758.370;1;170;-70;-72.6;44.5;44.8;-70;-69.9;28.5;0.0;
15/02/2025 03:43:49;100;0;29.80;-4;-20.38;-45.53;248.8;17.70;76694;2837.095;-1758.368;1;177;-70;-72.6;44.5;44.8;-70;-69.9;28.6;0.0;
15/02/2025 03:44:09;100;0;42.47;-4;-20.20;-45.63;252.4;17.70;76682;2837.099;-1758.365;1;184;-70;-72.6;44.5;44.8;-70;-69.9;28.5;0.0;
15/02/2025 03:44:29;100;0;54.70;-4;-20.19;-45.47;256.0;17.60;76678;2837.103;-1758.361;1;190;-70;-72.6;44.5;44.8;-70;-69.9;28.6;0.0;
15/02/2025 03:44:49;100;0;67.72;-4;-20.16;-45.56;259.5;17.60;76663;2837.105;-1758.357;1;195;-70;-74.2;44.5;44.8;-70;-69.9;28.6;0.0;
15/02/2025 03:45:09;100;0;80.27;-4;-20.08;-45.39;263.0;17.60;76660;2837.107;-1758.353;1;201;-70;-72.6;44.5;44.8;-70;-69.9;28.5;0.0;
15/02/2025 03:45:29;100;0;91.53;-4;-20.23;-45.36;266.4;17.50;76656;2837.108;-1758.348;1;206;-70;-74.2;44.5;44.8;-70;-70.4;28.6;0.0;
15/02/2025 03:45:49;100;0;102.09;-4;-20.76;-45.50;269.9;17.50;76638;2837.108;-1758.344;1;211;-70;-72.6;44.5;44.8;-70;-69.9;28.6;0.0;
15/02/2025 03:46:09;100;0;112.87;-4;-20.65;-45.54;273.5;17.40;76627;2837.107;-1758.340;1;216;-70;-72.6;44.5;44.8;-70;-69.9;28.6;0.0;
15/02/2025 03:46:29;100;0;124.52;-4;-20.47;-45.62;277.0;17.40;76628;2837.105;-1758.336;1;221;-70;-74.2;44.5;44.8;-70;-69.9;28.5;0.0;
15/02/2025 03:46:49;100;0;136.72;-4;-20.29;-45.55;280.3;17.40;76616;2837.103;-1758.333;1;226;-70;-72.6;44.5;44.8;-70;-69.9;28.5;0.0;
15/02/2025 03:47:09;100;0;149.99;-4;-20.36;-45.53;283.7;17.30;76599;2837.100;-1758.331;1;230;-70;-72.6;44.5;44.8;-66;-65.9;28.6;0.0;
15/02/2025 03:47:29;100;0;162.57;-4;-20.04;-43.00;287.2;17.30;76604;2837.097;-1758.330;1;235;-70;-74.2;44.5;44.8;-57;-56.9;28.6;0.0;
15/02/2025 03:47:49;100;0;175.96;-4;-20.97;-39.01;290.6;17.20;76599;2837.094;-1758.330;1;238;-70;-74.2;44.5;44.8;-43;-42.4;28.5;0.0;
15/02/2025 03:48:09;100;0;190.81;-4;-19.66;-31.68;293.8;17.20;76589;2837.091;-1758.331;1;242;-70;-72.6;44.5;44.8;-28;-27.5;28.5;0.0;
15/02/2025 03:48:29;100;0;202.90;-4;-20.20;-24.37;297.1;17.10;76577;2837.088;-1758.334;1;244;-70;-72.6;44.5;44.8;-15;-14.9;28.5;0.0;
15/02/2025 03:48:49;100;0;216.08;-4;-20.69;-18.22;300.3;17.10;76575;2837.086;-1758.337;1;246;-70;-74.2;44.5;44.9;5;5.0;28.5;0.0;
15/02/2025 03:49:09;100;0;223.96;-4;-21.66;-9.24;303.6;17.00;76570;2837.084;-1758.341;1;247;-70;-72.6;44.5;44.9;12;12.2;28.5;0.0;
15/02/2025 03:49:29;100;0;228.56;-4;-21.75;-5.45;307.0;17.00;76568;2837.082;-1758.344;1;248;-70;-74.2;44.5;44.9;14;14.0;28.5;0.0;
15/02/2025 03:49:49;100;0;226.10;-4;-21.80;-4.71;310.2;17.00;76551;2837.080;-1758.348;1;249;-70;-72.6;44.5;44.9;14;14.4;28.5;0.0;
15/02/2025 03:50:09;100;0;222.88;-4;-22.38;-4.66;313.4;16.90;76533;2837.079;-1758.351;1;252;-70;-74.2;43.8;43.6;8;7.7;28.6;0.0;
15/02/2025 03:50:29;100;0;222.85;-4;-20.28;-8.14;316.6;16.90;76530;2837.076;-1758.355;1;257;-70;-74.2;43.8;43.6;-3;-3.2;28.6;0.0;
15/02/2025 03:50:49;100;0;227.13;-4;-19.21;-13.78;319.6;16.80;76520;2837.075;-1758.359;1;265;-70;-74.2;43.8;43.7;-10;-9.9;28.6;0.0;
15/02/2025 03:51:09;100;0;233.43;-4;-18.71;-17.10;322.5;16.80;76505;2837.073;-1758.363;1;281;-70;-74.2;44.2;44.5;-26;-26.6;28.5;0.0;
15/02/2025 03:51:29;100;0;242.52;-4;-19.43;-25.13;325.5;16.80;76495;2837.073;-1758.368;1;16;-70;-72.6;44.2;44.5;-70;-69.9;28.6;0.0;
15/02/2025 03:51:49;100;0;253.97;-4;-18.67;-45.53;328.6;16.70;76497;2837.072;-1758.372;1;70;-70;-74.2;44.6;44.6;70;69.9;28.5;0.0;
15/02/2025 03:52:09;100;0;254.23;-4;-22.89;23.15;331.4;16.70;76482;2837.072;-1758.376;1;79;-70;-75.8;43.7;43.7;70;70.4;28.5;0.0;
15/02/2025 03:52:29;100;0;240.54;-4;-22.24;23.16;334.3;16.60;76468;2837.072;-1758.380;1;78;-70;-75.8;43.0;43.0;70;70.4;28.5;0.0;
15/02/2025 03:52:49;100;0;229.36;-4;-20.57;22.90;337.1;16.60;76461;2837.070;-1758.384;1;76;-70;-75.8;43.0;42.9;70;70.4;28.6;0.0;
15/02/2025 03:53:09;100;0;219.32;-4;-20.47;23.16;339.9;16.50;76455;2837.068;-1758.387;1;72;-70;-75.8;43.0;42.9;70;70.4;28.6;0.0;
15/02/2025 03:53:29;100;0;207.88;-4;-19.67;23.17;342.5;16.50;76449;2837.066;-1758.389;1;69;-70;-75.8;43.0;42.9;70;70.4;28.6;0.0;
15/02/2025 03:53:49;100;0;195.63;-4;-20.12;23.25;345.1;16.40;76437;2837.064;-1758.391;1;65;-70;-75.8;43.0;42.9;70;70.4;28.6;0.0;
15/02/2025 03:54:09;100;0;183.25;-4;-20.28;23.28;347.7;16.40;76423;2837.062;-1758.391;1;60;-70;-75.8;43.0;42.9;70;70.4;28.5;0.0;
15/02/2025 03:54:29;100;0;171.04;-4;-19.83;23.09;350.4;16.30;76417;2837.059;-1758.391;1;55;-70;-75.8;43.0;42.9;70;70.4;28.6;0.0;
15/02/2025 03:54:49;100;0;159.49;-4;-19.58;23.22;352.8;16.30;76424;2837.057;-1758.391;1;51;-70;-75.8;43.0;42.9;70;70.4;28.6;0.0;
15/02/2025 03:55:09;100;0;146.23;-4;-19.85;23.07;355.1;16.30;76409;2837.056;-1758.389;1;47;-70;-75.8;43.0;42.9;70;70.4;28.6;0.0;
15/02/2025 03:55:29;100;0;134.69;-4;-19.67;22.94;357.6;16.20;76395;2837.055;-1758.387;1;42;-70;-75.8;43.0;42.9;70;70.4;28.6;0.0;
15/02/2025 03:55:49;100;0;123.56;-4;-20.17;23.16;359.9;16.20;76402;2837.054;-1758.385;1;38;-70;-75.8;43.0;42.9;70;70.4;28.5;0.0;
15/02/2025 03:56:09;100;0;111.79;-4;-19.93;23.13;362.2;16.10;76380;2837.054;-1758.382;1;33;-70;-75.8;43.0;42.9;70;70.4;28.6;0.0;
15/02/2025 03:56:29;100;0;100.78;-4;-19.39;23.20;364.5;16.10;76376;2837.054;-1758.379;1;28;-70;-75.8;43.0;42.7;70;70.4;28.5;0.0;
15/02/2025 03:56:49;100;0;90.14;-4;-19.68;22.75;366.8;16.00;76373;2837.055;-1758.376;1;23;-70;-75.8;43.0;42.9;70;70.4;28.6;0.0;
15/02/2025 03:57:09;100;0;78.00;-4;-20.28;22.95;369.0;16.00;76360;2837.057;-1758.373;1;18;-70;-75.8;43.0;42.9;70;70.4;28.5;0.0;
15/02/2025 03:57:30;100;0;66.44;-4;-19.86;23.05;371.3;16.00;76354;2837.059;-1758.371;1;13;-70;-75.8;43.0;42.7;62;61.8;28.5;0.0;
15/02/2025 03:57:50;100;0;56.45;-4;-19.39;18.08;373.4;15.90;76350;2837.061;-1758.369;1;7;-70;-77.4;43.0;42.7;59;58.7;28.6;0.0;
15/02/2025 03:58:10;100;0;47.68;-4;-19.16;16.87;375.6;15.90;76338;2837.064;-1758.367;1;359;-70;-74.2;43.0;42.9;62;61.8;28.5;0.0;
15/02/2025 03:58:30;100;0;38.72;-4;-19.51;18.84;377.8;15.90;76341;2837.067;-1758.365;1;347;-70;-75.8;43.0;42.7;70;69.9;28.6;0.0;
15/02/2025 03:58:50;100;0;29.76;-4;-19.68;22.88;380.0;15.80;76328;2837.071;-1758.364;1;322;-70;-75.8;43.0;42.7;70;69.9;28.5;0.0;
15/02/2025 03:59:10;100;0;21.18;-4;-20.00;23.06;382.2;15.80;76321;2837.074;-1758.363;1;264;-70;-75.8;43.0;42.7;70;69.9;28.6;0.0;
15/02/2025 03:59:30;100;0;10.48;-4;-19.82;22.84;384.5;15.80;76325;2837.078;-1758.363;1;217;-70;-75.8;43.0;42.7;70;69.9;28.6;0.0;
15/02/2025 03:59:50;100;0;1.20;-4;-20.18;23.07;386.8;15.70;76324;2837.082;-1758.364;1;199;-70;-77.4;43.0;42.7;70;69.9;28.6;0.0;
15/02/2025 04:00:10;100;0;350.97;-4;-19.66;23.15;389.1;15.70;76323;2837.086;-1758.365;1;189;-70;-77.4;43.0;42.7;70;69.9;28.5;0.0;
15/02/2025 04:00:30;100;0;341.94;-4;-20.10;22.98;391.3;15.70;76319;2837.090;-1758.366;1;183;-70;-75.8;43.0;42.7;70;69.9;28.6;0.0;
15/02/2025 04:00:50;100;0;331.61;-4;-20.03;23.09;393.5;15.60;76312;2837.093;-1758.368;1;177;-70;-75.8;43.0;42.9;70;69.9;28.6;0.0;
15/02/2025 04:01:10;100;0;322.25;-4;-20.21;22.81;395.7;15.60;76303;2837.096;-1758.371;1;172;-70;-77.4;43.0;42.7;70;69.9;28.5;0.0;
15/02/2025 04:01:30;100;0;313.04;-4;-20.23;23.12;398.0;15.60;76296;2837.099;-1758.374;1;167;-70;-75.8;43.0;42.7;70;69.9;28.5;0.0;
15/02/2025 04:01:50;100;0;301.83;-4;-20.33;22.97;400.3;15.50;76283;2837.102;-1758.377;1;162;-70;-75.8;43.0;42.7;70;69.9;28.6;0.0;
15/02/2025 04:02:10;100;0;292.57;-4;-20.02;23.55;402.6;15.50;76268;2837.104;-1758.381;1;158;-70;-75.8;43.0;42.7;70;69.9;28.6;0.0;
15/02/2025 04:02:30;100;0;281.94;-4;-19.82;23.24;404.7;15.50;76261;2837.105;-1758.384;1;154;-70;-75.8;43.0;42.7;70;69.9;28.6;0.0;
15/02/2025 04:02:50;100;0;270.71;-4;-19.25;23.04;406.8;15.40;76268;2837.106;-1758.388;1;151;-70;-75.8;43.0;42.7;70;69.9;28.6;0.0;
15/02/2025 04:03:10;100;0;258.65;-4;-19.60;23.02;408.7;15.40;76258;2837.107;-1758.391;1;147;-90;-91.9;43.0;42.7;70;69.9;28.5;0.0;
15/02/2025 04:03:30;100;0;247.01;-4;-19.02;22.84;410.7;15.40;76280;2837.107;-1758.394;1;144;-110;-111.3;43.0;42.9;70;69.9;28.6;0.0;
15/02/2025 04:03:50;100;0;234.53;-4;-18.38;22.93;412.7;15.30;76312;2837.106;-1758.397;1;140;-110;-112.9;43.5;43.7;70;69.9;28.6;0.0;
15/02/2025 04:04:10;100;0;222.73;-4;-19.61;22.94;414.9;15.30;76318;2837.105;-1758.400;1;137;-110;-114.5;43.5;43.9;70;70.4;28.6;0.0;
15/02/2025 04:04:30;100;0;208.75;-4;-19.85;22.87;417.1;15.30;76322;2837.103;-1758.402;1;134;-110;-116.1;43.5;43.9;70;69.9;28.5;0.0;
15/02/2025 04:04:50;100;0;196.84;-4;-19.95;22.96;419.4;15.20;76319;2837.101;-1758.403;1;131;-110;-119.4;43.5;43.9;70;70.4;28.5;0.0;
15/02/2025 04:05:10;100;0;186.68;-4;-20.42;22.98;421.8;15.20;76317;2837.099;-1758.404;1;128;-110;-117.7;43.5;43.9;70;69.9;28.5;0.0;
15/02/2025 04:05:30;100;0;175.52;-4;-20.73;23.22;424.3;15.20;76312;2837.097;-1758.404;1;125;-110;-121.0;43.5;43.9;62;61.8;28.6;0.0;
15/02/2025 04:05:50;100;0;164.71;-4;-20.42;18.65;427.0;15.10;76303;2837.095;-1758.404;1;123;-110;-117.7;43.5;43.9;52;51.9;28.6;0.0;
15/02/2025 04:06:10;100;0;154.80;-4;-20.17;13.31;429.5;15.10;76296;2837.093;-1758.403;1;121;-110;-119.4;43.5;43.9;36;36.1;28.6;0.0;
15/02/2025 04:06:30;100;0;148.71;-4;-19.29;5.90;431.9;15.10;76294;2837.091;-1758.401;1;120;-110;-117.7;43.5;44.0;27;27.1;28.6;0.0;
15/02/2025 04:06:50;100;0;149.88;-4;-19.74;1.29;434.4;15.10;76285;2837.089;-1758.400;1;118;-110;-119.4;43.5;43.9;32;32.0;28.5;0.0;
15/02/2025 04:07:10;100;0;149.30;-4;-20.24;4.08;436.8;15.00;76283;2837.088;-1758.399;1;116;-110;-119.4;43.5;43.9;32;32.0;28.6;0.0;
15/02/2025 04:07:30;100;0;142.01;-4;-20.59;4.84;439.5;15.00;76278;2837.086;-1758.397;1;114;-110;-119.4;43.5;44.0;24;23.5;28.5;0.0;
15/02/2025 04:07:50;100;0;140.20;-4;-20.02;-0.32;442.2;15.00;76277;2837.084;-1758.395;1;113;-110;-122.6;43.5;44.0;24;23.5;28.6;0.0;
15/02/2025 04:08:10;100;0;138.91;-4;-20.02;-0.33;445.0;15.00;76264;2837.082;-1758.393;1;111;-110;-119.4;43.5;43.9;24;23.5;28.5;0.0;
15/02/2025 04:08:30;100;0;136.17;-4;-19.57;-0.20;447.6;14.90;76273;2837.081;-1758.390;1;109;-110;-119.4;43.5;44.0;22;22.1;28.5;0.0;
15/02/2025 04:08:50;100;0;133.03;-4;-19.59;-0.73;450.5;14.90;76266;2837.079;-1758.388;1;106;-110;-119.4;43.5;43.9;22;22.1;28.6;0.0;
15/02/2025 04:09:10;100;0;130.01;-4;-20.00;-0.75;453.4;14.90;76265;2837.078;-1758.385;1;104;-110;-121.0;43.5;43.9;20;19.9;28.5;0.0;
15/02/2025 04:09:30;100;0;126.30;-4;-19.24;-1.89;456.4;14.90;76257;2837.077;-1758.382;1;101;-110;-119.4;43.5;44.0;20;19.9;28.6;0.0;
15/02/2025 04:09:50;100;0;122.17;-4;-19.09;-1.91;459.2;14.80;76238;2837.076;-1758.379;1;98;-110;-119.4;43.5;44.0;18;18.1;28.6;0.0;
15/02/2025 04:10:10;100;0;118.06;-4;-19.10;-2.91;461.9;14.80;76244;2837.075;-1758.376;1;96;-110;-119.4;43.5;44.0;16;15.8;28.6;0.0;
15/02/2025 04:10:30;100;0;116.11;-4;-18.90;-4.07;464.7;14.80;76235;2837.074;-1758.372;1;91;-110;-119.4;43.9;44.0;18;18.1;28.6;0.0;
15/02/2025 04:10:50;100;0;114.58;-4;-19.03;-2.45;467.5;14.80;76228;2837.074;-1758.369;1;75;-110;-119.4;43.9;43.9;37;37.5;28.5;0.0;
15/02/2025 04:11:10;100;0;103.63;-4;-19.56;6.80;470.3;14.70;76212;2837.074;-1758.365;1;286;-110;-119.4;43.9;43.9;-70;-69.9;28.6;0.0;
15/02/2025 04:11:30;100;0;109.42;-4;-16.71;-45.10;473.2;14.70;76203;2837.073;-1758.362;1;279;-110;-119.4;44.9;44.9;-70;-69.9;28.5;0.0;
15/02/2025 04:11:50;100;0;123.78;-4;-18.48;-45.28;476.0;14.70;76206;2837.072;-1758.358;1;285;-110;-117.7;45.3;45.4;-70;-69.9;28.5;0.0;
15/02/2025 04:12:10;100;0;138.53;-4;-19.95;-45.03;479.0;14.70;76188;2837.070;-1758.356;1;292;-110;-119.4;45.3;45.7;-70;-69.9;28.6;0.0;
15/02/2025 04:12:30;100;0;152.56;-4;-19.92;-45.13;482.1;14.60;76191;2837.068;-1758.354;1;300;-110;-119.4;45.3;45.7;-70;-69.9;28.6;0.0;
15/02/2025 04:12:50;100;0;166.62;-4;-20.02;-45.07;485.2;14.60;76176;2837.065;-1758.354;1;309;-110;-119.4;45.3;45.7;-70;-69.9;28.5;0.0;
15/02/2025 04:13:10;100;0;180.53;-4;-19.97;-44.97;488.3;14.60;76173;2837.062;-1758.354;1;318;-110;-119.4;45.3;45.7;-70;-69.9;28.6;0.0;
15/02/2025 04:13:30;100;0;193.14;-4;-19.88;-45.06;491.4;14.60;76164;2837.059;-1758.356;1;328;-110;-119.4;45.3;45.7;-70;-69.9;28.6;0.0;
15/02/2025 04:13:50;100;0;205.70;-4;-19.84;-45.05;494.6;14.60;76167;2837.056;-1758.358;1;337;-110;-119.4;45.3;45.7;-70;-69.9;28.6;0.0;
15/02/2025 04:14:10;100;0;218.84;-4;-19.89;-44.85;497.5;14.50;76152;2837.054;-1758.362;1;347;-110;-119.4;45.3;45.8;-70;-69.9;28.6;0.0;
15/02/2025 04:14:30;100;0;231.38;-4;-19.77;-45.02;500.5;14.50;76148;2837.052;-1758.365;1;356;-110;-117.7;45.3;45.7;-70;-69.9;28.6;0.0;
15/02/2025 04:14:50;100;0;244.63;-4;-19.77;-45.02;503.5;14.50;76148;2837.052;-1758.370;1;6;-110;-119.4;45.3;45.7;-70;-69.9;28.5;0.0;
15/02/2025 04:15:10;100;0;256.34;-4;-20.14;-45.07;506.5;14.40;76132;2837.052;-1758.375;1;17;-110;-119.4;45.3;45.7;-70;-69.9;28.5;0.0;
15/02/2025 04:15:30;100;0;269.45;-4;-19.69;-45.07;509.4;14.40;76131;2837.053;-1758.379;1;27;-110;-119.4;45.3;45.7;-70;-69.9;28.5;0.0;
15/02/2025 04:15:50;100;0;283.07;-4;-19.64;-45.14;512.3;14.40;76126;2837.055;-1758.384;1;37;-110;-119.4;45.3;45.8;-70;-69.9;28.5;0.0;
15/02/2025 04:16:10;100;0;295.52;-4;-19.92;-45.18;515.1;14.40;76113;2837.057;-1758.388;1;47;-110;-119.4;45.3;45.7;-70;-69.9;28.5;0.0;
15/02/2025 04:16:30;100;0;308.29;-4;-20.72;-45.20;517.8;14.40;76120;2837.060;-1758.392;1;57;-110;-117.7;45.3;45.7;-70;-69.9;28.6;0.0;
15/02/2025 04:16:50;100;0;319.56;-4;-19.57;-45.04;520.7;14.30;76104;2837.064;-1758.395;1;67;-110;-119.4;45.3;45.8;-70;-69.9;28.5;0.0;
15/02/2025 04:17:10;100;0;332.24;-4;-19.52;-44.94;523.5;14.30;76096;2837.068;-1758.397;1;77;-110;-119.4;45.3;45.7;-70;-69.9;28.6;0.0;
15/02/2025 04:17:30;100;0;344.42;-4;-19.79;-45.28;526.1;14.30;76087;2837.072;-1758.399;1;86;-110;-119.4;45.3;45.7;-70;-69.9;28.6;0.0;
15/02/2025 04:17:50;100;0;357.79;-4;-19.78;-45.08;528.8;14.30;76080;2837.076;-1758.399;1;95;-110;-119.4;45.3;45.7;-70;-69.9;28.5;0.0;
15/02/2025 04:18:10;100;0;9.56;-4;-20.18;-45.27;531.5;14.20;76078;2837.081;-1758.399;1;104;-110;-119.4;45.3;45.7;-70;-69.9;28.5;0.0;
15/02/2025 04:18:30;100;0;21.47;-4;-19.61;-44.75;534.3;14.20;76085;2837.085;-1758.398;1;112;-110;-119.4;45.3;45.7;-70;-69.9;28.6;0.0;
15/02/2025 04:18:50;100;0;34.06;-4;-19.47;-44.71;537.0;14.20;76072;2837.089;-1758.396;1;120;-110;-119.4;45.3;45.7;-70;-69.9;28.5;0.0;
15/02/2025 04:19:10;100;0;43.66;-4;-20.17;-44.85;539.5;14.20;76059;2837.092;-1758.394;1;127;-110;-117.7;45.3;45.7;-70;-69.9;28.5;0.0;
15/02/2025 04:19:30;100;0;56.86;-4;-19.62;-45.01;542.2;14.10;76044;2837.095;-1758.391;1;135;-110;-119.4;45.3;45.8;-70;-69.9;28.6;0.0;
15/02/2025 04:19:50;100;0;70.21;-4;-19.82;-45.04;544.9;14.10;76028;2837.097;-1758.388;1;141;-110;-119.4;45.3;45.7;-70;-69.9;28.6;0.0;
15/02/2025 04:20:10;100;0;82.85;-4;-19.59;-44.99;547.6;14.10;76021;2837.099;-1758.385;1;148;-110;-119.4;45.3;45.7;-66;-65.9;28.5;0.0;
15/02/2025 04:20:30;100;0;95.58;-4;-19.72;-42.64;550.3;14.10;76016;2837.099;-1758.381;1;153;-110;-119.4;45.3;45.7;-56;-56.0;28.6;0.0;
15/02/2025 04:20:50;100;0;109.54;-4;-19.56;-37.81;552.9;14.00;76006;2837.099;-1758.378;1;158;-110;-119.4;45.3;45.7;-42;-42.0;28.6;0.0;
15/02/2025 04:21:10;100;0;122.38;-4;-19.77;-31.10;555.4;14.00;76004;2837.098;-1758.376;1;163;-110;-119.4;45.3;45.8;-31;-31.1;28.6;0.0;
15/02/2025 04:21:30;100;0;134.89;-4;-20.19;-25.91;558.1;13.90;75988;2837.097;-1758.373;1;166;-110;-121.0;45.3;45.8;-16;-15.8;28.6;0.0;
15/02/2025 04:21:50;100;0;145.12;-4;-20.74;-18.34;560.7;13.90;75980;2837.095;-1758.372;1;169;-110;-117.7;45.3;45.9;-2;-1.8;28.5;0.0;
15/02/2025 04:22:10;100;0;150.92;-4;-21.68;-12.17;563.4;13.90;75976;2837.093;-1758.370;1;171;-110;-119.4;45.3;45.9;5;5.0;28.6;0.0;
15/02/2025 04:22:30;100;0;152.45;-4;-22.06;-8.96;566.1;13.90;75961;2837.091;-1758.369;1;174;-110;-122.6;44.7;44.6;5;5.4;28.6;0.0;
15/02/2025 04:22:50;100;0;153.03;-4;-20.08;-9.08;568.7;13.80;75965;2837.089;-1758.368;1;177;-110;-119.4;44.7;44.5;1;0.9;28.5;0.0;
15/02/2025 04:23:10;100;0;156.89;-4;-19.53;-11.49;571.4;13.80;75958;2837.087;-1758.367;1;180;-110;-119.4;44.7;44.3;4;4.1;28.6;0.0;
15/02/2025 04:23:30;100;0;159.88;-4;-19.45;-9.62;573.9;13.80;75947;2837.085;-1758.366;1;184;-110;-119.4;44.7;44.3;4;4.1;28.5;0.0;
15/02/2025 04:23:50;100;0;159.41;-4;-19.49;-9.62;576.5;13.70;75956;2837.083;-1758.365;1;191;-110;-119.4;44.7;44.3;-5;-5.0;28.5;0.0;
15/02/2025 04:24:10;100;0;165.25;-4;-18.91;-14.31;579.1;13.70;75935;2837.080;-1758.365;1;198;-110;-119.4;45.0;45.2;-5;-5.0;28.5;0.0;
15/02/2025 04:24:30;100;0;169.55;-4;-20.17;-14.24;581.8;13.70;75934;2837.078;-1758.364;1;210;-110;-119.4;45.0;45.4;-14;-14.0;28.6;0.0;
15/02/2025 04:24:50;100;0;177.26;-4;-19.75;-18.74;584.6;13.60;75919;2837.075;-1758.365;1;241;-110;-117.7;45.0;45.4;-43;-42.9;28.5;0.0;
15/02/2025 04:25:10;100;0;193.15;-4;-18.82;-32.30;587.2;13.60;75926;2837.073;-1758.366;1;328;-110;-119.4;45.4;45.2;-70;-69.9;28.5;0.0;
15/02/2025 04:25:30;100;0;208.30;-4;-18.79;-45.54;589.9;13.60;75912;2837.071;-1758.368;1;21;-110;-119.4;45.7;46.2;70;70.4;28.5;0.0;
15/02/2025 04:25:50;100;0;209.14;-4;-25.06;23.19;592.8;13.60;75906;2837.069;-1758.371;1;32;-110;-119.4;44.2;44.2;70;70.4;28.5;0.0;
15/02/2025 04:26:10;100;0;195.52;-4;-22.21;23.19;596.0;13.50;75896;2837.066;-1758.372;1;30;-110;-119.4;43.5;43.6;70;70.4;28.5;0.0;
15/02/2025 04:26:30;100;0;183.37;-4;-20.44;23.34;598.9;13.50;75890;2837.063;-1758.373;1;26;-110;-119.4;43.5;43.3;70;70.4;28.6;0.0;
15/02/2025 04:26:50;100;0;170.45;-4;-19.44;23.23;601.8;13.50;75888;2837.060;-1758.373;1;21;-110;-121.0;43.5;43.4;70;70.4;28.5;0.0;
15/02/2025 04:27:10;100;0;158.02;-4;-19.18;23.31;604.5;13.40;75881;2837.058;-1758.372;1;15;-110;-119.4;43.5;43.3;70;70.4;28.6;0.0;
15/02/2025 04:27:30;100;0;144.89;-4;-18.95;23.12;607.2;13.40;75870;2837.056;-1758.370;1;8;-110;-119.4;43.9;43.9;70;70.4;28.6;0.0;
15/02/2025 04:27:50;100;0;134.34;-4;-19.47;23.26;609.8;13.40;75873;2837.055;-1758.368;1;1;-110;-119.4;43.9;44.0;70;70.4;28.6;0.0;
15/02/2025 04:28:10;100;0;121.59;-4;-19.44;23.33;612.4;13.30;75857;2837.054;-1758.365;1;354;-110;-119.4;43.9;44.0;70;70.4;28.5;0.0;
15/02/2025 04:28:30;100;0;108.88;-4;-19.37;23.33;615.0;13.30;75856;2837.054;-1758.362;1;347;-110;-119.4;43.9;44.0;70;70.4;28.5;0.0;
15/02/2025 04:28:50;100;0;94.14;-4;-19.03;23.20;617.5;13.30;75843;2837.054;-1758.358;1;338;-110;-119.4;43.9;44.0;70;70.8;28.6;0.0;
15/02/2025 04:29:10;100;0;80.09;-4;-18.99;23.11;620.0;13.20;75843;2837.056;-1758.355;1;330;-110;-119.4;44.2;44.2;70;70.4;28.5;0.0;
15/02/2025 04:29:30;100;0;66.99;-4;-19.97;23.16;622.5;13.20;75828;2837.058;-1758.352;1;320;-110;-119.4;44.2;44.5;70;70.4;28.5;0.0;
15/02/2025 04:29:50;100;0;54.50;-4;-20.51;23.30;625.1;13.20;75823;2837.061;-1758.350;1;311;-110;-121.0;44.2;44.5;70;70.4;28.6;0.0;
15/02/2025 04:30:10;100;0;41.84;-4;-20.21;23.20;627.8;13.10;75818;2837.064;-1758.347;1;299;-110;-121.0;44.2;44.5;70;70.4;28.5;0.0;
15/02/2025 04:30:30;100;0;29.88;-4;-20.50;23.24;630.4;13.10;75814;2837.068;-1758.346;1;287;-110;-119.4;44.2;44.5;70;70.4;28.6;0.0;
15/02/2025 04:30:50;100;0;17.99;-4;-20.68;23.28;633.2;13.10;75806;2837.072;-1758.345;1;275;-110;-119.4;44.2;44.5;70;70.8;28.5;0.0;
15/02/2025 04:31:10;100;0;5.30;-4;-20.57;23.29;636.0;13.10;75809;2837.077;-1758.345;1;261;-110;-119.4;44.2;44.5;70;70.8;28.6;0.0;
15/02/2025 04:31:30;100;0;352.05;-4;-20.63;23.35;638.8;13.00;75789;2837.081;-1758.346;1;248;-110;-121.0;44.2;44.5;70;70.4;28.6;0.0;
15/02/2025 04:31:50;100;0;338.27;-4;-20.15;23.29;641.6;13.00;75793;2837.086;-1758.348;1;235;-110;-119.4;44.2;44.5;70;70.4;28.6;0.0;
15/02/2025 04:32:11;100;0;325.89;-4;-20.13;23.21;644.4;12.90;75776;2837.089;-1758.351;1;222;-110;-119.4;44.2;44.5;70;70.4;28.6;0.0;
15/02/2025 04:32:31;100;0;314.28;-4;-20.24;23.29;647.0;12.90;75788;2837.093;-1758.354;1;211;-110;-121.0;44.2;44.5;70;70.4;28.6;0.0;
15/02/2025 04:32:51;100;0;303.63;-4;-20.20;23.70;649.5;12.90;75773;2837.095;-1758.358;1;200;-110;-119.4;44.2;44.5;70;70.4;28.6;0.0;
15/02/2025 04:33:11;100;0;290.58;-4;-20.49;23.44;652.2;12.90;75769;2837.098;-1758.362;1;190;-110;-119.4;44.2;44.5;70;70.4;28.5;0.0;
15/02/2025 04:33:31;100;0;279.11;-4;-20.65;23.37;654.9;12.80;75761;2837.099;-1758.366;1;181;-110;-119.4;44.2;44.5;70;70.4;28.5;0.0;
15/02/2025 04:33:51;100;0;266.67;-4;-20.18;23.38;657.5;12.80;75771;2837.100;-1758.371;1;173;-110;-117.7;44.2;44.5;70;70.4;28.5;0.0;
15/02/2025 04:34:11;100;0;253.91;-4;-19.66;23.54;660.0;12.80;75761;2837.100;-1758.375;1;166;-110;-119.4;44.2;44.5;70;70.4;28.6;0.0;
15/02/2025 04:34:31;100;0;238.98;-4;-20.20;23.17;662.6;12.80;75754;2837.099;-1758.378;1;158;-110;-119.4;44.2;44.5;70;70.4;28.6;0.0;
15/02/2025 04:34:51;100;0;225.12;-4;-21.78;23.45;665.3;12.70;75755;2837.098;-1758.381;1;152;-110;-119.4;44.2;44.5;70;70.4;28.6;0.0;
15/02/2025 04:35:11;100;0;210.06;-4;-21.47;23.74;668.3;12.70;75744;2837.096;-1758.384;1;146;-110;-119.4;44.2;44.5;70;70.4;28.6;0.0;
15/02/2025 04:35:31;100;0;193.12;-4;-21.41;23.58;671.6;12.70;75745;2837.093;-1758.385;1;139;-110;-119.4;44.2;44.5;70;70.4;28.6;0.0;
15/02/2025 04:35:51;100;0;179.78;-4;-20.24;23.36;674.8;12.70;75730;2837.089;-1758.386;1;133;-110;-119.4;44.2;44.5;63;62.7;28.5;0.0;
15/02/2025 04:36:11;100;0;167.22;-4;-19.47;18.94;677.6;12.60;75718;2837.087;-1758.385;1;128;-110;-119.4;44.2;44.5;51;51.0;28.6;0.0;
15/02/2025 04:36:31;100;0;156.34;-4;-19.48;13.17;680.3;12.60;75719;2837.084;-1758.384;1;124;-110;-119.4;44.2;44.5;37;37.0;28.5;0.0;
15/02/2025 04:36:51;100;0;150.48;-4;-20.08;6.66;683.0;12.60;75717;2837.082;-1758.383;1;121;-110;-121.0;44.2;44.5;30;29.8;28.5;0.0;
15/02/2025 04:37:11;100;0;148.48;-4;-19.73;3.06;685.8;12.60;75713;2837.080;-1758.381;1;117;-110;-119.4;44.2;44.5;32;32.0;28.6;0.0;
15/02/2025 04:37:31;100;0;142.29;-4;-18.53;4.24;688.2;12.60;75697;2837.079;-1758.379;1;113;-110;-119.4;44.6;44.9;25;24.8;28.6;0.0;
15/02/2025 04:37:51;100;0;142.69;-4;-21.76;0.54;690.7;12.50;75693;2837.077;-1758.378;1;109;-110;-119.4;44.6;44.9;29;28.9;28.5;0.0;
15/02/2025 04:38:11;100;0;139.20;-4;-20.42;2.86;693.3;12.50;75702;2837.076;-1758.376;1;102;-110;-119.4;44.6;44.9;37;37.0;28.5;0.0;
15/02/2025 04:38:31;100;0;130.33;-4;-20.33;6.77;695.9;12.50;75692;2837.074;-1758.373;1;94;-110;-119.4;44.6;44.9;32;32.0;28.6;0.0;
15/02/2025 04:38:51;100;0;125.60;-4;-21.21;4.44;698.7;12.50;75683;2837.073;-1758.371;1;79;-110;-119.4;44.6;44.9;47;32.0;28.5;0.0;
15/02/2025 04:38:54;118;0;125.97;-4;-21.38;11.95;699.0;12.40;75688;2837.073;-1758.370;1;77;310;-114.5;27.2;27.1;8;7.7;28.6;0.0;
15/02/2025 04:39:04;118;0;112.66;-4;-8.81;-8.89;700.0;12.40;75669;2837.073;-1758.369;1;55;310;12.9;27.2;26.8;8;7.7;27.6;-1.0;
15/02/2025 04:39:14;118;0;104.66;-4;10.21;-8.41;700.2;12.40;75393;2837.073;-1758.369;1;66;310;137.1;27.2;26.5;8;7.7;27.6;-1.0;
15/02/2025 04:39:24;118;0;101.81;-4;18.44;-9.16;699.6;12.40;75128;2837.074;-1758.368;1;68;310;261.3;27.2;27.2;8;7.7;27.7;-1.0;
15/02/2025 04:39:34;118;0;100.53;-4;17.61;-8.65;698.7;12.40;74880;2837.074;-1758.367;1;300;310;311.3;27.2;27.4;8;7.7;27.7;-1.0;
15/02/2025 04:39:44;118;0;121.68;-4;14.73;-8.42;697.5;12.40;74806;2837.073;-1758.365;1;290;310;311.3;27.2;27.4;8;7.7;28.5;-1.0;
15/02/2025 04:40:04;117;0;113.38;-4;12.58;-8.36;695.5;12.40;74795;2837.073;-1758.363;1;282;310;311.3;27.2;27.4;8;7.7;28.5;-1.0;
15/02/2025 04:40:24;117;0;104.48;-4;12.35;-8.50;693.4;12.40;74797;2837.073;-1758.360;1;275;310;311.3;24.9;24.6;70;69.9;28.5;-1.0;
15/02/2025 04:40:44;117;0;109.17;-4;21.38;24.74;690.9;12.40;74801;2837.073;-1758.357;1;274;310;311.3;24.9;24.2;70;69.9;28.5;-1.0;
15/02/2025 04:41:04;117;0;121.30;-4;23.67;25.10;687.8;12.40;74797;2837.073;-1758.354;1;277;310;311.3;26.0;25.9;70;69.9;28.5;-1.0;
15/02/2025 04:41:24;117;0;130.93;-4;19.82;25.03;684.7;12.40;74790;2837.071;-1758.351;1;282;310;311.3;26.0;26.1;70;70.4;28.5;-1.0;
15/02/2025 04:41:44;117;0;141.06;-4;20.00;24.24;682.0;12.40;74782;2837.069;-1758.349;1;287;310;311.3;26.0;26.2;70;69.9;28.5;-1.0;
15/02/2025 04:42:04;117;0;155.42;-4;18.59;24.38;679.3;12.30;74786;2837.067;-1758.348;1;293;310;311.3;25.5;25.5;70;69.9;28.5;-1.0;
15/02/2025 04:42:24;117;0;167.99;-4;21.65;24.78;676.3;12.30;74774;2837.064;-1758.348;1;299;310;311.3;25.5;24.9;70;70.4;28.5;-1.0;
15/02/2025 04:42:44;117;0;178.34;-4;21.27;24.23;673.5;12.30;74771;2837.062;-1758.348;1;306;310;309.7;25.5;24.7;70;69.9;28.5;-1.0;
15/02/2025 04:43:04;117;0;188.31;-4;21.66;24.97;670.6;12.30;74772;2837.059;-1758.349;1;313;310;311.3;25.5;24.9;70;70.4;28.5;-1.0;
15/02/2025 04:43:24;117;0;201.60;-4;22.12;24.84;667.8;12.20;74765;2837.057;-1758.351;1;320;310;311.3;26.2;26.2;70;70.4;28.5;-1.0;
15/02/2025 04:43:44;117;0;214.79;-4;20.44;24.96;665.1;12.20;74759;2837.055;-1758.354;1;328;310;311.3;26.2;26.4;70;69.9;28.5;-1.0;
15/02/2025 04:44:04;117;0;228.61;-4;19.27;25.14;662.5;12.20;74762;2837.054;-1758.357;1;337;310;311.3;26.2;26.4;70;70.4;28.5;-1.0;
15/02/2025 04:44:24;117;0;243.80;-4;18.86;24.81;659.9;12.20;74758;2837.053;-1758.361;1;346;310;311.3;25.8;25.8;70;69.9;28.5;-1.0;
15/02/2025 04:44:44;117;0;257.15;-4;19.60;24.59;657.5;12.20;74761;2837.054;-1758.365;1;355;310;312.9;25.8;25.5;70;69.9;28.5;-1.0;
15/02/2025 04:45:04;117;0;268.49;-4;19.84;24.67;655.1;12.10;74767;2837.055;-1758.369;1;5;310;312.9;25.8;25.5;70;69.9;28.5;-1.0;
15/02/2025 04:45:24;117;0;281.49;-4;19.90;24.72;652.4;12.10;74757;2837.056;-1758.373;1;17;310;311.3;25.8;25.5;70;69.9;28.6;-1.0;
15/02/2025 04:45:44;117;0;293.82;-4;19.78;24.68;649.8;12.10;74760;2837.058;-1758.377;1;30;310;311.3;25.8;25.5;70;69.9;28.5;-1.0;
15/02/2025 04:46:04;117;0;306.76;-4;19.80;24.66;647.3;12.10;74754;2837.061;-1758.381;1;43;310;311.3;25.8;25.5;70;70.4;28.5;-1.0;
15/02/2025 04:46:24;117;0;319.13;-4;19.82;24.62;644.7;12.10;74746;2837.065;-1758.384;1;58;310;311.3;25.8;25.5;70;69.9;28.6;-1.0;
15/02/2025 04:46:44;117;0;330.77;-4;19.96;24.60;642.1;12.10;74753;2837.069;-1758.386;1;72;310;311.3;25.8;25.5;70;69.9;28.5;-1.0;
15/02/2025 04:47:04;117;0;341.59;-4;20.07;24.67;639.3;12.00;74756;2837.073;-1758.388;1;87;310;311.3;25.8;25.5;70;69.9;28.5;-1.0;
15/02/2025 04:47:24;117;0;352.57;-4;20.03;24.66;636.5;12.00;74748;2837.078;-1758.389;1;100;310;311.3;25.8;25.5;70;69.9;28.5;-1.0;
15/02/2025 04:47:44;117;0;1.61;-4;19.76;24.65;633.7;12.00;74743;2837.082;-1758.389;1;113;310;309.7;25.8;25.5;70;69.9;28.6;-1.0;
15/02/2025 04:48:04;117;0;12.50;-4;19.44;24.88;631.0;12.00;74746;2837.087;-1758.389;1;123;310;309.7;25.8;25.5;70;70.4;28.6;-1.0;
15/02/2025 04:48:24;117;0;22.79;-4;19.60;24.26;628.3;12.00;74743;2837.091;-1758.388;1;132;310;311.3;25.8;25.5;70;69.9;28.6;-1.0;
15/02/2025 04:48:44;117;0;33.85;-4;19.55;24.71;625.7;12.00;74734;2837.094;-1758.386;1;141;310;311.3;25.8;25.5;70;69.9;28.5;-1.0;
15/02/2025 04:49:04;117;0;44.92;-4;19.28;24.46;623.0;12.00;74737;2837.098;-1758.384;1;149;310;311.3;25.8;25.5;70;69.9;28.5;-1.0;
15/02/2025 04:49:24;117;0;56.14;-4;19.19;24.71;620.5;12.00;74738;2837.101;-1758.381;1;155;310;311.3;25.8;25.5;70;69.9;28.6;-1.0;
15/02/2025 04:49:44;117;0;68.69;-4;19.34;24.77;618.1;11.90;74720;2837.103;-1758.378;1;161;310;311.3;25.8;25.5;70;69.9;28.5;-1.0;
15/02/2025 04:50:04;117;0;82.72;-4;19.08;24.76;615.7;11.90;74729;2837.104;-1758.375;1;167;310;311.3;25.8;25.5;70;70.4;28.5;-1.0;
15/02/2025 04:50:24;117;0;95.63;-4;19.50;24.49;613.4;11.90;74734;2837.105;-1758.372;1;172;310;311.3;25.8;25.5;70;69.9;28.6;-1.0;
15/02/2025 04:50:44;117;0;108.04;-4;19.74;24.80;611.0;11.90;74735;2837.105;-1758.369;1;176;310;311.3;25.8;25.5;70;69.9;28.5;-1.0;
15/02/2025 04:51:04;117;0;119.99;-4;19.37;24.58;608.6;11.90;74725;2837.104;-1758.367;1;181;310;309.7;25.8;25.5;70;69.9;28.5;-1.0;
15/02/2025 04:51:24;117;0;133.53;-4;19.37;24.59;606.4;11.90;74731;2837.103;-1758.365;1;184;310;311.3;25.8;25.5;70;70.4;28.6;-1.0;
15/02/2025 04:51:44;117;0;146.40;-4;19.43;24.61;604.2;11.90;74725;2837.102;-1758.363;1;187;310;309.7;25.8;25.5;66;65.9;28.5;-1.0;
15/02/2025 04:52:04;117;0;155.56;-4;20.31;21.89;602.0;11.90;74734;2837.100;-1758.362;1;189;310;308.1;25.8;25.3;50;50.1;28.6;-1.0;
15/02/2025 04:52:24;117;0;160.24;-4;20.47;13.45;599.6;11.90;74734;2837.098;-1758.362;1;191;310;311.3;25.8;25.3;47;46.9;28.5;-1.0;
15/02/2025 04:52:44;117;0;164.98;-4;20.36;12.05;597.4;11.90;74734;2837.096;-1758.361;1;192;310;311.3;25.8;25.3;39;38.4;28.5;-1.0;
15/02/2025 04:53:04;117;0;166.60;-4;20.12;7.33;595.2;11.90;74740;2837.094;-1758.361;1;194;310;311.3;25.8;25.3;39;37.9;28.6;-1.0;
15/02/2025 04:53:24;117;0;167.57;-4;19.64;7.46;592.9;11.90;74734;2837.093;-1758.361;1;196;310;311.3;25.8;25.2;41;41.1;28.5;-1.0;
15/02/2025 04:53:44;117;0;171.25;-4;20.30;9.19;590.8;11.90;74732;2837.091;-1758.361;1;198;310;311.3;25.8;25.3;37;36.6;28.5;-1.0;
15/02/2025 04:54:04;117;0;172.39;-4;20.17;6.66;588.3;11.90;74735;2837.089;-1758.361;1;200;310;311.3;25.8;25.3;37;36.6;28.5;-1.0;
15/02/2025 04:54:24;117;0;173.18;-4;19.85;6.66;585.8;11.80;74736;2837.086;-1758.361;1;203;310;311.3;25.8;25.3;43;42.9;28.5;-1.0;
15/02/2025 04:54:44;117;0;176.42;-4;19.96;9.96;583.2;11.80;74733;2837.084;-1758.361;1;207;310;308.1;25.8;25.3;43;43.3;28.5;-1.0;
15/02/2025 04:55:04;117;0;180.47;-4;19.98;10.04;580.6;11.90;74741;2837.082;-1758.362;1;211;310;311.3;25.8;25.2;41;40.6;28.5;-1.0;
15/02/2025 04:55:24;117;0;181.93;-4;20.53;8.44;578.0;11.80;74736;2837.079;-1758.362;1;218;310;308.1;25.8;25.3;48;47.8;28.5;-1.0;
15/02/2025 04:55:44;117;0;185.74;-4;20.60;12.85;575.2;11.80;74731;2837.077;-1758.363;1;230;310;311.3;25.8;25.3;61;60.9;28.5;-1.0;
15/02/2025 04:56:04;117;0;193.78;-4;20.41;19.76;572.1;11.80;74727;2837.074;-1758.365;1;270;310;311.3;25.8;25.2;70;69.9;28.5;-1.0;
15/02/2025 04:56:24;117;0;203.82;-4;19.90;24.73;569.1;11.80;74736;2837.071;-1758.367;1;0;310;311.3;25.8;25.3;70;70.4;28.5;-1.0;
15/02/2025 04:56:44;117;0;218.33;-4;19.91;24.75;566.1;11.80;74739;2837.069;-1758.370;1;31;310;311.3;25.8;26.1;-70;-69.9;28.5;-1.0;
15/02/2025 04:57:04;117;0;204.83;-4;10.66;-47.58;563.3;11.80;74731;2837.066;-1758.373;1;33;310;311.3;23.0;23.0;-70;-70.4;28.5;-1.0;
15/02/2025 04:57:24;117;0;194.95;-4;13.93;-47.49;560.9;11.80;74731;2837.064;-1758.374;1;32;310;312.9;21.2;21.2;-70;-70.4;28.5;-1.0;
15/02/2025 04:57:44;117;0;186.15;-4;18.84;-47.62;558.1;11.80;74734;2837.061;-1758.375;1;29;310;312.9;20.9;20.9;-70;-70.4;28.5;-1.0;
15/02/2025 04:58:04;117;0;176.62;-4;19.30;-47.45;554.8;11.80;74739;2837.058;-1758.375;1;24;310;312.9;20.9;21.1;-70;-70.4;28.6;-1.0;
15/02/2025 04:58:24;117;0;168.76;-4;19.70;-47.88;551.5;11.80;74731;2837.054;-1758.375;1;20;310;312.9;20.9;21.1;-70;-69.9;28.5;-1.0;
15/02/2025 04:58:44;117;0;158.77;-4;18.86;-47.58;548.2;11.80;74736;2837.051;-1758.374;1;14;310;312.9;20.5;20.3;-70;-70.4;28.5;-1.0;
15/02/2025 04:59:04;117;0;149.21;-4;20.39;-47.69;544.9;11.90;74732;2837.049;-1758.372;1;9;310;312.9;20.5;20.0;-70;-70.4;28.5;-1.0;
15/02/2025 04:59:24;117;0;138.86;-4;20.04;-47.71;541.4;11.90;74738;2837.046;-1758.369;1;3;310;308.1;20.5;20.0;-70;-70.4;28.6;-1.0;
15/02/2025 04:59:44;117;0;129.61;-4;20.43;-47.51;538.1;11.90;74746;2837.045;-1758.365;1;357;310;312.9;20.5;20.0;-70;-70.4;28.6;-1.0;
15/02/2025 05:00:04;117;0;119.74;-4;20.30;-47.62;534.8;11.80;74736;2837.043;-1758.362;1;351;310;312.9;20.5;20.2;-70;-70.4;28.6;-1.0;
15/02/2025 05:00:24;117;0;108.71;-4;20.55;-47.80;531.6;11.90;74749;2837.043;-1758.358;1;346;310;312.9;20.5;20.0;-70;-70.4;28.5;-1.0;
15/02/2025 05:00:44;117;0;98.82;-4;20.40;-47.49;528.4;11.90;74752;2837.043;-1758.354;1;339;310;312.9;20.5;20.0;-70;-70.4;28.6;-1.0;
15/02/2025 05:01:04;117;0;88.94;-4;20.68;-47.66;525.2;11.90;74754;2837.044;-1758.350;1;333;310;312.9;20.5;20.0;-70;-70.4;28.6;-1.0;
15/02/2025 05:01:24;117;0;80.26;-4;20.15;-47.34;521.8;11.90;74765;2837.046;-1758.345;1;326;310;312.9;20.5;20.0;-70;-70.4;28.5;-1.0;
15/02/2025 05:01:44;117;0;71.63;-4;20.54;-47.08;518.8;11.90;74763;2837.048;-1758.342;1;319;310;312.9;20.5;20.0;-70;-70.4;28.5;-1.0;
15/02/2025 05:02:04;117;0;63.46;-4;20.88;-47.67;515.7;11.90;74765;2837.051;-1758.338;1;313;310;312.9;20.5;20.0;-70;-70.4;28.5;-1.0;
15/02/2025 05:02:24;117;0;54.67;-4;20.73;-47.37;512.6;11.90;74776;2837.054;-1758.335;1;306;310;312.9;20.5;20.0;-70;-70.4;28.5;-1.0;
15/02/2025 05:02:44;117;0;45.75;-4;20.47;-47.62;509.4;11.90;74770;2837.058;-1758.333;1;298;310;312.9;20.5;20.0;-70;-70.4;28.5;-1.0;
15/02/2025 05:03:04;117;0;36.96;-4;20.57;-47.79;506.3;11.90;74775;2837.062;-1758.330;1;291;310;312.9;20.5;20.0;-70;-70.4;28.6;-1.0;
15/02/2025 05:03:24;117;0;27.96;-4;20.61;-47.87;503.2;11.90;74785;2837.066;-1758.329;1;283;310;311.3;20.5;20.0;-70;-70.4;28.5;-1.0;
15/02/2025 05:03:44;117;0;18.24;-4;20.62;-47.63;500.0;11.90;74777;2837.071;-1758.328;1;275;310;312.9;20.5;20.0;-70;-70.4;28.5;-1.0;
15/02/2025 05:04:04;117;0;9.81;-4;20.67;-47.50;496.8;11.90;74790;2837.076;-1758.328;1;267;310;312.9;20.5;20.0;-70;-70.4;28.5;-1.0;
15/02/2025 05:04:24;117;0;0.93;-4;20.75;-47.99;493.6;11.90;74797;2837.081;-1758.328;1;259;310;312.9;20.5;20.0;-70;-70.4;28.5;-1.0;
15/02/2025 05:04:44;117;0;350.88;-4;20.20;-47.90;490.5;11.90;74793;2837.085;-1758.329;1;251;310;312.9;20.5;20.0;-70;-69.9;28.5;-1.0;
15/02/2025 05:05:04;117;0;341.82;-4;20.32;-47.81;487.3;11.90;74795;2837.090;-1758.331;1;243;310;312.9;20.5;20.0;-70;-70.4;28.5;-1.0;
15/02/2025 05:05:24;117;0;332.81;-4;20.40;-47.70;484.2;11.90;74797;2837.095;-1758.334;1;234;310;312.9;20.5;20.0;-70;-70.4;28.5;-1.0;
15/02/2025 05:05:44;117;0;323.84;-4;20.53;-47.54;481.0;11.90;74797;2837.099;-1758.337;1;227;310;311.3;20.5;20.2;-70;-70.4;28.6;-1.0;
15/02/2025 05:06:04;117;0;315.39;-4;20.78;-48.01;477.9;12.00;74809;2837.103;-1758.340;1;219;310;312.9;20.5;20.0;-70;-70.4;28.5;-1.0;
15/02/2025 05:06:24;117;0;306.58;-4;20.36;-47.68;474.7;12.00;74809;2837.106;-1758.345;1;211;310;312.9;20.5;20.0;-70;-70.4;28.5;-1.0;
15/02/2025 05:06:44;117;0;297.65;-4;20.24;-47.70;471.5;12.00;74817;2837.109;-1758.349;1;204;310;312.9;20.5;20.0;-70;-70.4;28.5;-1.0;
15/02/2025 05:07:04;117;0;288.48;-4;20.12;-47.57;468.4;12.00;74827;2837.111;-1758.354;1;197;310;312.9;20.5;20.0;-70;-70.4;28.5;-1.0;
15/02/2025 05:07:24;117;0;277.07;-4;19.75;-48.16;465.3;12.00;74827;2837.113;-1758.359;1;190;310;314.5;20.5;20.0;-70;-70.4;28.5;-1.0;
15/02/2025 05:07:44;117;0;267.34;-4;20.18;-47.59;462.2;12.00;74838;2837.113;-1758.364;1;184;310;312.9;20.5;20.0;-70;-70.4;28.5;-1.0;
15/02/2025 05:08:04;117;0;257.63;-4;20.34;-47.62;459.3;12.00;74840;2837.113;-1758.369;1;178;310;314.5;20.5;20.0;-70;-70.4;28.5;-1.0;
15/02/2025 05:08:24;117;0;248.70;-4;20.34;-47.28;456.3;12.10;74853;2837.113;-1758.373;1;172;310;312.9;20.5;20.0;-65;-65.0;28.5;-1.0;
15/02/2025 05:08:44;117;0;237.91;-4;20.63;-44.58;453.3;12.10;74853;2837.112;-1758.377;1;167;310;314.5;20.5;20.0;-57;-56.4;28.5;-1.0;
15/02/2025 05:09:04;117;0;225.26;-4;20.94;-40.06;450.3;12.10;74866;2837.110;-1758.381;1;162;310;312.9;20.5;20.0;-47;-46.9;28.5;-1.0;
15/02/2025 05:09:24;117;0;212.77;-4;21.78;-35.44;447.5;12.10;74871;2837.108;-1758.383;1;157;310;314.5;20.5;20.0;-36;-35.6;28.5;-1.0;
15/02/2025 05:09:44;117;0;197.78;-4;22.94;-29.70;444.6;12.10;74892;2837.106;-1758.385;1;154;310;312.9;21.4;21.5;-20;-19.9;28.5;-1.0;
15/02/2025 05:10:04;117;0;186.69;-4;22.94;-21.34;441.9;12.10;74886;2837.104;-1758.386;1;151;310;312.9;22.3;22.5;-8;-8.1;28.5;-1.0;
15/02/2025 05:10:24;117;0;172.29;-4;23.04;-16.43;439.5;12.10;74883;2837.102;-1758.386;1;150;310;314.5;23.2;23.3;14;14.0;28.6;-1.0;
15/02/2025 05:10:44;117;0;163.93;-4;21.25;-3.65;436.6;12.10;74885;2837.100;-1758.385;1;148;310;314.5;23.2;23.3;24;23.9;28.6;-1.0;
15/02/2025 05:11:04;117;0;159.85;-4;22.72;1.13;434.3;12.20;74892;2837.098;-1758.385;1;147;310;314.5;24.0;24.2;28;28.0;28.5;-1.0;
15/02/2025 05:11:24;117;0;156.95;-4;22.41;2.83;431.8;12.20;74892;2837.097;-1758.384;1;147;310;314.5;24.7;24.7;30;29.8;28.5;-1.0;
15/02/2025 05:11:44;117;0;158.25;-4;20.76;3.34;429.3;12.20;74896;2837.095;-1758.383;1;146;310;314.5;24.7;25.0;30;29.8;28.5;-1.0;
15/02/2025 05:12:05;117;0;157.48;-4;20.83;3.52;427.1;12.20;74901;2837.093;-1758.382;1;145;310;312.9;24.7;24.9;30;29.8;28.6;-1.0;
15/02/2025 05:12:25;117;0;151.48;-4;20.14;3.54;424.7;12.20;74905;2837.091;-1758.381;1;144;310;314.5;24.7;24.9;30;29.8;28.5;-1.0;
15/02/2025 05:12:45;117;0;153.31;-4;20.72;3.19;422.3;12.20;74910;2837.090;-1758.380;1;144;310;312.9;24.7;24.9;30;29.8;28.5;-1.0;
15/02/2025 05:13:05;117;0;152.42;-4;20.38;3.44;419.8;12.30;74901;2837.088;-1758.379;1;143;310;312.9;24.7;24.9;30;29.8;28.6;-1.0;
15/02/2025 05:13:25;117;0;151.93;-4;20.68;3.34;417.4;12.30;74909;2837.086;-1758.378;1;142;310;312.9;24.7;24.9;30;30.2;28.6;-1.0;
15/02/2025 05:13:45;117;0;151.69;-4;20.86;3.44;414.9;12.30;74910;2837.084;-1758.377;1;141;310;312.9;24.7;24.9;30;29.8;28.5;-1.0;
15/02/2025 05:14:05;117;0;149.82;-4;20.59;3.37;412.2;12.30;74914;2837.082;-1758.375;1;139;310;312.9;24.7;25.0;30;29.8;28.6;-1.0;
15/02/2025 05:14:25;117;0;146.18;-4;19.73;3.53;409.6;12.30;74922;2837.081;-1758.374;1;139;310;312.9;24.7;24.9;30;30.2;28.5;-1.0;
15/02/2025 05:14:45;117;0;145.30;-4;20.34;3.41;407.2;12.30;74918;2837.079;-1758.372;1;138;310;312.9;24.7;24.9;30;29.8;28.5;-1.0;
15/02/2025 05:15:05;117;0;143.67;-4;19.91;3.81;404.5;12.30;74926;2837.077;-1758.370;1;138;310;314.5;24.7;24.9;30;29.8;28.6;-1.0;
15/02/2025 05:15:25;117;0;140.80;-4;20.77;3.67;401.9;12.30;74924;2837.076;-1758.368;1;144;310;314.5;24.7;24.9;32;32.0;28.5;-1.0;
15/02/2025 05:15:45;117;0;142.29;-4;20.48;5.02;399.3;12.40;74928;2837.074;-1758.366;1;287;310;312.9;24.7;24.9;70;69.9;28.6;-1.0;
15/02/2025 05:16:05;117;0;153.77;-4;21.16;25.12;396.8;12.40;74920;2837.072;-1758.365;1;324;310;314.5;24.7;24.9;70;69.9;28.5;-1.0;
15/02/2025 05:16:25;117;0;166.83;-4;21.55;24.80;394.0;12.40;74920;2837.070;-1758.365;1;337;310;312.9;24.7;25.0;70;70.4;28.5;-1.0;
15/02/2025 05:16:45;117;0;179.27;-4;21.39;25.15;391.3;12.40;74935;2837.067;-1758.365;1;348;310;312.9;24.7;25.0;70;70.4;28.5;-1.0;
15/02/2025 05:17:05;117;0;194.63;-4;21.25;25.11;388.6;12.40;74950;2837.065;-1758.367;1;359;310;312.9;24.7;24.9;70;69.9;28.5;-1.0;
15/02/2025 05:17:25;117;0;207.01;-4;21.54;25.13;385.8;12.40;74952;2837.063;-1758.369;1;9;310;311.3;24.7;25.0;70;70.4;28.6;-1.0;
15/02/2025 05:17:45;117;0;220.07;-4;21.45;24.95;383.1;12.50;74954;2837.062;-1758.372;1;19;310;314.5;24.7;24.9;70;69.9;28.5;-1.0;
15/02/2025 05:18:05;117;0;232.49;-4;21.52;25.10;380.4;12.50;74954;2837.060;-1758.375;1;28;310;314.5;24.7;24.9;70;69.9;28.5;-1.0;
15/02/2025 05:18:25;117;0;246.61;-4;21.55;25.26;377.8;12.50;74958;2837.060;-1758.379;1;38;310;312.9;24.7;25.0;70;70.4;28.5;-1.0;
15/02/2025 05:18:45;117;0;259.45;-4;21.79;25.21;375.1;12.50;74957;2837.061;-1758.383;1;47;310;314.5;24.7;25.0;70;69.9;28.5;-1.0;
15/02/2025 05:19:05;117;0;272.93;-4;21.45;25.16;372.4;12.50;74959;2837.062;-1758.387;1;56;310;314.5;24.7;25.0;70;70.4;28.5;-1.0;
15/02/2025 05:19:25;117;0;285.44;-4;21.62;25.08;369.8;12.50;74968;2837.063;-1758.391;1;64;310;312.9;24.7;24.9;70;70.4;28.5;-1.0;
15/02/2025 05:19:45;117;0;298.19;-4;21.29;24.98;367.2;12.50;74977;2837.066;-1758.395;1;72;310;312.9;24.7;25.0;70;69.9;28.5;-1.0;
15/02/2025 05:20:05;117;0;309.95;-4;21.56;25.04;364.5;12.60;74973;2837.069;-1758.398;1;80;310;312.9;24.7;24.9;70;70.4;28.6;-1.0;
15/02/2025 05:20:25;117;0;319.90;-4;21.91;25.15;361.9;12.60;74978;2837.072;-1758.401;1;87;310;314.5;24.7;25.0;70;70.4;28.5;-1.0;
15/02/2025 05:20:45;117;0;329.29;-4;21.12;25.21;359.4;12.60;74964;2837.076;-1758.403;1;93;310;314.5;24.7;24.9;70;70.4;28.5;-1.0;
15/02/2025 05:21:05;117;0;338.74;-4;21.54;24.93;356.9;12.60;74985;2837.080;-1758.405;1;99;310;314.5;24.7;25.0;70;69.9;28.5;-1.0;
15/02/2025 05:21:25;117;0;349.15;-4;21.59;24.98;354.4;12.60;74976;2837.084;-1758.406;1;105;310;314.5;24.7;24.9;70;69.9;28.6;-1.0;
15/02/2025 05:21:45;117;0;0.08;-4;21.44;25.10;351.8;12.60;74989;2837.088;-1758.407;1;111;310;312.9;24.7;25.0;70;70.4;28.5;-1.0;
15/02/2025 05:22:05;117;0;9.11;-4;21.26;25.08;349.4;12.60;74983;2837.091;-1758.407;1;117;310;314.5;24.7;25.0;70;69.9;28.5;-1.0;
15/02/2025 05:22:25;117;0;18.42;-4;21.39;25.08;346.9;12.60;74980;2837.095;-1758.406;1;122;310;312.9;24.7;24.9;70;70.4;28.5;-1.0;
15/02/2025 05:22:45;117;0;27.98;-4;21.42;25.08;344.5;12.70;74995;2837.099;-1758.405;1;127;310;312.9;24.7;24.9;70;70.4;28.5;-1.0;
15/02/2025 05:23:05;117;0;37.86;-4;21.45;25.04;342.1;12.70;74986;2837.102;-1758.403;1;132;310;311.3;24.7;25.0;70;70.4;28.5;-1.0;
15/02/2025 05:23:25;117;0;47.40;-4;21.40;25.07;339.7;12.70;74996;2837.105;-1758.401;1;136;310;314.5;24.7;24.9;70;70.4;28.5;-1.0;
15/02/2025 05:23:45;117;0;56.38;-4;21.44;24.99;337.3;12.70;74990;2837.108;-1758.399;1;140;310;314.5;24.7;24.9;70;70.4;28.6;-1.0;
15/02/2025 05:24:05;117;0;67.92;-4;21.24;25.33;334.9;12.70;75001;2837.110;-1758.396;1;144;310;312.9;24.7;24.9;70;70.4;28.5;-1.0;
15/02/2025 05:24:25;117;0;79.13;-4;21.59;25.25;332.6;12.70;75018;2837.111;-1758.394;1;148;310;314.5;24.7;24.9;70;70.4;28.6;-1.0;
15/02/2025 05:24:45;117;0;91.00;-4;21.03;24.88;330.3;12.80;75017;2837.112;-1758.391;1;151;310;312.9;24.7;25.0;70;69.9;28.6;-1.0;
15/02/2025 05:25:05;117;0;102.77;-4;21.65;25.33;328.0;12.80;75027;2837.113;-1758.388;1;154;310;312.9;24.7;24.9;70;69.9;28.6;-1.0;
15/02/2025 05:25:25;117;0;114.28;-4;21.33;25.01;325.7;12.80;75027;2837.112;-1758.386;1;157;310;314.5;24.7;25.0;70;70.4;28.5;-1.0;
15/02/2025 05:25:45;117;0;126.47;-4;21.91;24.87;323.4;12.80;75029;2837.112;-1758.384;1;159;310;314.5;24.7;24.9;67;66.3;28.5;-1.0;
15/02/2025 05:26:05;117;0;137.14;-4;21.90;22.73;320.9;12.80;75036;2837.110;-1758.382;1;160;310;314.5;24.7;24.9;51;51.0;28.5;-1.0;
15/02/2025 05:26:25;117;0;145.54;-4;21.14;14.07;318.4;12.80;75049;2837.109;-1758.381;1;161;310;312.9;24.7;24.9;38;37.5;28.6;-1.0;
15/02/2025 05:26:45;117;0;149.15;-4;20.68;7.09;316.2;12.90;75051;2837.107;-1758.379;1;162;310;312.9;24.7;24.9;35;35.2;28.5;-1.0;
15/02/2025 05:27:05;117;0;153.30;-4;20.53;5.90;314.0;12.90;75051;2837.106;-1758.379;1;162;310;314.5;24.7;24.9;32;32.0;28.6;-1.0;
15/02/2025 05:27:25;117;0;155.85;-4;20.19;4.12;311.9;12.90;75072;2837.105;-1758.378;1;163;310;312.9;24.7;24.9;32;31.6;28.6;-1.0;
15/02/2025 05:27:45;117;0;155.01;-4;19.94;4.05;309.8;12.90;75079;2837.103;-1758.377;1;163;310;314.5;24.7;24.9;32;31.6;28.6;-1.0;
15/02/2025 05:28:05;117;0;152.53;-4;19.92;4.01;307.7;12.90;75087;2837.101;-1758.376;1;164;310;312.9;24.7;24.9;32;31.6;28.5;-1.0;
15/02/2025 05:28:25;117;0;150.62;-4;19.64;4.08;305.7;13.00;75097;2837.100;-1758.375;1;165;330;333.9;24.7;24.9;35;35.2;28.5;-1.0;
15/02/2025 05:28:45;117;0;154.58;-4;19.61;6.14;303.6;13.00;75056;2837.099;-1758.374;1;166;330;333.9;24.7;25.0;33;32.9;28.5;-1.0;
15/02/2025 05:29:05;117;0;157.12;-4;19.67;4.76;301.7;13.00;75061;2837.097;-1758.374;1;166;350;353.2;24.7;24.9;33;32.9;28.5;-1.0;
15/02/2025 05:29:25;117;0;158.19;-4;19.55;4.80;299.7;13.00;75030;2837.096;-1758.373;1;166;370;372.6;24.7;24.9;33;32.9;28.5;-1.0;
15/02/2025 05:29:45;117;0;158.20;-4;18.88;4.78;297.7;13.10;75007;2837.095;-1758.372;1;167;390;393.5;24.4;24.4;33;32.9;28.5;-1.0;
15/02/2025 05:30:05;117;0;159.84;-4;19.47;4.80;295.6;13.10;74972;2837.093;-1758.372;1;167;390;391.9;24.4;23.9;33;32.9;28.5;-1.0;
15/02/2025 05:30:25;117;0;159.98;-4;19.28;4.81;293.3;13.10;74968;2837.091;-1758.371;1;168;390;393.5;24.4;24.0;33;33.4;28.5;-1.0;
15/02/2025 05:30:45;117;0;160.98;-4;19.05;4.85;290.9;13.10;74970;2837.089;-1758.370;1;169;390;393.5;24.4;24.0;33;32.9;28.5;-1.0;
15/02/2025 05:31:05;117;0;161.28;-4;18.58;5.24;288.6;13.10;74974;2837.087;-1758.370;1;169;390;393.5;24.0;24.0;33;32.9;28.6;-1.0;
15/02/2025 05:31:25;117;0;160.56;-4;18.94;5.06;286.5;13.20;74980;2837.085;-1758.369;1;170;390;390.3;23.7;23.7;33;32.9;28.5;-1.0;
15/02/2025 05:31:45;117;0;161.66;-4;21.21;4.92;284.1;13.20;74992;2837.083;-1758.369;1;172;390;391.9;23.7;23.1;33;32.9;28.6;-1.0;
15/02/2025 05:32:05;117;0;161.38;-4;21.19;4.99;281.4;13.20;74992;2837.081;-1758.368;1;174;390;391.9;23.7;23.1;33;32.9;28.5;-1.0;
15/02/2025 05:32:25;117;0;161.51;-4;21.52;5.07;278.6;13.30;75004;2837.079;-1758.367;1;179;390;391.9;23.7;23.1;35;35.2;28.5;-1.0;
15/02/2025 05:32:45;117;0;163.80;-4;21.11;6.43;275.8;13.30;75017;2837.077;-1758.366;1;190;390;393.5;23.7;23.9;42;42.0;28.5;-1.0;
15/02/2025 05:33:05;117;0;168.04;-4;20.37;10.00;273.0;13.30;75011;2837.074;-1758.366;1;271;390;393.5;23.7;23.9;70;69.9;28.6;-1.0;
15/02/2025 05:33:25;117;0;178.55;-4;19.72;25.27;270.3;13.30;75025;2837.071;-1758.367;1;350;390;393.5;23.7;24.0;70;70.4;28.5;-1.0;
15/02/2025 05:33:45;117;0;190.96;-4;19.89;25.27;267.6;13.30;75030;2837.069;-1758.368;1;7;390;391.9;23.7;23.9;-70;-69.9;28.5;-1.0;
15/02/2025 05:34:05;117;0;176.47;-4;10.12;-47.56;265.1;13.40;75029;2837.066;-1758.368;1;6;390;391.9;20.7;20.6;-70;-70.4;28.5;-1.0;
15/02/2025 05:34:25;117;0;166.13;-4;12.50;-47.50;263.1;13.40;75032;2837.064;-1758.368;1;3;410;412.9;18.4;18.4;-70;-70.4;28.5;-1.0;
15/02/2025 05:34:45;117;0;156.56;-4;17.66;-47.54;260.8;13.40;75002;2837.062;-1758.367;1;359;410;412.9;17.7;17.7;-70;-70.4;28.5;-1.0;
15/02/2025 05:35:05;117;0;146.45;-4;18.10;-47.38;258.1;13.40;75009;2837.060;-1758.365;1;352;410;412.9;17.2;17.1;-70;-70.4;28.5;-1.0;
15/02/2025 05:35:25;117;0;135.98;-4;20.06;-47.57;255.0;13.50;75020;2837.058;-1758.362;1;345;410;412.9;17.2;16.8;-70;-70.4;28.6;-1.0;
15/02/2025 05:35:45;117;0;125.65;-4;20.16;-47.58;251.7;13.50;75026;2837.057;-1758.359;1;337;410;412.9;17.2;16.6;-70;-70.4;28.5;-1.0;
15/02/2025 05:36:05;117;0;113.72;-4;20.21;-47.20;248.4;13.50;75030;2837.056;-1758.355;1;330;410;412.9;17.2;16.8;-70;-70.4;28.5;-1.0;
15/02/2025 05:36:25;117;0;102.92;-4;20.28;-47.33;245.0;13.50;75042;2837.056;-1758.350;1;321;410;412.9;17.2;16.8;-70;-70.4;28.5;-1.0;
15/02/2025 05:36:45;117;0;91.19;-4;20.17;-47.64;241.7;13.60;75045;2837.057;-1758.346;1;313;410;414.5;17.2;16.8;-70;-70.4;28.5;-1.0;
15/02/2025 05:37:05;117;0;79.30;-4;20.25;-47.42;238.4;13.60;75043;2837.058;-1758.342;1;305;410;412.9;17.2;16.8;-70;-70.4;28.6;-1.0;
15/02/2025 05:37:25;117;0;66.47;-4;20.39;-47.38;235.0;13.60;75054;2837.061;-1758.338;1;297;410;412.9;17.2;16.8;-70;-70.4;28.5;-1.0;
15/02/2025 05:37:45;117;0;54.42;-4;20.38;-47.16;231.8;13.70;75047;2837.064;-1758.334;1;289;410;409.7;17.2;16.8;-70;-70.4;28.5;-1.0;
15/02/2025 05:38:05;117;0;42.98;-4;20.53;-47.29;228.5;13.70;75065;2837.068;-1758.332;1;280;410;412.9;17.2;16.9;-70;-69.9;28.5;-1.0;
15/02/2025 05:38:25;117;0;30.26;-4;20.04;-47.31;225.1;13.70;75059;2837.073;-1758.330;1;272;410;411.3;17.2;16.8;-70;-70.4;28.5;-1.0;
