Timestamp;NavState;SecurityLevel;Heading;Declination;Pitch;Roll;Depth;Temperature;Pa;Lat;Lon;DeadReckoning;DesiredH;BallastCmd;BallastPos;LinCmd;LinPos;AngCmd;AngPos;Voltage;Altitude;
20/02/2025 02:49:38;119;0;61.56;-4;-53.23;-10.73;-0.2;17.20;75690;2837.525;-1758.767;0;142;500;508.1;100.0;100.4;0;0.5;27.6;-1.0;
20/02/2025 02:49:48;116;0;66.69;-4;-56.50;-7.21;0.0;17.20;75690;2837.518;-1758.774;0;142;500;508.1;100.0;100.3;0;0.5;27.6;-1.0;
20/02/2025 02:50:16;116;0;60.58;-4;-55.74;-3.73;-0.1;17.30;75712;2837.519;-1758.775;0;141;500;508.1;100.0;100.4;0;0.5;27.6;-1.0;
20/02/2025 02:50:36;116;0;61.58;-4;-49.51;-9.72;-0.1;17.40;75706;2837.521;-1758.778;0;-9999;500;508.1;100.0;100.4;0;0.5;27.5;-1.0;
20/02/2025 02:50:55;116;0;29.97;-4;-57.27;-19.28;-0.1;17.40;75713;2837.523;-1758.782;0;141;500;508.1;100.0;100.4;0;0.5;27.6;-1.0;
20/02/2025 02:51:15;116;0;50.33;-4;-55.99;-19.86;-0.2;17.50;75722;2837.526;-1758.786;0;141;500;506.5;100.0;100.4;0;0.5;27.6;-1.0;
20/02/2025 02:52:18;116;0;54.14;-4;-46.75;-12.69;-0.1;17.70;75747;2837.533;-1758.794;0;141;500;508.1;100.0;100.4;0;0.5;27.6;-1.0;
20/02/2025 02:52:42;116;0;52.14;-4;-51.79;-14.16;-0.2;17.80;75750;2837.536;-1758.797;0;-9999;500;508.1;100.0;100.4;0;0.5;27.6;-1.0;
20/02/2025 02:52:53;116;0;52.70;-4;-52.86;-16.78;0.1;17.80;75757;2837.538;-1758.798;0;141;500;506.5;100.0;100.4;0;0.5;27.6;-1.0;
20/02/2025 02:53:13;116;0;47.22;-4;-51.86;0.90;-0.1;17.90;75775;2837.540;-1758.802;0;141;500;508.1;100.0;100.4;0;0.5;27.6;-1.0;
20/02/2025 02:53:24;116;0;76.44;-4;-52.96;-15.63;-0.2;17.90;75755;2837.541;-1758.803;0;141;500;506.5;100.0;100.4;0;0.5;27.6;-1.0;
20/02/2025 02:53:44;116;0;80.31;-4;-55.36;-1.04;-0.0;18.00;75782;2837.543;-1758.805;0;141;500;508.1;100.0;100.4;0;0.5;27.6;-1.0;
20/02/2025 02:53:55;116;0;72.17;-4;-51.28;-17.39;-0.2;18.00;75781;2837.544;-1758.806;0;141;500;508.1;100.0;100.4;0;0.5;27.4;-1.0;
20/02/2025 02:54:58;116;0;67.69;-4;-55.47;-11.23;-0.1;18.30;75804;2837.553;-1758.814;0;141;500;508.1;100.0;100.4;0;0.5;27.6;-1.0;
20/02/2025 02:56:10;116;0;39.55;-4;-53.80;-3.63;-0.0;18.60;75817;2837.562;-1758.825;0;141;500;508.1;100.0;100.4;0;0.5;27.6;-1.0;
20/02/2025 02:56:23;116;0;30.79;-4;-50.07;-12.62;-0.2;18.70;75820;2837.563;-1758.825;0;141;500;508.1;100.0;100.4;0;0.5;27.6;-1.0;
20/02/2025 02:56:44;110;0;33.94;-4;-53.02;-11.08;0.0;18.70;75831;2837.563;-1758.825;0;141;-50;396.8;100.0;100.4;-9;-9.0;27.6;-1.0;
20/02/2025 02:56:54;110;0;57.34;-4;-59.93;-9.85;0.2;18.80;76154;2837.563;-1758.825;1;141;-50;248.4;100.0;100.3;-9;-9.5;27.5;-1.0;
20/02/2025 02:57:04;110;0;52.66;-4;-54.08;-12.93;0.7;18.80;76400;2837.563;-1758.825;1;141;-50;87.1;100.0;100.4;-9;-9.5;27.5;-1.0;
20/02/2025 02:57:14;110;0;19.77;-4;-67.43;-23.79;0.9;18.90;76747;2837.563;-1758.825;1;141;-50;-51.6;100.0;100.4;-9;-9.5;27.5;-1.0;
20/02/2025 02:57:24;110;0;2.23;-4;-66.09;-31.99;1.3;18.90;77007;2837.564;-1758.825;1;141;-50;-51.6;50.0;49.9;-9;-9.5;27.6;-1.0;
20/02/2025 02:57:44;100;0;27.74;-4;-36.17;-17.02;4.7;18.90;76980;2837.566;-1758.824;1;141;-50;-48.4;50.0;49.6;-9;-9.5;27.6;-1.0;
20/02/2025 02:58:04;100;0;35.21;-4;-30.89;-16.25;8.9;19.00;77001;2837.569;-1758.822;1;141;-50;-48.4;50.0;49.5;-70;-69.9;27.6;-1.0;
20/02/2025 02:58:24;100;0;43.47;-4;-35.13;-44.22;13.0;19.10;77003;2837.571;-1758.819;1;141;-50;-48.4;48.5;48.3;-70;-70.4;27.6;-1.0;
20/02/2025 02:58:44;100;0;54.92;-4;-29.76;-45.76;17.3;19.10;77010;2837.573;-1758.816;1;142;-50;-48.4;48.5;48.2;-70;-70.4;27.6;0.0;
20/02/2025 02:59:04;100;0;63.66;-4;-31.78;-45.06;21.2;19.20;77020;2837.575;-1758.813;1;142;-50;-46.8;48.5;48.0;-70;-69.9;27.6;0.0;
20/02/2025 02:59:24;100;0;74.52;-4;-31.37;-45.37;25.4;19.20;77033;2837.576;-1758.809;1;142;-50;-46.8;48.5;48.2;-68;-68.1;27.6;0.0;
20/02/2025 02:59:44;100;0;85.65;-4;-30.80;-42.84;29.7;19.20;77023;2837.576;-1758.805;1;143;-50;-46.8;48.5;48.2;-56;-56.0;27.6;0.0;
20/02/2025 03:00:04;100;0;94.80;-4;-30.74;-37.41;33.6;19.20;77036;2837.576;-1758.801;1;143;-50;-46.8;48.5;48.0;-45;-45.1;27.6;0.0;
20/02/2025 03:00:24;100;0;103.87;-4;-29.02;-32.12;37.6;19.20;77033;2837.576;-1758.797;1;143;-50;-46.8;48.5;48.0;-34;-33.8;27.6;0.0;
20/02/2025 03:00:44;100;0;116.56;-4;-29.15;-26.84;41.5;19.20;77050;2837.574;-1758.794;1;143;-50;-46.8;48.5;48.2;-15;-14.9;27.6;0.0;
20/02/2025 03:01:04;100;0;122.43;-4;-30.66;-17.74;45.4;19.30;77052;2837.572;-1758.790;1;143;-50;-46.8;48.5;48.2;-5;-5.0;27.6;0.0;
20/02/2025 03:01:24;100;0;125.85;-4;-30.16;-13.35;49.4;19.30;77060;2837.570;-1758.787;1;143;-50;-50.0;48.5;48.2;0;0.0;27.6;0.0;
20/02/2025 03:01:44;100;0;127.76;-4;-30.59;-10.93;53.4;19.30;77072;2837.568;-1758.784;1;143;-50;-45.2;48.5;48.2;3;3.2;27.6;0.0;
20/02/2025 03:02:04;100;0;129.95;-4;-30.67;-9.49;57.6;19.30;77072;2837.566;-1758.781;1;144;-50;-45.2;48.5;48.0;5;5.0;27.6;0.0;
20/02/2025 03:02:24;100;0;132.36;-4;-30.18;-8.42;61.9;19.30;77080;2837.564;-1758.778;1;144;-50;-46.8;48.5;48.2;8;8.1;27.6;0.0;
20/02/2025 03:02:44;100;0;129.67;-4;-30.99;-7.07;66.0;19.30;77072;2837.562;-1758.775;1;144;-50;-46.8;48.5;48.2;4;4.1;27.6;0.0;
20/02/2025 03:03:04;100;0;125.84;-4;-30.21;-9.63;70.2;19.30;77074;2837.560;-1758.772;1;144;-50;-46.8;48.5;48.2;-1;-0.9;27.6;0.0;
20/02/2025 03:03:24;100;0;127.44;-4;-29.78;-12.12;74.3;19.30;77066;2837.558;-1758.769;1;144;-50;-46.8;48.5;48.0;1;0.9;27.6;0.0;
20/02/2025 03:03:44;100;0;129.69;-4;-29.84;-10.73;78.2;19.30;77062;2837.555;-1758.766;1;144;-50;-45.2;48.5;48.0;4;4.1;27.6;0.0;
20/02/2025 03:04:04;100;0;132.71;-4;-29.87;-9.44;82.1;19.30;77068;2837.553;-1758.763;1;144;-50;-46.8;48.5;48.2;8;8.6;27.6;0.0;
20/02/2025 03:04:24;100;0;132.41;-4;-30.14;-7.14;86.0;19.30;77071;2837.551;-1758.760;1;144;-50;-46.8;48.5;48.2;8;9.0;27.6;0.0;
20/02/2025 03:04:44;100;0;132.39;-4;-30.11;-7.12;90.0;19.30;77063;2837.549;-1758.757;1;144;-50;-46.8;48.5;48.2;8;9.0;27.6;0.0;
20/02/2025 03:05:04;100;0;135.84;-4;-29.65;-7.09;93.9;19.30;77072;2837.546;-1758.755;1;144;-50;-45.2;48.5;48.2;10;9.9;27.6;0.0;
20/02/2025 03:05:24;100;0;136.34;-4;-30.35;-6.44;97.7;19.30;77058;2837.544;-1758.752;1;144;-50;-46.8;48.5;48.0;10;10.4;27.6;0.0;
20/02/2025 03:05:44;100;0;139.11;-4;-30.86;-6.34;101.7;19.30;77067;2837.542;-1758.750;1;144;-50;-46.8;48.5;48.0;12;12.2;27.6;0.0;
20/02/2025 03:06:04;100;0;140.04;-4;-30.45;-5.30;105.8;19.20;77050;2837.539;-1758.747;1;144;-50;-46.8;48.5;48.2;12;12.6;27.6;0.0;
20/02/2025 03:06:24;100;0;134.82;-4;-30.41;-5.48;109.7;19.30;77055;2837.537;-1758.744;1;144;-50;-46.8;48.5;48.2;10;9.9;27.6;0.0;
20/02/2025 03:06:44;100;0;131.84;-4;-31.09;-6.93;113.6;19.20;77031;2837.534;-1758.742;1;144;-50;-48.4;48.5;48.2;7;7.2;27.6;0.0;
20/02/2025 03:07:04;100;0;131.99;-4;-29.82;-8.17;117.7;19.20;77017;2837.532;-1758.739;1;145;-50;-46.8;48.5;48.2;7;6.8;27.6;0.0;
20/02/2025 03:07:24;100;0;135.76;-4;-29.91;-8.28;121.4;19.20;77005;2837.530;-1758.736;1;145;-50;-46.8;48.5;48.0;9;9.0;27.6;0.0;
20/02/2025 03:07:44;100;0;143.99;-4;-29.20;-6.74;125.1;19.20;76983;2837.527;-1758.734;1;145;-50;-46.8;48.5;48.2;12;12.2;27.6;0.0;
20/02/2025 03:08:04;100;0;143.69;-4;-29.49;-5.36;128.5;19.20;76956;2837.525;-1758.732;1;145;-50;-46.8;48.5;48.0;12;12.6;27.6;0.0;
20/02/2025 03:08:24;100;0;142.83;-4;-30.22;-5.29;132.0;19.10;76959;2837.523;-1758.730;1;145;-50;-48.4;48.5;48.3;12;12.6;27.6;0.0;
20/02/2025 03:08:44;100;0;141.39;-4;-30.38;-5.27;135.6;19.10;76953;2837.520;-1758.728;1;145;-50;-46.8;48.5;48.2;12;12.6;27.6;0.0;
20/02/2025 03:09:04;100;0;144.22;-4;-30.97;-5.35;139.5;19.10;76945;2837.518;-1758.726;1;145;-50;-46.8;48.5;48.2;12;12.6;27.6;0.0;
20/02/2025 03:09:24;100;0;144.11;-4;-30.71;-5.31;143.5;19.10;76945;2837.515;-1758.723;1;145;-50;-46.8;48.5;48.2;12;12.6;27.6;0.0;
20/02/2025 03:09:44;100;0;142.15;-4;-30.52;-5.16;147.4;19.00;76939;2837.512;-1758.721;1;145;-50;-46.8;48.5;48.2;12;12.6;27.6;0.0;
20/02/2025 03:10:04;100;0;136.76;-4;-29.89;-5.30;151.2;19.00;76942;2837.510;-1758.719;1;145;-50;-46.8;48.5;48.2;10;9.9;27.6;0.0;
20/02/2025 03:10:24;100;0;137.17;-4;-29.92;-6.85;154.9;19.00;76923;2837.508;-1758.716;1;145;-50;-45.2;48.5;48.2;10;9.5;27.6;0.0;
20/02/2025 03:10:44;100;0;129.74;-4;-30.05;-6.82;158.7;19.00;76923;2837.506;-1758.713;1;145;-50;-46.8;48.5;48.2;3;2.7;27.6;0.0;
20/02/2025 03:11:04;100;0;130.77;-4;-30.24;-10.35;162.5;19.00;76915;2837.504;-1758.710;1;145;-50;-46.8;48.5;48.2;3;2.7;27.6;0.0;
20/02/2025 03:11:24;100;0;133.78;-4;-29.08;-10.33;166.2;18.90;76879;2837.501;-1758.708;1;145;-50;-48.4;48.5;48.2;7;7.2;27.6;0.0;
20/02/2025 03:11:44;100;0;137.40;-4;-29.21;-7.55;169.6;18.90;76861;2837.499;-1758.706;1;145;-50;-46.8;48.5;48.0;10;9.9;27.5;0.0;
20/02/2025 03:12:04;100;0;140.05;-4;-29.88;-6.42;173.0;18.90;76854;2837.497;-1758.703;1;145;-50;-46.8;48.5;48.2;10;10.4;27.6;0.0;
20/02/2025 03:12:24;100;0;137.04;-4;-29.77;-6.25;176.4;18.80;76841;2837.495;-1758.701;1;145;-50;-46.8;48.5;48.2;10;10.4;27.6;0.0;
20/02/2025 03:12:44;100;0;136.11;-4;-29.51;-6.26;179.7;18.80;76828;2837.493;-1758.699;1;145;-50;-45.2;48.5;48.2;10;10.4;27.5;0.0;
20/02/2025 03:13:04;100;0;135.03;-4;-29.68;-6.28;183.0;18.80;76820;2837.491;-1758.697;1;145;-50;-46.8;48.5;48.0;8;7.7;27.6;0.0;
20/02/2025 03:13:24;100;0;134.14;-4;-28.95;-7.90;186.3;18.70;76818;2837.489;-1758.694;1;145;-50;-46.8;48.8;48.7;8;7.7;27.6;0.0;
20/02/2025 03:13:44;100;0;132.95;-4;-29.79;-8.00;189.3;18.70;76800;2837.487;-1758.692;1;145;-50;-46.8;48.8;48.9;6;5.9;27.6;0.0;
20/02/2025 03:14:04;100;0;130.86;-4;-30.24;-9.01;192.5;18.70;76786;2837.486;-1758.690;1;145;-50;-46.8;48.8;48.9;4;4.1;27.6;0.0;
20/02/2025 03:14:24;100;0;140.89;-4;-30.56;-9.76;195.8;18.60;76758;2837.483;-1758.688;1;145;-50;-46.8;48.8;49.0;11;10.8;27.6;0.0;
20/02/2025 03:14:43;118;0;144.25;-4;-31.60;-5.95;199.2;18.60;76748;2837.481;-1758.686;1;145;150;-43.5;34.0;33.9;11;11.3;27.6;0.0;
20/02/2025 03:14:53;118;0;128.71;-4;-22.63;-6.67;200.5;18.60;76716;2837.480;-1758.685;1;146;150;85.5;34.0;33.6;11;11.3;27.2;-1.0;
20/02/2025 03:15:03;118;0;126.36;-4;-9.79;-6.43;201.5;18.50;76440;2837.480;-1758.683;1;146;150;154.8;34.0;33.6;11;11.3;27.2;-1.0;
20/02/2025 03:15:13;118;0;142.62;-4;-4.54;-6.72;201.8;18.50;76315;2837.479;-1758.683;1;146;150;154.8;34.0;33.6;11;11.3;27.6;-1.0;
20/02/2025 03:15:33;117;0;140.38;-4;-1.47;-6.59;201.5;18.50;76309;2837.479;-1758.683;1;146;150;153.2;34.0;33.4;11;11.3;27.6;-1.0;
20/02/2025 03:15:53;117;0;136.57;-4;-1.67;-6.77;201.0;18.50;76297;2837.479;-1758.683;1;146;150;154.8;24.5;24.4;32;32.5;27.6;-1.0;
20/02/2025 03:16:13;117;0;137.40;-4;25.09;5.37;200.3;18.40;76304;2837.479;-1758.683;1;146;150;158.1;23.0;23.0;32;32.5;27.6;-1.0;
20/02/2025 03:16:33;117;0;139.16;-4;27.94;4.76;198.7;18.40;76304;2837.478;-1758.681;1;146;150;158.1;22.4;22.4;32;32.5;27.6;-1.0;
20/02/2025 03:16:53;117;0;137.38;-4;29.40;4.72;196.8;18.30;76292;2837.477;-1758.680;1;146;150;158.1;22.4;22.1;32;32.5;27.6;-1.0;
20/02/2025 03:17:13;117;0;135.05;-4;29.02;4.80;194.9;18.30;76283;2837.475;-1758.679;1;146;150;158.1;22.4;22.1;35;35.2;27.5;-1.0;
20/02/2025 03:17:33;117;0;132.61;-4;29.91;6.29;192.9;18.30;76301;2837.474;-1758.678;1;146;150;158.1;22.4;22.1;37;37.0;27.6;-1.0;
20/02/2025 03:17:53;117;0;127.29;-4;29.47;7.44;190.8;18.20;76289;2837.473;-1758.676;1;146;150;158.1;22.4;21.9;45;45.1;27.6;-1.0;
20/02/2025 03:18:13;117;0;130.10;-4;30.01;11.69;188.6;18.20;76284;2837.472;-1758.674;1;146;150;158.1;22.4;21.9;41;41.1;27.6;-1.0;
20/02/2025 03:18:33;117;0;132.95;-4;30.18;8.99;186.5;18.10;76285;2837.471;-1758.673;1;146;150;156.5;22.4;22.1;37;36.1;27.5;-1.0;
20/02/2025 03:18:53;117;0;136.38;-4;29.91;6.75;184.4;18.10;76289;2837.470;-1758.671;1;146;150;158.1;22.4;22.1;34;33.8;27.6;-1.0;
20/02/2025 03:19:13;117;0;134.24;-4;29.84;5.15;182.2;18.10;76300;2837.468;-1758.670;1;146;150;158.1;22.4;22.1;36;36.6;27.6;-1.0;
20/02/2025 03:19:33;117;0;134.45;-4;29.76;6.93;180.0;18.10;76306;2837.467;-1758.668;1;146;150;158.1;22.4;22.1;36;36.6;27.6;-1.0;
20/02/2025 03:19:53;117;0;133.54;-4;29.73;6.97;177.9;18.00;76327;2837.466;-1758.667;1;146;150;158.1;22.4;22.1;36;36.6;27.6;-1.0;
20/02/2025 03:20:13;117;0;133.84;-4;29.89;6.91;175.8;18.00;76319;2837.465;-1758.666;1;146;150;158.1;22.4;22.1;36;37.0;27.6;-1.0;
20/02/2025 03:20:33;117;0;135.59;-4;29.54;6.91;173.7;18.00;76331;2837.464;-1758.664;1;146;150;159.7;22.4;21.9;34;32.9;27.5;-1.0;
20/02/2025 03:20:53;117;0;136.90;-4;29.26;5.08;171.7;18.00;76325;2837.462;-1758.663;1;146;170;172.6;22.4;22.1;34;33.4;27.5;-1.0;
20/02/2025 03:21:13;117;0;139.26;-4;28.97;5.06;169.7;18.00;76288;2837.461;-1758.662;1;146;170;174.2;22.1;21.9;32;32.0;27.6;-1.0;
20/02/2025 03:21:33;117;0;136.45;-4;29.18;4.38;167.6;17.90;76290;2837.460;-1758.660;1;146;170;172.6;22.1;22.1;34;34.3;27.6;-1.0;
20/02/2025 03:21:53;117;0;130.56;-4;29.18;5.77;165.5;17.90;76305;2837.459;-1758.659;1;146;170;172.6;22.1;21.9;41;41.1;27.6;-1.0;
20/02/2025 03:22:13;117;0;131.74;-4;29.10;9.51;163.4;17.90;76306;2837.458;-1758.657;1;146;170;172.6;22.1;22.1;39;38.8;27.5;-1.0;
20/02/2025 03:22:33;117;0;130.46;-4;29.32;7.76;161.5;17.90;76318;2837.457;-1758.656;1;146;190;193.5;22.1;22.1;41;41.1;27.6;-1.0;
20/02/2025 03:22:53;117;0;130.52;-4;28.21;9.64;159.6;17.90;76287;2837.455;-1758.654;1;147;210;212.9;21.6;21.5;41;41.5;27.6;-1.0;
20/02/2025 03:23:13;117;0;131.35;-4;30.30;9.59;157.4;17.90;76252;2837.454;-1758.653;1;147;210;212.9;21.6;21.2;41;41.5;27.6;-1.0;
20/02/2025 03:23:33;117;0;137.09;-4;30.10;9.61;155.2;17.90;76262;2837.453;-1758.651;1;147;210;212.9;21.6;21.4;34;33.8;27.6;-1.0;
20/02/2025 03:23:53;117;0;136.37;-4;29.63;5.17;152.8;17.90;76284;2837.452;-1758.650;1;147;210;211.3;21.6;21.2;34;33.4;27.6;-1.0;
20/02/2025 03:24:13;117;0;136.90;-4;29.72;5.18;150.5;17.90;76276;2837.450;-1758.648;1;147;210;212.9;21.6;21.2;34;33.8;27.6;-1.0;
20/02/2025 03:24:33;117;0;139.77;-4;29.38;5.18;148.1;17.90;76290;2837.449;-1758.647;1;147;210;212.9;21.6;21.2;34;33.4;27.6;-1.0;
20/02/2025 03:24:53;117;0;141.62;-4;29.36;5.22;145.8;17.90;76302;2837.447;-1758.645;1;147;210;212.9;21.6;21.2;32;32.0;27.5;-1.0;
20/02/2025 03:25:13;117;0;140.61;-4;29.35;4.50;143.6;17.90;76305;2837.446;-1758.644;1;147;210;211.3;21.6;21.2;32;32.0;27.5;-1.0;
20/02/2025 03:25:33;117;0;139.21;-4;29.63;4.38;141.4;17.90;76307;2837.444;-1758.642;1;147;210;212.9;21.6;21.2;32;32.0;27.6;-1.0;
20/02/2025 03:25:53;117;0;137.87;-4;29.24;4.49;139.3;17.90;76313;2837.443;-1758.641;1;147;210;212.9;21.6;21.2;34;33.8;27.6;-1.0;
20/02/2025 03:26:13;117;0;137.20;-4;30.05;5.68;137.1;17.90;76330;2837.442;-1758.640;1;147;210;212.9;21.6;21.2;34;34.3;27.6;-1.0;
20/02/2025 03:26:33;117;0;135.76;-4;29.95;5.63;134.8;17.90;76335;2837.440;-1758.638;1;147;210;212.9;21.6;21.2;36;36.6;27.6;-1.0;
20/02/2025 03:26:53;117;0;128.88;-4;29.73;7.34;132.5;17.90;76338;2837.439;-1758.636;1;147;210;212.9;21.6;21.2;45;45.6;27.6;-1.0;
20/02/2025 03:27:13;117;0;124.09;-4;30.03;12.02;130.3;17.90;76347;2837.438;-1758.635;1;147;210;214.5;21.6;21.2;54;54.2;27.5;-1.0;
20/02/2025 03:27:33;117;0;119.75;-4;30.90;16.89;128.0;17.90;76352;2837.437;-1758.633;1;147;210;214.5;21.6;21.2;61;60.9;27.6;-1.0;
20/02/2025 03:27:53;117;0;126.00;-4;31.35;20.82;125.8;17.90;76375;2837.436;-1758.631;1;147;210;212.9;21.6;21.4;50;50.1;27.6;-1.0;
20/02/2025 03:28:13;117;0;127.50;-4;30.84;13.98;123.5;17.90;76399;2837.435;-1758.629;1;147;210;214.5;21.6;21.2;48;47.8;27.6;-1.0;
20/02/2025 03:28:33;117;0;128.07;-4;30.55;12.56;121.2;17.90;76412;2837.434;-1758.628;1;148;210;212.9;21.6;21.2;48;46.9;27.6;-1.0;
20/02/2025 03:28:53;117;0;130.33;-4;30.37;12.56;119.0;17.90;76412;2837.433;-1758.626;1;148;210;212.9;21.6;21.2;45;44.7;27.6;-1.0;
20/02/2025 03:29:13;117;0;132.95;-4;30.00;10.86;116.9;17.90;76425;2837.432;-1758.625;1;148;210;212.9;21.6;21.2;41;40.6;27.6;-1.0;
20/02/2025 03:29:33;117;0;133.94;-4;30.13;8.67;114.8;18.00;76436;2837.431;-1758.623;1;148;210;212.9;21.6;21.2;39;38.8;27.6;-1.0;
20/02/2025 03:29:53;117;0;134.89;-4;29.91;7.78;112.5;18.00;76443;2837.429;-1758.622;1;148;210;212.9;21.6;21.2;39;38.4;27.6;-1.0;
20/02/2025 03:30:13;117;0;135.33;-4;30.08;7.75;110.3;18.00;76465;2837.428;-1758.620;1;148;210;214.5;21.6;21.2;39;38.4;27.6;-1.0;
20/02/2025 03:30:34;117;0;136.32;-4;30.03;7.75;107.8;18.00;76453;2837.427;-1758.619;1;148;210;212.9;21.6;21.2;37;37.0;27.6;-1.0;
20/02/2025 03:30:54;117;0;137.99;-4;29.74;6.84;105.3;18.00;76469;2837.425;-1758.617;1;148;210;212.9;21.6;21.2;35;35.2;27.6;-1.0;
20/02/2025 03:31:14;117;0;138.45;-4;29.18;5.82;102.9;18.00;76480;2837.423;-1758.615;1;148;210;212.9;21.6;21.2;35;34.7;27.5;-1.0;
20/02/2025 03:31:34;117;0;136.99;-4;29.39;5.85;100.4;18.10;76482;2837.422;-1758.614;1;148;210;212.9;21.6;21.2;35;34.7;27.6;-1.0;
20/02/2025 03:31:54;117;0;133.10;-4;29.64;5.96;98.0;18.10;76492;2837.421;-1758.612;1;148;210;212.9;21.6;21.2;41;41.1;27.6;-1.0;
20/02/2025 03:32:14;117;0;132.64;-4;29.91;9.27;95.6;18.10;76524;2837.419;-1758.610;1;148;210;214.5;21.6;21.4;41;41.5;27.6;-1.0;
20/02/2025 03:32:34;117;0;132.31;-4;29.55;9.66;93.1;18.10;76520;2837.418;-1758.609;1;148;210;212.9;21.6;21.2;41;41.5;27.6;-1.0;
20/02/2025 03:32:54;117;0;131.74;-4;30.36;9.63;90.6;18.10;76519;2837.417;-1758.607;1;148;210;212.9;21.6;21.2;43;43.3;27.6;-1.0;
20/02/2025 03:33:14;117;0;132.45;-4;30.46;10.79;88.0;18.20;76530;2837.415;-1758.605;1;149;210;212.9;21.6;21.2;43;43.8;27.6;-1.0;
20/02/2025 03:33:34;117;0;134.81;-4;29.88;10.69;85.3;18.20;76543;2837.414;-1758.603;1;149;210;212.9;21.6;21.2;40;40.2;27.5;-1.0;
20/02/2025 03:33:54;117;0;135.22;-4;29.91;8.37;82.8;18.20;76547;2837.412;-1758.602;1;149;210;214.5;21.6;21.2;40;39.7;27.6;-1.0;
20/02/2025 03:34:14;117;0;136.98;-4;29.52;8.41;80.1;18.20;76544;2837.410;-1758.600;1;149;210;211.3;21.6;21.2;38;37.5;27.6;-1.0;
20/02/2025 03:34:34;117;0;137.09;-4;30.23;7.21;77.6;18.20;76557;2837.409;-1758.598;1;149;210;212.9;21.6;21.2;38;37.0;27.6;-1.0;
20/02/2025 03:34:54;117;0;137.47;-4;29.57;7.14;74.8;18.30;76572;2837.407;-1758.596;1;149;210;212.9;21.6;21.2;38;37.0;27.6;-1.0;
20/02/2025 03:35:14;117;0;136.40;-4;29.71;7.12;72.0;18.30;76570;2837.405;-1758.594;1;149;210;212.9;21.6;21.2;38;37.0;27.6;-1.0;
20/02/2025 03:35:34;117;0;136.87;-4;29.49;7.10;69.3;18.30;76568;2837.404;-1758.593;1;149;210;212.9;21.6;21.2;38;37.5;27.6;-1.0;
20/02/2025 03:35:54;117;0;135.97;-4;29.30;7.28;66.6;18.30;76589;2837.402;-1758.591;1;149;210;212.9;21.6;21.2;38;37.0;27.6;-1.0;
20/02/2025 03:36:14;117;0;136.57;-4;29.54;7.09;63.9;18.40;76596;2837.400;-1758.589;1;149;210;211.3;21.6;21.2;38;37.0;27.6;-1.0;
20/02/2025 03:36:34;117;0;138.46;-4;29.07;7.05;61.1;18.40;76604;2837.399;-1758.587;1;149;210;211.3;21.6;21.2;36;36.1;27.6;-1.0;
20/02/2025 03:36:54;117;0;140.25;-4;29.56;6.52;58.5;18.40;76597;2837.397;-1758.586;1;149;210;212.9;21.6;21.2;36;36.1;27.6;-1.0;
20/02/2025 03:37:14;117;0;140.43;-4;28.77;6.46;56.0;18.40;76616;2837.395;-1758.584;1;149;210;211.3;21.2;21.2;36;36.1;27.6;-1.0;
20/02/2025 03:37:34;117;0;140.61;-4;30.06;6.72;53.7;18.50;76620;2837.394;-1758.583;1;149;210;212.9;21.2;21.4;36;35.6;27.6;-1.0;
20/02/2025 03:37:54;117;0;141.17;-4;28.75;6.55;51.0;18.50;76622;2837.392;-1758.581;1;149;210;212.9;20.8;20.6;34;33.8;27.6;-1.0;
20/02/2025 03:38:14;117;0;141.40;-4;30.83;5.13;48.5;18.50;76631;2837.391;-1758.579;1;149;210;212.9;20.8;20.5;34;32.9;27.6;-1.0;
20/02/2025 03:38:34;117;0;143.31;-4;30.36;4.90;45.7;18.50;76638;2837.389;-1758.578;1;150;210;212.9;20.8;20.5;34;32.9;27.6;-1.0;
20/02/2025 03:38:54;117;0;141.05;-4;30.74;4.95;42.9;18.60;76659;2837.387;-1758.576;1;150;210;212.9;20.8;20.6;34;33.4;27.6;-1.0;
20/02/2025 03:39:14;117;0;136.12;-4;30.46;5.12;40.1;18.60;76661;2837.385;-1758.574;1;150;210;212.9;20.8;20.5;40;40.2;27.5;-1.0;
20/02/2025 03:39:34;117;0;137.93;-4;31.29;8.93;37.3;18.60;76660;2837.384;-1758.573;1;150;210;214.5;20.8;20.5;38;37.9;27.6;-1.0;
20/02/2025 03:39:54;117;0;138.06;-4;30.85;7.29;34.3;18.60;76664;2837.382;-1758.571;1;150;210;212.9;20.8;20.5;38;37.5;27.6;-1.0;
20/02/2025 03:40:14;117;0;136.72;-4;30.89;7.43;31.6;18.70;76669;2837.380;-1758.569;1;150;210;214.5;20.8;20.6;40;40.2;27.6;-1.0;
20/02/2025 03:40:34;117;0;135.78;-4;31.50;9.51;28.7;18.70;76679;2837.379;-1758.567;1;150;210;214.5;20.8;20.5;40;40.6;27.6;-1.0;
20/02/2025 03:40:54;117;0;136.67;-4;30.63;9.52;25.7;18.70;76672;2837.377;-1758.565;1;150;210;214.5;20.8;20.5;40;40.6;27.6;-1.0;
20/02/2025 03:41:14;117;0;135.65;-4;30.16;9.26;22.6;18.70;76675;2837.375;-1758.563;1;150;210;212.9;20.8;20.8;40;40.6;27.6;-1.0;
20/02/2025 03:41:34;117;0;133.65;-4;29.85;9.24;19.9;18.70;76674;2837.373;-1758.561;1;150;210;212.9;20.8;20.5;44;44.2;27.6;-1.0;
20/02/2025 03:41:54;117;0;134.27;-4;32.48;11.50;16.5;18.80;76678;2837.372;-1758.559;1;150;210;212.9;21.6;21.5;44;44.7;27.6;-1.0;
20/02/2025 03:42:14;117;0;140.71;-4;29.90;11.66;13.6;18.80;76681;2837.370;-1758.557;1;151;210;212.9;21.6;21.6;37;36.6;27.5;-1.0;
20/02/2025 03:42:34;117;0;135.23;-4;32.68;6.99;10.9;18.80;76687;2837.368;-1758.556;1;151;210;212.9;22.4;22.7;43;43.3;27.6;-1.0;
20/02/2025 03:42:54;117;0;138.45;-4;26.83;10.46;8.0;18.80;76674;2837.366;-1758.554;1;151;210;211.3;21.4;21.2;39;38.4;27.5;-1.0;
20/02/2025 03:43:14;117;0;134.80;-4;30.58;7.32;5.8;18.80;76688;2837.365;-1758.552;1;151;210;212.9;21.4;21.1;43;42.9;27.6;-1.0;
20/02/2025 03:43:32;115;0;140.18;-4;31.77;10.07;3.3;18.80;76685;2837.364;-1758.551;1;151;500;221.0;100.0;62.2;0;-0.5;27.6;-1.0;
20/02/2025 03:43:42;115;0;121.66;-4;14.11;-13.24;2.3;18.90;76661;2837.363;-1758.549;1;151;500;340.3;100.0;100.0;0;-0.5;27.3;-1.0;
20/02/2025 03:43:52;115;0;127.30;-4;-54.04;-14.85;2.8;18.90;76408;2837.363;-1758.549;1;151;500;454.8;100.0;100.6;0;-0.5;27.3;-1.0;
20/02/2025 03:44:02;115;0;98.48;-4;-73.68;-4.38;2.6;18.90;76148;2837.363;-1758.549;1;151;500;504.8;100.0;100.7;0;-0.5;27.3;-1.0;
20/02/2025 03:44:12;115;0;89.98;-4;-29.62;-2.51;-0.1;18.90;76047;2837.363;-1758.547;1;151;500;504.8;100.0;100.4;0;-0.5;27.6;-1.0;
20/02/2025 03:44:32;119;0;48.88;-4;-61.87;-1.15;0.3;18.90;76056;2837.363;-1758.547;1;151;500;508.1;100.0;100.6;0;-0.5;27.6;-1.0;
20/02/2025 03:44:42;119;0;40.71;-4;-47.93;-11.59;0.0;19.00;76064;2837.611;-1758.733;0;151;500;508.1;100.0;100.6;0;-0.5;27.6;-1.0;
