Timestamp;NavState;SecurityLevel;Heading;Declination;Pitch;Roll;Depth;Temperature;Pa;Lat;Lon;DeadReckoning;DesiredH;BallastCmd;BallastPos;LinCmd;LinPos;AngCmd;AngPos;Voltage;Altitude;
17/02/2025 22:06:45;119;0;114.35;-4;-60.79;-2.16;-0.1;17.60;75827;2835.024;-1758.722;0;10;500;508.1;100.0;100.7;0;-0.5;28.1;-1.0;
17/02/2025 22:06:55;116;0;123.70;-4;-57.90;-16.59;-0.3;17.60;75842;2835.019;-1758.728;0;9;500;508.1;100.0;100.7;0;-0.5;28.1;-1.0;
17/02/2025 22:07:23;116;0;153.52;-4;-59.41;-9.25;-0.1;17.70;75843;2835.021;-1758.728;0;12;500;508.1;100.0;100.7;0;-0.5;28.1;-1.0;
17/02/2025 22:07:49;116;0;161.38;-4;-62.58;-23.98;-0.2;17.70;75848;2835.023;-1758.729;0;-9999;500;508.1;100.0;100.7;0;-0.5;28.1;-1.0;
17/02/2025 22:08:04;116;0;146.10;-4;-48.70;-18.69;-0.1;17.80;75857;2835.023;-1758.731;0;13;500;506.5;100.0;100.7;0;-0.5;28.1;-1.0;
17/02/2025 22:09:07;116;0;160.93;-4;-53.63;-4.88;-0.2;18.00;75883;2835.027;-1758.737;0;14;500;508.1;100.0;100.9;0;-0.5;28.1;-1.0;
17/02/2025 22:10:36;116;0;180.54;-4;-58.60;5.52;-0.1;18.30;75905;2835.034;-1758.743;0;17;500;508.1;100.0;100.9;0;-0.5;28.1;-1.0;
17/02/2025 22:12:07;116;0;198.61;-4;-49.32;-10.87;-0.2;18.80;75946;2835.037;-1758.748;0;-9999;500;508.1;100.0;100.9;0;-0.5;28.1;-1.0;
17/02/2025 22:12:18;116;0;180.38;-4;-54.99;-8.99;-0.1;18.80;75937;2835.038;-1758.749;0;25;500;508.1;100.0;100.7;0;-0.5;28.1;-1.0;
17/02/2025 22:12:38;116;0;158.29;-4;-60.09;-9.13;-0.1;18.90;75947;2835.039;-1758.750;0;26;500;508.1;100.0;100.7;0;-0.5;28.1;-1.0;
17/02/2025 22:12:49;116;0;156.81;-4;-52.52;-9.27;-0.1;18.90;75948;2835.039;-1758.751;0;26;500;508.1;100.0;100.9;0;0.0;28.1;-1.0;
17/02/2025 22:13:09;116;0;133.34;-4;-56.65;-3.34;-0.1;19.00;75947;2835.040;-1758.753;0;-9999;500;508.1;100.0;100.9;0;-0.5;28.1;-1.0;
17/02/2025 22:13:23;116;0;145.84;-4;-50.37;-4.63;-0.2;19.10;75968;2835.042;-1758.753;0;97;500;508.1;100.0;100.7;0;0.0;28.1;-1.0;
17/02/2025 22:13:43;116;0;167.36;-4;-48.36;-23.20;-0.1;19.20;75973;2835.043;-1758.754;0;97;500;508.1;100.0;100.9;0;-0.5;28.1;-1.0;
17/02/2025 22:13:54;116;0;165.10;-4;-59.13;-6.94;-0.2;19.20;75968;2835.045;-1758.755;0;97;500;508.1;100.0;100.7;0;-0.5;28.1;-1.0;
17/02/2025 22:14:14;110;0;196.12;-4;-60.89;-42.60;0.1;19.30;75975;2835.045;-1758.755;0;97;-50;393.5;100.0;99.9;-8;-8.1;28.1;-1.0;
17/02/2025 22:14:24;110;0;187.87;-4;-51.43;-12.44;0.2;19.30;76320;2835.045;-1758.755;1;97;-50;248.4;100.0;99.9;-8;-8.1;28.1;-1.0;
17/02/2025 22:14:34;110;0;179.51;-4;-59.21;-12.10;0.5;19.30;76560;2835.045;-1758.755;1;97;-50;90.3;100.0;99.9;-8;-8.1;28.1;-1.0;
17/02/2025 22:14:44;110;0;176.58;-4;-64.79;-24.93;0.9;19.40;76874;2835.044;-1758.755;1;97;-50;-50.0;100.0;99.9;-8;-8.1;28.1;-1.0;
17/02/2025 22:14:54;110;0;178.27;-4;-68.94;-15.67;1.3;19.40;77172;2835.044;-1758.755;1;97;-50;-50.0;43.1;42.9;-8;-8.1;28.1;-1.0;
17/02/2025 22:15:14;100;0;199.12;-4;-28.89;-17.25;4.1;19.50;77140;2835.042;-1758.756;1;97;-50;-45.2;43.1;42.6;-8;-8.1;28.1;-1.0;
17/02/2025 22:15:34;100;0;207.08;-4;-19.65;-15.48;6.7;19.50;77139;2835.038;-1758.758;1;97;-50;-41.9;43.1;42.4;70;69.9;28.1;-1.0;
17/02/2025 22:15:54;100;0;204.77;-4;-22.36;24.10;9.2;19.50;77169;2835.036;-1758.759;1;97;-50;-43.5;42.4;42.4;70;69.9;28.1;-1.0;
17/02/2025 22:16:14;100;0;195.08;-4;-23.42;23.89;11.8;19.60;77166;2835.033;-1758.760;1;97;-50;-41.9;41.3;41.4;70;70.4;28.1;-1.0;
17/02/2025 22:16:34;100;0;184.14;-4;-20.67;23.64;14.5;19.50;77175;2835.029;-1758.760;1;97;-50;-43.5;41.3;41.2;70;70.4;28.1;0.0;
17/02/2025 22:16:54;100;0;174.48;-4;-21.14;23.57;17.0;19.60;77177;2835.026;-1758.760;1;97;-50;-43.5;41.3;41.2;70;70.4;28.1;0.0;
17/02/2025 22:17:14;100;0;165.14;-4;-20.04;24.03;19.4;19.50;77174;2835.023;-1758.759;1;97;-50;-45.2;41.3;41.4;70;70.4;28.1;0.0;
17/02/2025 22:17:34;100;0;154.43;-4;-19.92;23.59;21.8;19.60;77188;2835.020;-1758.758;1;97;-50;-43.5;41.3;41.1;70;70.4;28.1;0.0;
17/02/2025 22:17:54;100;0;144.30;-4;-20.20;23.65;24.1;19.60;77188;2835.017;-1758.756;1;97;-50;-43.5;41.3;41.2;70;70.4;28.1;0.0;
17/02/2025 22:18:14;100;0;136.27;-4;-19.70;23.34;26.6;19.60;77190;2835.015;-1758.753;1;96;-50;-41.9;41.3;41.2;65;65.0;28.1;0.0;
17/02/2025 22:18:34;100;0;127.04;-4;-19.49;20.51;28.9;19.60;77179;2835.013;-1758.750;1;96;-50;-43.5;41.3;41.2;53;52.8;28.1;0.0;
17/02/2025 22:18:54;100;0;119.44;-4;-19.11;14.13;31.1;19.60;77195;2835.011;-1758.747;1;96;-50;-43.5;41.3;41.2;41;41.1;28.1;0.0;
17/02/2025 22:19:14;100;0;112.95;-4;-18.55;8.37;33.2;19.60;77189;2835.010;-1758.744;1;96;-50;-43.5;41.8;42.3;30;29.8;28.1;0.0;
17/02/2025 22:19:34;100;0;108.31;-4;-19.32;2.67;35.4;19.60;77191;2835.009;-1758.741;1;96;-50;-43.5;41.8;42.1;22;22.1;28.1;0.0;
17/02/2025 22:19:54;100;0;103.80;-4;-18.89;-1.01;37.6;19.60;77191;2835.008;-1758.738;1;96;-50;-43.5;42.1;41.8;17;17.1;28.1;0.0;
17/02/2025 22:20:14;100;0;100.51;-4;-18.69;-3.64;39.8;19.60;77194;2835.007;-1758.735;1;96;-50;-43.5;42.5;42.7;15;14.4;28.1;0.0;
17/02/2025 22:20:34;100;0;100.30;-4;-19.72;-4.79;42.1;19.60;77193;2835.007;-1758.731;1;96;-50;-41.9;42.5;42.9;15;14.4;28.1;0.0;
17/02/2025 22:20:54;100;0;100.46;-4;-19.91;-4.82;44.5;19.60;77198;2835.006;-1758.728;1;96;-50;-43.5;42.5;42.9;15;14.4;28.1;0.0;
17/02/2025 22:21:14;100;0;97.02;-4;-19.97;-4.76;46.9;19.60;77190;2835.006;-1758.724;1;96;-50;-41.9;42.5;42.9;15;14.4;28.1;0.0;
17/02/2025 22:21:34;100;0;94.90;-4;-20.19;-4.75;49.2;19.60;77201;2835.005;-1758.721;1;96;-50;-45.2;42.5;42.9;13;13.1;28.1;0.0;
17/02/2025 22:21:54;100;0;95.76;-4;-19.81;-5.61;51.6;19.70;77202;2835.005;-1758.718;1;96;-50;-43.5;42.5;42.9;13;12.6;28.1;0.0;
17/02/2025 22:22:14;100;0;95.12;-4;-19.89;-5.51;53.9;19.70;77203;2835.004;-1758.714;1;96;-50;-43.5;42.5;43.0;13;12.6;28.1;0.0;
17/02/2025 22:22:34;100;0;95.19;-4;-19.90;-5.60;56.4;19.70;77208;2835.004;-1758.711;1;96;-50;-43.5;42.5;43.0;13;12.6;28.1;0.0;
17/02/2025 22:22:54;100;0;93.83;-4;-20.06;-5.62;58.7;19.70;77205;2835.003;-1758.707;1;96;-50;-43.5;42.5;42.9;13;12.6;28.1;0.0;
17/02/2025 22:23:14;100;0;94.58;-4;-20.17;-5.55;61.3;19.70;77217;2835.003;-1758.703;1;96;-50;-43.5;42.5;42.9;13;12.6;28.1;0.0;
17/02/2025 22:23:34;100;0;94.85;-4;-19.80;-5.60;63.7;19.70;77222;2835.003;-1758.700;1;96;-50;-43.5;42.5;42.9;13;12.6;28.1;0.0;
17/02/2025 22:23:54;100;0;95.10;-4;-19.65;-5.57;66.1;19.70;77217;2835.002;-1758.696;1;96;-50;-43.5;42.5;43.0;13;12.6;28.1;0.0;
17/02/2025 22:24:14;100;0;96.87;-4;-19.48;-5.60;68.5;19.70;77222;2835.002;-1758.693;1;96;-50;-43.5;42.5;42.9;13;12.6;28.1;0.0;
17/02/2025 22:24:34;100;0;95.84;-4;-19.81;-5.64;70.8;19.70;77217;2835.001;-1758.689;1;96;-50;-43.5;42.5;42.9;13;12.6;28.1;0.0;
17/02/2025 22:24:54;100;0;96.00;-4;-19.74;-5.58;73.3;19.70;77225;2835.001;-1758.686;1;96;-50;-43.5;42.5;42.9;13;12.6;28.1;0.0;
17/02/2025 22:25:14;100;0;95.71;-4;-19.57;-5.59;75.6;19.70;77225;2835.000;-1758.682;1;96;-50;-43.5;42.5;42.9;13;12.6;28.1;0.0;
17/02/2025 22:25:34;100;0;96.27;-4;-19.91;-5.61;78.1;19.70;77225;2835.000;-1758.679;1;96;-50;-43.5;42.5;42.9;13;12.6;28.1;0.0;
17/02/2025 22:25:54;100;0;94.23;-4;-19.83;-5.57;80.6;19.70;77222;2834.999;-1758.675;1;96;-50;-43.5;42.5;42.9;13;12.6;28.1;0.0;
17/02/2025 22:26:14;100;0;93.93;-4;-19.91;-5.75;83.0;19.60;77218;2834.999;-1758.672;1;96;-50;-43.5;42.5;42.9;13;12.6;28.1;0.0;
17/02/2025 22:26:34;100;0;94.63;-4;-19.89;-5.60;85.6;19.60;77212;2834.999;-1758.668;1;96;-50;-41.9;42.5;42.9;13;12.6;28.1;0.0;
17/02/2025 22:26:54;100;0;99.47;-4;-18.64;-5.54;87.9;19.70;77226;2834.998;-1758.664;1;96;-50;-43.5;42.9;42.9;13;12.6;28.1;0.0;
17/02/2025 22:27:14;100;0;99.26;-4;-19.54;-5.64;90.3;19.60;77230;2834.997;-1758.661;1;96;-50;-43.5;42.9;42.9;13;12.6;28.1;0.0;
17/02/2025 22:27:34;100;0;101.41;-4;-19.30;-5.67;92.7;19.70;77223;2834.997;-1758.657;1;96;-50;-43.5;42.9;42.9;15;14.9;28.1;0.0;
17/02/2025 22:27:54;100;0;102.85;-4;-19.55;-4.12;94.9;19.60;77216;2834.996;-1758.654;1;96;-50;-45.2;42.9;42.9;17;17.1;28.1;0.0;
17/02/2025 22:28:14;100;0;103.07;-4;-19.73;-3.14;97.3;19.60;77222;2834.995;-1758.651;1;96;-50;-43.5;42.9;43.0;17;17.6;28.1;0.0;
17/02/2025 22:28:34;100;0;102.67;-4;-19.85;-3.13;99.7;19.60;77224;2834.994;-1758.647;1;96;-50;-46.8;42.9;43.0;17;17.6;28.1;0.0;
17/02/2025 22:28:54;100;0;103.23;-4;-19.93;-3.13;102.2;19.60;77234;2834.993;-1758.644;1;96;-50;-43.5;42.9;42.9;17;17.6;28.1;0.0;
17/02/2025 22:29:14;100;0;102.81;-4;-19.77;-3.06;104.7;19.60;77223;2834.992;-1758.640;1;96;-50;-43.5;42.9;43.0;17;17.6;28.1;0.0;
17/02/2025 22:29:34;100;0;102.47;-4;-20.00;-3.04;107.3;19.60;77234;2834.991;-1758.636;1;96;-50;-43.5;42.9;43.2;17;17.6;28.1;0.0;
17/02/2025 22:29:54;100;0;100.19;-4;-20.04;-3.06;109.8;19.60;77223;2834.991;-1758.633;1;96;-50;-43.5;42.9;43.0;15;14.9;28.1;0.0;
17/02/2025 22:30:15;100;0;98.88;-4;-20.03;-4.73;112.4;19.60;77223;2834.990;-1758.629;1;96;-50;-43.5;42.9;42.9;15;14.4;28.1;0.0;
17/02/2025 22:30:35;100;0;95.86;-4;-19.36;-4.67;114.9;19.60;77218;2834.990;-1758.625;1;96;-50;-43.5;42.9;42.9;15;14.4;28.1;0.0;
17/02/2025 22:30:55;100;0;95.52;-4;-19.42;-4.80;117.2;19.60;77202;2834.989;-1758.622;1;96;-50;-43.5;42.9;42.9;15;14.4;28.1;0.0;
17/02/2025 22:31:15;100;0;95.96;-4;-19.68;-4.79;119.5;19.60;77196;2834.989;-1758.619;1;96;-50;-43.5;42.9;42.9;15;14.4;28.1;0.0;
17/02/2025 22:31:35;100;0;98.77;-4;-18.99;-4.78;121.7;19.60;77192;2834.988;-1758.615;1;96;-50;-43.5;43.2;43.3;15;14.4;28.1;0.0;
17/02/2025 22:31:55;100;0;98.63;-4;-20.29;-4.77;124.1;19.50;77167;2834.988;-1758.612;1;96;-50;-43.5;43.2;43.6;15;14.4;28.1;0.0;
17/02/2025 22:32:15;100;0;97.13;-4;-20.22;-4.75;126.3;19.50;77156;2834.987;-1758.609;1;96;-50;-43.5;43.2;43.4;15;14.4;28.1;0.0;
17/02/2025 22:32:35;100;0;95.23;-4;-19.94;-4.79;128.5;19.50;77123;2834.987;-1758.605;1;96;-50;-43.5;43.2;43.4;15;14.4;28.1;0.0;
17/02/2025 22:32:55;100;0;93.46;-4;-19.92;-4.85;130.6;19.50;77117;2834.986;-1758.602;1;96;-50;-43.5;43.2;43.6;15;14.4;28.1;0.0;
17/02/2025 22:33:15;100;0;91.32;-4;-19.91;-4.81;132.6;19.40;77112;2834.986;-1758.599;1;96;-50;-41.9;43.2;43.6;15;14.4;28.1;0.0;
17/02/2025 22:33:35;100;0;92.17;-4;-20.15;-4.81;134.7;19.40;77098;2834.986;-1758.596;1;96;-50;-43.5;43.2;43.6;15;14.4;28.1;0.0;
17/02/2025 22:33:55;100;0;88.14;-4;-20.57;-4.79;136.9;19.40;77080;2834.986;-1758.593;1;96;-50;-43.5;43.2;43.4;15;14.4;28.1;0.0;
17/02/2025 22:34:15;100;0;84.89;-4;-21.39;-4.77;139.4;19.40;77069;2834.986;-1758.590;1;96;-50;-45.2;43.2;43.6;12;11.7;28.1;0.0;
17/02/2025 22:34:35;100;0;88.14;-4;-21.03;-6.04;142.0;19.30;77060;2834.986;-1758.586;1;96;-50;-43.5;43.2;43.6;12;11.7;28.1;0.0;
17/02/2025 22:34:55;100;0;91.28;-4;-20.86;-6.04;144.6;19.30;77050;2834.986;-1758.582;1;96;-50;-43.5;43.2;43.6;14;14.0;28.1;0.0;
17/02/2025 22:35:15;100;0;91.30;-4;-21.12;-4.56;147.4;19.30;77029;2834.985;-1758.578;1;96;-50;-43.5;43.2;43.6;14;14.4;28.1;0.0;
17/02/2025 22:35:35;100;0;88.35;-4;-21.23;-4.64;150.3;19.20;77024;2834.985;-1758.574;1;96;-50;-43.5;43.2;43.7;14;14.4;28.1;0.0;
17/02/2025 22:35:55;100;0;91.15;-4;-21.00;-4.55;153.1;19.20;77026;2834.985;-1758.570;1;96;-50;-43.5;43.2;43.6;14;14.4;28.1;0.0;
17/02/2025 22:36:15;100;0;92.52;-4;-20.76;-4.62;155.9;19.20;77008;2834.985;-1758.566;1;96;-50;-43.5;43.2;43.6;14;14.4;28.1;0.0;
17/02/2025 22:36:35;100;0;92.61;-4;-20.57;-4.56;158.7;19.10;76982;2834.985;-1758.562;1;96;-50;-43.5;43.2;43.6;14;14.4;28.1;0.0;
17/02/2025 22:36:55;100;0;92.84;-4;-20.63;-4.56;161.4;19.10;76975;2834.984;-1758.559;1;96;-50;-43.5;43.2;43.6;14;14.4;28.1;0.0;
17/02/2025 22:37:15;100;0;91.83;-4;-20.15;-4.65;164.2;19.10;76975;2834.984;-1758.555;1;96;-50;-43.5;43.2;43.6;14;14.4;28.1;0.0;
17/02/2025 22:37:35;100;0;88.90;-4;-20.45;-4.61;166.9;19.00;76959;2834.984;-1758.551;1;96;-50;-41.9;43.2;43.6;14;14.4;28.1;0.0;
17/02/2025 22:37:55;100;0;85.81;-4;-20.22;-4.68;169.5;19.00;76955;2834.984;-1758.547;1;96;-50;-43.5;43.2;43.6;12;12.2;28.1;0.0;
17/02/2025 22:38:15;100;0;83.61;-4;-20.11;-6.04;172.0;19.00;76942;2834.984;-1758.543;1;96;-50;-45.2;43.2;43.6;12;11.7;28.1;0.0;
17/02/2025 22:38:35;100;0;78.86;-4;-19.98;-5.99;174.7;19.00;76948;2834.985;-1758.539;1;96;-50;-43.5;43.2;43.6;6;5.4;28.1;0.0;
17/02/2025 22:38:55;100;0;79.63;-4;-20.12;-9.41;177.2;18.90;76930;2834.985;-1758.536;1;96;-50;-43.5;43.2;43.6;6;5.4;28.1;0.0;
17/02/2025 22:39:15;100;0;82.16;-4;-20.29;-9.38;179.7;18.90;76923;2834.985;-1758.532;1;96;-50;-43.5;43.2;43.6;10;9.9;28.1;0.0;
17/02/2025 22:39:35;100;0;81.48;-4;-19.66;-6.61;182.3;18.90;76913;2834.986;-1758.528;1;96;-50;-43.5;43.2;43.6;8;7.7;28.1;0.0;
17/02/2025 22:39:55;100;0;79.95;-4;-20.30;-8.09;184.9;18.80;76906;2834.986;-1758.525;1;96;-50;-43.5;43.2;43.6;8;7.2;28.1;0.0;
17/02/2025 22:40:15;100;0;79.64;-4;-20.38;-8.07;187.5;18.80;76887;2834.987;-1758.521;1;96;-50;-43.5;43.2;43.6;8;7.7;28.1;0.0;
17/02/2025 22:40:35;100;0;79.25;-4;-19.90;-8.17;190.1;18.80;76891;2834.987;-1758.517;1;96;-50;-43.5;43.2;43.6;6;5.9;28.1;0.0;
17/02/2025 22:40:55;100;0;82.61;-4;-19.90;-9.28;192.6;18.70;76892;2834.987;-1758.513;1;96;-50;-43.5;43.2;43.6;10;9.9;28.1;0.0;
17/02/2025 22:41:15;100;0;84.57;-4;-20.09;-6.74;195.1;18.70;76885;2834.988;-1758.510;1;96;-50;-41.9;43.2;43.7;10;10.4;28.1;0.0;
17/02/2025 22:41:35;100;0;86.95;-4;-20.06;-6.71;197.7;18.70;76883;2834.988;-1758.506;1;96;-50;-41.9;43.2;43.6;13;13.1;28.1;0.0;
17/02/2025 22:41:55;100;0;89.15;-4;-20.04;-5.14;200.3;18.60;76872;2834.987;-1758.502;1;96;-50;-41.9;43.2;43.6;13;13.5;28.1;0.0;
17/02/2025 22:42:15;100;0;90.61;-4;-20.20;-5.11;202.6;18.60;76854;2834.987;-1758.499;1;96;-50;-43.5;43.2;43.6;13;13.5;28.1;0.0;
17/02/2025 22:42:35;100;0;91.10;-4;-20.19;-5.10;205.2;18.50;76855;2834.987;-1758.495;1;96;-50;-43.5;43.2;43.6;13;13.5;28.1;0.0;
17/02/2025 22:42:55;100;0;90.96;-4;-20.01;-5.13;207.6;18.50;76838;2834.987;-1758.491;1;96;-50;-43.5;43.2;43.6;13;13.5;28.1;0.0;
17/02/2025 22:43:15;100;0;93.58;-4;-20.25;-5.08;210.0;18.50;76831;2834.987;-1758.488;1;96;-50;-43.5;43.2;43.7;13;13.5;28.1;0.0;
17/02/2025 22:43:35;100;0;94.38;-4;-20.31;-5.11;212.4;18.40;76818;2834.986;-1758.485;1;96;-50;-43.5;43.2;43.6;13;13.5;28.1;0.0;
17/02/2025 22:43:55;100;0;98.62;-4;-20.25;-5.10;214.8;18.40;76806;2834.986;-1758.481;1;96;-50;-43.5;43.2;43.6;13;13.5;28.1;0.0;
17/02/2025 22:44:15;100;0;99.06;-4;-20.12;-5.08;217.2;18.40;76805;2834.985;-1758.478;1;96;-50;-43.5;43.2;43.6;13;13.5;28.1;0.0;
17/02/2025 22:44:35;100;0;94.54;-4;-20.11;-5.18;219.5;18.30;76800;2834.985;-1758.474;1;96;-50;-41.9;43.2;43.6;13;13.5;28.1;0.0;
17/02/2025 22:44:55;100;0;98.73;-4;-19.99;-5.09;221.9;18.30;76779;2834.984;-1758.471;1;96;-50;-43.5;43.2;43.6;13;13.5;28.1;0.0;
17/02/2025 22:45:15;100;0;100.07;-4;-20.13;-5.09;224.2;18.20;76771;2834.983;-1758.467;1;96;-50;-43.5;43.2;43.6;15;14.9;28.1;0.0;
17/02/2025 22:45:35;100;0;96.62;-4;-20.63;-4.10;226.7;18.20;76758;2834.983;-1758.464;1;96;-50;-43.5;43.2;43.6;15;15.3;28.1;0.0;
17/02/2025 22:45:55;100;0;97.35;-4;-20.36;-4.06;229.0;18.20;76739;2834.982;-1758.461;1;96;-50;-43.5;43.2;43.6;15;15.3;28.1;0.0;
17/02/2025 22:46:15;100;0;98.53;-4;-20.16;-4.04;231.4;18.10;76738;2834.982;-1758.457;1;96;-50;-43.5;43.2;43.6;15;15.3;28.1;0.0;
17/02/2025 22:46:35;100;0;104.69;-4;-20.15;-3.99;233.7;18.10;76726;2834.981;-1758.454;1;96;-50;-41.9;43.2;43.6;18;18.5;28.1;0.0;
17/02/2025 22:46:55;100;0;107.01;-4;-20.30;-2.42;236.0;18.10;76715;2834.980;-1758.451;1;96;-50;-43.5;43.2;43.6;21;21.7;28.1;0.0;
17/02/2025 22:47:15;100;0;107.73;-4;-20.34;-0.90;238.2;18.00;76710;2834.979;-1758.448;1;96;-50;-43.5;43.2;43.6;21;21.7;28.1;0.0;
17/02/2025 22:47:35;100;0;105.29;-4;-20.10;-0.96;240.4;18.00;76691;2834.978;-1758.444;1;96;-50;-43.5;43.2;43.7;19;19.0;28.1;0.0;
17/02/2025 22:47:55;100;0;101.65;-4;-20.29;-2.51;242.7;17.90;76682;2834.977;-1758.441;1;96;-50;-43.5;43.2;43.6;16;15.3;28.1;0.0;
17/02/2025 22:48:15;100;0;99.00;-4;-20.13;-4.23;244.8;17.90;76684;2834.976;-1758.438;1;96;-50;-43.5;43.2;43.6;14;14.0;28.1;0.0;
17/02/2025 22:48:35;100;0;97.20;-4;-20.07;-5.07;247.0;17.90;76679;2834.976;-1758.435;1;96;-50;-43.5;43.2;43.6;14;14.0;28.1;0.0;
17/02/2025 22:48:55;100;0;95.87;-4;-19.95;-5.03;249.2;17.80;76668;2834.976;-1758.432;1;96;-50;-41.9;43.2;43.6;14;13.5;28.1;0.0;
17/02/2025 22:49:15;100;0;95.02;-4;-19.88;-5.10;251.4;17.80;76667;2834.975;-1758.429;1;96;-50;-43.5;43.2;43.6;14;14.0;28.1;0.0;
17/02/2025 22:49:35;100;0;94.25;-4;-19.87;-5.08;253.5;17.80;76657;2834.975;-1758.425;1;96;-50;-43.5;43.2;43.6;14;14.0;28.1;0.0;
17/02/2025 22:49:55;100;0;93.26;-4;-19.89;-5.10;255.7;17.70;76652;2834.974;-1758.422;1;96;-50;-46.8;43.2;43.6;14;14.0;28.1;0.0;
17/02/2025 22:50:15;100;0;90.68;-4;-19.86;-5.06;257.8;17.70;76641;2834.974;-1758.419;1;96;-50;-41.9;43.2;43.6;14;14.0;28.1;0.0;
17/02/2025 22:50:35;100;0;90.20;-4;-20.03;-5.07;260.0;17.60;76641;2834.974;-1758.416;1;96;-50;-43.5;43.2;43.6;14;14.0;28.1;0.0;
17/02/2025 22:50:55;100;0;90.70;-4;-19.97;-4.98;262.1;17.60;76628;2834.974;-1758.413;1;96;-50;-43.5;43.2;43.6;14;13.5;28.1;0.0;
17/02/2025 22:51:15;100;0;85.85;-4;-18.54;-5.21;264.3;17.60;76635;2834.974;-1758.410;1;96;-50;-43.5;43.6;43.6;12;12.2;28.1;0.0;
17/02/2025 22:51:35;100;0;84.69;-4;-19.94;-6.09;266.3;17.60;76621;2834.974;-1758.407;1;96;-70;-69.4;43.6;43.7;12;11.7;28.1;0.0;
17/02/2025 22:51:55;100;0;80.28;-4;-19.56;-5.88;268.4;17.50;76684;2834.974;-1758.404;1;96;-70;-71.0;43.6;43.6;8;8.1;28.1;0.0;
17/02/2025 22:52:15;100;0;80.43;-4;-19.34;-7.86;270.7;17.50;76666;2834.975;-1758.400;1;96;-70;-71.0;43.6;43.6;8;7.7;28.1;0.0;
17/02/2025 22:52:35;100;0;82.20;-4;-19.49;-7.94;272.8;17.40;76658;2834.975;-1758.397;1;96;-70;-71.0;43.6;43.6;10;9.9;28.0;0.0;
17/02/2025 22:52:55;100;0;80.58;-4;-19.91;-6.44;275.3;17.40;76661;2834.975;-1758.393;1;96;-70;-74.2;43.6;43.6;8;7.7;28.1;0.0;
17/02/2025 22:53:15;100;0;80.72;-4;-19.77;-7.90;277.7;17.40;76660;2834.976;-1758.390;1;96;-70;-72.6;43.6;43.4;8;7.7;28.1;0.0;
17/02/2025 22:53:35;100;0;80.01;-4;-19.68;-7.79;280.1;17.30;76659;2834.976;-1758.386;1;96;-70;-74.2;43.6;43.6;8;7.7;28.1;0.0;
17/02/2025 22:53:55;100;0;80.94;-4;-19.76;-7.94;282.6;17.30;76646;2834.976;-1758.383;1;96;-70;-72.6;43.6;43.6;8;7.7;28.1;0.0;
17/02/2025 22:54:15;100;0;87.23;-4;-19.34;-7.92;285.2;17.30;76647;2834.976;-1758.379;1;96;-70;-72.6;43.6;43.6;12;12.2;28.1;0.0;
17/02/2025 22:54:35;100;0;91.32;-4;-19.41;-5.44;287.5;17.20;76630;2834.976;-1758.375;1;96;-70;-74.2;43.6;43.6;12;12.6;28.1;0.0;
17/02/2025 22:54:55;100;0;93.19;-4;-19.42;-5.42;289.9;17.20;76626;2834.976;-1758.372;1;96;-70;-77.4;43.6;43.6;12;12.6;28.1;0.0;
17/02/2025 22:55:15;100;0;94.09;-4;-19.49;-5.46;292.2;17.20;76615;2834.976;-1758.368;1;96;-70;-74.2;43.6;43.6;12;12.6;28.1;0.0;
17/02/2025 22:55:35;100;0;95.85;-4;-19.46;-5.45;294.5;17.10;76603;2834.975;-1758.365;1;96;-70;-72.6;43.6;43.6;12;12.6;28.1;0.0;
17/02/2025 22:55:55;100;0;96.50;-4;-19.40;-5.51;296.8;17.10;76590;2834.975;-1758.361;1;96;-70;-74.2;43.6;43.6;14;14.0;28.1;0.0;
17/02/2025 22:56:15;100;0;96.21;-4;-19.62;-4.38;299.1;17.10;76589;2834.974;-1758.358;1;96;-70;-74.2;43.6;43.7;14;14.4;28.1;0.0;
17/02/2025 22:56:35;100;0;97.74;-4;-19.05;-4.43;301.3;17.00;76590;2834.974;-1758.355;1;96;-70;-74.2;43.6;43.7;14;14.4;28.1;0.0;
17/02/2025 22:56:55;100;0;96.84;-4;-19.64;-4.33;303.4;17.00;76575;2834.973;-1758.352;1;96;-70;-74.2;43.6;43.6;14;14.4;28.1;0.0;
17/02/2025 22:57:15;100;0;96.71;-4;-19.42;-4.35;305.6;17.00;76574;2834.973;-1758.348;1;96;-70;-74.2;43.6;43.6;14;14.4;28.1;0.0;
17/02/2025 22:57:35;100;0;96.10;-4;-20.03;-4.45;307.8;16.90;76553;2834.972;-1758.345;1;96;-70;-74.2;43.6;43.6;14;14.4;28.1;0.0;
17/02/2025 22:57:55;100;0;96.36;-4;-19.48;-4.38;310.0;16.90;76558;2834.972;-1758.342;1;96;-70;-74.2;43.6;43.6;14;14.4;28.1;0.0;
17/02/2025 22:58:15;100;0;95.89;-4;-19.33;-4.32;312.2;16.80;76562;2834.971;-1758.338;1;96;-70;-74.2;43.6;43.6;14;14.4;28.1;0.0;
17/02/2025 22:58:35;100;0;96.21;-4;-19.53;-4.46;314.4;16.80;76555;2834.971;-1758.335;1;96;-70;-74.2;43.6;43.6;14;14.4;28.1;0.0;
17/02/2025 22:58:55;100;0;96.18;-4;-19.58;-4.38;316.6;16.80;76553;2834.970;-1758.332;1;96;-70;-74.2;43.6;43.6;14;14.9;28.1;0.0;
17/02/2025 22:59:15;100;0;96.38;-4;-19.61;-4.46;318.8;16.80;76544;2834.970;-1758.329;1;96;-70;-74.2;43.6;43.6;14;14.4;28.1;0.0;
17/02/2025 22:59:35;100;0;93.47;-4;-19.91;-4.47;321.1;16.70;76536;2834.970;-1758.325;1;96;-70;-74.2;43.6;43.6;14;14.4;28.1;0.0;
17/02/2025 22:59:55;100;0;92.84;-4;-19.68;-4.42;323.4;16.70;76529;2834.969;-1758.322;1;96;-70;-74.2;43.6;43.6;14;14.4;28.1;0.0;
17/02/2025 23:00:15;100;0;93.01;-4;-19.65;-4.43;325.7;16.70;76525;2834.969;-1758.319;1;96;-70;-74.2;43.6;43.6;14;14.4;28.1;0.0;
17/02/2025 23:00:35;100;0;92.45;-4;-19.65;-4.42;328.1;16.60;76516;2834.969;-1758.315;1;96;-70;-74.2;43.6;43.6;14;14.9;28.1;0.0;
17/02/2025 23:00:55;100;0;92.26;-4;-19.60;-4.38;330.4;16.60;76507;2834.968;-1758.312;1;96;-70;-74.2;43.6;43.6;14;14.4;28.1;0.0;
17/02/2025 23:01:15;100;0;89.50;-4;-19.76;-4.42;332.6;16.60;76511;2834.968;-1758.309;1;96;-70;-74.2;43.6;43.6;14;14.4;28.1;0.0;
17/02/2025 23:01:35;100;0;87.30;-4;-19.94;-4.37;334.9;16.50;76491;2834.968;-1758.305;1;96;-70;-74.2;43.6;43.6;14;14.4;28.1;0.0;
17/02/2025 23:01:55;100;0;85.36;-4;-19.62;-4.41;337.2;16.50;76481;2834.968;-1758.302;1;96;-70;-74.2;43.6;43.6;12;12.2;28.1;0.0;
17/02/2025 23:02:15;100;0;84.99;-4;-19.36;-5.95;339.4;16.50;76478;2834.968;-1758.299;1;96;-70;-74.2;43.6;43.6;12;11.7;28.1;0.0;
17/02/2025 23:02:35;100;0;84.32;-4;-19.29;-5.95;341.5;16.50;76467;2834.969;-1758.295;1;96;-70;-74.2;43.6;43.6;12;11.7;28.1;0.0;
17/02/2025 23:02:55;100;0;86.77;-4;-19.21;-5.93;343.6;16.40;76478;2834.969;-1758.292;1;96;-70;-74.2;43.6;43.6;12;11.7;28.1;0.0;
17/02/2025 23:03:15;100;0;88.63;-4;-19.33;-5.90;345.6;16.40;76466;2834.969;-1758.289;1;97;-70;-74.2;43.6;43.6;12;11.7;28.1;0.0;
17/02/2025 23:03:35;100;0;89.07;-4;-19.70;-5.89;347.8;16.40;76459;2834.968;-1758.286;1;97;-70;-74.2;43.6;43.6;12;11.7;28.1;0.0;
17/02/2025 23:03:56;100;0;84.96;-4;-19.48;-6.05;350.0;16.30;76441;2834.969;-1758.283;1;97;-70;-74.2;43.6;43.6;12;11.7;28.1;0.0;
17/02/2025 23:04:16;100;0;82.46;-4;-19.18;-5.99;352.2;16.30;76441;2834.969;-1758.279;1;97;-70;-74.2;43.6;43.6;9;9.0;28.1;0.0;
17/02/2025 23:04:36;100;0;81.71;-4;-19.39;-7.19;354.4;16.30;76423;2834.969;-1758.276;1;97;-70;-72.6;43.6;43.6;9;8.6;28.1;0.0;
17/02/2025 23:04:56;100;0;82.12;-4;-19.69;-7.34;356.6;16.20;76425;2834.969;-1758.273;1;97;-70;-74.2;43.6;43.6;9;8.6;28.1;0.0;
17/02/2025 23:05:16;100;0;80.28;-4;-18.91;-7.43;358.7;16.20;76418;2834.970;-1758.270;1;97;-70;-75.8;44.0;44.3;6;5.9;28.1;0.0;
17/02/2025 23:05:36;100;0;80.95;-4;-20.15;-8.97;360.8;16.20;76417;2834.970;-1758.267;1;97;-70;-74.2;44.0;44.3;6;5.4;28.1;0.0;
17/02/2025 23:05:56;100;0;80.49;-4;-20.71;-9.05;363.1;16.10;76410;2834.970;-1758.263;1;97;-70;-74.2;44.0;44.3;6;5.9;28.1;0.0;
17/02/2025 23:06:16;100;0;82.16;-4;-20.35;-9.02;365.4;16.10;76394;2834.970;-1758.260;1;97;-70;-74.2;44.0;44.5;8;8.1;28.1;0.0;
17/02/2025 23:06:36;100;0;88.21;-4;-20.46;-7.54;367.6;16.10;76391;2834.970;-1758.257;1;97;-70;-74.2;44.0;44.3;12;12.6;28.1;0.0;
17/02/2025 23:06:56;100;0;89.21;-4;-21.20;-5.32;369.9;16.10;76380;2834.970;-1758.254;1;97;-70;-74.2;44.0;44.3;12;13.1;28.1;0.0;
17/02/2025 23:07:16;100;0;90.73;-4;-20.68;-5.33;372.3;16.00;76375;2834.970;-1758.250;1;97;-70;-74.2;44.0;44.5;12;12.6;28.1;0.0;
17/02/2025 23:07:36;100;0;90.95;-4;-20.92;-5.16;374.7;16.00;76367;2834.970;-1758.247;1;97;-70;-74.2;44.0;44.3;12;12.6;28.1;0.0;
17/02/2025 23:07:56;100;0;91.12;-4;-20.96;-5.24;377.1;16.00;76360;2834.970;-1758.243;1;97;-70;-74.2;44.0;44.3;12;12.6;28.1;0.0;
17/02/2025 23:08:16;100;0;92.15;-4;-21.26;-5.23;379.6;15.90;76361;2834.969;-1758.240;1;97;-70;-75.8;44.0;44.5;12;12.6;28.1;0.0;
17/02/2025 23:08:36;100;0;91.84;-4;-20.86;-5.16;382.2;15.90;76355;2834.969;-1758.236;1;97;-70;-74.2;44.0;44.3;12;12.6;28.1;0.0;
17/02/2025 23:08:56;100;0;92.42;-4;-20.77;-5.28;384.7;15.90;76358;2834.969;-1758.233;1;97;-70;-74.2;44.0;44.5;12;12.6;28.1;0.0;
17/02/2025 23:09:16;100;0;94.90;-4;-20.96;-5.36;387.1;15.80;76342;2834.968;-1758.229;1;97;-70;-74.2;44.0;44.5;12;13.1;28.1;0.0;
17/02/2025 23:09:36;100;0;98.06;-4;-20.87;-5.25;389.8;15.80;76340;2834.968;-1758.226;1;97;-70;-74.2;44.0;44.5;12;12.6;28.1;0.0;
17/02/2025 23:09:56;100;0;96.97;-4;-21.03;-5.29;392.4;15.80;76330;2834.967;-1758.222;1;97;-70;-74.2;44.0;44.5;12;12.6;28.1;0.0;
17/02/2025 23:10:16;100;0;94.42;-4;-20.78;-5.24;395.0;15.70;76315;2834.967;-1758.218;1;97;-70;-74.2;44.0;44.5;12;12.6;28.1;0.0;
17/02/2025 23:10:36;100;0;90.41;-4;-20.85;-5.11;397.4;15.70;76310;2834.967;-1758.215;1;97;-70;-74.2;44.0;44.3;12;12.6;28.1;0.0;
17/02/2025 23:10:56;100;0;88.10;-4;-20.81;-5.30;400.1;15.70;76304;2834.967;-1758.211;1;97;-70;-75.8;44.0;44.3;12;12.6;28.1;0.0;
17/02/2025 23:11:16;100;0;86.06;-4;-20.48;-5.25;402.6;15.60;76299;2834.967;-1758.207;1;97;-70;-74.2;44.0;44.3;12;13.1;28.1;0.0;
17/02/2025 23:11:36;100;0;87.61;-4;-21.09;-5.22;405.2;15.60;76309;2834.967;-1758.204;1;97;-70;-72.6;44.0;44.3;12;12.6;28.1;0.0;
17/02/2025 23:11:56;100;0;88.14;-4;-20.99;-5.26;407.8;15.60;76281;2834.967;-1758.200;1;97;-70;-74.2;44.0;44.5;12;13.1;28.1;0.0;
17/02/2025 23:12:16;100;0;88.11;-4;-20.92;-5.24;410.4;15.60;76284;2834.967;-1758.196;1;97;-70;-74.2;44.0;44.3;12;13.1;28.1;0.0;
17/02/2025 23:12:36;100;0;87.22;-4;-20.91;-5.26;412.9;15.50;76281;2834.967;-1758.193;1;97;-70;-74.2;44.0;44.3;12;12.6;28.1;0.0;
17/02/2025 23:12:56;100;0;86.70;-4;-21.03;-5.22;415.5;15.50;76281;2834.967;-1758.189;1;97;-70;-74.2;44.0;44.3;12;12.6;28.1;0.0;
17/02/2025 23:13:16;100;0;87.26;-4;-21.25;-5.19;418.2;15.50;76271;2834.967;-1758.185;1;97;-70;-74.2;44.0;44.3;12;12.6;28.1;0.0;
17/02/2025 23:13:36;100;0;87.20;-4;-21.19;-5.27;420.9;15.50;76267;2834.967;-1758.182;1;97;-70;-74.2;44.0;44.5;12;12.6;28.1;0.0;
17/02/2025 23:13:56;100;0;87.86;-4;-21.25;-5.24;423.6;15.40;76263;2834.967;-1758.178;1;97;-70;-74.2;44.0;44.3;12;12.6;28.1;0.0;
17/02/2025 23:14:16;100;0;85.98;-4;-21.32;-5.23;426.3;15.40;76255;2834.967;-1758.174;1;97;-70;-74.2;44.0;44.5;10;9.5;28.1;0.0;
17/02/2025 23:14:36;100;0;83.75;-4;-20.73;-7.03;429.0;15.40;76255;2834.967;-1758.170;1;97;-70;-74.2;44.0;44.3;10;9.5;28.1;0.0;
17/02/2025 23:14:56;100;0;83.00;-4;-20.72;-6.90;431.7;15.30;76247;2834.967;-1758.166;1;97;-70;-72.6;44.0;44.3;8;8.1;28.1;0.0;
17/02/2025 23:15:16;100;0;82.51;-4;-20.68;-7.47;434.3;15.30;76242;2834.968;-1758.163;1;97;-70;-74.2;44.0;44.3;8;8.6;28.1;0.0;
17/02/2025 23:15:36;100;0;81.86;-4;-20.62;-7.55;437.0;15.30;76238;2834.968;-1758.159;1;97;-70;-74.2;44.0;44.5;8;8.6;28.1;0.0;
17/02/2025 23:15:56;100;0;81.21;-4;-20.63;-7.53;439.7;15.30;76228;2834.968;-1758.155;1;97;-70;-74.2;44.0;44.3;6;5.9;28.1;0.0;
17/02/2025 23:16:16;100;0;82.59;-4;-20.31;-9.02;442.4;15.20;76232;2834.969;-1758.151;1;97;-70;-74.2;44.0;44.5;6;5.4;28.1;0.0;
17/02/2025 23:16:36;100;0;83.14;-4;-20.07;-9.00;445.2;15.20;76222;2834.969;-1758.147;1;97;-70;-74.2;44.0;44.3;6;5.4;28.1;0.0;
17/02/2025 23:16:56;100;0;81.08;-4;-20.30;-9.05;447.8;15.20;76215;2834.969;-1758.144;1;97;-70;-74.2;44.0;44.5;6;5.9;28.1;0.0;
17/02/2025 23:17:16;100;0;82.91;-4;-20.47;-9.05;450.5;15.20;76222;2834.969;-1758.140;1;97;-70;-75.8;44.0;44.5;6;5.4;28.1;0.0;
17/02/2025 23:17:36;100;0;87.94;-4;-20.53;-8.99;453.4;15.10;76206;2834.969;-1758.136;1;97;-70;-77.4;44.0;44.3;11;10.8;28.1;0.0;
17/02/2025 23:17:56;100;0;90.79;-4;-20.66;-5.98;456.2;15.10;76195;2834.969;-1758.132;1;97;-70;-74.2;44.0;44.5;11;11.3;28.1;0.0;
17/02/2025 23:18:16;100;0;92.23;-4;-20.74;-6.03;459.1;15.10;76187;2834.969;-1758.127;1;97;-70;-74.2;44.0;44.5;11;11.3;28.1;0.0;
17/02/2025 23:18:36;100;0;94.08;-4;-20.62;-6.07;461.9;15.10;76187;2834.969;-1758.123;1;97;-70;-74.2;44.0;44.5;11;11.3;28.1;0.0;
17/02/2025 23:18:56;100;0;95.31;-4;-20.62;-6.02;464.8;15.00;76181;2834.968;-1758.119;1;97;-70;-74.2;44.0;44.5;11;11.3;28.1;0.0;
17/02/2025 23:19:16;100;0;95.90;-4;-20.54;-6.00;467.7;15.00;76171;2834.968;-1758.115;1;97;-70;-74.2;44.0;44.5;11;11.3;28.1;0.0;
17/02/2025 23:19:36;100;0;96.70;-4;-20.51;-6.01;470.4;15.00;76180;2834.967;-1758.112;1;97;-70;-74.2;44.0;44.5;11;11.3;28.1;0.0;
17/02/2025 23:19:56;100;0;97.89;-4;-20.54;-6.04;473.2;15.00;76176;2834.966;-1758.108;1;97;-70;-74.2;44.0;44.5;11;11.3;28.1;0.0;
17/02/2025 23:20:16;100;0;98.63;-4;-20.36;-5.99;475.9;14.90;76171;2834.966;-1758.104;1;97;-70;-74.2;44.0;44.5;11;11.3;28.1;0.0;
17/02/2025 23:20:36;100;0;98.99;-4;-20.53;-6.04;478.6;14.90;76167;2834.965;-1758.100;1;97;-70;-74.2;44.0;44.5;11;11.3;28.1;0.0;
17/02/2025 23:20:56;100;0;99.84;-4;-20.30;-6.03;481.2;14.90;76157;2834.964;-1758.096;1;97;-70;-75.8;44.0;44.5;13;13.1;28.1;0.0;
17/02/2025 23:21:16;100;0;100.83;-4;-20.38;-4.84;483.8;14.80;76153;2834.964;-1758.093;1;97;-70;-74.2;44.0;44.5;13;14.0;28.1;0.0;
17/02/2025 23:21:36;100;0;104.32;-4;-20.46;-4.83;486.2;14.80;76151;2834.963;-1758.089;1;97;-70;-75.8;44.0;44.5;16;15.8;28.1;0.0;
17/02/2025 23:21:56;100;0;104.27;-4;-20.84;-3.50;488.8;14.80;76141;2834.962;-1758.086;1;97;-70;-74.2;44.0;44.3;16;16.7;28.1;0.0;
17/02/2025 23:22:16;100;0;105.53;-4;-21.32;-3.48;491.3;14.80;76139;2834.961;-1758.082;1;97;-70;-74.2;44.0;44.5;16;16.2;28.1;0.0;
17/02/2025 23:22:36;100;0;108.84;-4;-20.60;-3.67;493.9;14.70;76136;2834.960;-1758.079;1;97;-70;-74.2;44.0;44.5;21;21.2;28.1;0.0;
17/02/2025 23:22:56;100;0;108.37;-4;-21.05;-0.99;496.4;14.70;76137;2834.958;-1758.075;1;97;-70;-74.2;44.0;44.6;21;21.7;28.1;0.0;
17/02/2025 23:23:16;100;0;107.32;-4;-21.00;-0.90;498.8;14.70;76121;2834.957;-1758.072;1;97;-70;-74.2;44.0;44.3;19;19.0;28.1;0.0;
17/02/2025 23:23:36;100;0;106.36;-4;-20.80;-2.45;501.3;14.70;76120;2834.956;-1758.069;1;97;-70;-74.2;44.0;44.5;19;18.5;28.1;0.0;
17/02/2025 23:23:56;100;0;106.41;-4;-21.11;-2.49;503.8;14.60;76113;2834.955;-1758.065;1;97;-70;-74.2;44.0;44.5;19;18.5;28.1;0.0;
17/02/2025 23:24:16;100;0;103.55;-4;-20.90;-2.49;506.3;14.60;76111;2834.954;-1758.062;1;97;-70;-74.2;44.0;44.5;15;14.4;28.1;0.0;
17/02/2025 23:24:36;100;0;100.68;-4;-20.31;-4.32;508.7;14.60;76106;2834.954;-1758.058;1;97;-70;-74.2;44.0;44.3;15;14.9;28.1;0.0;
17/02/2025 23:24:56;100;0;98.65;-4;-20.60;-4.37;511.0;14.60;76097;2834.953;-1758.055;1;97;-70;-74.2;44.0;44.5;13;13.1;28.1;0.0;
17/02/2025 23:25:16;100;0;95.81;-4;-20.53;-5.24;513.5;14.60;76091;2834.953;-1758.052;1;97;-70;-74.2;44.0;44.5;13;13.1;28.1;0.0;
17/02/2025 23:25:36;100;0;93.13;-4;-20.55;-5.25;515.8;14.50;76086;2834.952;-1758.048;1;97;-70;-74.2;44.0;44.5;13;13.1;28.1;0.0;
17/02/2025 23:25:56;100;0;97.64;-4;-20.51;-5.20;518.2;14.50;76083;2834.952;-1758.045;1;97;-70;-74.2;44.0;44.5;13;13.1;28.1;0.0;
17/02/2025 23:26:16;100;0;99.72;-4;-20.73;-5.27;520.7;14.50;76079;2834.951;-1758.042;1;97;-70;-74.2;44.0;44.5;13;13.1;28.1;0.0;
17/02/2025 23:26:36;100;0;101.74;-4;-20.57;-5.23;523.3;14.50;76077;2834.950;-1758.038;1;97;-70;-74.2;44.0;44.5;13;13.1;28.1;0.0;
17/02/2025 23:26:56;100;0;105.07;-4;-20.61;-5.20;525.9;14.40;76064;2834.949;-1758.035;1;97;-70;-74.2;44.0;44.5;17;17.1;28.1;0.0;
17/02/2025 23:27:16;100;0;106.65;-4;-20.71;-2.76;528.5;14.40;76049;2834.948;-1758.031;1;97;-70;-72.6;44.0;44.3;19;19.0;28.1;0.0;
17/02/2025 23:27:36;100;0;102.95;-4;-20.73;-1.84;531.1;14.40;76036;2834.947;-1758.027;1;97;-70;-74.2;44.0;44.3;15;14.9;28.1;0.0;
17/02/2025 23:27:56;100;0;100.48;-4;-20.63;-4.46;533.7;14.40;76038;2834.947;-1758.024;1;97;-70;-74.2;44.0;44.5;15;14.4;28.1;0.0;
17/02/2025 23:28:16;100;0;98.56;-4;-20.60;-4.48;536.3;14.30;76033;2834.946;-1758.020;1;97;-70;-74.2;44.0;44.5;13;13.1;28.1;0.0;
17/02/2025 23:28:36;100;0;97.51;-4;-20.40;-5.29;539.0;14.30;76034;2834.946;-1758.016;1;97;-70;-74.2;44.0;44.5;13;13.1;28.1;0.0;
17/02/2025 23:28:56;100;0;96.20;-4;-20.51;-5.33;541.7;14.30;76025;2834.945;-1758.012;1;97;-70;-74.2;44.0;44.5;13;13.1;28.1;0.0;
17/02/2025 23:29:16;100;0;94.89;-4;-20.38;-5.29;544.4;14.30;76030;2834.945;-1758.009;1;97;-70;-75.8;44.0;44.3;13;13.1;28.1;0.0;
17/02/2025 23:29:36;100;0;95.05;-4;-20.34;-5.31;547.2;14.20;76018;2834.944;-1758.005;1;97;-70;-74.2;44.0;44.5;13;13.1;28.1;0.0;
17/02/2025 23:29:56;100;0;94.29;-4;-20.34;-5.29;549.8;14.20;76017;2834.944;-1758.001;1;97;-70;-74.2;44.0;44.5;13;13.1;28.1;0.0;
17/02/2025 23:30:16;100;0;94.37;-4;-20.58;-5.30;552.5;14.20;76007;2834.943;-1757.997;1;97;-70;-72.6;44.0;44.5;13;13.1;28.1;0.0;
17/02/2025 23:30:36;100;0;93.03;-4;-20.32;-5.26;555.2;14.20;75997;2834.943;-1757.993;1;97;-70;-74.2;44.0;44.3;13;13.1;28.1;0.0;
17/02/2025 23:30:56;100;0;91.87;-4;-20.22;-5.30;557.9;14.20;76000;2834.943;-1757.989;1;97;-70;-74.2;44.0;44.5;13;13.1;28.1;0.0;
17/02/2025 23:31:16;100;0;90.55;-4;-20.77;-5.31;560.5;14.10;75987;2834.943;-1757.985;1;97;-70;-74.2;44.0;44.5;13;13.1;28.1;0.0;
17/02/2025 23:31:36;100;0;89.89;-4;-20.66;-5.34;563.3;14.10;75985;2834.942;-1757.981;1;97;-70;-74.2;44.0;44.5;13;13.1;28.1;0.0;
17/02/2025 23:31:56;100;0;88.82;-4;-20.59;-5.24;566.0;14.10;75972;2834.942;-1757.977;1;97;-70;-74.2;44.0;44.3;13;13.1;28.1;0.0;
17/02/2025 23:32:16;100;0;86.86;-4;-20.58;-5.23;568.8;14.10;75970;2834.942;-1757.974;1;97;-70;-72.6;44.0;44.3;11;10.8;28.1;0.0;
17/02/2025 23:32:36;100;0;87.41;-4;-20.06;-6.53;571.5;14.00;75961;2834.942;-1757.970;1;97;-70;-74.2;44.0;44.5;11;10.4;28.1;0.0;
17/02/2025 23:32:56;100;0;90.76;-4;-20.00;-6.63;574.2;14.00;75962;2834.942;-1757.966;1;97;-70;-74.2;44.0;44.3;11;9.9;28.1;0.0;
17/02/2025 23:33:16;100;0;92.80;-4;-19.71;-6.61;576.7;14.00;75958;2834.942;-1757.962;1;97;-70;-74.2;44.0;44.5;13;13.1;28.1;0.0;
17/02/2025 23:33:36;100;0;94.91;-4;-20.04;-5.06;579.3;13.90;75945;2834.941;-1757.958;1;97;-70;-74.2;44.0;44.5;13;13.5;28.1;0.0;
17/02/2025 23:33:56;100;0;95.89;-4;-20.11;-4.94;581.8;13.90;75944;2834.941;-1757.955;1;97;-70;-74.2;44.0;44.5;13;13.5;28.1;0.0;
17/02/2025 23:34:16;100;0;97.16;-4;-20.05;-5.00;584.2;13.90;75941;2834.940;-1757.951;1;97;-70;-74.2;44.0;44.5;13;13.5;28.1;0.0;
17/02/2025 23:34:36;100;0;97.97;-4;-20.23;-4.97;586.7;13.90;75940;2834.940;-1757.947;1;97;-70;-74.2;44.0;44.5;13;13.5;28.1;0.0;
17/02/2025 23:34:56;100;0;98.51;-4;-20.59;-4.97;589.2;13.80;75936;2834.939;-1757.944;1;97;-70;-74.2;44.0;44.5;13;13.5;28.1;0.0;
17/02/2025 23:35:16;100;0;100.14;-4;-20.06;-5.03;591.7;13.80;75923;2834.938;-1757.940;1;97;-70;-74.2;44.0;44.5;13;13.5;28.1;0.0;
17/02/2025 23:35:36;100;0;101.45;-4;-20.14;-5.02;594.2;13.80;75926;2834.938;-1757.937;1;97;-70;-74.2;44.0;44.5;13;13.5;28.1;0.0;
17/02/2025 23:35:56;100;0;102.31;-4;-20.24;-4.96;596.7;13.80;75925;2834.937;-1757.933;1;97;-70;-74.2;44.0;44.5;15;14.9;28.1;0.0;
17/02/2025 23:36:16;100;0;104.24;-4;-20.32;-4.04;599.2;13.80;75915;2834.936;-1757.930;1;97;-70;-74.2;44.0;44.5;15;15.3;28.1;0.0;
17/02/2025 23:36:36;100;0;106.17;-4;-20.04;-4.02;601.7;13.70;75908;2834.935;-1757.926;1;97;-70;-74.2;44.0;44.5;18;18.5;28.1;0.0;
17/02/2025 23:36:56;100;0;107.55;-4;-20.21;-2.29;604.3;13.70;75910;2834.934;-1757.923;1;97;-70;-74.2;44.0;44.5;20;19.9;28.1;0.0;
17/02/2025 23:37:16;100;0;107.14;-4;-20.28;-1.66;606.8;13.70;75896;2834.933;-1757.919;1;97;-70;-74.2;44.0;44.5;20;20.3;28.1;0.0;
17/02/2025 23:37:36;100;0;104.40;-4;-19.69;-1.61;609.4;13.70;75894;2834.932;-1757.915;1;97;-70;-74.2;44.0;44.5;17;16.7;28.1;0.0;
17/02/2025 23:37:56;100;0;102.92;-4;-20.38;-3.46;611.8;13.60;75880;2834.931;-1757.912;1;97;-70;-74.2;44.0;44.5;15;14.9;28.1;0.0;
17/02/2025 23:38:16;100;0;101.60;-4;-20.20;-4.49;614.4;13.60;75873;2834.930;-1757.908;1;96;-70;-74.2;44.0;44.6;15;14.9;28.1;0.0;
17/02/2025 23:38:37;100;0;100.12;-4;-20.24;-4.45;617.2;13.60;75871;2834.929;-1757.904;1;96;-70;-74.2;44.0;44.5;15;14.9;28.1;0.0;
17/02/2025 23:38:57;100;0;97.91;-4;-20.16;-4.47;619.8;13.60;75861;2834.929;-1757.900;1;96;-70;-75.8;44.0;44.3;15;14.9;28.1;0.0;
17/02/2025 23:39:17;100;0;96.17;-4;-20.15;-4.50;622.4;13.50;75871;2834.928;-1757.897;1;96;-70;-72.6;44.0;44.5;13;12.6;28.1;0.0;
17/02/2025 23:39:37;100;0;95.23;-4;-20.09;-5.55;625.1;13.50;75855;2834.928;-1757.893;1;96;-70;-74.2;44.0;44.5;13;12.6;28.1;0.0;
17/02/2025 23:39:57;100;0;91.48;-4;-19.95;-5.62;627.7;13.50;75858;2834.927;-1757.889;1;96;-70;-74.2;44.0;44.5;13;12.6;28.1;0.0;
17/02/2025 23:40:17;100;0;88.66;-4;-19.97;-5.59;630.4;13.50;75852;2834.927;-1757.885;1;96;-70;-74.2;44.0;44.5;13;12.6;28.1;0.0;
17/02/2025 23:40:37;100;0;87.41;-4;-20.04;-5.54;633.0;13.50;75852;2834.927;-1757.881;1;96;-70;-74.2;44.0;44.5;13;12.2;28.1;0.0;
17/02/2025 23:40:57;100;0;86.86;-4;-20.05;-5.54;635.6;13.40;75843;2834.927;-1757.877;1;97;-70;-74.2;44.0;44.5;13;12.6;28.1;0.0;
17/02/2025 23:41:17;100;0;84.49;-4;-20.29;-5.57;638.3;13.40;75840;2834.928;-1757.873;1;97;-70;-74.2;44.0;44.3;10;9.5;28.1;0.0;
17/02/2025 23:41:37;100;0;83.82;-4;-19.70;-7.15;641.0;13.40;75845;2834.928;-1757.869;1;97;-70;-74.2;44.0;44.5;10;9.5;28.1;0.0;
17/02/2025 23:41:57;100;0;82.24;-4;-19.72;-7.18;643.7;13.40;75827;2834.928;-1757.865;1;97;-70;-74.2;44.0;44.3;7;7.2;28.1;0.0;
17/02/2025 23:42:17;100;0;81.86;-4;-19.53;-7.71;646.4;13.30;75831;2834.928;-1757.862;1;97;-70;-72.6;44.0;44.5;7;8.1;28.1;0.0;
17/02/2025 23:42:37;100;0;82.26;-4;-19.35;-7.73;649.0;13.30;75823;2834.929;-1757.858;1;97;-70;-74.2;44.0;44.5;7;8.1;28.1;0.0;
17/02/2025 23:42:57;100;0;86.13;-4;-19.20;-7.71;651.7;13.30;75815;2834.929;-1757.854;1;97;-70;-75.8;44.0;44.5;11;10.8;28.1;0.0;
17/02/2025 23:43:17;100;0;87.91;-4;-19.71;-6.15;654.2;13.30;75803;2834.929;-1757.850;1;97;-70;-74.2;44.0;44.5;11;11.3;28.1;0.0;
17/02/2025 23:43:37;100;0;88.31;-4;-19.64;-6.19;656.8;13.30;75804;2834.929;-1757.846;1;97;-70;-77.4;44.0;44.5;11;11.3;28.1;0.0;
17/02/2025 23:43:57;100;0;88.32;-4;-19.88;-6.16;659.4;13.20;75788;2834.929;-1757.842;1;97;-70;-74.2;44.0;44.3;11;11.3;28.1;0.0;
17/02/2025 23:44:17;100;0;88.87;-4;-19.80;-6.15;662.1;13.20;75792;2834.929;-1757.838;1;97;-70;-74.2;44.0;44.5;11;11.3;28.1;0.0;
17/02/2025 23:44:37;100;0;88.96;-4;-19.88;-6.10;664.8;13.20;75783;2834.929;-1757.834;1;97;-70;-74.2;44.0;44.5;11;11.3;28.1;0.0;
17/02/2025 23:44:57;100;0;89.71;-4;-20.09;-6.14;667.6;13.20;75784;2834.928;-1757.830;1;97;-70;-72.6;44.0;44.5;11;11.3;28.1;0.0;
17/02/2025 23:45:17;100;0;92.03;-4;-19.77;-6.20;670.4;13.20;75782;2834.928;-1757.826;1;97;-70;-75.8;44.0;44.5;13;13.1;28.1;0.0;
17/02/2025 23:45:37;100;0;92.11;-4;-19.79;-5.14;673.2;13.10;75776;2834.928;-1757.822;1;97;-70;-74.2;44.0;44.5;13;13.5;28.1;0.0;
17/02/2025 23:45:57;100;0;93.49;-4;-19.87;-5.09;675.9;13.10;75770;2834.928;-1757.818;1;97;-70;-74.2;44.0;44.5;13;13.5;28.1;0.0;
17/02/2025 23:46:17;100;0;93.70;-4;-19.98;-5.12;678.7;13.10;75763;2834.927;-1757.814;1;97;-70;-74.2;44.0;44.5;13;13.5;28.1;0.0;
17/02/2025 23:46:37;100;0;96.06;-4;-19.60;-5.05;681.6;13.10;75772;2834.927;-1757.810;1;97;-70;-74.2;44.0;44.5;13;13.5;28.1;0.0;
17/02/2025 23:46:57;100;0;98.78;-4;-19.72;-5.14;684.3;13.00;75759;2834.926;-1757.806;1;97;-70;-74.2;44.0;44.5;13;13.5;28.1;0.0;
17/02/2025 23:47:17;100;0;100.33;-4;-19.72;-5.08;687.1;13.00;75760;2834.925;-1757.802;1;97;-70;-74.2;44.0;44.5;13;13.5;28.1;0.0;
17/02/2025 23:47:37;100;0;102.09;-4;-19.61;-5.17;689.9;13.00;75761;2834.924;-1757.798;1;97;-70;-75.8;44.0;44.5;13;13.5;28.1;0.0;
17/02/2025 23:47:57;100;0;104.63;-4;-19.62;-5.14;692.5;13.00;75752;2834.923;-1757.794;1;97;-70;-74.2;44.0;44.5;16;15.8;28.1;0.0;
17/02/2025 23:48:17;100;0;106.94;-4;-19.67;-3.78;695.1;13.00;75760;2834.922;-1757.791;1;97;-70;-74.2;44.0;44.5;19;19.0;28.1;0.0;
17/02/2025 23:48:37;100;0;108.53;-4;-19.63;-2.00;697.8;13.00;75755;2834.921;-1757.787;1;97;-70;-72.6;44.0;44.5;19;19.9;28.1;0.0;
17/02/2025 23:48:57;100;0;107.03;-4;-20.01;-1.92;700.3;12.90;75744;2834.920;-1757.783;1;97;-70;-77.4;44.0;44.5;19;19.9;28.1;0.0;
17/02/2025 23:49:17;100;0;107.31;-4;-20.15;-1.87;702.8;12.90;75744;2834.919;-1757.780;1;97;-70;-74.2;44.0;44.5;19;19.9;28.1;0.0;
17/02/2025 23:49:37;100;0;106.82;-4;-19.99;-1.84;705.3;12.90;75735;2834.918;-1757.776;1;97;-70;-75.8;44.0;44.5;19;19.9;28.1;0.0;
17/02/2025 23:49:57;100;0;105.47;-4;-20.03;-1.90;707.8;12.90;75736;2834.917;-1757.773;1;96;-70;-74.2;44.0;44.5;19;19.9;28.1;0.0;
17/02/2025 23:50:17;100;0;104.84;-4;-19.79;-1.98;710.3;12.80;75732;2834.916;-1757.769;1;96;-70;-75.8;44.0;44.6;19;19.9;28.1;0.0;
17/02/2025 23:50:37;100;0;107.54;-4;-20.18;-1.87;712.6;12.80;75730;2834.915;-1757.766;1;96;-70;-74.2;44.0;44.5;21;21.2;28.1;0.0;
17/02/2025 23:50:57;100;0;108.73;-4;-19.94;-0.92;714.9;12.80;75714;2834.913;-1757.763;1;96;-70;-74.2;44.0;44.5;23;23.5;28.1;0.0;
17/02/2025 23:51:17;100;0;105.17;-4;-20.19;-0.11;717.1;12.80;75704;2834.913;-1757.760;1;96;-70;-72.6;44.0;44.5;18;17.1;28.1;0.0;
17/02/2025 23:51:37;100;0;99.65;-4;-19.77;-2.90;719.4;12.80;75702;2834.912;-1757.757;1;96;-70;-77.4;44.0;44.5;14;14.0;28.1;0.0;
17/02/2025 23:51:57;100;0;97.78;-4;-19.56;-4.81;721.6;12.70;75698;2834.911;-1757.753;1;96;-70;-74.2;44.0;44.5;14;14.4;28.1;0.0;
17/02/2025 23:52:17;100;0;97.48;-4;-19.56;-4.77;723.6;12.70;75680;2834.911;-1757.750;1;96;-70;-74.2;44.0;44.5;14;14.4;28.0;0.0;
17/02/2025 23:52:37;100;0;96.39;-4;-19.73;-4.79;725.8;12.70;75675;2834.910;-1757.747;1;96;-70;-74.2;44.0;44.5;14;14.4;28.1;0.0;
17/02/2025 23:52:57;100;0;96.29;-4;-19.65;-4.80;727.9;12.70;75679;2834.910;-1757.744;1;96;-70;-74.2;44.0;44.5;14;14.4;28.1;0.0;
17/02/2025 23:53:17;100;0;96.74;-4;-19.77;-4.77;730.0;12.70;75671;2834.910;-1757.741;1;96;-70;-74.2;44.0;44.5;14;14.0;28.1;0.0;
17/02/2025 23:53:37;100;0;96.41;-4;-19.67;-4.75;732.2;12.60;75667;2834.909;-1757.738;1;96;-70;-74.2;44.0;44.5;14;14.4;28.1;0.0;
17/02/2025 23:53:57;100;0;95.82;-4;-19.85;-4.71;734.4;12.60;75660;2834.909;-1757.735;1;96;-70;-74.2;44.0;44.5;14;14.4;28.1;0.0;
17/02/2025 23:54:17;100;0;94.09;-4;-19.85;-4.69;736.7;12.60;75652;2834.908;-1757.731;1;96;-70;-75.8;44.0;44.5;14;14.4;28.1;0.0;
17/02/2025 23:54:37;100;0;94.69;-4;-19.78;-4.76;738.8;12.60;75656;2834.908;-1757.728;1;96;-70;-75.8;44.0;44.5;14;14.4;28.1;0.0;
17/02/2025 23:54:57;100;0;96.17;-4;-19.65;-4.67;741.1;12.60;75642;2834.907;-1757.725;1;96;-70;-75.8;44.0;44.5;14;14.4;28.1;0.0;
17/02/2025 23:55:17;100;0;97.04;-4;-20.03;-4.76;743.5;12.50;75645;2834.907;-1757.721;1;96;-70;-74.2;44.0;44.5;14;14.0;28.1;0.0;
17/02/2025 23:55:37;100;0;96.47;-4;-19.82;-4.75;745.7;12.50;75630;2834.906;-1757.718;1;96;-70;-74.2;44.0;44.5;14;14.4;28.1;0.0;
17/02/2025 23:55:57;100;0;95.23;-4;-19.90;-4.72;747.9;12.50;75630;2834.906;-1757.715;1;96;-70;-74.2;44.0;44.3;14;14.0;28.1;0.0;
17/02/2025 23:56:17;100;0;94.41;-4;-19.73;-4.76;750.1;12.50;75618;2834.906;-1757.712;1;96;-70;-74.2;44.0;44.5;14;14.4;28.1;0.0;
17/02/2025 23:56:37;100;0;93.50;-4;-19.82;-4.75;752.3;12.40;75619;2834.905;-1757.709;1;96;-70;-74.2;44.0;44.5;14;14.4;28.1;0.0;
17/02/2025 23:56:57;100;0;92.16;-4;-19.62;-4.72;754.5;12.40;75610;2834.905;-1757.705;1;96;-70;-74.2;44.0;44.5;14;14.0;28.1;0.0;
17/02/2025 23:57:17;100;0;92.46;-4;-19.71;-4.70;756.9;12.40;75607;2834.905;-1757.702;1;96;-70;-74.2;44.0;44.5;14;14.4;28.1;0.0;
17/02/2025 23:57:37;100;0;94.33;-4;-19.78;-5.22;759.1;12.40;75598;2834.904;-1757.699;1;96;-70;-74.2;44.0;44.5;14;14.4;28.1;0.0;
17/02/2025 23:57:57;100;0;97.13;-4;-19.43;-4.91;761.4;12.30;75593;2834.904;-1757.695;1;96;-70;-75.8;44.0;44.3;14;14.0;28.1;0.0;
17/02/2025 23:58:17;100;0;102.18;-4;-19.60;-4.82;763.6;12.30;75596;2834.903;-1757.692;1;96;-70;-75.8;44.0;44.3;16;15.8;28.1;0.0;
17/02/2025 23:58:37;100;0;105.47;-4;-20.02;-3.82;766.0;12.30;75581;2834.902;-1757.689;1;96;-70;-74.2;44.0;44.5;19;19.0;28.1;0.0;
17/02/2025 23:58:57;100;0;104.34;-4;-20.04;-1.86;768.7;12.30;75563;2834.901;-1757.685;1;96;-70;-74.2;44.0;44.5;19;19.9;28.1;0.0;
17/02/2025 23:59:17;100;0;102.62;-4;-19.67;-1.85;771.4;12.30;75559;2834.900;-1757.681;1;96;-70;-72.6;44.0;44.5;16;15.8;28.1;0.0;
17/02/2025 23:59:37;100;0;103.38;-4;-19.53;-3.48;774.0;12.20;75551;2834.899;-1757.677;1;96;-70;-72.6;44.0;44.5;16;16.7;28.1;0.0;
17/02/2025 23:59:57;100;0;104.09;-4;-19.32;-3.56;776.6;12.20;75544;2834.898;-1757.673;1;96;-70;-74.2;44.0;44.5;16;16.7;28.1;0.0;
18/02/2025 00:00:17;100;0;103.35;-4;-19.08;-3.59;779.1;12.20;75539;2834.897;-1757.670;1;96;-70;-74.2;44.0;44.5;16;17.1;28.1;0.0;
18/02/2025 00:00:37;100;0;103.70;-4;-19.59;-3.57;781.5;12.20;75527;2834.897;-1757.666;1;96;-70;-74.2;44.0;44.5;18;18.1;28.1;0.0;
18/02/2025 00:00:57;100;0;103.21;-4;-19.77;-2.54;784.2;12.20;75519;2834.896;-1757.663;1;96;-70;-74.2;44.0;44.5;18;18.5;28.1;0.0;
18/02/2025 00:01:17;100;0;103.43;-4;-19.49;-2.61;786.8;12.10;75521;2834.895;-1757.659;1;96;-70;-74.2;44.0;44.5;18;19.0;28.1;0.0;
18/02/2025 00:01:37;100;0;101.82;-4;-19.75;-2.52;789.4;12.10;75519;2834.894;-1757.655;1;96;-70;-72.6;44.0;44.5;16;15.3;28.1;0.0;
18/02/2025 00:01:57;100;0;102.87;-4;-19.49;-3.57;792.1;12.10;75509;2834.893;-1757.651;1;96;-70;-74.2;44.0;44.5;16;16.7;28.1;0.0;
18/02/2025 00:02:17;100;0;104.97;-4;-18.65;-3.77;794.8;12.10;75508;2834.892;-1757.647;1;96;-70;-72.6;44.4;44.5;18;18.5;28.1;0.0;
18/02/2025 00:02:37;100;0;106.11;-4;-19.59;-2.43;797.3;12.00;75512;2834.891;-1757.643;1;96;-70;-74.2;44.4;44.5;20;20.3;28.1;0.0;
18/02/2025 00:02:57;100;0;104.22;-4;-19.56;-1.18;799.9;12.00;75499;2834.890;-1757.640;1;96;-70;-74.2;44.4;44.5;17;17.1;28.1;0.0;
18/02/2025 00:03:17;100;0;102.61;-4;-19.33;-1.83;802.6;12.00;75495;2834.889;-1757.636;1;96;-70;-74.2;44.4;44.5;17;20.3;28.1;0.0;
18/02/2025 00:03:37;100;0;102.42;-4;-20.20;-1.79;805.3;11.90;75474;2834.888;-1757.632;1;95;-70;-77.4;44.4;44.5;17;20.3;28.1;0.0;
18/02/2025 00:03:57;100;0;100.55;-4;-19.90;-1.77;807.9;12.00;75494;2834.887;-1757.628;1;95;-70;-74.2;44.4;44.5;17;20.3;28.1;0.0;
18/02/2025 00:04:17;100;0;97.80;-4;-19.64;-1.75;810.7;11.90;75485;2834.887;-1757.624;1;95;-70;-74.2;44.4;44.5;15;14.9;28.1;0.0;
18/02/2025 00:04:37;100;0;96.33;-4;-20.17;-4.26;813.4;11.90;75473;2834.886;-1757.620;1;95;-70;-74.2;44.4;44.3;15;14.4;28.1;0.0;
18/02/2025 00:04:57;100;0;98.03;-4;-19.64;-4.50;816.2;11.90;75474;2834.885;-1757.616;1;95;-70;-74.2;44.4;44.5;15;14.9;28.1;0.0;
18/02/2025 00:05:17;100;0;99.87;-4;-19.13;-4.55;818.9;11.90;75485;2834.885;-1757.612;1;95;-70;-74.2;44.4;44.5;15;14.9;28.1;0.0;
18/02/2025 00:05:37;100;0;104.72;-4;-19.63;-4.46;821.7;11.80;75468;2834.884;-1757.608;1;95;-70;-75.8;44.4;44.5;19;19.0;28.1;0.0;
18/02/2025 00:05:57;100;0;104.46;-4;-19.37;-1.93;824.5;11.80;75474;2834.883;-1757.604;1;95;-70;-74.2;44.4;44.5;19;19.9;28.1;0.0;
18/02/2025 00:06:17;100;0;101.08;-4;-19.31;-1.97;827.2;11.80;75472;2834.882;-1757.600;1;95;-70;-75.8;44.4;44.5;16;15.8;28.1;0.0;
18/02/2025 00:06:37;100;0;99.27;-4;-19.24;-4.14;830.0;11.80;75465;2834.881;-1757.596;1;95;-70;-74.2;44.4;44.3;16;15.8;28.1;0.0;
18/02/2025 00:06:57;100;0;97.24;-4;-19.36;-4.07;832.7;11.80;75466;2834.880;-1757.592;1;95;-70;-74.2;44.4;44.5;16;15.8;28.1;0.0;
18/02/2025 00:07:17;100;0;90.85;-4;-18.95;-3.89;835.4;11.70;75462;2834.880;-1757.588;1;95;-70;-74.2;44.7;44.6;14;14.0;28.1;0.0;
18/02/2025 00:07:37;100;0;87.15;-4;-19.76;-4.56;838.0;11.70;75462;2834.880;-1757.584;1;95;-70;-74.2;44.7;44.8;14;14.4;28.1;0.0;
18/02/2025 00:07:57;100;0;84.53;-4;-19.26;-4.58;840.6;11.70;75442;2834.880;-1757.580;1;95;-70;-74.2;44.7;44.8;14;14.4;28.1;0.0;
18/02/2025 00:08:17;100;0;84.82;-4;-20.11;-4.60;843.1;11.70;75445;2834.881;-1757.576;1;95;-70;-75.8;44.7;44.8;14;14.9;28.1;0.0;
18/02/2025 00:08:37;100;0;83.91;-4;-19.68;-4.63;845.7;11.70;75438;2834.881;-1757.572;1;95;-70;-74.2;44.7;44.8;14;14.9;28.1;0.0;
18/02/2025 00:08:57;100;0;83.11;-4;-19.76;-4.61;848.3;11.60;75431;2834.881;-1757.569;1;95;-70;-74.2;44.7;44.8;12;11.7;28.1;0.0;
18/02/2025 00:09:17;100;0;81.89;-4;-19.73;-5.91;850.8;11.60;75429;2834.881;-1757.565;1;95;-70;-74.2;44.7;44.8;12;12.2;28.1;0.0;
18/02/2025 00:09:37;100;0;82.84;-4;-19.60;-5.90;853.3;11.60;75427;2834.882;-1757.561;1;95;-70;-74.2;44.7;44.9;12;12.2;28.1;0.0;
18/02/2025 00:09:57;100;0;83.95;-4;-19.39;-5.87;855.8;11.60;75428;2834.882;-1757.558;1;95;-70;-75.8;44.7;44.8;12;12.2;28.1;0.0;
18/02/2025 00:10:17;100;0;84.75;-4;-19.50;-5.91;858.2;11.60;75421;2834.882;-1757.554;1;96;-70;-74.2;44.7;44.8;12;12.2;28.1;0.0;
18/02/2025 00:10:37;100;0;86.12;-4;-19.52;-5.94;860.6;11.50;75427;2834.882;-1757.551;1;96;-70;-74.2;44.7;44.8;12;11.7;28.1;0.0;
18/02/2025 00:10:57;100;0;87.78;-4;-19.38;-5.87;862.9;11.50;75408;2834.882;-1757.547;1;96;-70;-74.2;44.7;44.9;14;14.0;28.1;0.0;
18/02/2025 00:11:17;100;0;88.09;-4;-19.67;-4.62;865.2;11.50;75407;2834.882;-1757.544;1;96;-70;-74.2;44.7;44.8;14;14.4;28.1;0.0;
18/02/2025 00:11:37;100;0;87.89;-4;-19.69;-4.53;867.4;11.50;75404;2834.882;-1757.541;1;96;-70;-74.2;44.7;44.9;14;14.4;28.1;0.0;
18/02/2025 00:11:57;100;0;89.84;-4;-19.84;-4.48;869.6;11.50;75395;2834.882;-1757.537;1;96;-70;-75.8;44.7;44.8;14;14.4;28.1;0.0;
18/02/2025 00:12:17;100;0;87.12;-4;-20.19;-4.57;871.9;11.50;75388;2834.882;-1757.534;1;96;-70;-75.8;44.7;44.8;14;14.4;28.1;0.0;
18/02/2025 00:12:37;100;0;87.87;-4;-19.92;-4.35;874.1;11.40;75395;2834.882;-1757.531;1;96;-70;-74.2;44.7;44.8;14;14.4;28.1;0.0;
18/02/2025 00:12:57;100;0;84.58;-4;-19.97;-4.56;876.6;11.40;75388;2834.882;-1757.527;1;96;-70;-74.2;44.7;44.8;12;12.2;28.1;0.0;
18/02/2025 00:13:17;100;0;85.25;-4;-19.17;-5.61;878.7;11.40;75380;2834.882;-1757.524;1;96;-70;-74.2;44.7;44.8;12;12.2;28.1;0.0;
18/02/2025 00:13:37;100;0;87.33;-4;-19.76;-5.72;880.7;11.40;75370;2834.882;-1757.521;1;96;-90;-91.9;44.7;44.8;12;12.2;28.1;0.0;
18/02/2025 00:13:57;100;0;90.89;-4;-19.40;-5.68;882.7;11.30;75418;2834.882;-1757.518;1;96;-90;-93.5;44.7;44.8;14;14.0;28.1;0.0;
18/02/2025 00:14:17;100;0;87.28;-4;-19.58;-4.78;884.9;11.30;75405;2834.882;-1757.515;1;96;-90;-93.5;44.7;44.8;14;14.4;28.1;0.0;
18/02/2025 00:14:37;100;0;85.15;-4;-19.20;-4.61;886.9;11.30;75404;2834.882;-1757.512;1;96;-90;-93.5;44.7;44.8;12;11.7;28.1;0.0;
18/02/2025 00:14:58;100;0;84.06;-4;-19.24;-5.80;888.9;11.30;75394;2834.882;-1757.509;1;96;-110;-109.7;44.7;44.8;12;12.2;28.1;0.0;
18/02/2025 00:15:18;100;0;84.13;-4;-19.03;-5.67;890.8;11.30;75437;2834.882;-1757.506;1;96;-130;-130.6;44.7;44.8;12;12.2;28.1;0.0;
18/02/2025 00:15:38;100;0;83.99;-4;-19.00;-5.49;893.0;11.20;75468;2834.882;-1757.502;1;96;-130;-132.3;44.7;44.8;12;12.2;28.1;0.0;
18/02/2025 00:15:58;100;0;82.91;-4;-19.03;-5.53;895.2;11.20;75463;2834.882;-1757.499;1;96;-130;-135.5;44.7;44.8;10;8.6;28.1;0.0;
18/02/2025 00:16:18;100;0;83.72;-4;-18.97;-6.25;897.6;11.20;75460;2834.882;-1757.496;1;96;-130;-133.9;45.0;45.1;10;10.8;28.1;0.0;
18/02/2025 00:16:38;100;0;83.92;-4;-19.29;-6.26;900.0;11.20;75460;2834.883;-1757.492;1;96;-130;-138.7;45.0;45.2;10;10.8;28.1;0.0;
18/02/2025 00:16:58;100;0;84.31;-4;-19.83;-6.27;902.3;11.20;75453;2834.883;-1757.489;1;96;-130;-135.5;45.0;45.2;10;10.8;28.1;0.0;
18/02/2025 00:17:18;100;0;85.21;-4;-19.66;-6.27;904.7;11.10;75439;2834.883;-1757.485;1;96;-130;-137.1;45.0;45.2;12;12.2;28.1;0.0;
18/02/2025 00:17:38;100;0;85.35;-4;-19.92;-5.31;907.1;11.10;75433;2834.883;-1757.482;1;96;-130;-137.1;45.0;45.2;12;12.6;28.1;0.0;
18/02/2025 00:17:58;100;0;83.83;-4;-19.54;-5.35;909.6;11.10;75426;2834.883;-1757.478;1;96;-130;-135.5;45.0;45.2;12;12.6;28.1;0.0;
18/02/2025 00:18:18;100;0;82.19;-4;-19.93;-5.16;912.0;11.10;75424;2834.883;-1757.474;1;96;-130;-137.1;45.0;45.2;10;9.9;28.1;0.0;
18/02/2025 00:18:38;100;0;81.87;-4;-19.51;-6.47;914.4;11.00;75412;2834.884;-1757.471;1;96;-130;-138.7;45.0;45.2;10;10.4;28.1;0.0;
18/02/2025 00:18:58;100;0;84.57;-4;-19.29;-6.18;916.9;11.00;75415;2834.884;-1757.467;1;96;-130;-138.7;45.0;45.2;10;10.4;28.1;0.0;
18/02/2025 00:19:18;100;0;86.02;-4;-19.59;-6.42;919.2;11.00;75399;2834.884;-1757.464;1;96;-130;-137.1;45.0;45.2;12;12.2;28.1;0.0;
18/02/2025 00:19:38;100;0;85.67;-4;-19.51;-5.34;921.6;11.00;75407;2834.884;-1757.460;1;96;-130;-135.5;45.0;45.2;12;12.2;28.1;0.0;
18/02/2025 00:19:58;100;0;86.33;-4;-19.66;-5.38;923.9;11.00;75402;2834.884;-1757.457;1;96;-130;-137.1;45.0;45.2;12;12.2;28.1;0.0;
18/02/2025 00:20:18;100;0;87.77;-4;-19.66;-5.40;926.2;10.90;75393;2834.884;-1757.454;1;96;-130;-137.1;45.0;45.2;12;12.6;28.1;0.0;
18/02/2025 00:20:38;100;0;89.12;-4;-19.68;-5.36;928.5;10.90;75395;2834.884;-1757.450;1;96;-130;-137.1;45.0;45.2;12;12.6;28.1;0.0;
18/02/2025 00:20:58;100;0;90.39;-4;-19.78;-5.38;930.8;10.90;75384;2834.884;-1757.447;1;96;-130;-135.5;45.0;45.2;12;12.2;28.1;0.0;
18/02/2025 00:21:18;100;0;92.01;-4;-19.74;-5.31;933.1;10.90;75383;2834.884;-1757.444;1;96;-130;-135.5;45.0;45.2;12;12.2;28.1;0.0;
18/02/2025 00:21:38;100;0;91.66;-4;-19.86;-5.28;935.4;10.80;75368;2834.883;-1757.440;1;97;-130;-137.1;45.0;45.2;12;12.2;28.1;0.0;
18/02/2025 00:21:58;100;0;90.91;-4;-19.75;-5.37;937.7;10.80;75358;2834.883;-1757.437;1;97;-130;-135.5;45.0;45.2;12;12.2;28.1;0.0;
18/02/2025 00:22:18;100;0;91.81;-4;-19.77;-5.36;940.0;10.80;75359;2834.883;-1757.433;1;97;-130;-137.1;45.0;45.2;12;12.2;28.1;0.0;
18/02/2025 00:22:38;100;0;92.04;-4;-19.76;-5.47;942.4;10.80;75362;2834.883;-1757.430;1;97;-130;-137.1;45.0;45.2;12;12.6;28.1;0.0;
18/02/2025 00:22:58;100;0;92.87;-4;-19.90;-5.37;944.9;10.80;75361;2834.882;-1757.426;1;97;-130;-137.1;45.0;45.2;12;12.6;28.1;0.0;
18/02/2025 00:23:18;100;0;94.42;-4;-19.85;-5.29;947.5;10.80;75367;2834.882;-1757.422;1;97;-130;-137.1;45.0;45.2;12;12.2;28.1;0.0;
18/02/2025 00:23:38;100;0;94.61;-4;-19.64;-5.31;950.0;10.70;75352;2834.881;-1757.419;1;97;-130;-137.1;45.0;45.2;12;12.2;28.1;0.0;
18/02/2025 00:23:58;100;0;94.63;-4;-19.71;-5.36;952.5;10.70;75347;2834.881;-1757.415;1;97;-130;-137.1;45.0;45.2;12;12.6;28.1;0.0;
18/02/2025 00:24:18;100;0;94.04;-4;-19.70;-5.29;955.0;10.70;75340;2834.881;-1757.412;1;97;-130;-137.1;45.0;45.2;12;12.6;28.1;0.0;
18/02/2025 00:24:38;100;0;92.74;-4;-19.58;-5.42;957.6;10.70;75339;2834.880;-1757.408;1;97;-130;-140.3;45.0;45.2;12;12.6;28.1;0.0;
18/02/2025 00:24:58;100;0;92.59;-4;-19.58;-5.36;960.0;10.60;75331;2834.880;-1757.404;1;97;-130;-137.1;45.0;45.2;12;12.6;28.1;0.0;
18/02/2025 00:25:18;100;0;91.76;-4;-19.94;-5.38;962.5;10.60;75335;2834.880;-1757.400;1;97;-130;-137.1;45.0;45.2;12;12.6;28.1;0.0;
18/02/2025 00:25:38;100;0;91.51;-4;-19.91;-5.35;965.1;10.60;75331;2834.880;-1757.397;1;97;-130;-137.1;45.0;45.2;12;12.2;28.1;0.0;
18/02/2025 00:25:58;100;0;90.68;-4;-19.64;-5.37;967.6;10.60;75320;2834.879;-1757.393;1;97;-130;-137.1;45.0;45.2;12;12.6;28.0;0.0;
18/02/2025 00:26:18;100;0;90.61;-4;-19.83;-5.39;969.9;10.60;75329;2834.879;-1757.390;1;97;-130;-137.1;45.0;45.2;12;12.2;28.1;0.0;
18/02/2025 00:26:38;100;0;91.35;-4;-19.63;-5.40;972.5;10.50;75317;2834.879;-1757.386;1;97;-130;-137.1;45.0;45.2;12;12.6;28.1;0.0;
18/02/2025 00:26:58;100;0;91.26;-4;-19.58;-5.41;974.9;10.50;75320;2834.879;-1757.382;1;97;-130;-138.7;45.0;45.2;12;12.6;28.1;0.0;
18/02/2025 00:27:18;100;0;91.35;-4;-19.28;-5.39;977.3;10.50;75313;2834.879;-1757.379;1;97;-130;-137.1;45.0;45.2;12;12.6;28.1;42.2;
18/02/2025 00:27:38;100;0;93.89;-4;-19.76;-5.33;979.8;10.50;75317;2834.878;-1757.375;1;97;-130;-137.1;45.0;45.4;12;12.2;28.1;38.6;
18/02/2025 00:27:58;100;0;95.59;-4;-19.69;-5.35;982.2;10.50;75310;2834.878;-1757.372;1;97;-130;-137.1;45.0;45.2;12;12.6;28.0;35.0;
18/02/2025 00:28:18;100;0;96.09;-4;-19.64;-5.35;984.6;10.40;75311;2834.877;-1757.368;1;97;-130;-138.7;45.0;45.2;12;12.2;28.1;31.4;
18/02/2025 00:28:21;118;0;95.83;-4;-19.63;-5.42;984.9;10.40;75305;2834.877;-1757.368;1;97;270;-135.5;27.3;27.1;8;7.7;28.1;30.8;
18/02/2025 00:28:31;118;0;96.24;-4;-7.21;-8.44;985.9;10.40;75291;2834.877;-1757.366;1;97;270;-9.7;27.3;26.8;8;7.7;26.9;-1.0;
18/02/2025 00:28:41;118;0;87.73;-4;12.22;-8.25;985.9;10.40;75019;2834.877;-1757.366;1;97;270;114.5;27.3;27.2;8;7.7;26.8;-1.0;
18/02/2025 00:28:51;118;0;83.98;-4;18.33;-8.74;985.3;10.40;74762;2834.877;-1757.365;1;97;270;238.7;27.3;27.4;8;7.7;26.8;-1.0;
18/02/2025 00:29:01;118;0;83.14;-4;17.76;-8.45;984.4;10.40;74519;2834.877;-1757.363;1;97;270;272.6;27.3;27.5;8;7.7;26.9;-1.0;
18/02/2025 00:29:11;118;0;92.17;-4;15.43;-8.22;983.4;10.40;74468;2834.877;-1757.362;1;97;270;272.6;27.3;27.5;8;7.7;28.0;-1.0;
18/02/2025 00:29:31;117;0;85.49;-4;14.14;-8.17;981.2;10.50;74462;2834.877;-1757.358;1;97;270;269.4;27.3;27.4;8;7.7;28.0;-1.0;
18/02/2025 00:29:51;117;0;80.02;-4;14.76;-8.31;979.0;10.50;74460;2834.877;-1757.354;1;97;270;271.0;25.7;25.6;36;36.1;28.0;-1.0;
18/02/2025 00:30:11;117;0;78.67;-4;19.05;6.74;976.5;10.50;74461;2834.878;-1757.350;1;97;270;272.6;25.7;25.3;38;37.9;28.0;-1.0;
18/02/2025 00:30:31;117;0;80.56;-4;21.88;8.01;973.8;10.50;74457;2834.878;-1757.347;1;97;270;272.6;25.7;25.8;35;34.3;28.1;-1.0;
18/02/2025 00:30:51;117;0;79.67;-4;21.23;6.46;970.7;10.50;74445;2834.879;-1757.342;1;97;270;272.6;25.7;25.9;38;37.9;28.1;-1.0;
18/02/2025 00:31:11;117;0;82.65;-4;20.87;7.87;967.5;10.50;74455;2834.879;-1757.338;1;97;270;271.0;25.7;25.9;34;33.4;28.1;-1.0;
18/02/2025 00:31:31;117;0;85.32;-4;20.11;6.18;964.5;10.50;74445;2834.879;-1757.334;1;97;270;272.6;25.7;25.9;31;30.7;28.0;-1.0;
18/02/2025 00:31:51;117;0;86.39;-4;20.09;4.03;961.8;10.40;74439;2834.879;-1757.330;1;97;270;271.0;25.7;25.9;31;31.1;28.1;-1.0;
18/02/2025 00:32:11;117;0;86.95;-4;20.46;4.08;959.1;10.40;74444;2834.879;-1757.326;1;97;270;272.6;25.7;25.9;31;31.1;28.1;-1.0;
18/02/2025 00:32:31;117;0;86.85;-4;20.58;4.14;956.4;10.40;74439;2834.880;-1757.322;1;97;270;271.0;25.7;25.9;31;31.1;28.1;-1.0;
18/02/2025 00:32:51;117;0;87.25;-4;20.15;4.04;953.6;10.40;74420;2834.880;-1757.318;1;97;270;274.2;25.7;25.9;31;31.1;28.1;-1.0;
18/02/2025 00:33:11;117;0;88.04;-4;20.30;4.12;950.8;10.40;74429;2834.879;-1757.314;1;97;270;272.6;25.7;25.9;31;31.1;28.1;-1.0;
18/02/2025 00:33:31;117;0;89.37;-4;20.35;4.07;948.1;10.40;74428;2834.879;-1757.310;1;97;270;272.6;25.7;25.9;29;28.9;28.1;-1.0;
18/02/2025 00:33:51;117;0;88.94;-4;20.11;2.66;945.3;10.30;74417;2834.879;-1757.306;1;98;270;272.6;25.7;26.1;29;28.4;28.1;-1.0;
18/02/2025 00:34:11;117;0;88.80;-4;19.91;2.67;942.8;10.30;74424;2834.879;-1757.302;1;98;270;272.6;25.7;25.9;29;28.4;28.0;-1.0;
18/02/2025 00:34:31;117;0;88.62;-4;20.19;2.66;940.2;10.30;74419;2834.879;-1757.298;1;98;270;272.6;25.7;25.9;29;28.4;28.1;-1.0;
18/02/2025 00:34:51;117;0;88.42;-4;20.28;2.64;937.5;10.30;74415;2834.879;-1757.294;1;98;270;272.6;25.7;25.9;29;28.4;28.1;-1.0;
18/02/2025 00:35:11;117;0;87.26;-4;20.12;2.67;934.8;10.30;74407;2834.879;-1757.290;1;98;270;272.6;25.7;25.9;29;28.4;28.1;-1.0;
18/02/2025 00:35:31;117;0;87.13;-4;20.23;2.71;932.2;10.30;74410;2834.879;-1757.287;1;98;270;272.6;25.7;25.9;31;31.6;28.1;-1.0;
18/02/2025 00:35:51;117;0;87.98;-4;20.41;4.65;929.4;10.20;74395;2834.879;-1757.282;1;98;270;272.6;25.7;25.9;31;32.0;28.1;-1.0;
18/02/2025 00:36:11;117;0;88.17;-4;20.43;4.69;926.5;10.20;74398;2834.879;-1757.278;1;98;270;272.6;25.7;25.9;31;32.0;28.1;-1.0;
18/02/2025 00:36:31;117;0;88.52;-4;20.52;4.68;923.6;10.20;74404;2834.879;-1757.274;1;98;270;272.6;25.7;25.9;31;32.0;28.0;-1.0;
18/02/2025 00:36:51;117;0;88.30;-4;20.46;4.66;920.6;10.20;74397;2834.879;-1757.270;1;98;270;271.0;25.7;25.9;31;32.0;28.1;-1.0;
18/02/2025 00:37:11;117;0;88.58;-4;20.20;4.66;917.5;10.20;74394;2834.879;-1757.265;1;98;270;272.6;25.7;26.1;31;32.0;28.1;-1.0;
18/02/2025 00:37:31;117;0;88.93;-4;20.26;4.70;914.5;10.20;74397;2834.879;-1757.261;1;98;270;272.6;25.7;26.1;31;32.0;28.1;-1.0;
18/02/2025 00:37:51;117;0;89.93;-4;20.25;4.73;911.5;10.20;74384;2834.879;-1757.256;1;98;270;272.6;25.7;25.9;31;32.0;28.1;-1.0;
18/02/2025 00:38:11;117;0;90.55;-4;20.24;4.67;908.4;10.20;74387;2834.879;-1757.252;1;98;270;272.6;25.7;26.1;31;32.0;28.1;-1.0;
18/02/2025 00:38:31;117;0;91.80;-4;20.20;4.59;905.4;10.10;74382;2834.878;-1757.247;1;98;270;272.6;25.7;25.9;29;28.9;28.1;-1.0;
18/02/2025 00:38:51;117;0;90.40;-4;20.35;2.93;902.4;10.10;74381;2834.878;-1757.243;1;98;270;274.2;25.7;25.9;29;28.4;28.0;-1.0;
18/02/2025 00:39:11;117;0;89.57;-4;19.62;2.74;899.3;10.10;74382;2834.878;-1757.239;1;98;270;271.0;25.7;25.9;29;28.4;28.1;-1.0;
18/02/2025 00:39:31;117;0;89.31;-4;20.18;2.82;896.4;10.10;74374;2834.878;-1757.234;1;98;270;274.2;25.7;25.9;29;28.9;28.1;-1.0;
18/02/2025 00:39:51;117;0;87.67;-4;19.91;2.70;893.4;10.10;74367;2834.878;-1757.230;1;98;270;274.2;25.7;25.9;31;31.6;28.1;-1.0;
18/02/2025 00:40:11;117;0;87.44;-4;20.56;4.74;890.6;10.10;74372;2834.878;-1757.226;1;99;270;272.6;25.7;25.9;31;32.5;28.1;-1.0;
18/02/2025 00:40:31;117;0;88.55;-4;20.18;4.73;887.6;10.10;74376;2834.878;-1757.222;1;99;270;272.6;25.7;25.9;31;32.5;28.1;-1.0;
18/02/2025 00:40:51;117;0;89.23;-4;20.00;4.76;884.7;10.10;74371;2834.878;-1757.217;1;99;270;272.6;25.7;26.1;31;32.5;28.1;-1.0;
18/02/2025 00:41:11;117;0;89.73;-4;20.11;4.75;881.9;10.10;74371;2834.878;-1757.213;1;99;270;271.0;25.7;26.1;31;32.5;28.1;-1.0;
18/02/2025 00:41:31;117;0;90.33;-4;19.93;4.74;879.0;10.00;74369;2834.877;-1757.209;1;99;270;274.2;25.7;26.1;31;32.5;28.1;-1.0;
18/02/2025 00:41:51;117;0;91.25;-4;20.04;4.66;876.2;10.00;74369;2834.877;-1757.205;1;99;270;272.6;25.7;25.9;31;32.5;28.1;-1.0;
18/02/2025 00:42:11;117;0;93.46;-4;20.03;4.76;873.4;10.00;74380;2834.877;-1757.201;1;99;270;272.6;25.7;26.1;31;32.5;28.1;-1.0;
18/02/2025 00:42:31;117;0;94.80;-4;19.94;4.73;870.6;10.00;74373;2834.876;-1757.197;1;99;270;272.6;25.7;25.9;29;28.4;28.1;-1.0;
