Timestamp;NavState;SecurityLevel;Heading;Declination;Pitch;Roll;Depth;Temperature;Pa;Lat;Lon;DeadReckoning;DesiredH;BallastCmd;BallastPos;LinCmd;LinPos;AngCmd;AngPos;Voltage;Altitude;
16/02/2025 15:45:56;119;0;261.15;-4;-56.39;-20.81;-0.3;19.70;76547;2838.757;-1801.792;0;162;500;508.1;100.0;100.7;0;-0.5;28.4;-1.0;
16/02/2025 15:46:06;116;0;275.70;-4;-58.97;-24.67;-0.1;19.70;76549;2838.759;-1801.793;0;162;500;508.1;100.0;100.7;0;-0.5;28.4;-1.0;
16/02/2025 15:46:36;116;0;272.14;-4;-62.79;-14.47;-0.2;19.80;76571;2838.760;-1801.796;0;162;500;509.7;100.0;100.7;0;-0.5;28.4;-1.0;
16/02/2025 15:47:03;116;0;286.07;-4;-46.75;-7.11;0.0;19.80;76572;2838.759;-1801.794;0;162;500;508.1;100.0;100.7;0;-0.5;28.4;-1.0;
16/02/2025 15:47:21;116;0;286.37;-4;-52.44;-11.52;-0.1;19.80;76576;2838.759;-1801.797;0;162;500;508.1;100.0;100.7;0;-0.5;28.4;-1.0;
16/02/2025 15:47:41;116;0;286.51;-4;-58.56;-18.02;0.1;19.90;76582;2838.760;-1801.798;0;162;500;509.7;100.0;100.7;0;0.0;28.4;-1.0;
16/02/2025 15:48:28;116;0;300.70;-4;-57.49;-16.72;-0.1;20.00;76609;2838.761;-1801.799;0;162;500;509.7;100.0;100.7;0;-0.5;28.4;-1.0;
16/02/2025 15:49:26;116;0;279.03;-4;-49.69;-11.31;-0.1;20.10;76626;2838.764;-1801.803;0;162;500;508.1;100.0;100.9;0;-0.5;28.4;-1.0;
16/02/2025 15:49:37;116;0;264.80;-4;-57.87;-4.16;0.0;20.20;76624;2838.764;-1801.803;0;162;500;509.7;100.0;100.7;0;-0.5;28.4;-1.0;
16/02/2025 15:49:57;110;0;283.58;-4;-62.24;-27.26;-0.0;20.20;76629;2838.764;-1801.803;0;162;-50;395.2;100.0;99.7;-13;-13.1;28.4;-1.0;
16/02/2025 15:50:07;110;0;275.42;-4;-52.21;-18.44;0.1;20.30;76972;2838.765;-1801.804;1;161;-50;245.2;100.0;99.7;-13;-13.5;28.4;-1.0;
16/02/2025 15:50:17;110;0;276.10;-4;-61.56;-24.52;0.6;20.30;77223;2838.765;-1801.804;1;161;-50;85.5;100.0;99.7;-13;-13.5;28.4;-1.0;
16/02/2025 15:50:27;110;0;302.18;-4;-67.99;-28.25;0.8;20.30;77567;2838.766;-1801.805;1;161;-50;-50.0;100.0;99.9;-13;-13.5;28.4;-1.0;
16/02/2025 15:50:37;110;0;313.51;-4;-56.31;-27.67;1.3;20.40;77836;2838.766;-1801.805;1;161;-50;-50.0;48.4;48.5;-13;-13.5;28.4;-1.0;
16/02/2025 15:50:57;100;0;314.58;-4;-33.39;-17.26;4.6;20.40;77812;2838.769;-1801.808;1;161;-50;-50.0;48.4;48.2;-13;-13.5;28.4;-1.0;
16/02/2025 15:51:17;100;0;324.91;-4;-28.02;-18.70;8.5;20.50;77798;2838.773;-1801.811;1;161;-50;-50.0;49.0;49.3;70;69.9;28.4;-1.0;
16/02/2025 15:51:37;100;0;322.95;-4;-39.28;24.00;12.7;20.50;77797;2838.776;-1801.814;1;161;-50;-46.8;46.3;46.2;70;70.4;28.4;-1.0;
16/02/2025 15:51:57;100;0;312.98;-4;-32.23;23.57;17.2;20.50;77802;2838.780;-1801.818;1;161;-50;-48.4;45.6;45.7;70;70.4;28.4;0.0;
16/02/2025 15:52:17;100;0;301.56;-4;-32.42;23.67;21.5;20.50;77798;2838.783;-1801.822;1;161;-50;-48.4;44.9;44.8;70;70.4;28.4;0.0;
16/02/2025 15:52:37;100;0;291.59;-4;-27.95;23.95;25.3;20.50;77799;2838.785;-1801.827;1;161;-50;-48.4;45.5;45.5;70;70.4;28.4;0.0;
16/02/2025 15:52:57;100;0;281.34;-4;-29.23;23.45;29.1;20.60;77783;2838.787;-1801.832;1;161;-50;-46.8;45.5;45.7;70;70.4;28.4;0.0;
16/02/2025 15:53:17;100;0;268.54;-4;-28.96;23.86;32.9;20.50;77771;2838.788;-1801.836;1;161;-50;-48.4;45.8;45.8;70;70.4;28.4;0.0;
16/02/2025 15:53:37;100;0;256.62;-4;-29.93;23.86;36.7;20.60;77778;2838.788;-1801.841;1;160;-50;-46.8;45.8;45.7;70;70.4;28.4;0.0;
16/02/2025 15:53:57;100;0;246.68;-4;-29.68;23.75;40.6;20.60;77764;2838.788;-1801.845;1;160;-50;-48.4;45.8;45.7;70;70.4;28.4;0.0;
16/02/2025 15:54:17;100;0;236.03;-4;-29.10;23.81;44.5;20.50;77773;2838.787;-1801.849;1;160;-50;-46.8;45.8;45.8;70;70.4;28.4;0.0;
16/02/2025 15:54:37;100;0;225.07;-4;-29.06;23.78;48.4;20.60;77767;2838.785;-1801.853;1;160;-50;-48.4;45.8;45.8;70;70.4;28.4;0.0;
16/02/2025 15:54:57;100;0;211.91;-4;-28.90;23.73;52.2;20.60;77770;2838.783;-1801.856;1;160;-50;-48.4;46.1;46.1;70;70.4;28.4;0.0;
16/02/2025 15:55:17;100;0;202.01;-4;-29.76;23.79;56.1;20.50;77767;2838.781;-1801.858;1;160;-50;-46.8;46.1;46.2;66;65.9;28.4;0.0;
16/02/2025 15:55:37;100;0;192.52;-4;-30.22;20.86;60.1;20.60;77786;2838.778;-1801.860;1;160;-50;-46.8;46.1;46.4;54;54.2;28.4;0.0;
16/02/2025 15:55:57;100;0;181.63;-4;-28.99;14.86;64.2;20.50;77776;2838.776;-1801.861;1;160;-50;-48.4;46.4;46.4;38;37.9;28.4;0.0;
16/02/2025 15:56:17;100;0;175.44;-4;-28.36;6.87;68.0;20.50;77784;2838.773;-1801.861;1;160;-50;-46.8;46.9;47.1;27;26.6;28.4;0.0;
16/02/2025 15:56:37;100;0;170.49;-4;-29.44;1.32;71.9;20.50;77774;2838.771;-1801.861;1;159;-50;-48.4;46.9;47.3;21;21.2;28.4;0.0;
16/02/2025 15:56:57;100;0;165.81;-4;-29.03;-1.32;75.9;20.50;77779;2838.768;-1801.861;1;159;-50;-46.8;46.9;47.3;15;14.9;28.4;0.0;
16/02/2025 15:57:17;100;0;164.92;-4;-28.65;-4.36;79.9;20.50;77787;2838.765;-1801.861;1;159;-50;-48.4;47.3;47.3;15;14.4;28.4;0.0;
16/02/2025 15:57:37;100;0;162.75;-4;-28.15;-4.48;83.7;20.50;77790;2838.763;-1801.860;1;159;-50;-48.4;47.9;48.0;12;12.2;28.4;0.0;
16/02/2025 15:57:57;100;0;162.21;-4;-28.77;-5.88;87.6;20.50;77771;2838.761;-1801.860;1;159;-50;-48.4;48.3;48.3;12;11.7;28.4;0.0;
16/02/2025 15:58:17;100;0;160.51;-4;-29.70;-5.87;91.5;20.60;77773;2838.758;-1801.860;1;159;-50;-48.4;48.3;48.6;12;11.7;28.4;0.0;
16/02/2025 15:58:37;100;0;155.28;-4;-30.28;-5.96;95.5;20.50;77759;2838.756;-1801.859;1;159;-50;-48.4;48.3;48.5;10;9.9;28.4;0.0;
16/02/2025 15:58:57;100;0;157.04;-4;-31.22;-7.12;99.5;20.50;77735;2838.754;-1801.858;1;159;-50;-48.4;48.3;48.6;10;9.0;28.4;0.0;
16/02/2025 15:59:17;100;0;157.02;-4;-30.87;-6.89;103.9;20.50;77722;2838.752;-1801.857;1;159;-50;-48.4;48.3;48.5;10;9.5;28.4;0.0;
16/02/2025 15:59:37;100;0;154.82;-4;-30.88;-7.03;108.2;20.50;77703;2838.749;-1801.856;1;159;-50;-48.4;48.3;48.6;10;9.5;28.4;0.0;
16/02/2025 15:59:57;100;0;151.38;-4;-30.58;-6.96;112.4;20.50;77706;2838.747;-1801.855;1;159;-50;-48.4;48.3;48.6;10;9.5;28.4;0.0;
16/02/2025 16:00:17;100;0;150.72;-4;-30.01;-6.97;116.5;20.40;77695;2838.745;-1801.854;1;159;-50;-48.4;48.3;48.6;10;9.5;28.4;0.0;
16/02/2025 16:00:37;100;0;151.69;-4;-31.38;-7.11;120.8;20.40;77676;2838.743;-1801.853;1;159;-50;-46.8;48.3;48.6;10;9.5;28.4;0.0;
16/02/2025 16:00:57;100;0;155.42;-4;-30.79;-6.91;125.1;20.40;77648;2838.740;-1801.852;1;159;-50;-48.4;48.3;48.5;10;9.5;28.4;0.0;
16/02/2025 16:01:17;100;0;160.05;-4;-30.54;-7.18;129.4;20.40;77625;2838.738;-1801.851;1;159;-50;-48.4;48.3;48.6;10;9.5;28.4;0.0;
16/02/2025 16:01:37;100;0;159.23;-4;-29.20;-7.03;133.4;20.40;77600;2838.735;-1801.850;1;159;-50;-48.4;48.3;48.5;10;9.5;28.4;0.0;
16/02/2025 16:01:57;100;0;156.69;-4;-29.53;-7.22;137.1;20.30;77594;2838.733;-1801.850;1;159;-50;-46.8;48.3;48.5;10;9.5;28.4;0.0;
16/02/2025 16:02:17;100;0;150.95;-4;-29.34;-6.98;140.9;20.30;77586;2838.731;-1801.848;1;159;-50;-46.8;48.3;48.5;10;9.5;28.4;0.0;
16/02/2025 16:02:37;100;0;147.75;-4;-29.32;-7.10;144.6;20.30;77559;2838.729;-1801.847;1;159;-50;-48.4;48.3;48.6;10;9.5;28.4;0.0;
16/02/2025 16:02:57;100;0;146.32;-4;-29.50;-7.11;148.3;20.20;77552;2838.728;-1801.846;1;159;-50;-48.4;48.3;48.6;8;8.1;28.4;0.0;
16/02/2025 16:03:17;100;0;145.72;-4;-29.68;-7.94;152.0;20.20;77536;2838.726;-1801.845;1;159;-50;-48.4;48.3;48.5;8;7.7;28.4;0.0;
16/02/2025 16:03:37;100;0;147.75;-4;-29.72;-7.96;155.8;20.20;77526;2838.724;-1801.843;1;159;-50;-48.4;48.3;48.5;8;7.7;28.4;0.0;
16/02/2025 16:03:57;100;0;150.26;-4;-30.69;-7.89;159.7;20.20;77529;2838.722;-1801.842;1;159;-50;-46.8;48.3;48.6;10;9.9;28.4;0.0;
16/02/2025 16:04:17;100;0;149.75;-4;-29.80;-6.40;163.6;20.10;77492;2838.720;-1801.841;1;159;-50;-48.4;48.3;48.5;10;10.4;28.4;0.0;
16/02/2025 16:04:37;100;0;147.34;-4;-29.95;-6.48;167.5;20.10;77476;2838.718;-1801.840;1;159;-50;-46.8;48.3;48.6;10;10.4;28.4;0.0;
16/02/2025 16:04:57;100;0;149.07;-4;-30.68;-6.42;171.5;20.00;77467;2838.717;-1801.839;1;159;-50;-48.4;48.3;48.6;10;10.4;28.4;0.0;
16/02/2025 16:05:17;100;0;149.22;-4;-30.43;-6.28;175.6;20.00;77457;2838.714;-1801.837;1;159;-50;-46.8;48.3;48.6;10;10.4;28.4;0.0;
16/02/2025 16:05:37;100;0;145.03;-4;-29.56;-6.47;179.6;19.90;77439;2838.713;-1801.836;1;159;-50;-48.4;48.3;48.5;7;7.2;28.4;0.0;
16/02/2025 16:05:57;100;0;148.14;-4;-29.12;-8.22;183.2;19.90;77426;2838.711;-1801.835;1;160;-50;-48.4;48.3;48.5;9;9.0;28.4;0.0;
16/02/2025 16:06:17;100;0;145.05;-4;-29.48;-6.78;186.8;19.90;77414;2838.709;-1801.833;1;160;-50;-46.8;48.3;48.5;7;7.2;28.4;0.0;
16/02/2025 16:06:37;100;0;140.79;-4;-28.85;-8.30;190.3;19.80;77393;2838.707;-1801.832;1;160;-50;-48.4;48.6;48.6;3;3.2;28.4;0.0;
16/02/2025 16:06:57;100;0;144.91;-4;-28.54;-10.31;193.5;19.80;77375;2838.706;-1801.831;1;160;-50;-48.4;49.0;49.3;7;7.7;28.4;0.0;
16/02/2025 16:07:17;100;0;149.97;-4;-30.75;-7.81;197.0;19.70;77351;2838.705;-1801.830;1;160;-50;-48.4;49.0;49.5;9;9.0;28.4;0.0;
16/02/2025 16:07:27;118;0;151.69;-4;-31.15;-6.97;198.8;19.70;77359;2838.704;-1801.829;1;160;210;-41.9;21.5;21.4;13;13.5;28.4;0.0;
16/02/2025 16:07:37;118;0;135.10;-4;-17.57;-5.68;200.1;19.70;77314;2838.703;-1801.828;1;160;210;87.1;21.5;21.1;13;13.5;28.0;-1.0;
16/02/2025 16:07:47;118;0;130.02;-4;10.60;-5.18;200.6;19.70;77040;2838.703;-1801.828;1;160;210;214.5;21.5;21.6;13;13.5;28.0;-1.0;
16/02/2025 16:07:57;118;0;145.97;-4;23.52;-5.28;199.8;19.60;76772;2838.703;-1801.828;1;160;210;214.5;21.5;21.8;13;14.0;28.4;-1.0;
16/02/2025 16:08:07;118;0;150.79;-4;26.83;-5.42;198.6;19.60;76795;2838.702;-1801.827;1;160;210;214.5;21.5;21.6;13;14.0;28.4;-1.0;
16/02/2025 16:08:27;117;0;144.69;-4;28.04;-5.41;195.9;19.60;76771;2838.701;-1801.827;1;160;210;214.5;21.5;21.8;13;13.5;28.4;-1.0;
16/02/2025 16:08:47;117;0;136.05;-4;28.14;-5.38;193.0;19.50;76768;2838.700;-1801.825;1;160;210;212.9;20.9;20.6;48;47.8;28.4;-1.0;
16/02/2025 16:09:07;117;0;133.17;-4;33.20;13.38;189.9;19.50;76774;2838.699;-1801.824;1;160;210;214.5;21.9;21.9;53;53.2;28.4;-1.0;
16/02/2025 16:09:27;117;0;138.44;-4;31.55;16.07;186.4;19.40;76774;2838.698;-1801.823;1;160;210;214.5;21.9;22.2;46;46.0;28.4;-1.0;
16/02/2025 16:09:47;117;0;141.78;-4;30.59;11.72;183.2;19.40;76776;2838.697;-1801.821;1;160;210;214.5;21.9;22.1;40;39.7;28.4;-1.0;
16/02/2025 16:10:07;117;0;143.62;-4;30.21;8.15;180.1;19.40;76769;2838.696;-1801.820;1;160;210;214.5;21.9;22.2;40;39.3;28.4;-1.0;
16/02/2025 16:10:27;117;0;142.53;-4;30.19;8.27;177.1;19.30;76785;2838.695;-1801.819;1;160;210;214.5;21.9;22.1;40;39.3;28.4;-1.0;
16/02/2025 16:10:47;117;0;140.93;-4;30.10;8.33;174.0;19.30;76779;2838.694;-1801.818;1;160;210;214.5;21.9;22.2;40;39.3;28.4;-1.0;
16/02/2025 16:11:07;117;0;144.87;-4;29.64;8.24;171.0;19.20;76770;2838.692;-1801.817;1;160;210;214.5;21.9;22.2;38;37.9;28.4;-1.0;
16/02/2025 16:11:27;117;0;145.12;-4;29.21;7.11;168.2;19.20;76776;2838.691;-1801.816;1;160;210;214.5;21.9;22.1;38;37.5;28.4;-1.0;
16/02/2025 16:11:47;117;0;145.06;-4;29.34;7.32;165.6;19.20;76778;2838.690;-1801.816;1;160;210;214.5;21.9;22.1;38;37.0;28.4;-1.0;
16/02/2025 16:12:07;117;0;144.53;-4;29.57;7.17;163.0;19.20;76785;2838.689;-1801.815;1;160;210;214.5;21.9;22.1;38;37.5;28.4;-1.0;
16/02/2025 16:12:27;117;0;146.54;-4;29.72;7.10;160.4;19.10;76785;2838.689;-1801.814;1;160;210;212.9;21.9;22.1;38;37.0;28.4;-1.0;
16/02/2025 16:12:47;117;0;149.01;-4;29.96;7.16;157.5;19.10;76784;2838.687;-1801.814;1;160;210;214.5;21.9;22.2;38;37.5;28.4;-1.0;
16/02/2025 16:13:07;117;0;148.46;-4;29.52;7.13;154.7;19.10;76791;2838.686;-1801.813;1;160;210;214.5;21.9;22.1;38;37.5;28.4;-1.0;
16/02/2025 16:13:27;117;0;146.97;-4;29.43;7.12;152.1;19.10;76797;2838.685;-1801.812;1;160;210;214.5;21.9;22.2;38;37.5;28.4;-1.0;
16/02/2025 16:13:47;117;0;147.03;-4;29.53;7.18;149.4;19.00;76788;2838.684;-1801.811;1;160;210;214.5;21.9;22.1;38;37.0;28.4;-1.0;
16/02/2025 16:14:07;117;0;147.88;-4;29.76;7.05;146.7;19.00;76803;2838.683;-1801.811;1;160;210;216.1;21.9;22.2;38;37.5;28.4;-1.0;
16/02/2025 16:14:27;117;0;147.76;-4;29.53;7.12;143.9;19.00;76810;2838.682;-1801.810;1;160;210;216.1;21.9;22.2;38;37.0;28.4;-1.0;
16/02/2025 16:14:47;117;0;149.71;-4;29.54;7.05;141.1;19.00;76811;2838.681;-1801.809;1;160;210;214.5;21.9;22.2;38;37.5;28.4;-1.0;
16/02/2025 16:15:07;117;0;151.20;-4;29.81;7.41;138.3;19.00;76811;2838.680;-1801.809;1;160;210;214.5;21.9;22.2;38;37.0;28.4;-1.0;
16/02/2025 16:15:27;117;0;154.47;-4;29.57;7.07;135.4;19.00;76818;2838.678;-1801.808;1;160;210;214.5;21.9;22.1;38;37.5;28.4;-1.0;
16/02/2025 16:15:47;117;0;157.17;-4;29.66;7.20;132.5;19.00;76821;2838.677;-1801.808;1;160;210;214.5;21.9;22.2;36;35.6;28.4;-1.0;
16/02/2025 16:16:08;117;0;159.52;-4;29.51;6.29;129.6;18.90;76827;2838.676;-1801.808;1;160;210;214.5;21.9;22.1;36;35.6;28.4;-1.0;
16/02/2025 16:16:28;117;0;161.18;-4;29.66;6.31;126.7;18.90;76830;2838.674;-1801.808;1;160;210;211.3;21.9;22.1;36;35.6;28.4;-1.0;
16/02/2025 16:16:48;117;0;161.39;-4;29.10;6.08;123.8;18.90;76840;2838.673;-1801.808;1;160;210;212.9;21.9;22.2;36;35.6;28.4;-1.0;
16/02/2025 16:17:08;117;0;157.86;-4;29.19;6.25;121.1;18.90;76849;2838.671;-1801.807;1;160;210;216.1;21.9;22.2;36;35.6;28.4;-1.0;
16/02/2025 16:17:28;117;0;156.16;-4;29.42;6.22;118.5;18.90;76852;2838.670;-1801.807;1;160;210;214.5;21.9;22.1;36;35.6;28.4;-1.0;
16/02/2025 16:17:48;117;0;151.85;-4;28.84;6.04;115.8;18.90;76846;2838.669;-1801.806;1;160;210;214.5;21.6;21.4;36;35.6;28.4;-1.0;
16/02/2025 16:18:08;117;0;144.26;-4;30.22;6.30;113.3;18.90;76874;2838.668;-1801.806;1;160;210;214.5;21.6;21.1;38;37.9;28.4;-1.0;
16/02/2025 16:18:28;117;0;144.33;-4;30.53;7.65;110.7;18.90;76874;2838.667;-1801.805;1;160;210;212.9;21.6;21.2;38;38.4;28.4;-1.0;
16/02/2025 16:18:48;117;0;146.32;-4;30.39;7.72;108.0;18.90;76883;2838.667;-1801.804;1;160;210;214.5;21.6;21.2;38;38.4;28.4;-1.0;
16/02/2025 16:19:08;117;0;145.23;-4;31.04;7.76;105.6;18.90;76907;2838.666;-1801.804;1;160;210;214.5;21.6;21.2;38;38.4;28.4;-1.0;
16/02/2025 16:19:28;117;0;149.30;-4;30.81;7.74;103.0;18.90;76916;2838.665;-1801.803;1;160;210;214.5;21.6;21.2;38;38.4;28.4;-1.0;
16/02/2025 16:19:48;117;0;152.64;-4;30.80;7.69;100.4;18.90;76932;2838.664;-1801.803;1;160;210;214.5;21.6;21.2;38;38.4;28.4;-1.0;
16/02/2025 16:20:08;117;0;154.05;-4;30.52;7.63;97.9;18.90;76932;2838.663;-1801.803;1;160;210;214.5;21.6;21.1;36;36.1;28.4;-1.0;
16/02/2025 16:20:28;117;0;152.64;-4;30.12;6.09;95.4;19.00;76946;2838.662;-1801.802;1;160;210;214.5;21.6;21.2;36;35.2;28.4;-1.0;
16/02/2025 16:20:48;117;0;148.97;-4;31.09;6.16;93.0;19.00;76945;2838.661;-1801.802;1;160;210;214.5;21.6;21.1;36;35.2;28.4;-1.0;
16/02/2025 16:21:08;117;0;148.01;-4;30.80;6.07;90.5;19.00;76968;2838.660;-1801.801;1;160;210;214.5;21.6;21.2;36;35.2;28.4;-1.0;
16/02/2025 16:21:28;117;0;150.33;-4;30.64;6.06;88.0;19.00;76979;2838.660;-1801.801;1;160;210;214.5;21.6;21.1;36;35.2;28.4;-1.0;
16/02/2025 16:21:48;117;0;150.52;-4;30.70;6.08;85.5;19.00;76996;2838.659;-1801.801;1;160;210;216.1;21.6;21.2;36;35.2;28.4;-1.0;
16/02/2025 16:22:08;117;0;153.49;-4;30.24;6.04;83.0;19.00;77009;2838.658;-1801.800;1;160;210;214.5;21.6;21.1;36;35.2;28.4;-1.0;
16/02/2025 16:22:28;117;0;149.40;-4;31.53;6.20;80.5;19.00;77031;2838.657;-1801.800;1;160;210;216.1;21.6;21.1;36;35.2;28.4;-1.0;
16/02/2025 16:22:48;117;0;148.45;-4;30.58;6.07;77.8;19.10;77036;2838.656;-1801.799;1;160;210;214.5;21.6;21.1;36;35.2;28.4;-1.0;
16/02/2025 16:23:08;117;0;146.31;-4;30.64;6.12;75.2;19.10;77044;2838.655;-1801.799;1;160;210;214.5;21.6;21.2;36;35.2;28.4;-1.0;
16/02/2025 16:23:28;117;0;145.58;-4;30.12;6.02;72.7;19.10;77054;2838.654;-1801.798;1;160;210;214.5;21.6;21.1;38;37.9;28.4;-1.0;
16/02/2025 16:23:48;117;0;146.41;-4;30.60;7.77;70.4;19.10;77053;2838.654;-1801.798;1;160;210;214.5;21.6;21.2;38;38.4;28.4;-1.0;
16/02/2025 16:24:08;117;0;147.11;-4;30.33;7.75;67.9;19.10;77053;2838.653;-1801.797;1;160;210;214.5;21.6;21.2;38;38.4;28.4;-1.0;
16/02/2025 16:24:28;117;0;148.10;-4;30.85;7.75;65.5;19.10;77069;2838.652;-1801.797;1;160;210;214.5;21.6;21.1;38;38.4;28.4;-1.0;
16/02/2025 16:24:48;117;0;148.38;-4;30.46;7.81;63.0;19.20;77068;2838.651;-1801.796;1;160;210;214.5;21.6;21.1;38;38.4;28.4;-1.0;
16/02/2025 16:25:08;117;0;145.73;-4;31.11;7.88;60.5;19.20;77078;2838.651;-1801.796;1;160;210;214.5;21.6;21.1;38;38.4;28.4;-1.0;
16/02/2025 16:25:28;117;0;145.23;-4;30.62;7.84;57.9;19.20;77069;2838.650;-1801.795;1;160;210;214.5;21.6;21.2;38;38.4;28.4;-1.0;
16/02/2025 16:25:48;117;0;145.66;-4;30.63;7.81;55.4;19.20;77080;2838.649;-1801.794;1;160;210;214.5;21.6;21.2;38;38.4;28.4;-1.0;
16/02/2025 16:26:08;117;0;146.78;-4;30.85;7.75;52.9;19.20;77077;2838.648;-1801.794;1;160;210;216.1;21.6;21.2;38;38.4;28.4;-1.0;
16/02/2025 16:26:28;117;0;147.30;-4;30.60;7.69;50.4;19.30;77084;2838.647;-1801.793;1;160;210;214.5;21.6;21.2;38;38.4;28.4;-1.0;
16/02/2025 16:26:48;117;0;147.75;-4;30.26;7.75;47.9;19.30;77092;2838.646;-1801.793;1;160;210;216.1;21.6;21.1;38;38.4;28.4;-1.0;
16/02/2025 16:27:08;117;0;147.90;-4;30.56;7.76;45.3;19.30;77088;2838.646;-1801.792;1;160;210;214.5;21.6;21.2;38;38.4;28.4;-1.0;
16/02/2025 16:27:28;117;0;147.83;-4;31.12;7.83;42.7;19.30;77093;2838.645;-1801.792;1;160;210;214.5;21.6;21.1;38;38.4;28.4;-1.0;
16/02/2025 16:27:48;117;0;148.07;-4;30.39;7.70;40.2;19.30;77100;2838.644;-1801.791;1;160;210;214.5;21.6;21.2;38;38.4;28.4;-1.0;
16/02/2025 16:28:08;117;0;146.44;-4;30.87;7.88;37.6;19.40;77104;2838.643;-1801.790;1;160;210;214.5;21.6;21.2;38;38.4;28.4;-1.0;
16/02/2025 16:28:28;117;0;145.37;-4;30.60;7.86;34.9;19.40;77102;2838.642;-1801.790;1;160;210;214.5;21.6;21.2;38;38.4;28.4;-1.0;
16/02/2025 16:28:48;117;0;146.38;-4;30.35;7.99;32.4;19.40;77096;2838.641;-1801.789;1;160;210;216.1;21.6;21.2;38;38.4;28.4;-1.0;
16/02/2025 16:29:08;117;0;147.55;-4;29.49;7.76;29.9;19.40;77114;2838.640;-1801.789;1;160;210;214.5;21.6;21.1;38;38.4;28.4;-1.0;
16/02/2025 16:29:28;117;0;147.22;-4;31.63;7.94;27.4;19.40;77118;2838.640;-1801.788;1;160;210;214.5;21.6;21.2;38;38.4;28.4;-1.0;
16/02/2025 16:29:48;117;0;152.20;-4;31.11;7.74;25.0;19.40;77120;2838.639;-1801.788;1;160;210;216.1;21.6;21.2;38;38.4;28.4;-1.0;
16/02/2025 16:30:08;117;0;155.48;-4;30.99;7.87;22.4;19.40;77137;2838.638;-1801.788;1;160;210;216.1;21.6;21.2;38;38.4;28.4;-1.0;
16/02/2025 16:30:28;117;0;154.11;-4;31.71;7.89;19.7;19.50;77139;2838.637;-1801.787;1;160;210;216.1;21.6;21.2;38;38.4;28.4;-1.0;
16/02/2025 16:30:48;117;0;155.63;-4;29.39;7.62;17.0;19.50;77135;2838.635;-1801.787;1;160;210;216.1;21.6;21.2;38;38.4;28.4;-1.0;
16/02/2025 16:31:08;117;0;155.63;-4;30.65;7.89;14.4;19.50;77148;2838.634;-1801.787;1;160;210;212.9;21.6;21.2;38;38.4;28.4;-1.0;
16/02/2025 16:31:28;117;0;156.81;-4;30.23;7.64;11.7;19.50;77156;2838.633;-1801.786;1;160;210;216.1;21.6;21.2;38;38.4;28.4;-1.0;
16/02/2025 16:31:48;117;0;157.42;-4;29.95;7.71;9.0;19.50;77149;2838.632;-1801.786;1;160;210;216.1;21.6;21.2;36;36.1;28.4;-1.0;
16/02/2025 16:32:08;117;0;157.19;-4;29.98;6.36;6.3;19.60;77157;2838.631;-1801.786;1;160;210;216.1;21.6;21.1;36;35.2;28.4;-1.0;
16/02/2025 16:32:28;117;0;156.04;-4;30.54;5.23;3.6;19.60;77160;2838.630;-1801.786;1;160;210;216.1;21.6;21.2;36;35.6;28.4;-1.0;
16/02/2025 16:32:32;115;0;159.07;-4;28.68;4.97;2.9;19.60;77166;2838.629;-1801.786;1;160;500;222.6;100.0;64.8;0;-0.5;28.4;-1.0;
16/02/2025 16:32:42;115;0;140.17;-4;10.44;-12.66;2.0;19.60;77143;2838.629;-1801.785;1;160;500;343.5;100.0;100.0;0;-0.5;28.2;-1.0;
16/02/2025 16:32:52;115;0;137.30;-4;-58.24;-12.52;2.7;19.60;76878;2838.629;-1801.785;1;160;500;459.7;100.0;100.4;0;-0.5;28.2;-1.0;
16/02/2025 16:33:02;115;0;112.76;-4;-71.80;-10.83;2.6;19.60;76615;2838.629;-1801.785;1;160;500;506.5;100.0;100.6;0;-0.5;28.2;-1.0;
16/02/2025 16:33:12;115;0;92.25;-4;-72.00;-6.27;-0.8;19.70;76536;2838.630;-1801.784;1;160;500;506.5;100.0;100.6;0;-0.5;28.4;-1.0;
16/02/2025 16:33:32;119;0;85.03;-4;-43.67;-13.77;-0.3;19.70;76568;2838.630;-1801.784;1;160;500;508.1;100.0;100.6;0;-0.5;28.4;-1.0;
16/02/2025 16:33:42;119;0;53.93;-4;-67.88;-7.91;-0.4;19.70;76565;2838.604;-1801.757;0;160;500;509.7;100.0;100.6;0;-0.5;28.4;-1.0;
