Timestamp;NavState;SecurityLevel;Heading;Declination;Pitch;Roll;Depth;Temperature;Pa;Lat;Lon;DeadReckoning;DesiredH;BallastCmd;BallastPos;LinCmd;LinPos;AngCmd;AngPos;Voltage;Altitude;
15/02/2025 10:20:18;119;0;336.45;-4;-64.57;-12.11;0.1;17.60;75794;2835.347;-1758.847;0;151;500;511.3;100.0;100.6;0;-0.5;28.5;-1.0;
15/02/2025 10:20:28;116;0;341.37;-4;-55.81;-16.81;0.1;17.70;75793;2835.347;-1758.856;0;151;500;509.7;100.0;100.7;0;-0.5;28.5;-1.0;
15/02/2025 10:20:53;116;0;349.62;-4;-54.85;-12.79;0.1;17.70;75799;2835.349;-1758.858;0;150;500;511.3;100.0;100.7;0;-0.5;28.5;-1.0;
15/02/2025 10:21:27;116;0;347.83;-4;-51.82;-15.97;0.1;17.80;75817;2835.349;-1758.858;0;-9999;500;509.7;100.0;100.7;0;-0.5;28.5;-1.0;
15/02/2025 10:21:49;116;0;347.80;-4;-51.50;-9.18;0.1;17.90;75830;2835.348;-1758.858;0;149;500;509.7;100.0;100.7;0;-0.5;28.5;-1.0;
15/02/2025 10:22:09;116;0;341.78;-4;-48.58;-10.90;0.1;18.00;75825;2835.348;-1758.859;0;149;500;508.1;100.0;100.6;0;-0.5;28.5;-1.0;
15/02/2025 10:23:12;116;0;354.47;-4;-48.21;-15.83;0.2;18.20;75854;2835.349;-1758.859;0;149;500;511.3;100.0;100.7;0;-0.5;28.5;-1.0;
15/02/2025 10:24:44;116;0;343.36;-4;-60.61;-6.02;0.2;18.60;75885;2835.350;-1758.860;0;149;500;509.7;100.0;100.7;0;-0.5;28.5;-1.0;
15/02/2025 10:26:54;116;0;7.98;-4;-52.01;-11.30;0.1;19.20;75936;2835.350;-1758.863;0;149;500;509.7;100.0;100.7;0;-0.5;28.5;-1.0;
15/02/2025 10:27:14;110;0;16.43;-4;-50.36;-0.33;0.1;19.30;75937;2835.350;-1758.863;0;149;-50;396.8;100.0;99.9;-8;-8.6;28.5;-1.0;
15/02/2025 10:27:24;110;0;26.79;-4;-53.18;-12.51;0.2;19.30;76284;2835.351;-1758.863;1;149;-50;246.8;100.0;99.9;-8;-8.6;28.5;-1.0;
15/02/2025 10:27:34;110;0;36.36;-4;-57.97;-17.57;0.7;19.30;76532;2835.351;-1758.863;1;149;-50;88.7;100.0;99.9;-8;-8.6;28.5;-1.0;
15/02/2025 10:27:44;110;0;39.59;-4;-69.26;-23.51;1.0;19.40;76859;2835.351;-1758.863;1;149;-50;-50.0;100.0;99.9;-8;-8.6;28.5;-1.0;
15/02/2025 10:27:54;110;0;42.61;-4;-68.22;-22.72;1.2;19.40;77148;2835.351;-1758.863;1;149;-50;-50.0;50.0;49.9;-8;-8.6;28.5;-1.0;
15/02/2025 10:28:14;100;0;39.65;-4;-34.97;-17.11;4.0;19.50;77111;2835.352;-1758.861;1;149;-50;-48.4;50.0;49.8;-8;-8.6;28.5;-1.0;
15/02/2025 10:28:34;100;0;45.92;-4;-32.47;-16.07;7.7;19.60;77119;2835.355;-1758.859;1;150;-50;-46.8;49.3;48.9;-70;-69.9;28.5;-1.0;
15/02/2025 10:28:54;100;0;54.28;-4;-33.09;-45.18;11.5;19.60;77114;2835.356;-1758.856;1;151;-50;-45.2;48.3;48.3;-70;-70.4;28.5;-1.0;
15/02/2025 10:29:14;100;0;63.21;-4;-32.06;-45.08;15.5;19.70;77118;2835.358;-1758.852;1;151;-50;-45.2;47.7;47.6;-70;-70.4;28.5;0.0;
15/02/2025 10:29:34;100;0;70.39;-4;-30.04;-44.74;19.3;19.70;77134;2835.359;-1758.849;1;152;-50;-45.2;47.7;47.4;-70;-70.4;28.5;0.0;
15/02/2025 10:29:54;100;0;79.03;-4;-29.86;-45.38;23.0;19.80;77143;2835.359;-1758.845;1;153;-50;-46.8;47.7;47.4;-70;-70.4;28.5;0.0;
15/02/2025 10:30:14;100;0;87.79;-4;-30.67;-45.27;26.8;19.80;77136;2835.359;-1758.841;1;153;-50;-43.5;47.7;47.4;-65;-65.0;28.5;0.0;
15/02/2025 10:30:34;100;0;97.14;-4;-29.29;-42.37;30.7;19.80;77132;2835.359;-1758.837;1;154;-50;-45.2;47.7;47.4;-55;-55.1;28.5;0.0;
15/02/2025 10:30:54;100;0;104.63;-4;-28.89;-37.55;34.3;19.80;77126;2835.358;-1758.833;1;155;-50;-43.5;48.0;48.3;-47;-46.9;28.5;0.0;
15/02/2025 10:31:14;100;0;112.72;-4;-30.03;-33.73;38.1;19.80;77131;2835.357;-1758.830;1;155;-50;-43.5;48.0;48.3;-37;-37.0;28.5;0.0;
15/02/2025 10:31:34;100;0;120.72;-4;-29.82;-28.73;41.8;19.80;77129;2835.355;-1758.826;1;155;-50;-43.5;48.0;48.3;-27;-27.1;28.5;0.0;
15/02/2025 10:31:54;100;0;129.28;-4;-29.37;-24.02;45.4;19.80;77134;2835.353;-1758.823;1;156;-50;-45.2;48.0;48.3;-15;-14.4;28.5;0.0;
15/02/2025 10:32:14;100;0;135.06;-4;-29.43;-18.08;49.0;19.80;77145;2835.351;-1758.821;1;156;-50;-43.5;48.0;48.5;-5;-5.0;28.5;0.0;
15/02/2025 10:32:34;100;0;141.84;-4;-29.87;-13.57;52.6;19.80;77123;2835.348;-1758.818;1;156;-50;-43.5;48.0;48.5;6;5.9;28.5;0.0;
15/02/2025 10:32:54;100;0;141.77;-4;-30.51;-8.60;56.2;19.80;77130;2835.346;-1758.816;1;156;-50;-43.5;48.0;48.5;6;6.3;28.5;0.0;
15/02/2025 10:33:14;100;0;140.88;-4;-29.95;-8.70;59.7;19.80;77119;2835.343;-1758.814;1;157;-50;-43.5;48.0;48.5;3;3.2;28.5;0.0;
15/02/2025 10:33:34;100;0;145.74;-4;-30.47;-10.42;63.1;19.80;77128;2835.341;-1758.812;1;157;-50;-46.8;48.0;48.5;9;9.0;28.5;0.0;
15/02/2025 10:33:54;100;0;145.24;-4;-31.17;-7.19;66.7;19.80;77125;2835.338;-1758.810;1;157;-50;-43.5;48.0;48.5;9;9.5;28.5;0.0;
15/02/2025 10:34:14;100;0;145.12;-4;-30.90;-7.11;70.2;19.80;77136;2835.336;-1758.808;1;157;-50;-45.2;48.0;48.5;9;9.5;28.5;0.0;
15/02/2025 10:34:34;100;0;142.28;-4;-30.59;-7.13;73.8;19.80;77130;2835.333;-1758.806;1;157;-50;-43.5;48.0;48.5;4;4.1;28.5;0.0;
15/02/2025 10:34:54;100;0;142.35;-4;-30.22;-9.96;77.3;19.80;77146;2835.331;-1758.803;1;157;-50;-43.5;48.0;48.5;4;3.6;28.5;0.0;
15/02/2025 10:35:14;100;0;145.80;-4;-30.38;-9.97;80.9;19.70;77139;2835.328;-1758.801;1;158;-50;-41.9;48.0;48.5;8;8.1;28.5;0.0;
15/02/2025 10:35:34;100;0;148.36;-4;-30.47;-7.57;84.4;19.80;77149;2835.325;-1758.799;1;158;-50;-43.5;48.0;48.3;11;10.8;28.5;0.0;
15/02/2025 10:35:54;100;0;148.82;-4;-30.93;-6.18;88.0;19.70;77150;2835.323;-1758.798;1;158;-50;-43.5;48.0;48.5;11;11.3;28.5;0.0;
15/02/2025 10:36:14;100;0;150.70;-4;-30.71;-6.12;91.5;19.70;77153;2835.320;-1758.796;1;158;-50;-45.2;48.0;48.5;11;11.3;28.5;0.0;
15/02/2025 10:36:34;100;0;151.19;-4;-30.86;-6.19;95.0;19.70;77150;2835.317;-1758.794;1;158;-50;-43.5;48.0;48.5;13;13.1;28.5;0.0;
15/02/2025 10:36:54;100;0;144.81;-4;-30.40;-5.07;98.6;19.70;77154;2835.315;-1758.792;1;158;-50;-43.5;48.0;48.5;6;5.9;28.5;0.0;
15/02/2025 10:37:14;100;0;144.05;-4;-29.71;-9.23;101.8;19.70;77146;2835.312;-1758.790;1;159;-50;-43.5;48.0;48.5;4;4.1;28.5;0.0;
15/02/2025 10:37:34;100;0;143.79;-4;-30.44;-10.06;104.9;19.70;77145;2835.310;-1758.788;1;159;-50;-43.5;48.0;48.5;4;3.6;28.5;0.0;
15/02/2025 10:37:54;100;0;141.39;-4;-30.23;-10.10;108.2;19.70;77141;2835.308;-1758.786;1;159;-50;-43.5;48.0;48.5;0;0.0;28.5;0.0;
15/02/2025 10:38:14;100;0;137.46;-4;-29.99;-12.10;111.5;19.70;77129;2835.306;-1758.784;1;159;-50;-43.5;48.0;48.5;-7;-7.7;28.5;0.0;
15/02/2025 10:38:34;100;0;143.70;-4;-29.86;-15.71;114.7;19.70;77117;2835.303;-1758.782;1;160;-50;-43.5;48.0;48.5;2;1.8;28.5;0.0;
15/02/2025 10:38:54;100;0;146.49;-4;-29.69;-10.54;117.8;19.70;77103;2835.301;-1758.780;1;160;-50;-43.5;48.0;48.5;6;5.9;28.5;0.0;
15/02/2025 10:39:14;100;0;157.73;-4;-29.55;-8.78;120.9;19.60;77076;2835.299;-1758.779;1;160;-50;-43.5;48.0;48.5;14;14.0;28.5;0.0;
15/02/2025 10:39:34;100;0;163.43;-4;-30.16;-4.74;124.0;19.60;77050;2835.296;-1758.778;1;160;-50;-45.2;48.0;48.5;14;14.4;28.5;0.0;
15/02/2025 10:39:54;100;0;172.01;-4;-29.88;-4.81;127.0;19.60;77044;2835.293;-1758.777;1;160;-50;-45.2;48.0;48.5;18;18.1;28.5;0.0;
15/02/2025 10:40:14;100;0;177.37;-4;-30.06;-2.66;130.1;19.50;77024;2835.290;-1758.777;1;159;-50;-46.8;48.0;48.5;26;26.2;28.5;0.0;
15/02/2025 10:40:34;100;0;175.94;-4;-30.90;1.40;133.3;19.50;77009;2835.288;-1758.777;1;159;-50;-45.2;48.0;48.5;24;23.9;28.5;0.0;
15/02/2025 10:40:54;100;0;166.55;-4;-31.16;-0.21;136.7;19.50;76993;2835.285;-1758.776;1;159;-50;-43.5;48.0;48.5;15;14.4;28.5;0.0;
15/02/2025 10:41:14;100;0;160.64;-4;-30.78;-4.27;140.1;19.50;76991;2835.282;-1758.775;1;159;-50;-45.2;48.0;48.5;15;15.3;28.5;0.0;
15/02/2025 10:41:34;100;0;156.53;-4;-30.76;-4.30;143.5;19.40;76991;2835.279;-1758.773;1;159;-50;-43.5;48.0;48.5;15;15.3;28.5;0.0;
15/02/2025 10:41:54;100;0;153.46;-4;-30.15;-4.31;146.8;19.40;76963;2835.277;-1758.772;1;159;-50;-45.2;48.0;48.5;13;12.2;28.5;0.0;
15/02/2025 10:42:14;100;0;148.91;-4;-30.03;-4.85;150.1;19.40;76956;2835.274;-1758.770;1;159;-50;-43.5;48.0;48.5;10;9.9;28.5;0.0;
15/02/2025 10:42:34;100;0;148.47;-4;-30.47;-7.20;153.4;19.30;76938;2835.272;-1758.768;1;160;-50;-45.2;48.0;48.5;8;8.1;28.5;0.0;
15/02/2025 10:42:54;100;0;156.27;-4;-29.99;-8.11;156.9;19.30;76921;2835.269;-1758.767;1;160;-50;-43.5;48.0;48.5;14;14.4;28.5;0.0;
15/02/2025 10:43:14;100;0;156.93;-4;-30.11;-4.56;160.3;19.30;76911;2835.266;-1758.765;1;160;-50;-45.2;48.0;48.5;14;14.9;28.5;0.0;
15/02/2025 10:43:34;100;0;161.20;-4;-30.45;-4.62;163.7;19.20;76901;2835.263;-1758.764;1;160;-50;-46.8;48.0;48.5;14;14.9;28.5;0.0;
15/02/2025 10:43:54;100;0;160.15;-4;-30.80;-4.56;167.1;19.20;76883;2835.260;-1758.763;1;160;-50;-45.2;48.0;48.5;14;14.9;28.5;0.0;
15/02/2025 10:44:14;100;0;154.09;-4;-31.13;-4.50;171.0;19.10;76882;2835.257;-1758.761;1;160;-50;-45.2;48.0;48.5;14;14.9;28.5;0.0;
15/02/2025 10:44:34;100;0;152.80;-4;-30.68;-4.47;175.0;19.10;76865;2835.254;-1758.759;1;160;-50;-45.2;48.0;48.5;12;12.2;28.5;0.0;
15/02/2025 10:44:54;100;0;146.80;-4;-30.82;-6.13;178.8;19.00;76857;2835.252;-1758.757;1;160;-50;-43.5;48.0;48.3;6;5.9;28.5;0.0;
15/02/2025 10:45:14;100;0;146.74;-4;-31.06;-9.18;182.7;19.00;76846;2835.249;-1758.755;1;161;-50;-43.5;48.0;48.5;6;5.4;28.5;0.0;
15/02/2025 10:45:34;100;0;143.34;-4;-29.47;-9.22;186.6;19.00;76817;2835.246;-1758.753;1;161;-50;-43.5;48.0;48.5;-1;-1.4;28.5;0.0;
15/02/2025 10:45:54;100;0;141.33;-4;-29.22;-12.60;190.2;18.90;76801;2835.243;-1758.750;1;162;-50;-43.5;48.0;48.5;-6;-6.3;28.5;0.0;
15/02/2025 10:46:14;100;0;148.68;-4;-28.85;-15.17;193.8;18.90;76781;2835.240;-1758.748;1;162;-50;-43.5;48.4;48.5;6;5.9;28.5;0.0;
15/02/2025 10:46:34;100;0;152.10;-4;-29.43;-8.80;197.2;18.90;76779;2835.238;-1758.746;1;162;-50;-43.5;48.4;48.5;10;9.9;28.5;0.0;
15/02/2025 10:46:43;118;0;150.56;-4;-29.67;-6.61;198.7;18.80;76758;2835.236;-1758.746;1;163;150;-38.7;34.0;34.0;10;10.4;28.5;0.0;
15/02/2025 10:46:53;118;0;135.07;-4;-20.22;-7.46;200.0;18.80;76737;2835.235;-1758.744;1;163;150;87.1;34.0;33.7;10;10.4;28.1;-1.0;
15/02/2025 10:47:03;118;0;132.57;-4;-7.68;-7.02;200.9;18.80;76458;2835.234;-1758.743;1;163;150;153.2;34.0;33.6;10;10.4;28.1;-1.0;
15/02/2025 10:47:13;118;0;149.77;-4;-3.22;-7.30;201.1;18.80;76347;2835.234;-1758.743;1;163;150;153.2;34.0;33.7;10;10.4;28.5;-1.0;
15/02/2025 10:47:33;117;0;147.03;-4;-1.06;-7.28;200.9;18.80;76334;2835.234;-1758.743;1;163;150;154.8;34.0;33.6;10;10.4;28.5;-1.0;
15/02/2025 10:47:53;117;0;143.30;-4;-1.13;-7.40;200.3;18.70;76321;2835.234;-1758.743;1;163;150;154.8;24.7;24.3;63;63.2;28.5;-1.0;
15/02/2025 10:48:13;117;0;142.77;-4;28.73;21.12;199.6;18.60;76325;2835.233;-1758.742;1;164;150;156.5;24.3;24.4;57;56.9;28.5;-1.0;
15/02/2025 10:48:33;117;0;148.27;-4;27.81;17.16;197.8;18.60;76315;2835.232;-1758.741;1;164;150;156.5;23.6;23.3;44;44.2;28.5;-1.0;
15/02/2025 10:48:53;117;0;152.59;-4;28.72;10.36;196.0;18.50;76312;2835.230;-1758.740;1;164;150;158.1;23.2;23.3;38;37.5;28.5;-1.0;
15/02/2025 10:49:13;117;0;152.59;-4;28.54;6.69;194.0;18.50;76310;2835.228;-1758.739;1;164;150;158.1;22.8;22.8;38;37.0;28.5;-1.0;
15/02/2025 10:49:33;117;0;149.52;-4;29.09;6.82;192.0;18.40;76298;2835.227;-1758.738;1;164;150;158.1;22.8;22.5;41;41.1;28.5;-1.0;
15/02/2025 10:49:54;117;0;149.03;-4;29.62;9.08;189.9;18.40;76305;2835.225;-1758.737;1;165;150;158.1;22.8;22.7;43;43.3;28.5;-1.0;
15/02/2025 10:50:14;117;0;150.72;-4;29.51;10.34;187.8;18.40;76307;2835.224;-1758.736;1;165;150;156.5;22.8;22.5;40;40.2;28.5;-1.0;
15/02/2025 10:50:34;117;0;156.07;-4;29.44;8.06;185.7;18.30;76307;2835.222;-1758.735;1;165;150;159.7;22.8;22.5;34;33.8;28.5;-1.0;
15/02/2025 10:50:54;117;0;160.05;-4;29.14;4.77;183.7;18.30;76286;2835.220;-1758.734;1;165;150;158.1;22.8;22.5;32;32.0;28.5;-1.0;
15/02/2025 10:51:14;117;0;160.87;-4;28.82;3.78;181.5;18.20;76302;2835.218;-1758.733;1;165;150;158.1;22.4;22.4;32;31.6;28.5;-1.0;
15/02/2025 10:51:34;117;0;161.24;-4;29.09;3.76;179.5;18.20;76312;2835.216;-1758.732;1;166;150;158.1;22.4;22.2;32;31.6;28.5;-1.0;
15/02/2025 10:51:54;117;0;159.92;-4;29.49;3.88;177.5;18.20;76320;2835.214;-1758.732;1;166;150;158.1;22.4;22.2;32;31.6;28.5;-1.0;
15/02/2025 10:52:14;117;0;160.78;-4;29.50;3.74;175.5;18.20;76320;2835.213;-1758.731;1;166;150;158.1;22.4;22.2;32;32.0;28.5;-1.0;
15/02/2025 10:52:34;117;0;161.21;-4;29.28;3.81;173.5;18.10;76328;2835.211;-1758.730;1;166;170;174.2;22.4;22.2;32;31.6;28.5;-1.0;
15/02/2025 10:52:54;117;0;163.87;-4;28.70;3.46;171.3;18.10;76295;2835.209;-1758.729;1;166;170;174.2;22.1;22.1;32;31.6;28.5;-1.0;
15/02/2025 10:53:14;117;0;163.78;-4;29.75;3.95;169.2;18.10;76287;2835.207;-1758.729;1;166;170;174.2;22.1;22.2;32;31.6;28.5;-1.0;
15/02/2025 10:53:34;117;0;164.30;-4;28.99;4.03;166.9;18.10;76300;2835.205;-1758.728;1;166;170;172.6;21.8;21.8;32;31.6;28.5;-1.0;
15/02/2025 10:53:54;117;0;165.68;-4;30.61;3.73;164.6;18.00;76298;2835.203;-1758.727;1;166;170;174.2;21.8;21.6;32;31.6;28.5;-1.0;
15/02/2025 10:54:14;117;0;167.82;-4;30.77;3.83;162.1;18.00;76296;2835.201;-1758.727;1;166;170;172.6;21.8;21.6;32;31.6;28.5;-1.0;
15/02/2025 10:54:34;117;0;166.56;-4;30.40;3.83;159.8;18.00;76308;2835.199;-1758.726;1;166;170;174.2;21.8;21.5;32;31.6;28.5;-1.0;
15/02/2025 10:54:54;117;0;164.26;-4;30.54;3.83;157.4;18.00;76304;2835.197;-1758.725;1;166;170;174.2;21.8;21.5;32;31.6;28.5;-1.0;
15/02/2025 10:55:14;117;0;161.15;-4;30.69;3.88;154.8;18.00;76306;2835.195;-1758.725;1;166;170;174.2;21.8;21.5;32;31.6;28.5;-1.0;
15/02/2025 10:55:34;117;0;159.80;-4;30.55;3.83;152.2;18.00;76311;2835.193;-1758.724;1;167;170;171.0;21.8;21.6;32;31.6;28.5;-1.0;
15/02/2025 10:55:54;117;0;154.84;-4;30.38;3.90;149.5;18.00;76314;2835.191;-1758.722;1;167;170;174.2;21.8;21.6;38;38.4;28.5;-1.0;
15/02/2025 10:56:14;117;0;149.96;-4;31.21;7.78;147.0;17.90;76332;2835.189;-1758.721;1;168;170;174.2;21.8;21.5;47;46.9;28.5;-1.0;
15/02/2025 10:56:34;117;0;152.20;-4;31.81;12.62;144.4;17.90;76335;2835.187;-1758.720;1;168;170;174.2;21.8;21.5;43;42.9;28.5;-1.0;
15/02/2025 10:56:54;117;0;155.56;-4;31.24;9.72;141.6;17.90;76343;2835.185;-1758.719;1;169;170;174.2;21.8;21.5;40;39.7;28.5;-1.0;
15/02/2025 10:57:14;117;0;156.31;-4;30.94;8.08;139.0;17.90;76353;2835.183;-1758.718;1;169;170;174.2;21.8;21.5;40;39.3;28.5;-1.0;
15/02/2025 10:57:34;117;0;158.29;-4;31.10;8.04;136.3;17.90;76360;2835.180;-1758.717;1;170;170;174.2;21.8;21.5;38;37.9;28.5;-1.0;
15/02/2025 10:57:54;117;0;160.27;-4;30.82;7.18;133.7;17.90;76372;2835.178;-1758.716;1;170;170;174.2;21.8;21.5;36;35.6;28.5;-1.0;
15/02/2025 10:58:14;117;0;161.52;-4;30.64;6.58;131.2;17.90;76375;2835.176;-1758.715;1;170;170;174.2;21.8;21.5;36;36.6;28.5;-1.0;
15/02/2025 10:58:34;117;0;164.04;-4;30.66;6.62;128.6;17.90;76379;2835.174;-1758.714;1;171;170;174.2;21.8;21.5;34;33.4;28.5;-1.0;
15/02/2025 10:58:54;117;0;167.00;-4;30.62;5.46;126.1;17.90;76382;2835.172;-1758.714;1;171;170;174.2;21.8;21.5;32;32.0;28.5;-1.0;
15/02/2025 10:59:14;117;0;171.67;-4;30.21;3.77;123.6;17.90;76385;2835.170;-1758.713;1;171;170;174.2;21.8;21.5;32;31.6;28.5;-1.0;
15/02/2025 10:59:34;117;0;170.81;-4;30.41;4.00;121.2;17.90;76402;2835.168;-1758.713;1;171;170;172.6;21.8;21.5;32;31.6;28.5;-1.0;
15/02/2025 10:59:54;117;0;168.67;-4;30.62;3.92;118.8;17.90;76405;2835.166;-1758.712;1;171;170;174.2;21.8;21.5;32;31.6;28.5;-1.0;
15/02/2025 11:00:14;117;0;164.36;-4;30.07;3.95;116.5;17.90;76414;2835.164;-1758.711;1;171;170;174.2;21.8;21.5;32;32.0;28.5;-1.0;
15/02/2025 11:00:34;117;0;158.93;-4;30.38;3.85;114.1;17.90;76419;2835.162;-1758.711;1;172;170;174.2;21.8;21.5;40;40.2;28.5;-1.0;
15/02/2025 11:00:54;117;0;150.69;-4;31.33;8.82;111.7;17.90;76433;2835.160;-1758.709;1;173;170;174.2;21.8;21.5;55;55.1;28.5;-1.0;
15/02/2025 11:01:14;117;0;147.10;-4;32.31;16.83;109.0;17.90;76438;2835.158;-1758.708;1;175;170;174.2;22.4;22.5;64;64.5;28.5;-1.0;
15/02/2025 11:01:34;117;0;140.25;-4;31.83;22.68;106.5;17.90;76469;2835.156;-1758.706;1;177;170;174.2;22.4;22.5;70;69.9;28.5;-1.0;
15/02/2025 11:01:54;117;0;140.19;-4;32.60;25.77;103.9;17.90;76494;2835.155;-1758.705;1;179;170;174.2;23.2;23.3;70;70.4;28.5;-1.0;
15/02/2025 11:02:14;117;0;147.21;-4;30.12;25.66;101.2;17.90;76521;2835.153;-1758.703;1;181;170;174.2;23.2;23.4;70;69.9;28.5;-1.0;
15/02/2025 11:02:34;117;0;152.43;-4;29.82;25.48;98.7;18.00;76540;2835.151;-1758.702;1;183;170;172.6;23.2;23.6;70;70.4;28.5;-1.0;
15/02/2025 11:02:54;117;0;157.66;-4;30.22;25.68;96.3;18.00;76555;2835.149;-1758.701;1;185;170;174.2;23.2;23.4;65;65.0;28.5;-1.0;
15/02/2025 11:03:14;117;0;160.90;-4;29.78;22.11;93.9;18.00;76565;2835.147;-1758.700;1;187;170;174.2;23.2;23.6;63;63.2;28.5;-1.0;
15/02/2025 11:03:34;117;0;166.55;-4;28.73;20.93;91.5;18.00;76584;2835.144;-1758.700;1;189;170;175.8;22.8;22.7;57;56.9;28.5;-1.0;
15/02/2025 11:03:54;117;0;168.08;-4;29.64;17.28;89.2;18.10;76597;2835.142;-1758.699;1;191;170;174.2;22.8;22.7;57;56.0;28.5;-1.0;
15/02/2025 11:04:14;117;0;169.87;-4;29.20;17.11;87.0;18.10;76622;2835.140;-1758.698;1;193;170;172.6;22.8;22.7;57;56.4;28.5;-1.0;
15/02/2025 11:04:34;117;0;172.51;-4;29.54;17.20;84.8;18.10;76620;2835.138;-1758.698;1;196;170;175.8;22.8;22.7;57;56.0;28.5;-1.0;
15/02/2025 11:04:54;117;0;174.66;-4;29.40;17.24;82.6;18.20;76632;2835.136;-1758.698;1;198;170;171.0;22.8;22.7;57;56.4;28.5;-1.0;
15/02/2025 11:05:14;117;0;176.53;-4;29.19;17.34;80.2;18.20;76635;2835.134;-1758.698;1;202;170;174.2;22.8;22.7;62;61.8;28.5;-1.0;
15/02/2025 11:05:34;117;0;179.23;-4;30.34;20.92;78.1;18.20;76642;2835.132;-1758.698;1;205;170;172.6;22.8;22.7;62;62.3;28.5;-1.0;
15/02/2025 11:05:54;117;0;181.41;-4;30.51;20.97;75.9;18.20;76649;2835.130;-1758.698;1;209;170;174.2;22.8;22.5;65;65.0;28.5;-1.0;
15/02/2025 11:06:14;117;0;185.94;-4;30.50;22.77;73.6;18.20;76651;2835.128;-1758.698;1;214;170;172.6;22.8;22.7;65;65.4;28.5;-1.0;
15/02/2025 11:06:34;117;0;191.42;-4;30.65;22.85;71.3;18.30;76660;2835.126;-1758.698;1;219;170;174.2;22.8;22.7;65;65.4;28.5;-1.0;
15/02/2025 11:06:54;117;0;196.16;-4;30.51;22.61;69.0;18.30;76662;2835.124;-1758.699;1;227;170;174.2;22.8;22.5;70;69.9;28.5;-1.0;
15/02/2025 11:07:14;117;0;199.90;-4;31.14;25.60;66.6;18.30;76664;2835.123;-1758.699;1;238;170;175.8;22.8;22.7;70;70.4;28.5;-1.0;
15/02/2025 11:07:34;117;0;203.66;-4;31.47;25.78;64.3;18.30;76671;2835.121;-1758.700;1;259;170;174.2;22.8;22.7;70;70.4;28.5;-1.0;
15/02/2025 11:07:54;117;0;210.04;-4;31.58;25.91;61.8;18.40;76681;2835.119;-1758.701;1;296;170;174.2;22.8;22.7;70;70.4;28.5;-1.0;
15/02/2025 11:08:14;117;0;216.28;-4;31.15;25.90;59.3;18.40;76686;2835.117;-1758.703;1;338;170;172.6;22.8;22.7;70;70.4;28.5;-1.0;
15/02/2025 11:08:34;117;0;219.15;-4;31.04;25.76;56.9;18.40;76696;2835.115;-1758.704;1;1;170;172.6;22.8;22.7;70;70.4;28.5;-1.0;
15/02/2025 11:08:54;117;0;223.19;-4;31.14;25.68;54.4;18.40;76698;2835.114;-1758.706;1;14;170;174.2;22.8;22.7;70;70.4;28.5;-1.0;
15/02/2025 11:09:14;117;0;228.30;-4;30.94;25.71;52.1;18.50;76711;2835.113;-1758.707;1;21;170;174.2;22.8;22.7;70;70.4;28.5;-1.0;
15/02/2025 11:09:34;117;0;231.26;-4;31.08;25.74;49.8;18.50;76716;2835.111;-1758.709;1;27;170;175.8;22.8;22.7;70;70.4;28.5;-1.0;
15/02/2025 11:09:54;117;0;235.58;-4;31.08;25.73;47.3;18.50;76718;2835.110;-1758.711;1;31;170;174.2;22.8;22.7;70;70.4;28.5;-1.0;
15/02/2025 11:10:14;117;0;241.90;-4;31.01;25.76;45.0;18.50;76723;2835.109;-1758.713;1;35;170;172.6;22.8;22.7;70;70.4;28.5;-1.0;
15/02/2025 11:10:34;117;0;245.43;-4;31.26;25.69;42.7;18.50;76729;2835.108;-1758.715;1;39;170;174.2;22.8;22.7;70;70.4;28.5;-1.0;
15/02/2025 11:10:54;117;0;249.46;-4;31.17;25.61;40.3;18.60;76742;2835.108;-1758.717;1;42;170;174.2;22.8;22.7;70;70.4;28.5;-1.0;
15/02/2025 11:11:14;117;0;250.89;-4;31.43;25.63;38.1;18.60;76744;2835.107;-1758.719;1;45;170;174.2;22.8;22.5;70;70.4;28.5;-1.0;
15/02/2025 11:11:34;117;0;256.88;-4;30.54;25.85;35.8;18.60;76761;2835.106;-1758.721;1;48;170;174.2;22.8;22.7;70;70.4;28.5;-1.0;
15/02/2025 11:11:54;117;0;260.27;-4;31.24;25.66;33.6;18.70;76759;2835.106;-1758.723;1;50;170;174.2;22.8;22.7;70;70.4;28.5;-1.0;
15/02/2025 11:12:14;117;0;264.46;-4;31.43;25.62;31.4;18.70;76758;2835.106;-1758.725;1;53;170;174.2;22.8;22.5;70;70.4;28.5;-1.0;
15/02/2025 11:12:34;117;0;264.71;-4;31.18;25.74;29.0;18.70;76771;2835.106;-1758.727;1;55;170;174.2;22.8;22.7;70;70.4;28.5;-1.0;
15/02/2025 11:12:54;117;0;265.86;-4;30.73;25.79;26.7;18.70;76784;2835.105;-1758.729;1;57;170;174.2;22.8;22.7;70;70.4;28.5;-1.0;
15/02/2025 11:13:14;117;0;269.13;-4;31.51;25.71;24.5;18.80;76797;2835.105;-1758.731;1;59;170;174.2;22.8;22.7;70;70.4;28.5;-1.0;
15/02/2025 11:13:34;117;0;273.76;-4;30.78;25.80;22.3;18.80;76802;2835.105;-1758.734;1;61;170;174.2;22.8;22.7;70;70.4;28.5;-1.0;
15/02/2025 11:13:54;117;0;277.07;-4;30.90;25.87;20.0;18.80;76808;2835.106;-1758.736;1;63;170;172.6;22.8;22.7;70;70.4;28.5;-1.0;
15/02/2025 11:14:14;117;0;278.07;-4;30.39;25.66;17.6;18.80;76813;2835.106;-1758.738;1;65;170;175.8;22.8;22.7;70;70.4;28.5;-1.0;
15/02/2025 11:14:34;117;0;283.75;-4;30.18;25.63;15.3;18.80;76815;2835.106;-1758.740;1;67;170;174.2;22.8;22.7;70;70.4;28.5;-1.0;
15/02/2025 11:14:54;117;0;288.82;-4;31.07;25.84;13.1;18.90;76828;2835.107;-1758.742;1;69;170;172.6;22.8;22.7;70;70.4;28.5;-1.0;
15/02/2025 11:15:14;117;0;292.54;-4;31.60;26.27;10.6;18.90;76840;2835.108;-1758.744;1;71;170;174.2;22.8;22.5;70;70.4;28.5;-1.0;
15/02/2025 11:15:34;117;0;296.51;-4;31.60;26.09;8.1;18.90;76840;2835.109;-1758.746;1;73;170;174.2;22.8;22.7;70;70.4;28.5;-1.0;
15/02/2025 11:15:54;117;0;303.11;-4;31.49;25.65;5.7;19.00;76838;2835.110;-1758.748;1;75;170;175.8;22.8;22.7;70;70.4;28.5;-1.0;
15/02/2025 11:16:14;117;0;305.50;-4;30.35;24.56;3.2;19.00;76851;2835.111;-1758.750;1;77;170;174.2;22.8;22.5;70;70.4;28.5;-1.0;
15/02/2025 11:16:17;115;0;305.78;-4;33.62;26.09;3.0;19.00;76846;2835.111;-1758.750;1;78;500;175.8;100.0;51.8;0;-0.5;28.5;-1.0;
15/02/2025 11:16:27;115;0;299.75;-4;26.78;-14.50;1.8;19.00;76829;2835.112;-1758.751;1;79;500;272.6;100.0;100.0;0;-0.5;28.5;-1.0;
15/02/2025 11:16:37;115;0;289.46;-4;-51.86;-14.68;1.8;19.00;76604;2835.112;-1758.751;1;79;500;396.8;100.0;100.4;0;-0.5;28.3;-1.0;
15/02/2025 11:16:47;115;0;268.54;-4;-68.10;-24.18;2.4;19.00;76365;2835.112;-1758.752;1;79;500;504.8;100.0;100.7;0;-0.5;28.3;-1.0;
15/02/2025 11:16:57;115;0;262.12;-4;-60.14;-13.33;-0.1;19.10;76119;2835.111;-1758.753;1;79;500;506.5;100.0;100.6;0;-0.5;28.5;-1.0;
15/02/2025 11:17:07;115;0;273.44;-4;-46.53;-11.01;-0.0;19.10;76140;2835.111;-1758.753;1;79;500;508.1;100.0;100.6;0;-0.5;28.5;-1.0;
15/02/2025 11:17:27;119;0;304.31;-4;-47.74;-14.97;0.0;19.10;76147;2835.111;-1758.753;1;79;500;508.1;100.0;100.6;0;-0.5;28.5;-1.0;
15/02/2025 11:17:37;119;0;304.80;-4;-53.56;-4.95;0.2;19.20;76145;2835.241;-1758.820;0;79;500;509.7;100.0;100.6;0;-0.5;28.5;-1.0;
