Timestamp;NavState;SecurityLevel;Heading;Declination;Pitch;Roll;Depth;Temperature;Pa;Lat;Lon;DeadReckoning;DesiredH;BallastCmd;BallastPos;LinCmd;LinPos;AngCmd;AngPos;Voltage;Altitude;
20/02/2025 22:52:22;119;0;51.37;-4;-51.37;-19.30;0.2;17.70;75815;2834.527;-1756.450;0;320;500;506.5;100.0;100.7;0;0.5;27.4;-1.0;
20/02/2025 22:52:32;116;0;68.83;-4;-55.18;-7.22;0.2;17.70;75814;2834.530;-1756.452;0;320;500;506.5;100.0;100.7;0;0.5;27.4;-1.0;
20/02/2025 22:52:57;116;0;116.67;-4;-58.12;-18.34;0.3;17.80;75829;2834.530;-1756.452;0;320;500;506.5;100.0;100.6;0;0.5;27.4;-1.0;
20/02/2025 22:53:07;116;0;112.36;-4;-45.48;-12.30;0.2;17.80;75831;2834.530;-1756.453;0;320;500;508.1;100.0;100.6;0;0.5;27.4;-1.0;
20/02/2025 22:53:15;116;0;122.42;-4;-61.55;-16.92;0.2;17.80;75832;2834.531;-1756.455;0;320;500;506.5;100.0;100.6;0;0.5;27.4;-1.0;
20/02/2025 22:53:30;116;0;126.30;-4;-50.76;-8.06;0.2;17.90;75830;2834.531;-1756.455;0;-9999;500;506.5;100.0;100.7;0;0.5;27.4;-1.0;
20/02/2025 22:53:50;116;0;145.00;-4;-59.54;-14.00;0.2;17.90;75845;2834.532;-1756.456;0;287;500;508.1;100.0;100.6;0;0.5;27.4;-1.0;
20/02/2025 22:54:10;116;0;174.63;-4;-56.11;-15.93;0.2;18.00;75854;2834.535;-1756.459;0;287;500;508.1;100.0;100.6;0;0.5;27.4;-1.0;
20/02/2025 22:55:13;116;0;220.84;-4;-49.77;-5.81;0.2;18.10;75868;2834.540;-1756.462;0;287;500;504.8;100.0;100.7;0;0.5;27.4;-1.0;
20/02/2025 22:56:27;116;0;215.37;-4;-56.65;-11.10;0.1;18.40;75903;2834.545;-1756.468;0;286;500;506.5;100.0;100.7;0;0.5;27.4;-1.0;
20/02/2025 22:57:15;116;0;213.42;-4;-60.53;-3.02;0.2;18.60;75912;2834.547;-1756.472;0;286;500;506.5;100.0;100.7;0;0.5;27.4;-1.0;
20/02/2025 22:57:26;116;0;223.20;-4;-56.77;-5.71;0.2;18.70;75921;2834.548;-1756.473;0;286;500;506.5;100.0;100.7;0;0.5;27.4;-1.0;
20/02/2025 22:57:37;116;0;230.35;-4;-58.42;-10.12;0.2;18.70;75911;2834.549;-1756.474;0;286;500;508.1;100.0;100.6;0;0.5;27.4;-1.0;
20/02/2025 22:57:57;110;0;231.38;-4;-51.72;-13.29;-0.1;18.80;75922;2834.549;-1756.474;0;286;-70;393.5;100.0;99.9;-8;-8.1;27.4;-1.0;
20/02/2025 22:58:07;110;0;227.55;-4;-56.05;-11.80;0.2;18.90;76281;2834.548;-1756.474;1;286;-70;241.9;100.0;100.0;-8;-8.6;27.4;-1.0;
20/02/2025 22:58:17;110;0;228.58;-4;-60.42;-16.98;0.6;18.90;76516;2834.548;-1756.474;1;286;-70;82.3;100.0;99.9;-8;-8.6;27.4;-1.0;
20/02/2025 22:58:27;110;0;222.74;-4;-68.37;-24.88;0.8;18.90;76851;2834.548;-1756.474;1;286;-70;-67.7;100.0;99.9;-8;-8.6;27.4;-1.0;
20/02/2025 22:58:37;110;0;231.99;-4;-66.43;-13.92;1.2;19.00;77166;2834.548;-1756.474;1;286;-70;-67.7;42.3;42.3;-8;-8.6;27.4;-1.0;
20/02/2025 22:58:57;100;0;258.95;-4;-30.91;-15.16;4.8;19.00;77128;2834.547;-1756.477;1;286;-70;-66.1;42.3;42.0;-8;-8.6;27.4;-1.0;
20/02/2025 22:59:17;100;0;264.81;-4;-18.41;-15.87;8.2;19.10;77139;2834.547;-1756.482;1;286;-70;-62.9;42.8;43.0;-6;-5.4;27.4;-1.0;
20/02/2025 22:59:37;100;0;267.77;-4;-20.62;-14.19;10.7;19.10;77141;2834.546;-1756.486;1;286;-70;-62.9;42.8;43.2;-3;-3.2;27.4;-1.0;
20/02/2025 22:59:57;100;0;271.20;-4;-20.49;-12.98;13.6;19.10;77148;2834.546;-1756.490;1;286;-70;-62.9;42.8;43.2;3;3.2;27.4;0.0;
20/02/2025 23:00:17;100;0;272.39;-4;-20.31;-9.58;16.4;19.20;77153;2834.546;-1756.494;1;286;-70;-62.9;42.8;43.2;3;3.6;27.4;0.0;
20/02/2025 23:00:37;100;0;271.89;-4;-20.32;-9.67;19.2;19.20;77148;2834.546;-1756.498;1;287;-70;-61.3;42.8;43.2;3;3.6;27.4;0.0;
20/02/2025 23:00:57;100;0;273.03;-4;-20.59;-9.74;21.9;19.20;77156;2834.546;-1756.502;1;287;-70;-62.9;42.8;43.2;5;5.0;27.4;0.0;
20/02/2025 23:01:17;100;0;275.14;-4;-21.08;-9.10;24.7;19.20;77169;2834.547;-1756.505;1;287;-70;-61.3;42.8;43.2;7;7.2;27.4;0.0;
20/02/2025 23:01:37;100;0;277.08;-4;-20.32;-7.62;27.4;19.30;77169;2834.547;-1756.509;1;287;-70;-62.9;42.8;43.2;9;9.0;27.4;0.0;
20/02/2025 23:01:57;100;0;281.06;-4;-20.62;-6.83;30.3;19.30;77166;2834.547;-1756.513;1;287;-70;-62.9;42.8;43.2;12;12.2;27.4;0.0;
20/02/2025 23:02:17;100;0;282.42;-4;-21.12;-5.29;33.1;19.30;77174;2834.548;-1756.517;1;287;-70;-62.9;42.8;43.2;12;12.6;27.4;0.0;
20/02/2025 23:02:37;100;0;283.32;-4;-20.98;-5.25;35.9;19.30;77168;2834.549;-1756.520;1;287;-70;-62.9;42.8;43.3;12;12.6;27.4;0.0;
20/02/2025 23:02:57;100;0;285.01;-4;-20.18;-5.14;38.8;19.30;77179;2834.549;-1756.524;1;287;-70;-62.9;42.8;43.2;14;14.0;27.4;0.0;
20/02/2025 23:03:17;100;0;283.43;-4;-20.75;-4.25;41.5;19.30;77189;2834.550;-1756.528;1;287;-70;-62.9;42.8;43.2;14;14.4;27.4;0.0;
20/02/2025 23:03:37;100;0;283.96;-4;-20.88;-4.26;44.2;19.30;77183;2834.551;-1756.531;1;287;-70;-62.9;42.8;43.2;14;14.4;27.4;0.0;
20/02/2025 23:03:57;100;0;284.18;-4;-20.65;-4.29;47.0;19.30;77191;2834.552;-1756.535;1;287;-70;-62.9;42.8;43.3;14;14.4;27.4;0.0;
20/02/2025 23:04:17;100;0;283.70;-4;-20.76;-4.29;49.6;19.30;77198;2834.552;-1756.539;1;287;-70;-62.9;42.8;43.3;14;14.4;27.4;0.0;
20/02/2025 23:04:37;100;0;285.27;-4;-21.15;-4.28;52.4;19.30;77194;2834.553;-1756.542;1;287;-70;-62.9;42.8;43.2;14;14.4;27.4;0.0;
20/02/2025 23:04:57;100;0;286.96;-4;-21.01;-4.19;55.4;19.30;77204;2834.554;-1756.546;1;287;-70;-62.9;42.8;43.2;14;14.4;27.4;0.0;
20/02/2025 23:05:17;100;0;285.87;-4;-20.53;-4.19;58.4;19.30;77213;2834.555;-1756.550;1;287;-70;-61.3;42.8;43.2;14;14.4;27.4;0.0;
20/02/2025 23:05:37;100;0;285.38;-4;-20.58;-4.28;61.2;19.40;77209;2834.556;-1756.554;1;287;-70;-62.9;42.8;43.2;14;14.4;27.4;0.0;
20/02/2025 23:05:57;100;0;284.67;-4;-20.73;-4.24;64.1;19.40;77227;2834.556;-1756.558;1;287;-70;-62.9;42.8;43.2;14;14.4;27.4;0.0;
20/02/2025 23:06:17;100;0;285.07;-4;-20.56;-4.21;66.8;19.40;77225;2834.557;-1756.561;1;287;-70;-62.9;42.8;43.2;14;14.4;27.4;0.0;
20/02/2025 23:06:37;100;0;285.35;-4;-20.61;-4.25;69.8;19.40;77225;2834.558;-1756.565;1;287;-70;-62.9;42.8;43.3;14;14.4;27.4;0.0;
20/02/2025 23:06:57;100;0;285.33;-4;-20.64;-4.24;72.6;19.40;77228;2834.559;-1756.569;1;287;-70;-62.9;42.8;43.2;14;14.4;27.4;0.0;
20/02/2025 23:07:17;100;0;285.31;-4;-20.58;-4.18;75.5;19.40;77225;2834.559;-1756.573;1;287;-70;-62.9;42.8;43.2;14;14.4;27.4;0.0;
20/02/2025 23:07:37;100;0;284.97;-4;-20.68;-4.29;78.3;19.40;77233;2834.560;-1756.576;1;287;-70;-62.9;42.8;43.2;14;14.4;27.4;0.0;
20/02/2025 23:07:57;100;0;284.97;-4;-20.61;-4.20;81.2;19.40;77234;2834.561;-1756.580;1;287;-70;-62.9;42.8;43.2;14;14.4;27.4;0.0;
20/02/2025 23:08:17;100;0;284.82;-4;-20.66;-4.23;84.1;19.40;77250;2834.562;-1756.584;1;287;-70;-62.9;42.8;43.2;14;14.4;27.4;0.0;
20/02/2025 23:08:37;100;0;285.32;-4;-20.38;-4.18;86.9;19.40;77252;2834.563;-1756.588;1;287;-70;-61.3;42.8;43.2;14;14.4;27.4;0.0;
20/02/2025 23:08:57;100;0;284.94;-4;-20.28;-4.25;89.8;19.40;77250;2834.563;-1756.592;1;287;-70;-62.9;42.8;43.2;14;14.4;27.4;0.0;
20/02/2025 23:09:17;100;0;284.62;-4;-20.34;-4.22;92.6;19.40;77260;2834.564;-1756.596;1;287;-70;-62.9;42.8;43.2;14;14.4;27.4;0.0;
20/02/2025 23:09:37;100;0;284.91;-4;-20.15;-4.22;95.3;19.40;77260;2834.565;-1756.599;1;287;-70;-62.9;42.8;43.2;14;14.4;27.4;0.0;
20/02/2025 23:09:57;100;0;284.76;-4;-20.37;-4.27;98.1;19.40;77256;2834.566;-1756.603;1;287;-70;-62.9;42.8;43.3;14;14.4;27.4;0.0;
20/02/2025 23:10:17;100;0;286.57;-4;-20.50;-4.20;100.9;19.40;77273;2834.567;-1756.607;1;287;-70;-62.9;42.8;43.2;14;14.4;27.4;0.0;
20/02/2025 23:10:37;100;0;287.81;-4;-20.64;-4.18;103.8;19.40;77260;2834.568;-1756.611;1;287;-70;-62.9;42.8;43.2;14;14.4;27.4;0.0;
20/02/2025 23:10:57;100;0;285.14;-4;-20.54;-4.20;106.7;19.40;77282;2834.568;-1756.614;1;287;-70;-62.9;42.8;43.2;14;14.4;27.4;0.0;
20/02/2025 23:11:17;100;0;280.87;-4;-20.70;-4.29;109.6;19.40;77270;2834.569;-1756.618;1;287;-70;-62.9;42.8;43.2;12;12.2;27.4;0.0;
20/02/2025 23:11:37;100;0;277.54;-4;-20.30;-5.87;112.5;19.40;77258;2834.569;-1756.622;1;287;-70;-62.9;42.8;43.3;10;9.9;27.4;0.0;
20/02/2025 23:11:57;100;0;276.07;-4;-19.44;-6.96;115.2;19.40;77258;2834.570;-1756.626;1;287;-70;-61.3;42.8;43.2;7;7.2;27.4;0.0;
20/02/2025 23:12:17;100;0;280.01;-4;-19.50;-8.26;117.8;19.40;77255;2834.570;-1756.630;1;287;-70;-62.9;42.8;43.2;11;11.3;27.4;0.0;
20/02/2025 23:12:37;100;0;281.24;-4;-20.19;-5.76;120.7;19.40;77252;2834.571;-1756.634;1;287;-70;-62.9;42.8;43.2;11;11.7;27.4;0.0;
20/02/2025 23:12:57;100;0;280.37;-4;-20.04;-5.74;123.4;19.40;77233;2834.571;-1756.638;1;287;-70;-62.9;42.8;43.3;11;11.7;27.4;0.0;
20/02/2025 23:13:17;100;0;275.23;-4;-20.19;-5.82;126.2;19.40;77233;2834.571;-1756.642;1;287;-70;-62.9;42.8;43.2;7;7.2;27.4;0.0;
20/02/2025 23:13:37;100;0;273.15;-4;-19.81;-8.04;129.0;19.40;77205;2834.571;-1756.646;1;287;-70;-62.9;42.8;43.3;3;3.2;27.4;0.0;
20/02/2025 23:13:57;100;0;275.41;-4;-19.30;-10.29;131.7;19.40;77194;2834.572;-1756.650;1;287;-70;-61.3;42.8;43.3;7;7.2;27.4;0.0;
20/02/2025 23:14:17;100;0;281.28;-4;-19.46;-7.96;134.3;19.40;77183;2834.572;-1756.653;1;287;-70;-62.9;42.8;43.2;12;12.2;27.4;0.0;
20/02/2025 23:14:37;100;0;284.63;-4;-20.19;-5.19;137.0;19.40;77172;2834.573;-1756.657;1;287;-70;-62.9;42.8;43.2;12;12.6;27.4;0.0;
20/02/2025 23:14:57;100;0;289.59;-4;-20.06;-5.25;139.8;19.30;77156;2834.574;-1756.661;1;287;-70;-61.3;42.8;43.2;12;12.6;27.4;0.0;
20/02/2025 23:15:17;100;0;291.48;-4;-20.18;-5.19;142.5;19.30;77146;2834.575;-1756.664;1;287;-70;-64.5;42.8;43.2;12;12.6;27.4;0.0;
20/02/2025 23:15:37;100;0;292.86;-4;-19.82;-5.26;145.4;19.30;77122;2834.576;-1756.668;1;287;-70;-62.9;42.8;43.2;14;14.0;27.4;0.0;
20/02/2025 23:15:57;100;0;292.13;-4;-19.62;-4.47;148.0;19.30;77118;2834.578;-1756.671;1;287;-70;-62.9;42.8;43.2;14;14.0;27.4;0.0;
20/02/2025 23:16:17;100;0;293.70;-4;-19.99;-4.49;150.6;19.20;77107;2834.579;-1756.675;1;287;-70;-62.9;42.8;43.2;14;14.0;27.4;0.0;
20/02/2025 23:16:37;100;0;295.12;-4;-19.48;-4.35;153.3;19.20;77103;2834.580;-1756.678;1;287;-70;-64.5;42.8;43.2;14;14.0;27.4;0.0;
20/02/2025 23:16:57;100;0;296.88;-4;-19.32;-4.51;155.9;19.20;77092;2834.582;-1756.682;1;287;-70;-61.3;42.8;43.2;14;14.0;27.4;0.0;
20/02/2025 23:17:17;100;0;292.56;-4;-19.52;-4.54;158.3;19.20;77074;2834.583;-1756.685;1;287;-70;-62.9;42.8;43.3;14;14.0;27.4;0.0;
20/02/2025 23:17:37;100;0;289.19;-4;-19.80;-4.51;160.8;19.10;77058;2834.584;-1756.688;1;287;-70;-62.9;42.8;43.3;14;14.0;27.4;0.0;
20/02/2025 23:17:57;100;0;284.50;-4;-19.50;-4.52;163.3;19.10;77042;2834.584;-1756.692;1;287;-70;-61.3;42.8;43.3;14;14.4;27.4;0.0;
20/02/2025 23:18:17;100;0;285.80;-4;-20.11;-4.42;165.9;19.10;77020;2834.585;-1756.695;1;287;-70;-62.9;42.8;43.2;14;14.0;27.4;0.0;
20/02/2025 23:18:37;100;0;287.42;-4;-19.66;-4.44;168.4;19.00;76991;2834.586;-1756.699;1;287;-70;-62.9;42.8;43.2;14;14.0;27.4;0.0;
20/02/2025 23:18:57;100;0;290.47;-4;-19.59;-4.50;171.0;19.00;76981;2834.587;-1756.702;1;287;-70;-62.9;42.8;43.2;14;14.4;27.4;0.0;
20/02/2025 23:19:17;100;0;291.32;-4;-19.34;-4.44;173.4;19.00;76973;2834.588;-1756.705;1;287;-70;-62.9;42.8;43.2;14;14.0;27.4;0.0;
20/02/2025 23:19:37;100;0;294.18;-4;-19.23;-4.53;175.9;18.90;76947;2834.589;-1756.709;1;287;-70;-64.5;42.8;43.2;14;14.4;27.4;0.0;
20/02/2025 23:19:57;100;0;294.33;-4;-19.15;-4.56;178.3;18.90;76940;2834.590;-1756.712;1;287;-70;-62.9;42.8;43.2;14;14.0;27.4;0.0;
20/02/2025 23:20:17;100;0;290.92;-4;-19.31;-4.56;180.5;18.90;76924;2834.591;-1756.715;1;287;-70;-62.9;42.8;43.2;14;14.0;27.4;0.0;
20/02/2025 23:20:37;100;0;287.98;-4;-19.23;-4.49;182.9;18.80;76910;2834.592;-1756.718;1;287;-70;-62.9;42.8;43.2;14;14.0;27.4;0.0;
20/02/2025 23:20:57;100;0;282.41;-4;-19.25;-4.53;185.3;18.80;76895;2834.593;-1756.722;1;287;-70;-62.9;42.8;43.2;12;12.2;27.4;0.0;
20/02/2025 23:21:17;100;0;277.98;-4;-19.03;-5.74;187.5;18.70;76883;2834.593;-1756.725;1;287;-70;-62.9;42.8;43.2;9;9.0;27.4;0.0;
20/02/2025 23:21:37;100;0;277.61;-4;-19.04;-7.37;189.8;18.70;76878;2834.593;-1756.728;1;287;-70;-62.9;42.8;43.2;9;8.6;27.4;0.0;
20/02/2025 23:21:57;100;0;275.41;-4;-19.08;-7.39;192.0;18.70;76878;2834.593;-1756.731;1;287;-70;-62.9;42.8;43.3;6;5.9;27.4;0.0;
20/02/2025 23:22:17;100;0;277.44;-4;-19.01;-8.97;194.2;18.60;76857;2834.594;-1756.734;1;287;-70;-62.9;42.8;43.2;8;8.1;27.4;0.0;
20/02/2025 23:22:37;100;0;279.17;-4;-19.65;-7.33;196.6;18.60;76853;2834.594;-1756.738;1;287;-70;-62.9;42.8;43.2;10;9.9;27.4;0.0;
20/02/2025 23:22:57;100;0;276.92;-4;-19.57;-6.33;199.2;18.50;76841;2834.594;-1756.741;1;287;-70;-62.9;42.8;43.2;8;8.1;27.4;0.0;
20/02/2025 23:23:17;100;0;278.52;-4;-19.43;-7.80;201.6;18.50;76832;2834.595;-1756.745;1;287;-70;-62.9;42.8;43.2;8;7.7;27.4;0.0;
20/02/2025 23:23:37;100;0;281.73;-4;-19.17;-7.70;204.1;18.50;76820;2834.595;-1756.748;1;287;-70;-62.9;42.8;43.2;12;12.2;27.4;0.0;
20/02/2025 23:23:57;100;0;283.36;-4;-19.07;-5.31;206.5;18.40;76813;2834.596;-1756.752;1;287;-70;-62.9;42.8;43.2;12;12.2;27.4;0.0;
20/02/2025 23:24:17;100;0;285.13;-4;-19.25;-5.34;209.1;18.40;76809;2834.596;-1756.755;1;287;-70;-66.1;42.8;43.2;12;12.2;27.4;0.0;
20/02/2025 23:24:37;100;0;286.99;-4;-19.36;-5.34;211.5;18.40;76799;2834.597;-1756.759;1;287;-70;-62.9;42.8;43.2;12;12.2;27.4;0.0;
20/02/2025 23:24:57;100;0;288.21;-4;-19.12;-5.35;213.9;18.30;76787;2834.598;-1756.762;1;287;-70;-62.9;42.8;43.2;12;12.2;27.4;0.0;
20/02/2025 23:25:17;100;0;289.07;-4;-18.93;-5.39;216.3;18.30;76786;2834.599;-1756.765;1;287;-70;-62.9;43.1;43.2;12;12.2;27.4;0.0;
20/02/2025 23:25:37;100;0;291.68;-4;-19.19;-5.42;218.7;18.20;76769;2834.600;-1756.769;1;287;-70;-62.9;43.1;43.2;12;12.2;27.4;0.0;
20/02/2025 23:25:57;100;0;295.81;-4;-19.28;-5.36;221.2;18.20;76762;2834.601;-1756.772;1;287;-70;-62.9;43.1;43.2;14;14.0;27.4;0.0;
20/02/2025 23:26:17;100;0;293.40;-4;-19.25;-4.36;223.8;18.20;76761;2834.603;-1756.775;1;287;-70;-62.9;43.1;43.2;14;14.4;27.4;0.0;
20/02/2025 23:26:38;100;0;289.73;-4;-19.32;-4.41;226.2;18.10;76742;2834.604;-1756.779;1;287;-70;-62.9;43.1;43.2;14;14.4;27.4;0.0;
20/02/2025 23:26:58;100;0;287.78;-4;-19.24;-4.41;228.7;18.10;76724;2834.604;-1756.782;1;287;-70;-62.9;43.1;43.3;14;14.4;27.4;0.0;
20/02/2025 23:27:18;100;0;283.49;-4;-18.93;-4.40;231.1;18.00;76716;2834.605;-1756.786;1;287;-70;-62.9;43.4;43.7;12;11.7;27.4;0.0;
20/02/2025 23:27:38;100;0;280.64;-4;-19.26;-5.97;233.5;18.00;76700;2834.606;-1756.789;1;287;-70;-61.3;43.4;43.7;12;11.7;27.4;0.0;
20/02/2025 23:27:58;100;0;282.28;-4;-20.20;-5.87;235.9;18.00;76696;2834.606;-1756.792;1;287;-70;-62.9;43.4;43.7;12;11.3;27.4;0.0;
20/02/2025 23:28:18;100;0;287.00;-4;-19.98;-5.91;238.5;17.90;76682;2834.607;-1756.796;1;287;-70;-64.5;43.4;43.7;12;11.7;27.4;0.0;
20/02/2025 23:28:38;100;0;289.34;-4;-20.09;-5.83;241.0;17.90;76681;2834.608;-1756.799;1;287;-70;-62.9;43.4;43.7;12;11.3;27.4;0.0;
20/02/2025 23:28:58;100;0;293.35;-4;-19.76;-5.84;243.6;17.80;76671;2834.609;-1756.802;1;287;-70;-61.3;43.4;43.7;12;11.3;27.4;0.0;
20/02/2025 23:29:18;100;0;296.65;-4;-19.79;-5.88;246.2;17.80;76659;2834.610;-1756.806;1;287;-70;-62.9;43.4;43.7;14;14.0;27.4;0.0;
20/02/2025 23:29:38;100;0;297.62;-4;-19.98;-4.53;248.6;17.70;76650;2834.612;-1756.809;1;287;-70;-62.9;43.4;43.7;14;14.0;27.4;0.0;
20/02/2025 23:29:58;100;0;298.31;-4;-20.13;-4.49;251.2;17.70;76635;2834.613;-1756.812;1;287;-70;-62.9;43.4;43.7;16;15.8;27.4;0.0;
20/02/2025 23:30:18;100;0;299.91;-4;-20.09;-3.49;253.8;17.70;76648;2834.615;-1756.815;1;287;-70;-62.9;43.4;43.9;16;16.2;27.4;0.0;
20/02/2025 23:30:38;100;0;300.88;-4;-20.20;-3.51;256.3;17.60;76630;2834.616;-1756.818;1;287;-70;-61.3;43.4;43.9;18;18.1;27.4;0.0;
20/02/2025 23:30:58;100;0;304.99;-4;-20.33;-2.20;258.9;17.60;76624;2834.618;-1756.821;1;287;-70;-66.1;43.4;43.7;23;23.0;27.4;0.0;
20/02/2025 23:31:18;100;0;307.32;-4;-21.03;0.26;261.6;17.60;76621;2834.620;-1756.824;1;287;-70;-62.9;43.4;43.7;27;27.1;27.4;0.0;
20/02/2025 23:31:38;100;0;308.00;-4;-21.33;2.29;264.4;17.50;76599;2834.622;-1756.827;1;287;-70;-62.9;43.4;43.7;27;27.5;27.4;0.0;
20/02/2025 23:31:58;100;0;302.53;-4;-20.81;2.20;267.3;17.50;76593;2834.624;-1756.830;1;287;-70;-62.9;43.4;43.7;20;18.5;27.4;0.0;
20/02/2025 23:32:18;100;0;297.79;-4;-20.39;-1.87;270.0;17.40;76576;2834.625;-1756.834;1;287;-70;-62.9;43.4;43.7;15;14.4;27.4;0.0;
20/02/2025 23:32:38;100;0;293.57;-4;-20.33;-4.28;272.8;17.40;76564;2834.626;-1756.837;1;287;-70;-62.9;43.4;43.7;15;14.4;27.4;0.0;
20/02/2025 23:32:58;100;0;291.57;-4;-20.29;-4.40;275.4;17.30;76552;2834.627;-1756.841;1;287;-70;-61.3;43.4;43.7;13;12.6;27.4;0.0;
20/02/2025 23:33:18;100;0;290.80;-4;-20.11;-5.40;278.0;17.30;76548;2834.629;-1756.844;1;287;-70;-64.5;43.4;43.7;13;12.6;27.4;0.0;
20/02/2025 23:33:38;100;0;291.39;-4;-20.22;-5.41;280.7;17.20;76539;2834.630;-1756.848;1;287;-70;-62.9;43.4;43.7;13;12.6;27.4;0.0;
20/02/2025 23:33:58;100;0;292.29;-4;-20.27;-5.42;283.4;17.20;76541;2834.631;-1756.851;1;287;-70;-62.9;43.4;43.7;13;12.6;27.4;0.0;
20/02/2025 23:34:18;100;0;291.84;-4;-20.20;-5.42;286.2;17.20;76532;2834.632;-1756.855;1;287;-70;-62.9;43.4;43.7;13;12.6;27.4;0.0;
20/02/2025 23:34:38;100;0;291.54;-4;-20.24;-5.38;289.0;17.10;76526;2834.633;-1756.858;1;287;-70;-62.9;43.4;43.9;13;12.6;27.4;0.0;
20/02/2025 23:34:58;100;0;290.16;-4;-19.92;-5.42;291.7;17.10;76521;2834.634;-1756.862;1;287;-70;-62.9;43.4;43.7;13;12.2;27.4;0.0;
20/02/2025 23:35:18;100;0;288.90;-4;-19.87;-5.43;294.3;17.10;76512;2834.635;-1756.866;1;287;-70;-62.9;43.4;43.9;13;12.6;27.4;0.0;
20/02/2025 23:35:38;100;0;286.75;-4;-19.95;-5.49;297.0;17.00;76511;2834.636;-1756.869;1;287;-70;-62.9;43.4;43.7;13;12.6;27.4;0.0;
20/02/2025 23:35:58;100;0;284.72;-4;-20.27;-5.42;299.6;17.00;76497;2834.637;-1756.873;1;287;-70;-62.9;43.4;43.9;13;12.6;27.4;0.0;
20/02/2025 23:36:18;100;0;282.02;-4;-20.07;-5.43;302.2;16.90;76488;2834.637;-1756.876;1;287;-70;-61.3;43.4;43.9;13;12.6;27.4;0.0;
20/02/2025 23:36:38;100;0;280.75;-4;-19.83;-5.45;304.7;16.90;76482;2834.638;-1756.880;1;287;-70;-61.3;43.4;43.9;11;10.8;27.4;0.0;
20/02/2025 23:36:58;100;0;282.57;-4;-19.91;-6.54;307.2;16.90;76464;2834.638;-1756.883;1;287;-70;-61.3;43.4;43.7;11;10.4;27.4;0.0;
20/02/2025 23:37:18;100;0;285.17;-4;-19.76;-6.46;309.7;16.80;76462;2834.639;-1756.887;1;287;-70;-62.9;43.4;43.7;13;13.1;27.4;0.0;
20/02/2025 23:37:38;100;0;287.66;-4;-19.87;-4.76;312.2;16.80;76448;2834.640;-1756.890;1;287;-70;-62.9;43.4;43.7;13;13.5;27.4;0.0;
20/02/2025 23:37:58;100;0;289.09;-4;-19.93;-4.88;314.6;16.80;76441;2834.641;-1756.893;1;287;-70;-62.9;43.4;43.7;13;13.5;27.4;0.0;
20/02/2025 23:38:18;100;0;291.14;-4;-20.03;-4.84;317.1;16.70;76437;2834.642;-1756.896;1;287;-70;-62.9;43.4;43.9;13;13.5;27.4;0.0;
20/02/2025 23:38:38;100;0;292.86;-4;-20.00;-4.80;319.6;16.70;76430;2834.643;-1756.900;1;287;-70;-62.9;43.4;43.7;13;13.5;27.4;0.0;
20/02/2025 23:38:58;100;0;290.97;-4;-19.88;-4.86;322.0;16.60;76418;2834.644;-1756.903;1;287;-70;-62.9;43.4;43.7;13;13.5;27.4;0.0;
20/02/2025 23:39:18;100;0;292.69;-4;-20.06;-4.84;324.5;16.60;76415;2834.645;-1756.906;1;287;-70;-62.9;43.4;43.7;13;13.5;27.4;0.0;
20/02/2025 23:39:38;100;0;293.50;-4;-19.82;-4.81;327.0;16.50;76397;2834.646;-1756.909;1;287;-70;-62.9;43.4;43.7;13;13.5;27.4;0.0;
20/02/2025 23:39:58;100;0;292.92;-4;-19.90;-4.82;329.4;16.50;76390;2834.647;-1756.912;1;287;-70;-62.9;43.4;43.9;13;13.5;27.4;0.0;
20/02/2025 23:40:18;100;0;290.77;-4;-19.87;-4.77;331.8;16.50;76384;2834.648;-1756.915;1;287;-70;-61.3;43.4;43.7;13;13.5;27.4;0.0;
20/02/2025 23:40:38;100;0;287.70;-4;-20.02;-4.85;334.1;16.50;76382;2834.649;-1756.919;1;287;-70;-62.9;43.4;43.9;13;13.5;27.4;0.0;
20/02/2025 23:40:58;100;0;285.75;-4;-19.34;-4.82;336.3;16.40;76373;2834.650;-1756.922;1;287;-70;-62.9;43.4;43.9;13;13.5;27.4;0.0;
20/02/2025 23:41:18;100;0;284.36;-4;-19.72;-4.84;338.4;16.40;76359;2834.650;-1756.925;1;287;-70;-62.9;43.4;43.9;13;13.5;27.4;0.0;
20/02/2025 23:41:38;100;0;285.16;-4;-20.17;-4.84;340.6;16.30;76347;2834.651;-1756.927;1;287;-70;-62.9;43.4;43.7;13;13.5;27.4;0.0;
20/02/2025 23:41:58;100;0;287.23;-4;-20.19;-4.77;342.8;16.30;76343;2834.651;-1756.930;1;287;-70;-62.9;43.4;43.7;13;13.5;27.4;0.0;
20/02/2025 23:42:18;100;0;290.35;-4;-20.10;-4.62;345.1;16.30;76333;2834.652;-1756.933;1;287;-70;-62.9;43.4;43.9;13;13.5;27.4;0.0;
20/02/2025 23:42:38;100;0;291.48;-4;-20.17;-4.80;347.4;16.20;76327;2834.653;-1756.936;1;287;-70;-62.9;43.4;43.7;13;13.5;27.4;0.0;
20/02/2025 23:42:58;100;0;294.06;-4;-20.37;-4.76;349.6;16.20;76312;2834.654;-1756.939;1;287;-70;-62.9;43.4;43.9;13;13.5;27.4;0.0;
20/02/2025 23:43:18;100;0;295.17;-4;-19.90;-4.80;352.1;16.10;76313;2834.656;-1756.942;1;287;-70;-62.9;43.4;43.7;13;13.5;27.4;0.0;
20/02/2025 23:43:38;100;0;294.85;-4;-20.11;-4.79;354.3;16.10;76299;2834.657;-1756.945;1;287;-70;-61.3;43.4;43.7;13;13.5;27.4;0.0;
20/02/2025 23:43:58;100;0;294.17;-4;-20.01;-4.79;356.6;16.10;76289;2834.658;-1756.948;1;287;-70;-61.3;43.4;43.7;13;13.5;27.4;0.0;
20/02/2025 23:44:18;100;0;293.23;-4;-20.00;-4.81;358.9;16.00;76296;2834.659;-1756.951;1;287;-70;-62.9;43.4;43.7;13;13.5;27.4;0.0;
20/02/2025 23:44:38;100;0;292.79;-4;-20.01;-4.83;361.1;16.00;76276;2834.660;-1756.954;1;287;-70;-62.9;43.4;43.7;13;13.5;27.4;0.0;
20/02/2025 23:44:58;100;0;292.18;-4;-20.04;-4.85;363.4;16.00;76280;2834.661;-1756.957;1;287;-70;-62.9;43.4;43.7;13;13.5;27.4;0.0;
20/02/2025 23:45:18;100;0;292.49;-4;-20.20;-4.89;365.7;15.90;76270;2834.662;-1756.960;1;287;-70;-62.9;43.4;43.9;13;13.5;27.4;0.0;
20/02/2025 23:45:38;100;0;293.06;-4;-19.87;-4.83;368.1;15.90;76258;2834.663;-1756.963;1;287;-70;-62.9;43.4;43.7;13;13.5;27.4;0.0;
20/02/2025 23:45:58;100;0;294.11;-4;-19.88;-4.77;370.5;15.90;76246;2834.664;-1756.966;1;287;-70;-62.9;43.4;43.7;13;13.5;27.4;0.0;
20/02/2025 23:46:18;100;0;296.10;-4;-19.96;-4.80;372.8;15.80;76236;2834.665;-1756.969;1;287;-70;-62.9;43.4;43.7;15;14.9;27.4;0.0;
20/02/2025 23:46:38;100;0;298.61;-4;-20.08;-3.87;375.2;15.80;76235;2834.666;-1756.972;1;287;-70;-62.9;43.4;43.9;15;15.3;27.4;0.0;
20/02/2025 23:46:58;100;0;300.48;-4;-20.01;-3.83;377.7;15.70;76231;2834.668;-1756.975;1;287;-70;-62.9;43.4;43.7;18;18.1;27.4;0.0;
20/02/2025 23:47:18;100;0;301.08;-4;-20.24;-2.38;380.2;15.70;76221;2834.669;-1756.978;1;287;-70;-62.9;43.4;43.7;18;18.5;27.4;0.0;
20/02/2025 23:47:38;100;0;302.66;-4;-20.04;-2.37;382.7;15.70;76234;2834.671;-1756.981;1;287;-70;-62.9;43.4;43.7;21;21.2;27.4;0.0;
20/02/2025 23:47:58;100;0;300.66;-4;-20.11;-0.63;385.2;15.60;76219;2834.672;-1756.984;1;287;-70;-62.9;43.4;43.9;18;18.1;27.4;0.0;
20/02/2025 23:48:18;100;0;299.14;-4;-20.14;-2.71;387.6;15.60;76220;2834.674;-1756.987;1;286;-70;-62.9;43.4;43.7;18;18.1;27.4;0.0;
20/02/2025 23:48:38;100;0;297.50;-4;-19.92;-2.69;390.2;15.60;76209;2834.675;-1756.990;1;286;-70;-62.9;43.4;43.7;16;15.8;27.4;0.0;
20/02/2025 23:48:58;100;0;298.37;-4;-20.17;-4.17;392.7;15.60;76209;2834.677;-1756.993;1;286;-70;-62.9;43.4;43.7;16;15.3;27.4;0.0;
20/02/2025 23:49:18;100;0;299.48;-4;-19.83;-4.04;395.3;15.50;76204;2834.678;-1756.996;1;286;-70;-62.9;43.4;43.7;18;18.1;27.4;0.0;
20/02/2025 23:49:38;100;0;298.88;-4;-19.98;-2.27;397.9;15.50;76191;2834.680;-1756.999;1;286;-70;-61.3;43.4;43.7;18;18.5;27.4;0.0;
20/02/2025 23:49:58;100;0;298.39;-4;-19.66;-2.34;400.4;15.40;76184;2834.681;-1757.003;1;286;-70;-62.9;43.4;43.7;18;18.5;27.4;0.0;
20/02/2025 23:50:18;100;0;297.29;-4;-20.07;-2.47;402.8;15.40;76196;2834.682;-1757.006;1;286;-70;-62.9;43.4;43.7;16;15.8;27.4;0.0;
20/02/2025 23:50:38;100;0;295.58;-4;-19.66;-4.21;405.3;15.40;76198;2834.684;-1757.009;1;286;-70;-62.9;43.4;43.9;16;15.8;27.4;0.0;
20/02/2025 23:50:58;100;0;294.27;-4;-19.10;-3.99;407.7;15.40;76185;2834.685;-1757.012;1;286;-70;-62.9;43.4;43.9;16;15.8;27.4;0.0;
20/02/2025 23:51:18;100;0;295.81;-4;-19.59;-3.97;409.8;15.30;76178;2834.686;-1757.015;1;286;-70;-62.9;43.4;43.7;16;15.8;27.4;0.0;
20/02/2025 23:51:38;100;0;295.20;-4;-19.50;-3.90;412.1;15.30;76160;2834.687;-1757.017;1;286;-70;-62.9;43.4;43.9;16;15.8;27.4;0.0;
20/02/2025 23:51:58;100;0;294.99;-4;-20.04;-3.86;414.4;15.30;76156;2834.688;-1757.020;1;286;-70;-62.9;43.4;43.7;16;15.8;27.4;0.0;
20/02/2025 23:52:18;100;0;292.87;-4;-20.49;-3.95;417.0;15.30;76157;2834.689;-1757.024;1;286;-70;-61.3;43.4;43.9;14;14.0;27.4;0.0;
20/02/2025 23:52:38;100;0;292.26;-4;-20.05;-4.57;419.4;15.20;76147;2834.690;-1757.027;1;286;-70;-62.9;43.4;43.9;14;14.0;27.4;0.0;
20/02/2025 23:52:58;100;0;291.17;-4;-19.62;-4.61;422.0;15.20;76133;2834.691;-1757.030;1;286;-70;-62.9;43.4;43.7;14;14.0;27.4;0.0;
20/02/2025 23:53:18;100;0;290.83;-4;-19.82;-4.59;424.5;15.20;76128;2834.692;-1757.033;1;286;-70;-61.3;43.4;43.7;14;14.0;27.4;0.0;
20/02/2025 23:53:38;100;0;290.68;-4;-19.79;-4.62;426.9;15.10;76122;2834.693;-1757.037;1;286;-70;-61.3;43.4;43.9;14;14.0;27.4;0.0;
20/02/2025 23:53:58;100;0;291.17;-4;-19.66;-4.56;429.4;15.10;76112;2834.694;-1757.040;1;286;-70;-61.3;43.4;43.9;14;14.0;27.4;0.0;
20/02/2025 23:54:18;100;0;292.11;-4;-19.82;-4.67;431.9;15.10;76111;2834.695;-1757.043;1;286;-70;-62.9;43.4;43.9;14;14.0;27.4;0.0;
20/02/2025 23:54:38;100;0;294.03;-4;-19.91;-4.61;434.4;15.00;76105;2834.696;-1757.046;1;286;-70;-62.9;43.4;43.9;14;14.0;27.4;0.0;
20/02/2025 23:54:58;100;0;293.50;-4;-19.70;-4.63;437.1;15.00;76102;2834.698;-1757.050;1;286;-70;-62.9;43.4;43.7;14;14.0;27.4;0.0;
20/02/2025 23:55:18;100;0;294.86;-4;-19.63;-4.64;439.6;15.00;76095;2834.699;-1757.053;1;286;-70;-62.9;43.4;43.7;14;14.0;27.4;0.0;
20/02/2025 23:55:38;100;0;294.27;-4;-19.73;-4.70;442.2;15.00;76091;2834.700;-1757.056;1;286;-70;-61.3;43.4;43.7;14;14.0;27.4;0.0;
20/02/2025 23:55:58;100;0;293.33;-4;-19.31;-4.62;444.8;14.90;76079;2834.701;-1757.060;1;286;-70;-62.9;43.4;43.9;14;14.0;27.4;0.0;
20/02/2025 23:56:18;100;0;292.88;-4;-19.52;-4.71;447.2;14.90;76083;2834.702;-1757.063;1;286;-70;-62.9;43.4;43.7;14;14.0;27.4;0.0;
20/02/2025 23:56:38;100;0;293.84;-4;-19.38;-4.67;449.8;14.90;76069;2834.704;-1757.066;1;286;-70;-62.9;43.4;43.7;14;14.0;27.4;0.0;
20/02/2025 23:56:58;100;0;294.24;-4;-19.53;-4.68;452.2;14.90;76074;2834.705;-1757.070;1;286;-70;-61.3;43.4;43.7;14;14.0;27.4;0.0;
20/02/2025 23:57:18;100;0;295.81;-4;-19.64;-4.68;454.7;14.80;76068;2834.706;-1757.073;1;286;-70;-62.9;43.4;43.7;16;16.2;27.4;0.0;
20/02/2025 23:57:38;100;0;296.03;-4;-19.56;-3.33;457.3;14.80;76063;2834.707;-1757.076;1;286;-70;-62.9;43.4;43.7;16;16.7;27.4;0.0;
20/02/2025 23:57:58;100;0;296.34;-4;-19.78;-3.41;459.9;14.80;76056;2834.709;-1757.079;1;286;-70;-61.3;43.4;43.7;16;16.7;27.4;0.0;
20/02/2025 23:58:18;100;0;296.44;-4;-19.64;-3.41;462.4;14.70;76052;2834.710;-1757.082;1;286;-70;-62.9;43.4;43.9;16;16.7;27.4;0.0;
20/02/2025 23:58:38;100;0;296.69;-4;-19.80;-3.34;465.0;14.70;76047;2834.711;-1757.086;1;286;-70;-62.9;43.4;43.7;16;16.7;27.4;0.0;
20/02/2025 23:58:58;100;0;296.92;-4;-19.73;-3.40;467.7;14.70;76063;2834.713;-1757.089;1;286;-70;-61.3;43.4;43.9;16;16.7;27.4;0.0;
20/02/2025 23:59:18;100;0;297.20;-4;-19.74;-3.36;470.4;14.70;76049;2834.714;-1757.092;1;286;-70;-62.9;43.4;43.7;16;16.7;27.4;0.0;
20/02/2025 23:59:38;100;0;297.01;-4;-19.99;-3.33;473.0;14.60;76034;2834.716;-1757.096;1;286;-70;-62.9;43.4;43.9;16;16.7;27.4;0.0;
20/02/2025 23:59:58;100;0;296.12;-4;-19.98;-3.27;475.8;14.60;76030;2834.717;-1757.099;1;286;-70;-62.9;43.4;43.9;16;16.7;27.4;0.0;
21/02/2025 00:00:18;100;0;294.22;-4;-19.92;-3.30;478.6;14.60;76017;2834.719;-1757.103;1;286;-70;-61.3;43.4;43.9;16;16.7;27.4;0.0;
21/02/2025 00:00:38;100;0;292.78;-4;-19.79;-3.36;481.3;14.60;76007;2834.720;-1757.106;1;286;-70;-62.9;43.4;43.9;16;16.7;27.4;0.0;
21/02/2025 00:00:58;100;0;290.55;-4;-19.43;-3.36;484.1;14.50;76009;2834.721;-1757.110;1;286;-70;-62.9;43.4;43.9;16;16.7;27.4;0.0;
21/02/2025 00:01:18;100;0;290.13;-4;-19.50;-3.34;486.8;14.50;75998;2834.722;-1757.114;1;286;-70;-62.9;43.4;43.7;16;16.7;27.4;0.0;
21/02/2025 00:01:38;100;0;289.04;-4;-19.72;-3.36;489.4;14.50;75998;2834.723;-1757.117;1;286;-70;-64.5;43.4;43.9;16;16.7;27.4;0.0;
21/02/2025 00:01:58;100;0;284.96;-4;-19.83;-3.38;492.1;14.50;75994;2834.724;-1757.121;1;286;-70;-62.9;43.4;43.7;16;16.7;27.4;0.0;
21/02/2025 00:02:18;100;0;283.69;-4;-19.40;-3.36;494.7;14.40;75982;2834.724;-1757.125;1;286;-70;-62.9;43.4;43.9;14;13.5;27.4;0.0;
21/02/2025 00:02:38;100;0;284.91;-4;-19.36;-4.80;497.3;14.40;75972;2834.725;-1757.128;1;286;-70;-62.9;43.4;43.9;14;13.5;27.4;0.0;
21/02/2025 00:02:59;100;0;286.81;-4;-19.09;-4.86;499.8;14.40;75963;2834.726;-1757.132;1;286;-70;-62.9;43.4;43.9;14;13.5;27.4;0.0;
21/02/2025 00:03:19;100;0;287.96;-4;-19.27;-4.84;502.4;14.40;75960;2834.727;-1757.135;1;286;-70;-62.9;43.4;43.9;14;14.0;27.4;0.0;
21/02/2025 00:03:39;100;0;290.55;-4;-19.07;-4.79;504.9;14.30;75949;2834.728;-1757.139;1;286;-70;-62.9;43.4;43.9;14;13.5;27.4;0.0;
21/02/2025 00:03:59;100;0;291.99;-4;-19.21;-4.85;507.3;14.30;75957;2834.729;-1757.142;1;286;-70;-62.9;43.4;43.7;14;13.5;27.4;0.0;
21/02/2025 00:04:19;100;0;294.47;-4;-18.96;-4.80;509.8;14.30;75937;2834.730;-1757.145;1;286;-70;-62.9;43.7;43.7;16;15.8;27.4;0.0;
21/02/2025 00:04:39;100;0;295.88;-4;-19.09;-3.64;512.2;14.20;75952;2834.731;-1757.149;1;286;-70;-62.9;43.7;43.7;16;16.2;27.4;0.0;
21/02/2025 00:04:59;100;0;296.02;-4;-19.09;-3.55;514.6;14.20;75942;2834.733;-1757.152;1;286;-70;-62.9;43.7;43.9;16;16.2;27.4;0.0;
21/02/2025 00:05:19;100;0;296.66;-4;-19.31;-3.55;516.9;14.20;75941;2834.734;-1757.155;1;286;-70;-62.9;43.7;43.7;16;16.2;27.4;0.0;
21/02/2025 00:05:39;100;0;298.82;-4;-19.01;-3.63;519.2;14.20;75928;2834.735;-1757.158;1;286;-70;-62.9;43.7;43.7;19;19.0;27.4;0.0;
21/02/2025 00:05:59;100;0;298.57;-4;-19.54;-1.83;521.6;14.20;75929;2834.737;-1757.161;1;286;-70;-62.9;43.7;43.9;19;19.4;27.4;0.0;
21/02/2025 00:06:19;100;0;296.56;-4;-19.58;-1.86;524.0;14.10;75914;2834.738;-1757.164;1;286;-70;-62.9;43.7;43.9;17;17.1;27.4;0.0;
21/02/2025 00:06:39;100;0;295.53;-4;-19.42;-3.29;526.3;14.10;75911;2834.739;-1757.167;1;286;-70;-62.9;43.7;43.7;17;16.7;27.4;0.0;
21/02/2025 00:06:59;100;0;294.09;-4;-19.41;-3.32;528.7;14.10;75901;2834.740;-1757.170;1;286;-70;-61.3;43.7;43.9;17;16.7;27.4;0.0;
21/02/2025 00:07:19;100;0;292.25;-4;-19.65;-3.31;531.0;14.10;75905;2834.741;-1757.173;1;286;-70;-62.9;43.7;43.7;15;14.9;27.4;0.0;
21/02/2025 00:07:39;100;0;291.89;-4;-19.41;-4.34;533.4;14.00;75897;2834.742;-1757.176;1;286;-70;-62.9;43.7;43.9;15;14.9;27.4;0.0;
21/02/2025 00:07:59;100;0;289.51;-4;-19.22;-4.37;535.7;14.00;75891;2834.743;-1757.179;1;286;-70;-61.3;43.7;43.7;15;14.9;27.4;0.0;
21/02/2025 00:08:19;100;0;289.32;-4;-19.08;-4.35;538.0;14.00;75890;2834.744;-1757.182;1;286;-70;-62.9;43.7;43.9;15;14.9;27.4;0.0;
21/02/2025 00:08:39;100;0;288.85;-4;-19.31;-4.41;540.3;13.90;75871;2834.745;-1757.185;1;286;-70;-61.3;43.7;43.7;15;14.9;27.4;0.0;
21/02/2025 00:08:59;100;0;288.70;-4;-19.13;-4.37;542.5;13.90;75877;2834.746;-1757.189;1;286;-70;-62.9;43.7;43.7;15;14.4;27.4;0.0;
21/02/2025 00:09:19;100;0;289.81;-4;-19.17;-4.35;544.9;13.90;75873;2834.747;-1757.192;1;286;-70;-62.9;43.7;43.7;15;14.9;27.4;0.0;
21/02/2025 00:09:39;100;0;290.06;-4;-19.05;-4.33;547.2;13.90;75871;2834.748;-1757.195;1;286;-70;-62.9;43.7;43.7;15;14.4;27.4;0.0;
21/02/2025 00:09:59;100;0;290.96;-4;-19.14;-4.34;549.5;13.90;75869;2834.749;-1757.198;1;286;-70;-62.9;43.7;43.9;15;14.9;27.4;0.0;
21/02/2025 00:10:19;100;0;291.99;-4;-19.38;-4.33;551.8;13.80;75854;2834.750;-1757.201;1;286;-70;-62.9;43.7;43.9;15;14.9;27.4;0.0;
21/02/2025 00:10:39;100;0;291.69;-4;-19.44;-4.28;554.1;13.80;75854;2834.751;-1757.204;1;286;-70;-62.9;43.7;43.9;15;14.4;27.4;0.0;
21/02/2025 00:10:59;100;0;293.36;-4;-19.06;-4.33;556.4;13.80;75854;2834.752;-1757.207;1;286;-70;-61.3;43.7;43.7;15;14.9;27.4;0.0;
21/02/2025 00:11:19;100;0;292.26;-4;-19.20;-4.36;558.8;13.70;75841;2834.753;-1757.211;1;286;-70;-62.9;43.7;43.7;15;14.4;27.4;0.0;
21/02/2025 00:11:39;100;0;291.14;-4;-19.02;-4.35;561.1;13.70;75844;2834.754;-1757.214;1;286;-70;-62.9;43.7;43.9;15;14.9;27.4;0.0;
21/02/2025 00:11:59;100;0;291.17;-4;-19.14;-4.39;563.3;13.70;75840;2834.755;-1757.217;1;286;-70;-62.9;43.7;43.9;15;14.9;27.4;0.0;
21/02/2025 00:12:19;100;0;289.45;-4;-18.89;-4.41;565.5;13.70;75837;2834.755;-1757.220;1;286;-70;-62.9;44.1;44.2;15;14.9;27.4;0.0;
21/02/2025 00:12:39;100;0;288.85;-4;-20.00;-4.38;567.8;13.70;75822;2834.756;-1757.223;1;286;-70;-62.9;44.1;44.3;15;14.9;27.4;0.0;
21/02/2025 00:12:59;100;0;288.85;-4;-20.11;-4.34;570.1;13.60;75824;2834.757;-1757.226;1;286;-70;-61.3;44.1;44.3;15;14.9;27.4;0.0;
21/02/2025 00:13:19;100;0;289.05;-4;-19.92;-4.33;572.3;13.60;75832;2834.758;-1757.229;1;286;-70;-62.9;44.1;44.3;15;14.9;27.4;0.0;
21/02/2025 00:13:39;100;0;290.10;-4;-21.02;-4.25;574.7;13.60;75809;2834.759;-1757.232;1;286;-70;-61.3;44.1;44.3;15;14.9;27.4;0.0;
21/02/2025 00:13:59;100;0;290.21;-4;-20.80;-4.29;577.2;13.60;75819;2834.760;-1757.235;1;286;-70;-62.9;44.1;44.3;15;14.9;27.4;0.0;
21/02/2025 00:14:19;100;0;293.15;-4;-20.29;-4.30;579.7;13.60;75811;2834.761;-1757.238;1;286;-70;-62.9;44.1;44.3;15;14.9;27.4;0.0;
21/02/2025 00:14:39;100;0;294.87;-4;-20.26;-4.28;582.2;13.50;75809;2834.762;-1757.241;1;286;-70;-62.9;44.1;44.3;15;14.9;27.4;0.0;
21/02/2025 00:14:59;100;0;297.40;-4;-20.19;-4.29;584.8;13.50;75796;2834.763;-1757.245;1;286;-70;-62.9;44.1;44.3;18;18.5;27.4;0.0;
21/02/2025 00:15:19;100;0;299.81;-4;-20.44;-2.29;587.2;13.50;75789;2834.765;-1757.248;1;286;-70;-62.9;44.1;44.3;20;19.9;27.4;0.0;
21/02/2025 00:15:39;100;0;300.64;-4;-20.37;-1.40;589.7;13.50;75792;2834.766;-1757.251;1;285;-70;-61.3;44.1;44.3;22;22.1;27.4;0.0;
21/02/2025 00:15:59;100;0;297.98;-4;-20.59;-0.48;592.2;13.40;75786;2834.768;-1757.254;1;285;-70;-64.5;44.1;44.3;20;19.9;27.4;0.0;
21/02/2025 00:16:19;100;0;295.27;-4;-20.38;-1.62;594.7;13.40;75784;2834.769;-1757.257;1;285;-70;-62.9;44.1;44.3;17;17.1;27.4;0.0;
21/02/2025 00:16:39;100;0;294.23;-4;-20.36;-3.30;597.1;13.40;75777;2834.770;-1757.260;1;285;-70;-62.9;44.1;44.5;17;17.1;27.4;0.0;
21/02/2025 00:16:59;100;0;293.61;-4;-20.22;-3.26;599.6;13.40;75770;2834.771;-1757.263;1;285;-70;-62.9;44.1;44.3;17;17.1;27.4;0.0;
21/02/2025 00:17:19;100;0;293.82;-4;-20.34;-3.29;602.1;13.40;75770;2834.772;-1757.266;1;285;-70;-62.9;44.1;44.3;17;17.1;27.4;0.0;
21/02/2025 00:17:39;100;0;293.15;-4;-20.23;-3.29;604.6;13.30;75769;2834.773;-1757.269;1;285;-70;-61.3;44.1;44.5;17;17.1;27.4;0.0;
21/02/2025 00:17:59;100;0;291.05;-4;-20.29;-3.27;607.1;13.30;75762;2834.774;-1757.273;1;285;-70;-61.3;44.1;44.5;17;17.1;27.4;0.0;
21/02/2025 00:18:19;100;0;289.49;-4;-20.31;-3.22;609.5;13.30;75760;2834.775;-1757.276;1;285;-70;-62.9;44.1;44.3;17;17.1;27.4;0.0;
21/02/2025 00:18:39;100;0;288.82;-4;-20.07;-3.26;612.0;13.30;75759;2834.776;-1757.279;1;285;-70;-62.9;44.1;44.5;17;17.1;27.4;0.0;
21/02/2025 00:18:59;100;0;289.09;-4;-20.47;-3.26;614.5;13.30;75759;2834.777;-1757.282;1;285;-70;-62.9;44.1;44.3;17;16.7;27.4;0.0;
21/02/2025 00:19:19;100;0;290.72;-4;-20.17;-3.16;617.0;13.20;75749;2834.778;-1757.286;1;285;-70;-61.3;44.1;44.5;17;16.7;27.4;0.0;
21/02/2025 00:19:39;100;0;291.66;-4;-20.14;-3.20;619.6;13.20;75749;2834.779;-1757.289;1;285;-70;-61.3;44.1;44.3;17;17.1;27.4;0.0;
21/02/2025 00:19:59;100;0;292.71;-4;-20.18;-3.27;622.1;13.20;75741;2834.780;-1757.292;1;285;-70;-62.9;44.1;44.5;17;17.1;27.4;0.0;
21/02/2025 00:20:19;100;0;295.31;-4;-20.07;-3.25;624.6;13.20;75738;2834.782;-1757.296;1;285;-70;-62.9;44.1;44.3;17;17.1;27.4;0.0;
21/02/2025 00:20:39;100;0;295.10;-4;-20.38;-3.22;627.1;13.20;75727;2834.783;-1757.299;1;285;-70;-62.9;44.1;44.3;17;17.1;27.4;0.0;
21/02/2025 00:20:59;100;0;294.91;-4;-20.68;-3.17;629.6;13.10;75730;2834.784;-1757.302;1;285;-70;-62.9;44.1;44.3;17;17.1;27.4;0.0;
21/02/2025 00:21:19;100;0;296.27;-4;-20.67;-3.30;632.2;13.10;75721;2834.785;-1757.305;1;285;-70;-62.9;44.1;44.3;17;17.1;27.4;0.0;
21/02/2025 00:21:39;100;0;297.84;-4;-20.00;-3.34;634.8;13.10;75713;2834.787;-1757.308;1;285;-70;-62.9;44.1;44.5;20;20.3;27.4;0.0;
21/02/2025 00:21:59;100;0;294.94;-4;-20.37;-0.99;637.3;13.10;75709;2834.788;-1757.311;1;285;-70;-62.9;44.1;44.5;18;18.1;27.4;0.0;
21/02/2025 00:22:19;100;0;291.92;-4;-20.19;-2.76;639.7;13.00;75704;2834.789;-1757.315;1;285;-70;-62.9;44.1;44.3;16;15.3;27.4;0.0;
21/02/2025 00:22:39;100;0;290.31;-4;-20.06;-4.10;642.1;13.00;75699;2834.790;-1757.318;1;285;-70;-62.9;44.1;44.3;16;15.3;27.4;0.0;
21/02/2025 00:22:59;100;0;289.02;-4;-20.09;-4.02;644.6;13.00;75694;2834.791;-1757.321;1;285;-70;-62.9;44.1;44.5;16;15.3;27.4;0.0;
21/02/2025 00:23:19;100;0;286.83;-4;-20.28;-4.05;646.9;13.00;75686;2834.792;-1757.324;1;285;-70;-64.5;44.1;44.5;16;15.3;27.4;0.0;
21/02/2025 00:23:39;100;0;285.79;-4;-20.14;-4.03;649.3;13.00;75694;2834.792;-1757.327;1;285;-70;-62.9;44.1;44.3;16;15.3;27.4;0.0;
21/02/2025 00:23:59;100;0;284.09;-4;-20.17;-4.09;651.7;13.00;75690;2834.793;-1757.331;1;285;-70;-61.3;44.1;44.5;16;15.3;27.4;0.0;
21/02/2025 00:24:19;100;0;282.96;-4;-20.39;-3.97;654.0;12.90;75676;2834.793;-1757.334;1;285;-70;-62.9;44.1;44.3;16;15.3;27.4;0.0;
21/02/2025 00:24:39;100;0;281.22;-4;-20.20;-4.07;656.3;12.90;75676;2834.794;-1757.337;1;285;-70;-62.9;44.1;44.5;16;15.3;27.4;0.0;
21/02/2025 00:24:59;100;0;279.66;-4;-20.26;-4.01;658.6;12.90;75679;2834.794;-1757.340;1;285;-70;-62.9;44.1;44.5;16;15.3;27.4;0.0;
21/02/2025 00:25:19;100;0;277.82;-4;-20.06;-4.00;660.8;12.90;75666;2834.794;-1757.343;1;285;-70;-62.9;44.1;44.5;13;13.1;27.4;0.0;
21/02/2025 00:25:39;100;0;276.59;-4;-19.82;-4.79;663.1;12.90;75664;2834.795;-1757.346;1;285;-70;-62.9;44.1;44.3;13;14.0;27.4;0.0;
21/02/2025 00:25:59;100;0;275.98;-4;-19.58;-4.64;665.3;12.80;75662;2834.795;-1757.349;1;285;-70;-62.9;44.1;44.5;13;13.5;27.4;0.0;
21/02/2025 00:26:19;100;0;273.77;-4;-20.42;-4.84;667.5;12.80;75655;2834.795;-1757.352;1;285;-70;-61.3;44.1;44.5;9;8.6;27.4;0.0;
21/02/2025 00:26:39;100;0;274.15;-4;-19.62;-7.39;669.6;12.80;75659;2834.795;-1757.355;1;285;-70;-62.9;44.1;44.5;9;8.6;27.4;0.0;
21/02/2025 00:26:59;100;0;273.61;-4;-19.75;-7.37;671.7;12.80;75651;2834.795;-1757.358;1;285;-70;-61.3;44.1;44.5;9;8.6;27.4;0.0;
21/02/2025 00:27:19;100;0;273.95;-4;-19.57;-7.39;673.8;12.80;75654;2834.795;-1757.361;1;285;-70;-62.9;44.1;44.5;9;8.6;27.4;0.0;
21/02/2025 00:27:39;100;0;279.52;-4;-19.46;-7.39;675.8;12.70;75640;2834.795;-1757.364;1;285;-70;-61.3;44.1;44.5;14;14.0;27.4;0.0;
21/02/2025 00:27:59;100;0;284.40;-4;-19.71;-4.14;677.8;12.70;75635;2834.796;-1757.367;1;285;-90;-91.9;44.1;44.3;16;16.2;27.4;0.0;
21/02/2025 00:28:19;100;0;285.35;-4;-19.28;-3.21;679.9;12.70;75692;2834.796;-1757.370;1;285;-90;-91.9;44.1;44.5;16;16.7;27.4;0.0;
21/02/2025 00:28:39;100;0;285.89;-4;-19.47;-3.15;682.1;12.70;75694;2834.797;-1757.373;1;285;-90;-95.2;44.1;44.5;16;16.7;27.4;0.0;
21/02/2025 00:28:59;100;0;287.42;-4;-19.49;-3.14;684.3;12.60;75689;2834.798;-1757.376;1;285;-90;-98.4;44.1;44.3;16;16.7;27.4;0.0;
21/02/2025 00:29:19;100;0;286.84;-4;-19.66;-3.15;686.5;12.60;75693;2834.799;-1757.379;1;285;-90;-98.4;44.1;44.5;16;16.7;27.4;0.0;
21/02/2025 00:29:39;100;0;286.14;-4;-19.65;-3.17;688.8;12.60;75694;2834.799;-1757.382;1;285;-90;-98.4;44.1;44.5;16;16.7;27.4;0.0;
21/02/2025 00:29:59;100;0;285.77;-4;-19.64;-3.18;691.1;12.60;75677;2834.800;-1757.385;1;285;-90;-96.8;44.1;44.5;16;16.7;27.4;0.0;
21/02/2025 00:30:19;100;0;285.58;-4;-19.53;-3.17;693.4;12.60;75682;2834.801;-1757.388;1;285;-90;-98.4;44.1;44.5;16;16.7;27.4;0.0;
21/02/2025 00:30:39;100;0;286.24;-4;-19.43;-3.07;695.6;12.60;75682;2834.801;-1757.391;1;285;-90;-98.4;44.1;44.6;16;16.7;27.4;0.0;
21/02/2025 00:30:59;100;0;285.96;-4;-19.63;-3.19;698.0;12.60;75677;2834.802;-1757.394;1;285;-90;-98.4;44.1;44.5;16;17.1;27.4;0.0;
21/02/2025 00:31:19;100;0;286.25;-4;-19.68;-3.17;700.3;12.50;75676;2834.803;-1757.397;1;285;-90;-100.0;44.1;44.5;16;16.7;27.4;0.0;
21/02/2025 00:31:39;100;0;286.15;-4;-19.66;-3.14;702.7;12.50;75669;2834.803;-1757.401;1;285;-90;-98.4;44.1;44.5;16;16.7;27.4;0.0;
21/02/2025 00:31:59;100;0;285.56;-4;-19.71;-3.13;705.1;12.50;75665;2834.804;-1757.404;1;285;-90;-96.8;44.1;44.5;16;16.7;27.4;0.0;
21/02/2025 00:32:19;100;0;286.22;-4;-19.64;-3.08;707.5;12.50;75671;2834.805;-1757.407;1;285;-90;-98.4;44.1;44.5;16;17.1;27.4;0.0;
21/02/2025 00:32:39;100;0;285.30;-4;-19.73;-3.19;709.8;12.40;75652;2834.805;-1757.410;1;285;-90;-98.4;44.1;44.5;16;16.7;27.4;0.0;
21/02/2025 00:32:59;100;0;284.70;-4;-19.55;-3.14;712.2;12.40;75662;2834.806;-1757.414;1;285;-90;-98.4;44.1;44.3;16;16.7;27.4;0.0;
21/02/2025 00:33:19;100;0;284.28;-4;-19.56;-3.08;714.5;12.40;75649;2834.807;-1757.417;1;285;-90;-100.0;44.1;44.3;16;17.1;27.4;0.0;
21/02/2025 00:33:39;100;0;282.29;-4;-19.54;-3.11;716.9;12.40;75631;2834.807;-1757.420;1;286;-90;-98.4;44.1;44.5;16;16.7;27.4;0.0;
21/02/2025 00:33:59;100;0;283.63;-4;-19.45;-3.07;719.2;12.30;75630;2834.808;-1757.423;1;286;-90;-98.4;44.1;44.5;16;17.1;27.4;0.0;
21/02/2025 00:34:19;100;0;283.97;-4;-19.61;-3.10;721.5;12.30;75625;2834.808;-1757.426;1;286;-90;-98.4;44.1;44.5;16;16.7;27.4;0.0;
21/02/2025 00:34:39;100;0;281.31;-4;-19.65;-3.17;723.8;12.30;75604;2834.809;-1757.430;1;286;-90;-98.4;44.1;44.5;14;14.0;27.4;0.0;
21/02/2025 00:34:59;100;0;280.37;-4;-19.42;-4.76;726.2;12.30;75602;2834.809;-1757.433;1;286;-90;-98.4;44.1;44.5;14;14.0;27.4;0.0;
21/02/2025 00:35:19;100;0;280.38;-4;-19.37;-4.69;728.6;12.30;75592;2834.810;-1757.436;1;286;-90;-98.4;44.1;44.5;14;13.5;27.4;0.0;
21/02/2025 00:35:39;100;0;280.05;-4;-19.32;-4.80;730.9;12.20;75587;2834.810;-1757.440;1;286;-90;-98.4;44.1;44.5;14;13.5;27.4;0.0;
21/02/2025 00:35:59;100;0;279.65;-4;-19.23;-4.82;733.3;12.20;75590;2834.811;-1757.443;1;286;-90;-98.4;44.1;44.5;14;14.0;27.4;0.0;
21/02/2025 00:36:19;100;0;280.36;-4;-19.25;-4.81;735.6;12.20;75582;2834.811;-1757.447;1;286;-90;-98.4;44.1;44.5;14;13.5;27.4;0.0;
21/02/2025 00:36:39;100;0;282.27;-4;-18.81;-4.83;738.0;12.20;75575;2834.811;-1757.450;1;286;-90;-98.4;44.4;44.5;14;13.5;27.4;0.0;
21/02/2025 00:36:59;100;0;283.74;-4;-19.29;-4.88;740.4;12.20;75575;2834.812;-1757.453;1;286;-90;-98.4;44.4;44.3;14;14.0;27.4;0.0;
21/02/2025 00:37:19;100;0;283.95;-4;-19.02;-4.76;742.7;12.10;75571;2834.813;-1757.457;1;286;-90;-98.4;44.4;44.5;14;14.0;27.4;0.0;
21/02/2025 00:37:39;100;0;287.87;-4;-19.15;-4.77;745.1;12.10;75556;2834.814;-1757.460;1;286;-90;-98.4;44.4;44.5;14;13.5;27.4;0.0;
21/02/2025 00:38:00;100;0;289.20;-4;-19.26;-4.83;747.3;12.10;75546;2834.814;-1757.463;1;286;-90;-98.4;44.4;44.3;14;13.5;27.4;0.0;
21/02/2025 00:38:20;100;0;290.59;-4;-18.77;-4.78;749.7;12.10;75547;2834.815;-1757.466;1;286;-90;-98.4;44.8;44.8;14;13.5;27.4;0.0;
21/02/2025 00:38:40;100;0;291.19;-4;-20.35;-4.82;752.1;12.00;75537;2834.816;-1757.469;1;286;-90;-100.0;44.8;44.9;14;13.5;27.4;0.0;
21/02/2025 00:39:00;100;0;293.04;-4;-20.20;-4.74;754.5;12.00;75537;2834.817;-1757.472;1;286;-90;-98.4;44.8;44.9;16;15.8;27.4;0.0;
21/02/2025 00:39:20;100;0;293.65;-4;-20.61;-3.45;757.0;12.00;75528;2834.819;-1757.476;1;286;-90;-98.4;44.8;44.9;16;15.8;27.4;0.0;
21/02/2025 00:39:40;100;0;294.58;-4;-20.44;-3.47;759.6;12.00;75523;2834.820;-1757.479;1;286;-90;-100.0;44.8;45.1;16;16.2;27.4;0.0;
21/02/2025 00:40:00;100;0;294.91;-4;-20.77;-3.49;762.1;11.90;75525;2834.821;-1757.482;1;286;-90;-98.4;44.8;44.9;16;16.2;27.4;0.0;
21/02/2025 00:40:20;100;0;294.43;-4;-20.27;-3.60;764.7;11.90;75509;2834.822;-1757.485;1;286;-90;-98.4;44.8;44.9;16;16.2;27.4;0.0;
21/02/2025 00:40:40;100;0;293.01;-4;-20.17;-3.49;767.2;11.90;75515;2834.823;-1757.489;1;286;-90;-98.4;44.8;45.1;16;16.2;27.4;0.0;
21/02/2025 00:41:00;100;0;292.74;-4;-21.09;-3.51;769.7;11.90;75508;2834.824;-1757.492;1;286;-90;-100.0;44.8;44.9;16;16.2;27.4;0.0;
21/02/2025 00:41:20;100;0;292.87;-4;-20.61;-3.53;772.3;11.90;75502;2834.825;-1757.495;1;286;-90;-98.4;44.8;44.9;16;16.2;27.4;0.0;
21/02/2025 00:41:40;100;0;290.68;-4;-20.71;-3.48;774.9;11.80;75498;2834.826;-1757.498;1;285;-90;-100.0;44.8;44.9;16;16.2;27.4;0.0;
21/02/2025 00:42:00;100;0;290.09;-4;-20.58;-3.46;777.4;11.80;75496;2834.827;-1757.501;1;285;-90;-98.4;44.8;44.9;16;16.2;27.4;0.0;
21/02/2025 00:42:20;100;0;287.85;-4;-20.67;-3.42;779.9;11.80;75493;2834.828;-1757.505;1;285;-90;-98.4;44.8;45.1;16;16.2;27.4;0.0;
21/02/2025 00:42:40;100;0;283.68;-4;-20.58;-3.46;782.5;11.80;75482;2834.829;-1757.508;1;285;-90;-98.4;44.8;44.9;16;16.2;27.4;0.0;
21/02/2025 00:43:00;100;0;282.43;-4;-20.55;-3.47;785.1;11.80;75472;2834.829;-1757.511;1;286;-90;-98.4;44.8;45.1;16;15.8;27.4;0.0;
21/02/2025 00:43:20;100;0;282.54;-4;-20.47;-3.47;787.7;11.70;75470;2834.830;-1757.515;1;286;-90;-98.4;44.8;45.1;16;16.2;27.4;0.0;
21/02/2025 00:43:40;100;0;282.49;-4;-20.39;-3.52;790.2;11.70;75463;2834.831;-1757.519;1;286;-90;-98.4;44.8;44.9;16;16.2;27.4;0.0;
21/02/2025 00:44:00;100;0;282.81;-4;-20.22;-3.54;792.8;11.70;75462;2834.831;-1757.522;1;286;-90;-100.0;44.8;44.9;16;15.8;27.4;0.0;
21/02/2025 00:44:20;100;0;281.75;-4;-20.09;-3.55;795.4;11.70;75460;2834.832;-1757.526;1;286;-90;-100.0;44.8;44.9;16;15.8;27.4;0.0;
21/02/2025 00:44:40;100;0;279.32;-4;-20.27;-3.62;798.0;11.60;75447;2834.832;-1757.529;1;286;-90;-98.4;44.8;45.1;13;13.1;27.4;0.0;
21/02/2025 00:45:00;100;0;279.10;-4;-20.19;-5.17;800.6;11.60;75443;2834.833;-1757.533;1;286;-90;-98.4;44.8;44.9;13;12.6;27.4;0.0;
21/02/2025 00:45:20;100;0;278.80;-4;-20.18;-5.13;803.3;11.60;75443;2834.833;-1757.537;1;286;-90;-98.4;44.8;44.9;13;12.6;27.4;0.0;
21/02/2025 00:45:40;100;0;280.31;-4;-20.14;-5.08;806.0;11.60;75426;2834.833;-1757.540;1;286;-90;-96.8;44.8;44.9;13;12.6;27.4;0.0;
21/02/2025 00:46:00;100;0;281.23;-4;-20.39;-5.11;808.8;11.60;75424;2834.834;-1757.544;1;286;-90;-98.4;44.8;44.9;13;13.1;27.4;0.0;
21/02/2025 00:46:20;100;0;280.61;-4;-20.16;-5.12;811.6;11.50;75425;2834.835;-1757.548;1;286;-90;-100.0;44.8;45.1;13;13.1;27.4;0.0;
21/02/2025 00:46:40;100;0;281.67;-4;-20.24;-5.09;814.4;11.50;75414;2834.835;-1757.552;1;286;-90;-100.0;44.8;45.1;13;12.6;27.4;0.0;
21/02/2025 00:47:00;100;0;281.60;-4;-20.35;-5.10;817.3;11.50;75416;2834.836;-1757.556;1;286;-90;-100.0;44.8;44.9;13;12.6;27.4;0.0;
21/02/2025 00:47:20;100;0;281.83;-4;-20.52;-5.17;820.2;11.50;75405;2834.836;-1757.560;1;286;-90;-100.0;44.8;45.1;13;12.6;27.4;0.0;
21/02/2025 00:47:40;100;0;279.12;-4;-19.33;-5.18;823.1;11.40;75402;2834.837;-1757.564;1;286;-90;-100.0;44.8;45.1;13;13.1;27.4;0.0;
21/02/2025 00:48:00;100;0;278.26;-4;-19.66;-5.25;825.7;11.40;75399;2834.837;-1757.568;1;286;-90;-98.4;44.8;44.9;13;13.1;27.4;0.0;
21/02/2025 00:48:20;100;0;279.73;-4;-20.56;-5.02;828.6;11.40;75391;2834.838;-1757.572;1;286;-90;-98.4;44.8;45.1;13;13.1;27.4;0.0;
21/02/2025 00:48:40;100;0;280.54;-4;-20.35;-5.11;831.6;11.40;75387;2834.838;-1757.576;1;286;-90;-101.6;44.8;45.1;13;13.1;27.4;0.0;
21/02/2025 00:49:00;100;0;281.56;-4;-20.43;-5.14;834.8;11.30;75376;2834.839;-1757.580;1;286;-90;-100.0;44.8;45.1;13;13.1;27.4;0.0;
21/02/2025 00:49:20;100;0;279.05;-4;-20.24;-5.12;838.0;11.30;75375;2834.839;-1757.585;1;286;-90;-98.4;44.8;44.9;13;13.1;27.4;0.0;
21/02/2025 00:49:40;100;0;279.05;-4;-20.15;-5.13;841.4;11.30;75372;2834.840;-1757.589;1;286;-90;-98.4;44.8;44.9;13;12.6;27.4;0.0;
21/02/2025 00:50:00;100;0;279.36;-4;-19.83;-5.12;844.5;11.30;75369;2834.840;-1757.594;1;286;-90;-100.0;44.8;44.9;13;13.1;27.4;0.0;
21/02/2025 00:50:20;100;0;279.94;-4;-19.94;-5.12;847.8;11.30;75362;2834.841;-1757.599;1;286;-90;-98.4;44.8;44.9;13;12.6;27.4;0.0;
21/02/2025 00:50:40;100;0;281.77;-4;-20.08;-5.08;851.0;11.20;75351;2834.842;-1757.603;1;286;-90;-98.4;44.8;44.9;13;13.1;27.4;0.0;
21/02/2025 00:51:00;100;0;280.94;-4;-20.24;-5.27;854.3;11.20;75366;2834.842;-1757.607;1;286;-90;-98.4;44.8;44.9;13;12.6;27.4;0.0;
21/02/2025 00:51:20;100;0;281.71;-4;-19.84;-5.01;857.6;11.20;75354;2834.843;-1757.612;1;286;-90;-100.0;44.8;44.9;13;13.1;27.4;0.0;
21/02/2025 00:51:40;100;0;282.45;-4;-19.97;-5.12;860.7;11.20;75343;2834.844;-1757.616;1;286;-90;-98.4;44.8;44.9;13;12.6;27.4;0.0;
21/02/2025 00:52:00;100;0;284.00;-4;-20.07;-5.17;863.9;11.20;75350;2834.845;-1757.621;1;286;-90;-98.4;44.8;44.9;15;14.9;27.4;0.0;
21/02/2025 00:52:20;100;0;283.67;-4;-20.06;-4.00;867.0;11.10;75341;2834.846;-1757.625;1;286;-90;-98.4;44.8;44.9;15;14.9;27.4;0.0;
21/02/2025 00:52:40;100;0;285.03;-4;-19.90;-4.05;870.2;11.10;75335;2834.846;-1757.629;1;286;-90;-98.4;44.8;44.9;15;15.3;27.4;0.0;
21/02/2025 00:53:00;100;0;286.79;-4;-19.63;-4.11;873.3;11.10;75334;2834.847;-1757.634;1;286;-90;-98.4;44.8;45.1;15;15.3;27.4;0.0;
21/02/2025 00:53:20;100;0;287.53;-4;-19.93;-4.12;876.2;11.10;75321;2834.848;-1757.638;1;286;-90;-98.4;44.8;45.1;15;15.3;27.4;0.0;
21/02/2025 00:53:40;100;0;287.82;-4;-20.07;-4.08;879.2;11.00;75317;2834.850;-1757.642;1;286;-90;-100.0;44.8;45.1;15;14.9;27.4;0.0;
21/02/2025 00:54:00;100;0;287.58;-4;-19.73;-4.05;882.2;11.00;75323;2834.851;-1757.646;1;286;-90;-96.8;44.8;44.9;15;15.3;27.4;0.0;
21/02/2025 00:54:20;100;0;287.60;-4;-19.77;-4.03;885.2;11.00;75313;2834.852;-1757.650;1;286;-90;-98.4;44.8;44.9;15;15.3;27.4;0.0;
21/02/2025 00:54:40;100;0;286.96;-4;-19.86;-3.94;888.1;11.00;75311;2834.853;-1757.654;1;286;-90;-98.4;44.8;45.1;15;14.9;27.4;0.0;
21/02/2025 00:55:00;100;0;286.48;-4;-19.52;-3.99;891.0;11.00;75304;2834.853;-1757.658;1;286;-90;-98.4;44.8;44.9;15;15.3;27.4;0.0;
21/02/2025 00:55:20;100;0;286.13;-4;-19.83;-4.04;893.9;11.00;75307;2834.854;-1757.661;1;286;-90;-98.4;44.8;44.9;15;15.3;27.4;0.0;
21/02/2025 00:55:40;100;0;285.09;-4;-20.36;-3.91;896.8;10.90;75303;2834.855;-1757.665;1;286;-90;-100.0;44.8;44.9;15;15.3;27.4;0.0;
21/02/2025 00:56:00;100;0;285.42;-4;-20.36;-3.94;899.8;10.90;75292;2834.856;-1757.670;1;286;-90;-98.4;44.8;45.1;15;14.9;27.4;0.0;
21/02/2025 00:56:20;100;0;285.18;-4;-20.29;-3.98;902.9;10.90;75292;2834.857;-1757.674;1;286;-90;-98.4;44.8;44.9;15;15.3;27.4;0.0;
21/02/2025 00:56:40;100;0;284.69;-4;-20.76;-3.95;906.0;10.90;75285;2834.858;-1757.678;1;286;-90;-98.4;44.8;45.1;15;14.9;27.4;0.0;
21/02/2025 00:57:00;100;0;283.78;-4;-20.04;-3.91;909.4;10.90;75288;2834.859;-1757.683;1;286;-90;-98.4;44.8;44.9;15;15.3;27.4;0.0;
21/02/2025 00:57:20;100;0;283.21;-4;-20.10;-3.96;912.5;10.80;75273;2834.859;-1757.687;1;286;-90;-100.0;44.8;45.1;15;15.3;27.4;0.0;
21/02/2025 00:57:40;100;0;283.16;-4;-19.88;-3.96;915.6;10.80;75266;2834.860;-1757.691;1;286;-90;-98.4;44.8;45.1;15;15.3;27.4;0.0;
21/02/2025 00:58:00;100;0;283.05;-4;-19.70;-3.98;918.9;10.80;75269;2834.861;-1757.696;1;286;-90;-101.6;44.8;44.9;15;15.3;27.4;0.0;
21/02/2025 00:58:20;100;0;284.02;-4;-19.69;-3.94;921.9;10.80;75267;2834.862;-1757.700;1;286;-90;-98.4;44.8;45.1;15;14.9;27.4;0.0;
21/02/2025 00:58:40;100;0;283.12;-4;-19.43;-4.09;924.9;10.80;75268;2834.863;-1757.704;1;286;-90;-98.4;44.8;44.9;15;14.9;27.4;0.0;
21/02/2025 00:59:00;100;0;283.12;-4;-19.53;-4.06;927.8;10.70;75266;2834.863;-1757.708;1;286;-90;-98.4;44.8;45.1;15;15.3;27.4;0.0;
21/02/2025 00:59:20;100;0;283.65;-4;-19.62;-4.09;930.6;10.70;75252;2834.864;-1757.712;1;286;-90;-98.4;44.8;44.9;15;15.3;27.4;0.0;
21/02/2025 00:59:40;100;0;284.03;-4;-19.60;-4.08;933.3;10.70;75256;2834.865;-1757.716;1;286;-90;-98.4;44.8;45.1;15;15.3;27.4;0.0;
21/02/2025 01:00:00;100;0;284.65;-4;-19.40;-4.03;936.1;10.70;75247;2834.866;-1757.720;1;286;-90;-98.4;44.8;45.1;15;15.3;27.4;0.0;
21/02/2025 01:00:20;100;0;284.94;-4;-19.36;-4.05;938.8;10.70;75257;2834.866;-1757.723;1;286;-90;-98.4;44.8;44.9;15;14.9;27.4;0.0;
21/02/2025 01:00:40;100;0;287.26;-4;-19.39;-4.00;941.4;10.60;75248;2834.867;-1757.727;1;286;-90;-98.4;44.8;44.9;15;14.9;27.4;0.0;
21/02/2025 01:01:00;100;0;287.52;-4;-19.74;-3.93;943.9;10.60;75240;2834.868;-1757.730;1;286;-90;-98.4;44.8;45.1;15;14.9;27.4;0.0;
21/02/2025 01:01:20;100;0;287.60;-4;-19.66;-3.98;946.4;10.60;75238;2834.869;-1757.734;1;286;-90;-98.4;44.8;45.1;15;15.3;27.4;0.0;
21/02/2025 01:01:40;100;0;288.68;-4;-19.69;-3.96;949.0;10.60;75239;2834.870;-1757.737;1;286;-90;-100.0;44.8;45.1;15;15.3;27.4;0.0;
21/02/2025 01:02:00;100;0;288.94;-4;-19.78;-4.00;951.5;10.60;75235;2834.871;-1757.741;1;286;-90;-98.4;44.8;44.9;15;15.3;27.4;0.0;
21/02/2025 01:02:20;100;0;290.12;-4;-19.81;-3.98;953.9;10.60;75240;2834.872;-1757.744;1;286;-90;-100.0;44.8;45.1;15;15.3;27.4;0.0;
21/02/2025 01:02:40;100;0;288.66;-4;-19.83;-3.97;956.4;10.50;75229;2834.873;-1757.747;1;286;-90;-98.4;44.8;45.1;15;15.3;27.4;0.0;
21/02/2025 01:03:00;100;0;288.05;-4;-19.82;-3.98;958.9;10.50;75239;2834.873;-1757.750;1;286;-90;-98.4;44.8;45.1;15;15.3;27.4;0.0;
21/02/2025 01:03:20;100;0;284.10;-4;-19.94;-4.06;961.5;10.50;75226;2834.874;-1757.754;1;286;-90;-98.4;44.8;44.9;15;15.3;27.4;0.0;
21/02/2025 01:03:40;100;0;282.96;-4;-19.53;-4.07;964.2;10.50;75218;2834.875;-1757.758;1;286;-90;-100.0;44.8;45.1;15;15.3;27.4;0.0;
21/02/2025 01:04:00;100;0;283.70;-4;-19.87;-4.00;966.8;10.50;75226;2834.875;-1757.761;1;286;-90;-96.8;44.8;45.1;15;14.9;27.4;0.0;
21/02/2025 01:04:20;100;0;284.71;-4;-19.54;-4.04;969.5;10.40;75211;2834.876;-1757.765;1;286;-90;-98.4;44.8;44.9;15;15.3;27.4;0.0;
21/02/2025 01:04:40;100;0;286.24;-4;-20.37;-3.98;972.3;10.40;75214;2834.877;-1757.769;1;286;-90;-98.4;44.8;45.1;15;15.3;27.4;0.0;
21/02/2025 01:05:00;100;0;292.00;-4;-19.09;-4.06;975.0;10.40;75217;2834.878;-1757.772;1;286;-90;-98.4;44.8;44.9;15;15.3;27.4;0.0;
21/02/2025 01:05:20;100;0;292.78;-4;-20.20;-4.00;977.8;10.40;75206;2834.880;-1757.776;1;286;-90;-100.0;44.8;45.1;15;15.3;27.4;0.0;
21/02/2025 01:05:40;100;0;294.56;-4;-18.60;-3.96;980.7;10.40;75212;2834.881;-1757.780;1;286;-90;-98.4;45.2;45.4;15;15.3;27.4;0.0;
21/02/2025 01:06:00;100;0;295.90;-4;-20.30;-3.76;983.4;10.40;75202;2834.882;-1757.783;1;286;-90;-98.4;45.2;45.5;15;15.3;27.4;0.0;
21/02/2025 01:06:20;100;0;295.01;-4;-20.70;-4.01;986.2;10.30;75192;2834.884;-1757.787;1;286;-90;-100.0;45.2;45.5;15;15.3;27.4;0.0;
21/02/2025 01:06:40;100;0;296.13;-4;-20.01;-4.05;989.1;10.30;75190;2834.885;-1757.790;1;286;-90;-98.4;45.2;45.5;15;15.3;27.4;0.0;
21/02/2025 01:07:00;100;0;297.13;-4;-20.97;-3.99;991.7;10.30;75188;2834.887;-1757.794;1;286;-90;-96.8;45.2;45.7;17;17.6;27.4;0.0;
21/02/2025 01:07:20;100;0;296.77;-4;-21.44;-2.56;994.6;10.30;75185;2834.888;-1757.797;1;286;-90;-98.4;45.2;45.7;17;18.1;27.4;0.0;
21/02/2025 01:07:40;100;0;293.96;-4;-21.24;-2.59;997.5;10.30;75181;2834.889;-1757.801;1;286;-90;-100.0;45.2;45.7;15;14.9;27.4;0.0;
21/02/2025 01:07:50;118;0;293.83;-4;-20.99;-4.40;998.9;10.30;75187;2834.890;-1757.802;1;286;270;-96.8;27.1;27.1;8;8.1;27.4;0.0;
21/02/2025 01:08:00;118;0;49.60;-4;-8.53;-8.32;1000.1;10.30;75167;2834.891;-1757.801;1;286;270;29.0;27.1;26.8;8;8.1;25.9;-1.0;
21/02/2025 01:08:10;118;0;48.51;-4;11.98;-8.05;1000.5;10.30;74904;2834.892;-1757.800;1;286;270;154.8;27.1;26.5;8;8.1;26.1;-1.0;
21/02/2025 01:08:20;118;0;45.06;-4;18.80;-8.64;1000.0;10.30;74651;2834.892;-1757.799;1;286;270;272.6;27.1;27.1;8;8.1;26.0;-1.0;
21/02/2025 01:08:30;118;0;298.36;-4;17.69;-7.41;999.3;10.30;74426;2834.892;-1757.800;1;286;270;272.6;27.1;27.2;8;8.1;27.3;-1.0;
21/02/2025 01:08:40;118;0;294.88;-4;16.09;-8.20;998.5;10.30;74429;2834.893;-1757.802;1;286;270;272.6;27.1;27.2;8;8.1;27.4;-1.0;
21/02/2025 01:09:00;117;0;288.60;-4;15.01;-7.92;997.0;10.30;74433;2834.893;-1757.804;1;286;270;271.0;27.1;27.2;8;8.1;27.4;-1.0;
21/02/2025 01:09:20;117;0;282.04;-4;15.24;-7.88;995.5;10.30;74431;2834.894;-1757.806;1;286;270;271.0;25.7;25.5;31;31.1;27.4;-1.0;
21/02/2025 01:09:40;117;0;283.37;-4;20.06;4.21;993.7;10.30;74429;2834.894;-1757.809;1;286;270;272.6;25.7;25.0;31;31.6;27.4;-1.0;
21/02/2025 01:10:00;117;0;284.95;-4;21.82;4.30;991.7;10.30;74433;2834.895;-1757.811;1;286;270;271.0;25.7;24.9;31;31.1;27.4;-1.0;
21/02/2025 01:10:20;117;0;284.10;-4;21.90;4.28;989.3;10.30;74423;2834.895;-1757.814;1;286;270;272.6;25.7;24.9;31;31.6;27.4;-1.0;
21/02/2025 01:10:40;117;0;285.28;-4;21.86;4.24;987.1;10.30;74413;2834.896;-1757.817;1;286;270;271.0;25.7;25.0;31;31.6;27.4;-1.0;
21/02/2025 01:11:00;117;0;283.23;-4;21.68;4.01;984.8;10.30;74422;2834.896;-1757.820;1;286;270;271.0;25.7;24.9;31;31.6;27.4;-1.0;
21/02/2025 01:11:20;117;0;283.64;-4;21.61;4.42;982.5;10.30;74422;2834.897;-1757.823;1;286;270;272.6;25.7;25.0;31;31.1;27.4;-1.0;
21/02/2025 01:11:40;117;0;283.26;-4;21.86;4.31;980.3;10.30;74419;2834.897;-1757.825;1;286;270;272.6;25.7;25.0;31;31.1;27.4;-1.0;
21/02/2025 01:12:00;117;0;284.94;-4;21.80;4.13;977.9;10.30;74415;2834.898;-1757.828;1;286;270;271.0;25.7;25.0;31;31.1;27.4;-1.0;
21/02/2025 01:12:20;117;0;285.89;-4;21.64;4.25;975.7;10.30;74418;2834.898;-1757.831;1;286;270;274.2;25.7;24.9;31;31.6;27.4;-1.0;
21/02/2025 01:12:41;117;0;286.90;-4;21.71;4.27;973.5;10.20;74409;2834.899;-1757.834;1;286;270;271.0;25.7;25.0;31;31.6;27.4;-1.0;
21/02/2025 01:13:01;117;0;287.27;-4;21.87;4.19;971.4;10.20;74412;2834.900;-1757.837;1;286;270;272.6;25.7;25.0;31;31.1;27.4;-1.0;
21/02/2025 01:13:21;117;0;288.56;-4;21.45;4.43;969.2;10.20;74399;2834.900;-1757.839;1;286;270;271.0;25.7;24.9;31;31.1;27.4;-1.0;
21/02/2025 01:13:41;117;0;289.23;-4;21.70;4.13;966.9;10.20;74400;2834.901;-1757.842;1;286;270;272.6;25.7;24.9;31;31.6;27.4;-1.0;
21/02/2025 01:14:01;117;0;293.24;-4;21.55;4.56;964.6;10.20;74398;2834.902;-1757.845;1;286;270;272.6;25.7;25.0;31;31.1;27.4;-1.0;
21/02/2025 01:14:21;117;0;294.60;-4;22.13;4.86;962.3;10.20;74403;2834.903;-1757.848;1;286;270;271.0;26.3;26.4;29;28.9;27.4;-1.0;
21/02/2025 01:14:41;117;0;295.86;-4;19.74;2.77;960.0;10.20;74404;2834.904;-1757.851;1;286;270;272.6;26.3;26.7;29;28.4;27.4;-1.0;
21/02/2025 01:15:01;117;0;296.01;-4;18.95;2.93;957.9;10.10;74389;2834.905;-1757.853;1;286;270;272.6;26.0;25.9;29;28.9;27.4;-1.0;
21/02/2025 01:15:21;117;0;295.78;-4;20.58;2.94;955.8;10.10;74395;2834.906;-1757.856;1;286;270;272.6;26.0;25.5;29;28.9;27.4;-1.0;
21/02/2025 01:15:41;117;0;295.91;-4;20.96;2.88;953.6;10.10;74380;2834.907;-1757.858;1;286;270;272.6;26.0;25.3;29;28.9;27.4;-1.0;
21/02/2025 01:16:01;117;0;296.17;-4;21.11;2.81;951.2;10.10;74385;2834.909;-1757.861;1;286;270;272.6;26.0;25.3;29;28.9;27.4;-1.0;
21/02/2025 01:16:21;117;0;296.38;-4;21.29;2.86;948.8;10.10;74378;2834.910;-1757.864;1;286;270;271.0;26.0;25.3;29;28.9;27.4;-1.0;
21/02/2025 01:16:41;117;0;296.90;-4;20.81;2.91;946.4;10.10;74376;2834.911;-1757.867;1;286;270;271.0;26.0;25.3;29;28.4;27.4;-1.0;
21/02/2025 01:17:01;117;0;296.34;-4;20.73;2.85;944.0;10.00;74361;2834.912;-1757.870;1;286;270;272.6;26.0;25.3;29;28.9;27.4;-1.0;
21/02/2025 01:17:21;117;0;296.92;-4;20.96;2.85;941.5;10.00;74372;2834.913;-1757.873;1;286;270;272.6;26.0;25.9;27;26.6;27.4;-1.0;
21/02/2025 01:17:41;117;0;296.28;-4;20.58;1.87;939.1;10.00;74369;2834.915;-1757.876;1;286;270;271.0;26.0;26.1;27;26.6;27.4;-1.0;
21/02/2025 01:18:01;117;0;295.88;-4;20.57;1.74;936.7;10.00;74376;2834.916;-1757.879;1;286;270;272.6;26.0;26.1;27;26.6;27.4;-1.0;
21/02/2025 01:18:21;117;0;296.49;-4;20.20;1.75;934.0;10.00;74367;2834.917;-1757.882;1;286;270;271.0;26.0;26.1;27;26.6;27.4;-1.0;
21/02/2025 01:18:41;117;0;297.22;-4;19.78;1.95;931.6;10.00;74361;2834.918;-1757.885;1;286;270;272.6;26.0;26.1;27;26.6;27.4;-1.0;
21/02/2025 01:19:01;117;0;297.04;-4;19.32;1.53;929.2;10.00;74358;2834.920;-1757.888;1;286;270;274.2;26.0;26.1;27;26.6;27.4;-1.0;
21/02/2025 01:19:21;117;0;296.52;-4;19.99;1.76;926.8;10.00;74366;2834.921;-1757.891;1;286;270;271.0;26.0;26.1;27;26.6;27.4;-1.0;
21/02/2025 01:19:41;117;0;295.60;-4;19.26;1.80;924.7;10.00;74361;2834.922;-1757.894;1;286;270;271.0;26.0;26.1;27;26.2;27.4;-1.0;
21/02/2025 01:20:01;117;0;295.30;-4;19.69;1.75;922.6;10.00;74348;2834.923;-1757.897;1;286;270;271.0;26.0;26.1;27;26.6;27.4;-1.0;
21/02/2025 01:20:21;117;0;295.47;-4;20.24;1.90;920.6;10.00;74348;2834.924;-1757.899;1;285;270;272.6;26.0;26.1;27;26.6;27.4;-1.0;
21/02/2025 01:20:41;117;0;295.72;-4;20.33;1.75;918.4;9.90;74349;2834.925;-1757.902;1;285;270;272.6;26.0;26.1;27;26.6;27.4;-1.0;
21/02/2025 01:21:01;117;0;295.47;-4;19.91;1.90;916.3;9.90;74347;2834.926;-1757.905;1;285;270;271.0;26.0;26.1;27;26.6;27.4;-1.0;
21/02/2025 01:21:21;117;0;296.11;-4;20.14;1.80;914.1;9.90;74352;2834.927;-1757.907;1;285;270;272.6;26.0;26.1;27;26.6;27.4;-1.0;
21/02/2025 01:21:41;117;0;295.75;-4;19.84;1.82;912.0;9.90;74341;2834.928;-1757.910;1;285;270;272.6;26.0;26.1;27;26.6;27.4;-1.0;
21/02/2025 01:22:01;117;0;295.23;-4;19.80;1.83;909.9;9.90;74345;2834.929;-1757.913;1;285;270;272.6;26.0;26.1;27;26.6;27.4;-1.0;
21/02/2025 01:22:21;117;0;294.38;-4;19.92;1.81;907.8;9.90;74326;2834.930;-1757.915;1;285;270;271.0;26.0;25.9;27;26.6;27.4;-1.0;
21/02/2025 01:22:41;117;0;294.00;-4;19.73;1.85;905.8;9.90;74332;2834.931;-1757.918;1;285;270;272.6;26.0;26.1;27;26.6;27.4;-1.0;
21/02/2025 01:23:01;117;0;292.73;-4;19.91;1.84;903.7;9.90;74332;2834.932;-1757.920;1;285;270;272.6;26.0;26.1;27;26.6;27.4;-1.0;
21/02/2025 01:23:21;117;0;292.53;-4;20.05;1.85;901.7;9.90;74336;2834.933;-1757.923;1;285;270;271.0;26.0;26.1;29;28.9;27.4;-1.0;
21/02/2025 01:23:41;117;0;292.04;-4;19.97;3.12;899.6;9.90;74334;2834.934;-1757.926;1;285;270;272.6;26.0;26.1;29;29.3;27.4;-1.0;
21/02/2025 01:24:01;117;0;292.51;-4;20.04;3.24;897.5;9.90;74329;2834.935;-1757.929;1;285;270;272.6;26.0;26.1;29;29.3;27.4;-1.0;
21/02/2025 01:24:21;117;0;293.51;-4;20.21;3.18;895.4;9.90;74329;2834.936;-1757.931;1;285;270;271.0;26.0;26.1;29;29.3;27.4;-1.0;
21/02/2025 01:24:41;117;0;295.29;-4;20.38;3.20;893.2;9.90;74332;2834.937;-1757.934;1;285;270;272.6;26.0;26.2;27;27.1;27.4;-1.0;
21/02/2025 01:25:01;117;0;297.24;-4;20.32;2.04;891.1;9.90;74335;2834.938;-1757.937;1;285;270;272.6;26.0;25.9;27;27.1;27.4;-1.0;
21/02/2025 01:25:21;117;0;297.22;-4;19.78;2.05;888.8;9.80;74314;2834.939;-1757.939;1;285;270;272.6;26.0;26.1;27;27.1;27.4;-1.0;
