Timestamp;NavState;SecurityLevel;Heading;Declination;Pitch;Roll;Depth;Temperature;Pa;Lat;Lon;DeadReckoning;DesiredH;BallastCmd;BallastPos;LinCmd;LinPos;AngCmd;AngPos;Voltage;Altitude;
26/02/2025 05:18:10;119;0;116.98;-4;-49.71;-9.41;-0.2;17.10;75638;2833.626;-1757.312;0;137;500;508.1;100.0;100.6;0;-0.5;26.1;-1.0;
26/02/2025 05:18:19;116;0;114.95;-4;-57.10;-15.99;-0.1;17.10;75637;2833.633;-1757.333;0;137;500;506.5;100.0;100.6;0;-0.5;26.1;-1.0;
26/02/2025 05:18:44;116;0;77.96;-4;-59.43;-15.53;-0.2;17.20;75647;2833.641;-1757.330;0;137;500;506.5;100.0;100.6;0;-0.5;26.1;-1.0;
26/02/2025 05:19:12;116;0;37.24;-4;-51.46;-11.76;-0.0;17.30;75661;2833.641;-1757.330;0;317;500;506.5;100.0;100.6;0;-0.5;26.1;-1.0;
26/02/2025 05:19:33;116;0;47.97;-4;-57.57;-11.09;-0.1;17.40;75650;2833.645;-1757.331;0;317;500;504.8;100.0;100.7;0;-0.5;26.1;-1.0;
26/02/2025 05:20:35;116;0;64.76;-4;-58.32;-10.12;-0.0;17.50;75695;2833.657;-1757.334;0;317;500;506.5;100.0;100.6;0;-0.5;26.1;-1.0;
26/02/2025 05:22:49;116;0;57.84;-4;-55.35;-4.43;-0.1;18.10;75742;2833.688;-1757.340;0;317;500;506.5;100.0;100.6;0;-0.5;26.1;-1.0;
26/02/2025 05:23:09;116;0;38.31;-4;-58.28;-20.12;-0.2;18.20;75736;2833.688;-1757.339;0;317;500;506.5;100.0;100.6;0;-0.5;26.1;-1.0;
26/02/2025 05:23:29;116;0;33.14;-4;-55.83;-15.59;-0.1;18.30;75746;2833.692;-1757.340;0;317;500;506.5;100.0;100.6;0;-0.5;26.1;-1.0;
26/02/2025 05:23:43;116;0;33.79;-4;-50.79;-13.43;-0.0;18.30;75753;2833.695;-1757.340;0;317;500;506.5;100.0;100.6;0;-0.5;26.1;-1.0;
26/02/2025 05:24:46;116;0;27.96;-4;-54.74;-13.59;-0.2;18.50;75766;2833.707;-1757.343;0;317;500;506.5;100.0;100.6;0;-0.5;26.1;-1.0;
26/02/2025 05:25:44;116;0;41.25;-4;-55.04;-6.49;-0.2;18.80;75784;2833.719;-1757.347;0;317;500;506.5;100.0;100.6;0;-0.5;26.1;-1.0;
26/02/2025 05:26:04;116;0;39.61;-4;-55.68;-14.28;-0.2;18.80;75791;2833.722;-1757.348;0;317;500;506.5;100.0;100.6;0;-0.5;26.1;-1.0;
26/02/2025 05:26:15;116;0;28.26;-4;-52.98;2.18;-0.1;18.90;75805;2833.724;-1757.348;0;317;500;506.5;100.0;100.6;0;-0.5;26.1;-1.0;
26/02/2025 05:26:35;116;0;24.79;-4;-52.24;-6.24;-0.2;18.90;75797;2833.728;-1757.350;0;317;500;504.8;100.0;100.6;0;-0.5;26.1;-1.0;
26/02/2025 05:26:46;116;0;29.42;-4;-60.23;-9.53;-0.2;19.00;75809;2833.731;-1757.351;0;317;500;506.5;100.0;100.6;0;-0.5;26.1;-1.0;
26/02/2025 05:27:49;116;0;23.75;-4;-54.68;-24.08;-0.3;19.20;75826;2833.742;-1757.354;0;317;500;506.5;100.0;100.6;0;-0.5;26.1;-1.0;
26/02/2025 05:29:09;116;0;35.58;-4;-52.24;-7.43;-0.2;19.50;75846;2833.759;-1757.360;0;317;500;504.8;100.0;100.6;0;-0.5;26.1;-1.0;
26/02/2025 05:29:31;116;0;52.16;-4;-51.32;-14.99;-0.2;19.50;75843;2833.762;-1757.361;0;317;500;506.5;100.0;100.6;0;-0.5;26.1;-1.0;
26/02/2025 05:29:45;116;0;50.49;-4;-57.52;-12.89;-0.2;19.60;75862;2833.765;-1757.363;0;317;500;504.8;100.0;100.6;0;-0.5;26.1;-1.0;
26/02/2025 05:30:05;116;0;49.65;-4;-55.96;-11.12;-0.2;19.70;75862;2833.769;-1757.364;0;317;500;506.5;100.0;100.6;0;-0.5;26.1;-1.0;
26/02/2025 05:30:25;116;0;60.85;-4;-54.15;-16.51;-0.2;19.70;75866;2833.772;-1757.365;0;317;500;506.5;100.0;100.6;0;-0.5;26.1;-1.0;
26/02/2025 05:30:45;116;0;74.17;-4;-55.87;-13.51;-0.1;19.80;75877;2833.776;-1757.367;0;317;500;506.5;100.0;100.6;0;-0.5;26.1;-1.0;
26/02/2025 05:31:05;116;0;62.26;-4;-55.55;-13.82;-0.2;19.90;75874;2833.779;-1757.368;0;317;500;506.5;100.0;100.6;0;-0.5;26.1;-1.0;
26/02/2025 05:31:25;116;0;59.05;-4;-57.05;-8.69;-0.1;19.90;75880;2833.786;-1757.371;0;317;500;506.5;100.0;100.6;0;-0.5;26.1;-1.0;
26/02/2025 05:31:47;116;0;57.07;-4;-50.38;-13.78;-0.3;20.00;75881;2833.786;-1757.371;0;317;500;506.5;100.0;100.6;0;-0.5;26.1;-1.0;
26/02/2025 05:32:08;116;0;53.17;-4;-53.14;-10.49;-0.1;20.00;75903;2833.791;-1757.373;0;317;500;504.8;100.0;100.6;0;-0.5;26.1;-1.0;
26/02/2025 05:32:19;116;0;61.56;-4;-56.78;-16.29;-0.2;20.00;75896;2833.793;-1757.373;0;317;500;506.5;100.0;100.6;0;-0.5;26.1;-1.0;
26/02/2025 05:32:39;110;0;66.37;-4;-55.69;-15.24;0.0;20.10;75894;2833.793;-1757.373;0;317;-90;383.9;100.0;100.6;-6;-6.3;26.1;-1.0;
26/02/2025 05:32:50;110;0;69.13;-4;-52.20;-6.46;0.1;20.10;76262;2833.793;-1757.373;1;317;-90;232.3;100.0;100.6;-6;-6.3;26.1;-1.0;
26/02/2025 05:33:00;110;0;73.77;-4;-63.67;-13.77;0.6;20.10;76506;2833.794;-1757.373;1;317;-90;72.6;100.0;100.6;-6;-6.3;26.1;-1.0;
26/02/2025 05:33:10;110;0;51.17;-4;-71.08;-16.81;0.9;20.10;76832;2833.794;-1757.373;1;317;-90;-87.1;100.0;100.6;-6;-6.3;26.1;-1.0;
26/02/2025 05:33:20;110;0;48.60;-4;-62.05;-8.61;1.1;20.10;77184;2833.794;-1757.373;1;317;-90;-88.7;42.8;42.9;-6;-6.3;26.1;-1.0;
26/02/2025 05:33:40;100;0;49.89;-4;-31.68;-15.41;4.0;20.20;77135;2833.796;-1757.371;1;317;-90;-88.7;42.8;42.7;-6;-6.3;26.1;-1.0;
26/02/2025 05:34:00;100;0;56.43;-4;-20.38;-14.54;6.9;20.20;77152;2833.798;-1757.368;1;317;-90;-85.5;42.8;42.6;70;69.9;26.1;-1.0;
26/02/2025 05:34:20;100;0;53.66;-4;-24.04;23.92;9.5;20.10;77151;2833.800;-1757.365;1;317;-90;-85.5;41.6;41.5;70;70.4;26.1;-1.0;
26/02/2025 05:34:40;100;0;43.22;-4;-21.96;23.90;12.1;20.10;77155;2833.803;-1757.363;1;317;-90;-87.1;41.6;41.5;70;70.4;26.1;-1.0;
26/02/2025 05:35:00;100;0;34.85;-4;-22.22;23.74;14.9;20.10;77145;2833.806;-1757.361;1;317;-90;-85.5;40.9;40.9;70;70.4;26.1;0.0;
26/02/2025 05:35:20;100;0;25.42;-4;-20.25;23.91;17.6;20.00;77153;2833.809;-1757.359;1;317;-90;-85.5;40.9;40.8;70;70.4;26.1;0.0;
26/02/2025 05:35:40;100;0;15.36;-4;-20.11;24.03;20.1;20.00;77150;2833.813;-1757.358;1;317;-90;-85.5;40.9;40.9;70;70.4;26.1;0.0;
26/02/2025 05:36:00;100;0;3.89;-4;-19.38;23.82;22.4;20.00;77152;2833.816;-1757.358;1;317;-90;-87.1;40.9;40.8;70;70.4;26.1;0.0;
26/02/2025 05:36:20;100;0;353.36;-4;-19.73;23.73;24.8;20.00;77159;2833.819;-1757.359;1;317;-90;-85.5;40.9;40.8;60;60.0;26.1;0.0;
26/02/2025 05:36:40;100;0;343.62;-4;-18.70;18.07;27.1;20.00;77154;2833.823;-1757.360;1;317;-90;-85.5;41.3;41.4;46;46.0;26.1;0.0;
26/02/2025 05:37:00;100;0;335.01;-4;-18.81;10.90;29.5;20.00;77151;2833.826;-1757.362;1;317;-90;-85.5;41.7;41.8;32;32.0;26.1;0.0;
26/02/2025 05:37:20;100;0;329.22;-4;-18.38;4.01;31.6;19.90;77161;2833.828;-1757.363;1;317;-90;-85.5;42.2;42.4;23;23.0;26.1;0.0;
26/02/2025 05:37:40;100;0;325.43;-4;-19.71;-0.40;33.9;19.90;77160;2833.831;-1757.366;1;317;-90;-85.5;42.2;42.4;18;18.1;26.1;0.0;
26/02/2025 05:38:00;100;0;324.51;-4;-20.11;-2.81;36.5;19.90;77158;2833.834;-1757.368;1;317;-90;-85.5;42.2;42.4;18;17.6;26.1;0.0;
26/02/2025 05:38:20;100;0;325.18;-4;-19.19;-2.80;38.7;19.90;77169;2833.837;-1757.370;1;317;-90;-83.9;42.2;42.4;18;17.6;26.1;0.0;
26/02/2025 05:38:40;100;0;323.87;-4;-19.52;-2.85;41.1;19.90;77164;2833.840;-1757.372;1;317;-90;-83.9;42.2;42.4;18;17.6;26.1;0.0;
26/02/2025 05:39:00;100;0;324.31;-4;-19.52;-2.78;43.5;19.90;77168;2833.842;-1757.374;1;317;-90;-85.5;42.2;42.6;18;18.1;26.1;0.0;
26/02/2025 05:39:20;100;0;324.11;-4;-19.54;-2.82;45.9;19.90;77178;2833.845;-1757.376;1;317;-90;-85.5;42.2;42.4;18;18.1;26.1;0.0;
26/02/2025 05:39:40;100;0;326.53;-4;-19.99;-2.77;48.3;19.90;77170;2833.848;-1757.378;1;317;-90;-85.5;42.2;42.4;20;19.9;26.1;0.0;
26/02/2025 05:40:00;100;0;324.75;-4;-19.97;-1.48;50.7;19.90;77186;2833.851;-1757.381;1;317;-90;-85.5;42.2;42.4;18;18.1;26.1;0.0;
26/02/2025 05:40:20;100;0;325.01;-4;-19.63;-3.02;53.3;19.90;77193;2833.854;-1757.383;1;317;-90;-85.5;42.2;42.4;18;17.6;26.1;0.0;
26/02/2025 05:40:40;100;0;325.08;-4;-19.58;-3.03;55.6;19.90;77186;2833.857;-1757.385;1;317;-90;-85.5;42.2;42.4;18;17.1;26.1;0.0;
26/02/2025 05:41:00;100;0;324.35;-4;-19.76;-2.98;58.0;19.90;77192;2833.859;-1757.387;1;317;-90;-85.5;42.2;42.6;18;17.1;26.1;0.0;
26/02/2025 05:41:20;100;0;323.46;-4;-19.62;-3.00;60.5;19.90;77189;2833.862;-1757.389;1;317;-90;-85.5;42.2;42.4;18;17.6;26.1;0.0;
26/02/2025 05:41:40;100;0;319.28;-4;-19.77;-3.03;62.8;19.80;77191;2833.865;-1757.392;1;317;-90;-85.5;42.2;42.4;16;15.8;26.1;0.0;
26/02/2025 05:42:00;100;0;315.68;-4;-19.52;-4.12;65.2;19.90;77194;2833.867;-1757.394;1;317;-90;-85.5;42.2;42.6;16;15.3;26.1;0.0;
26/02/2025 05:42:20;100;0;315.41;-4;-19.68;-4.06;67.6;19.90;77207;2833.870;-1757.397;1;317;-90;-85.5;42.2;42.6;16;15.3;26.1;0.0;
26/02/2025 05:42:40;100;0;313.39;-4;-19.52;-4.11;70.1;19.80;77203;2833.872;-1757.400;1;317;-90;-83.9;42.2;42.6;16;15.3;26.1;0.0;
26/02/2025 05:43:00;100;0;313.56;-4;-19.48;-4.08;72.5;19.80;77201;2833.875;-1757.402;1;317;-90;-85.5;42.2;42.4;16;15.3;26.1;0.0;
26/02/2025 05:43:20;100;0;311.38;-4;-19.49;-4.17;74.8;19.80;77195;2833.877;-1757.405;1;317;-90;-85.5;42.2;42.4;16;15.3;26.1;0.0;
26/02/2025 05:43:40;100;0;311.51;-4;-19.14;-4.12;77.3;19.80;77191;2833.880;-1757.408;1;317;-90;-85.5;42.2;42.4;16;15.3;26.1;0.0;
26/02/2025 05:44:00;100;0;312.02;-4;-19.59;-4.15;79.7;19.80;77188;2833.882;-1757.411;1;317;-90;-85.5;42.2;42.4;16;15.3;26.1;0.0;
26/02/2025 05:44:20;100;0;313.42;-4;-19.73;-4.14;82.1;19.80;77194;2833.884;-1757.414;1;317;-90;-85.5;42.2;42.4;16;15.3;26.1;0.0;
26/02/2025 05:44:40;100;0;313.30;-4;-19.29;-4.14;84.6;19.80;77203;2833.887;-1757.416;1;317;-90;-83.9;42.2;42.4;16;15.3;26.1;0.0;
26/02/2025 05:45:00;100;0;310.12;-4;-19.96;-4.03;87.0;19.80;77193;2833.889;-1757.419;1;317;-90;-85.5;42.2;42.4;16;15.3;26.1;0.0;
26/02/2025 05:45:20;100;0;304.80;-4;-19.63;-3.98;89.4;19.70;77185;2833.891;-1757.422;1;317;-90;-85.5;42.2;42.4;12;12.2;26.1;0.0;
26/02/2025 05:45:40;100;0;304.91;-4;-19.16;-5.89;91.6;19.70;77177;2833.893;-1757.425;1;317;-90;-85.5;42.2;42.6;12;11.7;26.1;0.0;
26/02/2025 05:46:00;100;0;302.30;-4;-19.35;-5.91;94.2;19.70;77164;2833.895;-1757.429;1;317;-90;-85.5;42.2;42.3;9;9.0;26.1;0.0;
26/02/2025 05:46:20;100;0;301.24;-4;-19.08;-7.49;96.5;19.70;77161;2833.897;-1757.432;1;317;-90;-85.5;42.2;42.4;9;8.6;26.1;0.0;
26/02/2025 05:46:40;100;0;302.80;-4;-18.89;-7.49;98.8;19.70;77156;2833.899;-1757.435;1;317;-90;-82.3;42.5;42.6;9;8.6;26.1;0.0;
26/02/2025 05:47:00;100;0;305.08;-4;-19.71;-7.61;101.0;19.70;77154;2833.901;-1757.437;1;317;-90;-83.9;42.5;42.9;12;12.2;26.1;0.0;
26/02/2025 05:47:20;100;0;307.52;-4;-20.12;-5.32;103.5;19.60;77147;2833.903;-1757.441;1;317;-90;-85.5;42.5;42.9;14;14.0;26.1;0.0;
26/02/2025 05:47:40;100;0;307.87;-4;-19.50;-4.45;105.7;19.60;77153;2833.905;-1757.443;1;317;-90;-83.9;42.5;43.0;14;14.4;26.1;0.0;
26/02/2025 05:48:00;100;0;309.19;-4;-20.12;-4.44;108.1;19.60;77145;2833.908;-1757.446;1;317;-90;-85.5;42.5;42.9;14;14.4;26.1;0.0;
26/02/2025 05:48:20;100;0;311.07;-4;-20.17;-4.44;110.6;19.60;77136;2833.910;-1757.449;1;317;-90;-85.5;42.5;42.9;14;14.4;26.1;0.0;
26/02/2025 05:48:40;100;0;315.94;-4;-20.15;-4.39;113.2;19.60;77125;2833.913;-1757.452;1;317;-90;-83.9;42.5;42.9;14;14.4;26.1;0.0;
26/02/2025 05:49:00;100;0;320.79;-4;-19.86;-4.36;115.7;19.50;77110;2833.916;-1757.454;1;317;-90;-85.5;42.5;42.9;16;16.2;26.1;0.0;
26/02/2025 05:49:20;100;0;325.33;-4;-19.99;-3.41;118.0;19.50;77097;2833.918;-1757.456;1;317;-90;-85.5;42.5;42.9;18;18.1;26.1;0.0;
26/02/2025 05:49:40;100;0;324.43;-4;-20.47;-2.40;120.5;19.50;77090;2833.921;-1757.458;1;317;-90;-83.9;42.5;42.9;18;18.5;26.1;0.0;
26/02/2025 05:50:00;100;0;324.16;-4;-19.95;-2.41;122.8;19.40;77085;2833.924;-1757.461;1;317;-90;-85.5;42.5;42.9;18;18.5;26.1;0.0;
26/02/2025 05:50:20;100;0;327.61;-4;-20.66;-2.40;125.3;19.40;77070;2833.927;-1757.462;1;317;-90;-85.5;42.5;42.9;21;21.2;26.1;0.0;
26/02/2025 05:50:40;100;0;324.53;-4;-20.59;-0.72;127.6;19.40;77057;2833.929;-1757.465;1;317;-90;-85.5;42.5;42.9;19;19.0;26.1;0.0;
26/02/2025 05:51:00;100;0;320.23;-4;-20.32;-2.44;130.0;19.40;77038;2833.932;-1757.467;1;317;-90;-85.5;42.5;42.9;16;15.3;26.1;0.0;
26/02/2025 05:51:20;100;0;318.83;-4;-19.88;-4.01;132.3;19.30;77040;2833.934;-1757.469;1;317;-90;-85.5;42.5;42.9;16;15.3;26.1;0.0;
26/02/2025 05:51:40;100;0;320.42;-4;-19.71;-4.07;134.3;19.30;77027;2833.937;-1757.471;1;317;-90;-85.5;42.5;42.9;16;15.3;26.1;0.0;
26/02/2025 05:52:00;100;0;321.97;-4;-20.10;-4.11;136.5;19.30;77017;2833.939;-1757.473;1;317;-90;-85.5;42.5;42.9;16;15.3;26.1;0.0;
26/02/2025 05:52:20;100;0;325.35;-4;-19.38;-4.10;138.5;19.20;77007;2833.942;-1757.475;1;317;-110;-111.3;42.5;42.9;20;19.9;26.1;0.0;
26/02/2025 05:52:40;100;0;325.15;-4;-19.56;-1.44;140.7;19.20;77064;2833.944;-1757.477;1;317;-110;-111.3;42.5;42.9;20;20.3;26.1;0.0;
26/02/2025 05:53:00;100;0;321.64;-4;-19.45;-1.42;142.9;19.20;77054;2833.947;-1757.479;1;317;-110;-112.9;42.5;42.9;16;15.3;26.1;0.0;
26/02/2025 05:53:20;100;0;317.25;-4;-19.23;-3.93;145.2;19.10;77049;2833.949;-1757.482;1;317;-110;-112.9;42.5;42.9;16;15.3;26.1;0.0;
26/02/2025 05:53:40;100;0;311.88;-4;-18.45;-3.94;147.3;19.10;77029;2833.952;-1757.484;1;317;-110;-111.3;43.0;43.0;16;15.3;26.1;0.0;
26/02/2025 05:54:00;100;0;305.89;-4;-18.69;-3.86;149.4;19.10;77021;2833.954;-1757.487;1;317;-110;-111.3;43.4;43.4;13;13.1;26.1;0.0;
26/02/2025 05:54:20;100;0;308.13;-4;-19.67;-5.17;151.7;19.00;77005;2833.956;-1757.490;1;317;-110;-112.9;43.4;43.6;13;12.6;26.1;0.0;
26/02/2025 05:54:40;100;0;306.80;-4;-20.07;-4.90;154.1;19.00;77007;2833.958;-1757.493;1;317;-110;-112.9;43.4;43.6;13;12.6;26.1;0.0;
26/02/2025 05:55:00;100;0;301.76;-4;-20.52;-5.25;156.5;19.00;76998;2833.960;-1757.496;1;317;-110;-109.7;43.4;43.6;9;9.0;26.1;0.0;
26/02/2025 05:55:20;100;0;304.88;-4;-20.30;-7.20;158.8;18.90;76985;2833.962;-1757.499;1;317;-110;-114.5;43.4;43.6;12;12.2;26.1;0.0;
26/02/2025 05:55:40;100;0;304.82;-4;-20.96;-5.37;161.3;18.90;76972;2833.964;-1757.502;1;317;-110;-112.9;43.4;43.6;12;12.6;26.1;0.0;
26/02/2025 05:56:00;100;0;306.77;-4;-21.01;-5.17;163.8;18.80;76957;2833.966;-1757.505;1;317;-110;-111.3;43.4;43.6;12;12.6;26.1;0.0;
26/02/2025 05:56:20;100;0;308.75;-4;-20.74;-5.21;166.7;18.80;76958;2833.968;-1757.508;1;317;-110;-111.3;43.4;43.6;14;14.0;26.1;0.0;
26/02/2025 05:56:40;100;0;310.57;-4;-20.52;-4.24;169.1;18.80;76941;2833.971;-1757.511;1;317;-110;-112.9;43.4;43.6;14;14.4;26.1;0.0;
26/02/2025 05:57:00;100;0;311.93;-4;-20.48;-4.26;171.9;18.80;76947;2833.973;-1757.514;1;317;-110;-114.5;43.4;43.6;14;14.4;26.1;0.0;
26/02/2025 05:57:20;100;0;307.60;-4;-20.88;-4.34;174.5;18.70;76936;2833.976;-1757.517;1;317;-110;-112.9;43.4;43.6;14;14.4;26.1;0.0;
26/02/2025 05:57:40;100;0;307.81;-4;-21.14;-4.22;177.4;18.70;76926;2833.978;-1757.520;1;317;-110;-112.9;43.4;43.6;14;14.4;26.1;0.0;
26/02/2025 05:58:00;100;0;305.38;-4;-20.68;-4.22;180.2;18.70;76924;2833.980;-1757.524;1;317;-110;-111.3;43.4;43.6;12;12.2;26.1;0.0;
26/02/2025 05:58:20;100;0;300.62;-4;-20.64;-5.67;183.2;18.60;76909;2833.983;-1757.527;1;317;-110;-112.9;43.4;43.6;7;7.2;26.1;0.0;
26/02/2025 05:58:40;100;0;303.59;-4;-20.09;-7.99;186.0;18.60;76899;2833.985;-1757.531;1;317;-110;-112.9;43.4;43.6;10;9.9;26.1;0.0;
26/02/2025 05:59:00;100;0;306.18;-4;-20.29;-6.37;188.9;18.50;76881;2833.987;-1757.534;1;317;-110;-111.3;43.4;43.6;13;13.1;26.1;0.0;
26/02/2025 05:59:20;100;0;305.90;-4;-20.67;-4.75;192.0;18.50;76874;2833.990;-1757.538;1;317;-110;-112.9;43.4;43.7;13;13.5;26.1;0.0;
26/02/2025 05:59:40;100;0;305.55;-4;-20.80;-4.69;194.8;18.40;76867;2833.992;-1757.541;1;317;-110;-112.9;43.4;43.7;13;13.5;26.1;0.0;
26/02/2025 06:00:00;100;0;306.59;-4;-20.55;-4.68;197.7;18.40;76853;2833.995;-1757.545;1;317;-110;-111.3;43.4;43.6;13;13.5;26.1;0.0;
26/02/2025 06:00:20;100;0;305.33;-4;-20.34;-4.76;200.7;18.40;76848;2833.997;-1757.548;1;317;-110;-112.9;43.4;43.6;13;13.5;26.1;0.0;
26/02/2025 06:00:40;100;0;303.85;-4;-20.47;-4.71;203.7;18.30;76839;2834.000;-1757.552;1;317;-110;-111.3;43.4;43.6;11;10.8;26.1;0.0;
26/02/2025 06:01:00;100;0;304.27;-4;-20.40;-6.34;206.6;18.30;76838;2834.002;-1757.556;1;317;-110;-112.9;43.4;43.6;11;10.4;26.1;0.0;
26/02/2025 06:01:20;100;0;304.29;-4;-20.35;-6.36;209.6;18.20;76832;2834.004;-1757.560;1;317;-110;-111.3;43.4;43.6;11;10.4;26.1;0.0;
26/02/2025 06:01:40;100;0;308.01;-4;-20.51;-6.32;212.5;18.20;76816;2834.007;-1757.563;1;317;-110;-111.3;43.4;43.6;13;13.1;26.1;0.0;
26/02/2025 06:02:00;100;0;309.61;-4;-20.68;-4.78;215.4;18.20;76804;2834.010;-1757.566;1;317;-110;-112.9;43.4;43.7;13;13.5;26.1;0.0;
26/02/2025 06:02:20;100;0;312.32;-4;-20.69;-4.77;218.5;18.10;76805;2834.012;-1757.570;1;317;-110;-111.3;43.4;43.7;13;13.5;26.1;0.0;
26/02/2025 06:02:40;100;0;314.12;-4;-20.82;-4.84;221.6;18.10;76809;2834.015;-1757.573;1;317;-110;-114.5;43.4;43.6;15;14.9;26.1;0.0;
26/02/2025 06:03:00;100;0;311.90;-4;-20.43;-3.90;224.9;18.10;76800;2834.018;-1757.576;1;317;-110;-112.9;43.4;43.6;15;15.3;26.1;0.0;
26/02/2025 06:03:20;100;0;312.75;-4;-20.66;-3.90;227.6;18.00;76790;2834.021;-1757.579;1;317;-110;-112.9;43.4;43.6;15;15.3;26.1;0.0;
26/02/2025 06:03:40;100;0;317.66;-4;-20.67;-3.86;231.0;18.00;76775;2834.024;-1757.583;1;317;-110;-111.3;43.4;43.6;15;15.3;26.1;0.0;
26/02/2025 06:04:00;100;0;314.55;-4;-20.29;-3.86;234.1;17.90;76763;2834.028;-1757.586;1;317;-110;-112.9;43.4;43.6;15;15.3;26.1;0.0;
26/02/2025 06:04:20;100;0;312.99;-4;-20.35;-3.83;237.2;17.90;76747;2834.031;-1757.590;1;317;-110;-112.9;43.4;43.7;15;15.3;26.1;0.0;
26/02/2025 06:04:40;100;0;311.59;-4;-20.38;-3.86;240.3;17.90;76738;2834.034;-1757.593;1;317;-110;-111.3;43.4;43.7;15;15.3;26.1;0.0;
26/02/2025 06:05:00;100;0;310.37;-4;-20.28;-3.90;243.4;17.80;76736;2834.036;-1757.597;1;317;-110;-111.3;43.4;43.6;15;15.3;26.1;0.0;
26/02/2025 06:05:20;100;0;309.86;-4;-20.33;-3.92;246.4;17.80;76725;2834.039;-1757.600;1;317;-110;-112.9;43.4;43.7;15;15.3;26.1;0.0;
26/02/2025 06:05:40;100;0;308.87;-4;-20.26;-3.90;249.6;17.70;76724;2834.042;-1757.604;1;317;-110;-111.3;43.4;43.6;15;15.3;26.1;0.0;
26/02/2025 06:06:00;100;0;309.03;-4;-20.24;-3.86;252.7;17.70;76720;2834.045;-1757.608;1;317;-110;-112.9;43.4;43.7;15;15.3;26.1;0.0;
26/02/2025 06:06:20;100;0;312.29;-4;-20.29;-3.89;255.8;17.70;76722;2834.048;-1757.611;1;317;-110;-112.9;43.4;43.6;15;15.3;26.1;0.0;
26/02/2025 06:06:40;100;0;316.32;-4;-20.50;-3.76;258.9;17.60;76715;2834.051;-1757.614;1;317;-110;-111.3;43.4;43.6;15;15.3;26.1;0.0;
26/02/2025 06:07:01;100;0;315.56;-4;-20.22;-3.83;262.0;17.60;76699;2834.054;-1757.617;1;317;-110;-112.9;43.4;43.6;15;15.3;26.1;0.0;
26/02/2025 06:07:21;100;0;312.58;-4;-20.32;-3.93;265.2;17.60;76684;2834.057;-1757.621;1;317;-110;-111.3;43.4;43.6;15;15.3;26.1;0.0;
26/02/2025 06:07:41;100;0;310.40;-4;-20.19;-3.81;268.4;17.50;76674;2834.060;-1757.625;1;317;-110;-112.9;43.4;43.6;15;15.3;26.1;0.0;
26/02/2025 06:08:01;100;0;307.81;-4;-20.17;-3.88;271.6;17.50;76671;2834.063;-1757.629;1;317;-110;-112.9;43.4;43.6;13;13.1;26.1;0.0;
26/02/2025 06:08:21;100;0;311.27;-4;-20.47;-5.32;274.6;17.50;76665;2834.066;-1757.632;1;317;-110;-111.3;43.4;43.6;13;12.6;26.1;0.0;
26/02/2025 06:08:41;100;0;312.23;-4;-20.12;-5.25;277.9;17.40;76658;2834.069;-1757.636;1;317;-110;-111.3;43.4;43.6;13;12.6;26.1;0.0;
26/02/2025 06:09:01;100;0;312.21;-4;-20.16;-5.33;281.2;17.40;76651;2834.072;-1757.639;1;317;-110;-114.5;43.4;43.6;13;12.6;26.1;0.0;
26/02/2025 06:09:21;100;0;315.24;-4;-19.84;-5.28;284.4;17.30;76644;2834.075;-1757.643;1;317;-110;-111.3;43.4;43.6;13;12.6;26.1;0.0;
26/02/2025 06:09:41;100;0;316.20;-4;-20.24;-5.25;287.4;17.30;76632;2834.078;-1757.646;1;317;-110;-111.3;43.4;43.6;13;12.6;26.1;0.0;
26/02/2025 06:10:01;100;0;314.43;-4;-20.07;-5.32;290.5;17.30;76628;2834.081;-1757.649;1;317;-110;-111.3;43.4;43.6;13;12.6;26.1;0.0;
26/02/2025 06:10:21;100;0;312.77;-4;-20.06;-5.32;293.5;17.20;76630;2834.084;-1757.653;1;317;-110;-111.3;43.4;43.7;13;12.6;26.1;0.0;
26/02/2025 06:10:41;100;0;314.23;-4;-20.14;-5.32;296.6;17.20;76606;2834.087;-1757.656;1;317;-110;-112.9;43.4;43.6;13;12.6;26.1;0.0;
26/02/2025 06:11:01;100;0;316.63;-4;-20.05;-5.26;299.7;17.10;76605;2834.090;-1757.659;1;317;-110;-112.9;43.4;43.7;13;12.6;26.1;0.0;
26/02/2025 06:11:21;100;0;317.27;-4;-20.10;-5.30;302.7;17.10;76587;2834.093;-1757.662;1;317;-110;-111.3;43.4;43.6;13;12.6;26.1;0.0;
26/02/2025 06:11:41;100;0;316.00;-4;-19.79;-5.45;305.5;17.10;76585;2834.096;-1757.665;1;317;-110;-112.9;43.4;43.6;13;12.6;26.1;0.0;
26/02/2025 06:12:01;100;0;317.26;-4;-20.11;-5.35;308.3;17.00;76575;2834.099;-1757.668;1;317;-110;-112.9;43.4;43.7;13;12.6;26.1;0.0;
26/02/2025 06:12:21;100;0;317.91;-4;-20.14;-5.27;311.6;17.00;76560;2834.103;-1757.672;1;317;-110;-112.9;43.4;43.6;13;12.6;26.1;0.0;
26/02/2025 06:12:41;100;0;321.05;-4;-20.13;-5.23;314.4;17.00;76553;2834.106;-1757.674;1;317;-110;-112.9;43.4;43.6;15;15.3;26.1;0.0;
26/02/2025 06:13:01;100;0;321.54;-4;-20.43;-3.79;317.3;16.90;76552;2834.109;-1757.677;1;317;-110;-112.9;43.4;43.6;15;15.3;26.1;0.0;
26/02/2025 06:13:21;100;0;320.66;-4;-20.58;-3.71;320.4;16.90;76544;2834.112;-1757.680;1;317;-110;-112.9;43.4;43.6;15;15.8;26.1;0.0;
26/02/2025 06:13:41;100;0;320.53;-4;-20.59;-3.74;323.3;16.80;76517;2834.115;-1757.683;1;317;-110;-111.3;43.4;43.6;15;15.8;26.1;0.0;
26/02/2025 06:14:01;100;0;322.41;-4;-20.28;-3.74;326.3;16.80;76522;2834.119;-1757.685;1;317;-110;-112.9;43.4;43.6;15;15.3;26.1;0.0;
26/02/2025 06:14:21;100;0;324.13;-4;-20.15;-3.75;328.9;16.80;76507;2834.122;-1757.688;1;317;-110;-112.9;43.4;43.6;17;17.6;26.1;0.0;
26/02/2025 06:14:41;100;0;325.43;-4;-20.37;-2.55;331.7;16.70;76511;2834.125;-1757.690;1;317;-110;-112.9;43.4;43.7;17;17.6;26.1;0.0;
26/02/2025 06:15:01;100;0;326.19;-4;-20.34;-2.56;334.5;16.70;76500;2834.128;-1757.693;1;317;-110;-111.3;43.4;43.6;19;19.0;26.1;0.0;
26/02/2025 06:15:21;100;0;326.72;-4;-20.19;-1.91;337.1;16.60;76492;2834.131;-1757.695;1;317;-110;-112.9;43.4;43.7;19;19.4;26.1;0.0;
26/02/2025 06:15:41;100;0;326.47;-4;-20.39;-1.88;340.0;16.60;76477;2834.135;-1757.697;1;317;-110;-112.9;43.4;43.7;19;19.4;26.1;0.0;
26/02/2025 06:16:01;100;0;327.12;-4;-20.68;-1.91;342.7;16.60;76486;2834.138;-1757.700;1;317;-110;-111.3;43.4;43.6;19;19.4;26.1;0.0;
26/02/2025 06:16:21;100;0;327.70;-4;-20.81;-1.80;345.5;16.60;76480;2834.141;-1757.702;1;317;-110;-112.9;43.4;43.6;21;21.2;26.1;0.0;
26/02/2025 06:16:41;100;0;328.17;-4;-20.56;-0.87;348.4;16.50;76459;2834.144;-1757.704;1;317;-110;-112.9;43.4;43.6;21;21.7;26.1;0.0;
26/02/2025 06:17:01;100;0;326.91;-4;-20.51;-0.76;351.1;16.50;76461;2834.147;-1757.706;1;317;-110;-112.9;43.4;43.6;21;21.7;26.1;0.0;
26/02/2025 06:17:21;100;0;325.64;-4;-20.46;-0.74;353.9;16.40;76460;2834.151;-1757.709;1;317;-110;-111.3;43.4;43.6;19;19.0;26.1;0.0;
26/02/2025 06:17:41;100;0;325.57;-4;-20.33;-2.10;356.4;16.40;76446;2834.154;-1757.711;1;317;-110;-111.3;43.4;43.6;19;19.0;26.1;0.0;
26/02/2025 06:18:01;100;0;326.56;-4;-20.26;-2.20;359.0;16.40;76441;2834.157;-1757.713;1;317;-110;-112.9;43.4;43.6;19;19.0;26.1;0.0;
26/02/2025 06:18:21;100;0;324.44;-4;-20.13;-2.14;361.7;16.30;76446;2834.160;-1757.715;1;317;-110;-112.9;43.4;43.6;19;19.0;26.1;0.0;
26/02/2025 06:18:41;100;0;319.87;-4;-20.05;-2.17;364.0;16.30;76428;2834.162;-1757.718;1;317;-110;-111.3;43.4;43.6;15;14.9;26.1;0.0;
26/02/2025 06:19:01;100;0;318.02;-4;-20.10;-4.24;366.7;16.30;76424;2834.165;-1757.721;1;317;-110;-111.3;43.4;43.6;15;14.9;26.1;0.0;
26/02/2025 06:19:21;100;0;316.49;-4;-19.92;-4.23;369.1;16.20;76425;2834.168;-1757.723;1;317;-110;-112.9;43.4;43.6;15;14.9;26.1;0.0;
26/02/2025 06:19:41;100;0;313.80;-4;-19.73;-4.26;371.5;16.20;76407;2834.170;-1757.726;1;317;-110;-111.3;43.4;43.7;15;14.9;26.1;0.0;
26/02/2025 06:20:01;100;0;313.08;-4;-19.90;-4.20;373.8;16.20;76408;2834.172;-1757.728;1;317;-110;-112.9;43.4;43.6;15;14.9;26.1;0.0;
26/02/2025 06:20:21;100;0;312.63;-4;-19.92;-4.23;376.2;16.10;76392;2834.175;-1757.731;1;317;-110;-112.9;43.4;43.6;15;14.9;26.1;0.0;
26/02/2025 06:20:41;100;0;309.98;-4;-19.88;-4.23;378.5;16.10;76395;2834.177;-1757.734;1;317;-110;-112.9;43.4;43.6;15;14.9;26.1;0.0;
26/02/2025 06:21:01;100;0;309.18;-4;-19.84;-4.30;381.0;16.10;76383;2834.179;-1757.737;1;317;-110;-112.9;43.4;43.6;15;14.9;26.1;0.0;
26/02/2025 06:21:21;100;0;310.48;-4;-19.96;-4.22;383.3;16.00;76377;2834.181;-1757.739;1;317;-110;-111.3;43.4;43.6;15;14.9;26.1;0.0;
26/02/2025 06:21:41;100;0;310.35;-4;-19.68;-4.25;385.7;16.00;76364;2834.184;-1757.742;1;317;-110;-111.3;43.4;43.7;15;14.9;26.1;0.0;
26/02/2025 06:22:01;100;0;314.96;-4;-19.66;-4.27;387.9;16.00;76379;2834.186;-1757.745;1;317;-110;-112.9;43.4;43.6;15;14.9;26.1;0.0;
26/02/2025 06:22:21;100;0;317.54;-4;-19.75;-4.28;390.2;15.90;76362;2834.189;-1757.747;1;317;-110;-111.3;43.4;43.6;15;14.9;26.1;0.0;
26/02/2025 06:22:41;100;0;317.55;-4;-19.76;-4.32;392.5;15.90;76358;2834.191;-1757.749;1;317;-110;-111.3;43.4;43.6;15;14.4;26.1;0.0;
26/02/2025 06:23:01;100;0;318.38;-4;-19.80;-4.28;394.6;15.90;76346;2834.193;-1757.752;1;317;-110;-112.9;43.4;43.6;15;14.9;26.1;0.0;
26/02/2025 06:23:21;100;0;317.62;-4;-19.83;-4.28;396.9;15.80;76342;2834.196;-1757.754;1;317;-110;-112.9;43.4;43.6;15;14.9;26.1;0.0;
26/02/2025 06:23:41;100;0;317.25;-4;-19.81;-4.28;399.2;15.80;76340;2834.198;-1757.756;1;317;-110;-114.5;43.4;43.7;15;14.9;26.1;0.0;
26/02/2025 06:24:01;100;0;318.74;-4;-20.04;-4.22;401.5;15.80;76335;2834.201;-1757.759;1;317;-110;-112.9;43.4;43.6;15;14.9;26.1;0.0;
26/02/2025 06:24:21;100;0;318.51;-4;-20.03;-4.23;403.7;15.70;76324;2834.203;-1757.761;1;317;-110;-111.3;43.4;43.6;15;14.9;26.1;0.0;
26/02/2025 06:24:41;100;0;320.31;-4;-20.08;-4.23;405.9;15.70;76320;2834.206;-1757.763;1;317;-110;-111.3;43.4;43.6;15;14.9;26.1;0.0;
26/02/2025 06:25:01;100;0;321.79;-4;-20.07;-4.24;408.3;15.70;76318;2834.208;-1757.765;1;317;-110;-112.9;43.4;43.6;15;14.4;26.1;0.0;
26/02/2025 06:25:21;100;0;321.26;-4;-20.01;-4.26;410.7;15.60;76312;2834.211;-1757.768;1;317;-110;-112.9;43.4;43.6;15;14.4;26.1;0.0;
26/02/2025 06:25:41;100;0;319.56;-4;-20.05;-4.23;413.1;15.60;76314;2834.214;-1757.770;1;317;-110;-111.3;43.4;43.7;15;14.9;26.1;0.0;
26/02/2025 06:26:01;100;0;317.34;-4;-19.99;-4.23;415.3;15.60;76298;2834.216;-1757.772;1;317;-110;-111.3;43.4;43.6;15;14.9;26.1;0.0;
26/02/2025 06:26:21;100;0;315.88;-4;-19.93;-4.29;417.6;15.60;76296;2834.218;-1757.775;1;317;-110;-111.3;43.4;43.7;15;14.9;26.1;0.0;
26/02/2025 06:26:41;100;0;313.77;-4;-19.99;-4.24;419.8;15.50;76286;2834.221;-1757.777;1;317;-110;-112.9;43.4;43.7;15;14.9;26.1;0.0;
26/02/2025 06:27:01;100;0;314.18;-4;-19.60;-4.33;422.1;15.50;76284;2834.223;-1757.780;1;317;-110;-111.3;43.4;43.6;15;14.9;26.1;0.0;
26/02/2025 06:27:21;100;0;313.30;-4;-19.53;-4.34;424.2;15.50;76266;2834.225;-1757.782;1;317;-110;-111.3;43.4;43.6;15;14.9;26.1;0.0;
26/02/2025 06:27:41;100;0;314.39;-4;-19.75;-4.23;426.2;15.40;76273;2834.227;-1757.784;1;317;-110;-111.3;43.4;43.6;15;14.9;26.1;0.0;
26/02/2025 06:28:01;100;0;315.99;-4;-19.62;-3.97;428.4;15.40;76270;2834.230;-1757.787;1;317;-110;-111.3;43.4;43.6;15;14.9;26.1;0.0;
26/02/2025 06:28:21;100;0;318.48;-4;-18.87;-4.27;430.5;15.40;76265;2834.232;-1757.789;1;317;-110;-111.3;43.7;43.7;15;14.9;26.1;0.0;
26/02/2025 06:28:41;100;0;318.60;-4;-19.90;-4.36;432.6;15.30;76250;2834.234;-1757.791;1;317;-110;-111.3;43.7;44.0;15;14.9;26.1;0.0;
26/02/2025 06:29:01;100;0;320.42;-4;-20.28;-4.30;434.8;15.30;76244;2834.237;-1757.793;1;317;-110;-111.3;43.7;44.0;15;14.9;26.1;0.0;
26/02/2025 06:29:21;100;0;321.20;-4;-20.24;-4.27;436.8;15.30;76234;2834.239;-1757.795;1;317;-110;-111.3;43.7;44.0;15;14.9;26.1;0.0;
26/02/2025 06:29:41;100;0;321.92;-4;-20.32;-4.26;439.2;15.30;76233;2834.242;-1757.798;1;317;-110;-111.3;43.7;44.0;15;14.9;26.1;0.0;
26/02/2025 06:30:01;100;0;322.97;-4;-20.42;-4.27;441.4;15.20;76229;2834.244;-1757.800;1;317;-110;-112.9;43.7;44.0;17;17.1;26.1;0.0;
26/02/2025 06:30:21;100;0;320.92;-4;-20.76;-2.76;443.8;15.20;76222;2834.247;-1757.802;1;317;-110;-111.3;43.7;44.0;17;17.6;26.1;0.0;
26/02/2025 06:30:41;100;0;319.96;-4;-21.06;-2.60;446.1;15.20;76223;2834.249;-1757.804;1;317;-110;-111.3;43.7;44.0;17;17.6;26.1;0.0;
26/02/2025 06:31:01;100;0;317.01;-4;-20.91;-2.72;448.6;15.20;76216;2834.252;-1757.807;1;317;-110;-112.9;43.7;44.0;15;14.9;26.1;0.0;
26/02/2025 06:31:21;100;0;314.48;-4;-20.73;-4.41;451.0;15.10;76212;2834.254;-1757.809;1;317;-110;-112.9;43.7;44.0;15;14.4;26.1;0.0;
26/02/2025 06:31:41;100;0;313.53;-4;-20.40;-4.36;453.4;15.10;76197;2834.257;-1757.812;1;317;-110;-112.9;43.7;44.0;15;14.4;26.1;0.0;
26/02/2025 06:32:01;100;0;312.36;-4;-20.61;-4.42;455.8;15.10;76201;2834.259;-1757.814;1;317;-110;-112.9;43.7;44.0;15;14.4;26.1;0.0;
26/02/2025 06:32:21;100;0;308.24;-4;-20.77;-4.36;458.1;15.00;76194;2834.261;-1757.817;1;317;-110;-111.3;43.7;44.0;15;14.4;26.1;0.0;
26/02/2025 06:32:41;100;0;306.20;-4;-20.62;-4.42;460.6;15.00;76179;2834.263;-1757.820;1;317;-110;-111.3;43.7;44.2;13;13.1;26.1;0.0;
26/02/2025 06:33:01;100;0;306.13;-4;-20.65;-4.99;463.0;15.00;76174;2834.265;-1757.823;1;317;-110;-112.9;43.7;44.0;13;13.1;26.1;0.0;
26/02/2025 06:33:21;100;0;306.71;-4;-20.58;-5.10;465.4;15.00;76167;2834.267;-1757.826;1;317;-110;-112.9;43.7;44.0;13;13.1;26.1;0.0;
26/02/2025 06:33:41;100;0;307.35;-4;-20.68;-5.21;467.8;14.90;76166;2834.269;-1757.829;1;317;-110;-112.9;43.7;44.0;13;13.1;26.1;0.0;
26/02/2025 06:34:01;100;0;307.76;-4;-20.53;-5.08;470.3;14.90;76172;2834.272;-1757.832;1;317;-110;-111.3;43.7;44.0;13;13.1;26.1;0.0;
26/02/2025 06:34:21;100;0;308.91;-4;-20.59;-5.06;472.6;14.90;76162;2834.274;-1757.834;1;317;-110;-111.3;43.7;44.0;13;13.1;26.1;0.0;
26/02/2025 06:34:41;100;0;310.27;-4;-20.57;-5.03;475.0;14.90;76152;2834.276;-1757.837;1;317;-110;-112.9;43.7;44.0;15;14.9;26.1;0.0;
26/02/2025 06:35:01;100;0;310.89;-4;-20.62;-3.87;477.4;14.80;76156;2834.278;-1757.840;1;317;-110;-112.9;43.7;44.2;15;15.3;26.1;0.0;
26/02/2025 06:35:21;100;0;312.01;-4;-20.84;-3.87;479.8;14.80;76150;2834.280;-1757.842;1;317;-110;-112.9;43.7;44.0;15;15.3;26.1;0.0;
26/02/2025 06:35:41;100;0;311.41;-4;-20.65;-3.83;482.3;14.80;76156;2834.283;-1757.845;1;317;-110;-111.3;43.7;44.0;15;15.3;26.1;0.0;
26/02/2025 06:36:01;100;0;310.38;-4;-20.70;-3.80;484.7;14.80;76150;2834.285;-1757.848;1;317;-110;-112.9;43.7;44.0;15;15.3;26.1;0.0;
26/02/2025 06:36:21;100;0;308.50;-4;-20.70;-3.88;487.1;14.70;76148;2834.287;-1757.850;1;317;-110;-112.9;43.7;44.0;15;15.3;26.1;0.0;
26/02/2025 06:36:41;100;0;309.78;-4;-21.05;-3.81;489.6;14.70;76130;2834.289;-1757.853;1;317;-110;-111.3;43.7;44.0;15;15.3;26.1;0.0;
26/02/2025 06:37:01;100;0;309.42;-4;-20.69;-3.91;492.1;14.70;76137;2834.292;-1757.856;1;317;-110;-112.9;43.7;44.0;15;15.3;26.1;0.0;
26/02/2025 06:37:21;100;0;309.15;-4;-20.39;-3.88;494.6;14.70;76129;2834.294;-1757.859;1;317;-110;-112.9;43.7;44.0;15;15.3;26.1;0.0;
26/02/2025 06:37:41;100;0;306.71;-4;-20.24;-3.96;496.9;14.60;76122;2834.296;-1757.862;1;317;-110;-112.9;43.7;44.0;13;13.1;26.1;0.0;
26/02/2025 06:38:01;100;0;306.79;-4;-20.03;-5.28;499.1;14.60;76126;2834.298;-1757.865;1;317;-110;-112.9;43.7;43.9;13;12.6;26.1;0.0;
26/02/2025 06:38:21;100;0;309.73;-4;-20.53;-5.04;501.4;14.60;76114;2834.300;-1757.867;1;317;-110;-111.3;43.7;44.2;13;12.6;26.1;0.0;
26/02/2025 06:38:41;100;0;312.24;-4;-19.81;-5.12;503.7;14.60;76112;2834.302;-1757.870;1;317;-110;-109.7;43.7;44.0;15;14.9;26.1;0.0;
26/02/2025 06:39:01;100;0;312.99;-4;-20.10;-3.83;505.9;14.50;76108;2834.305;-1757.872;1;317;-110;-112.9;43.7;44.0;15;14.9;26.1;0.0;
26/02/2025 06:39:21;100;0;315.31;-4;-20.16;-4.01;508.2;14.50;76105;2834.307;-1757.875;1;317;-110;-112.9;43.7;44.0;15;14.9;26.1;0.0;
26/02/2025 06:39:41;100;0;316.32;-4;-20.13;-4.03;510.4;14.50;76099;2834.309;-1757.877;1;317;-110;-111.3;43.7;44.0;15;15.3;26.1;0.0;
26/02/2025 06:40:01;100;0;316.44;-4;-20.38;-4.02;512.8;14.50;76092;2834.312;-1757.880;1;317;-110;-111.3;43.7;44.0;15;15.3;26.1;0.0;
26/02/2025 06:40:21;100;0;316.73;-4;-20.78;-4.01;515.2;14.40;76090;2834.314;-1757.882;1;317;-110;-111.3;43.7;44.0;15;15.3;26.1;0.0;
26/02/2025 06:40:41;100;0;318.21;-4;-20.91;-4.02;517.9;14.40;76083;2834.317;-1757.885;1;317;-110;-111.3;43.7;44.0;15;15.3;26.1;0.0;
26/02/2025 06:41:01;100;0;317.99;-4;-20.38;-3.95;520.5;14.40;76076;2834.320;-1757.887;1;317;-110;-111.3;43.7;44.0;15;14.9;26.1;0.0;
26/02/2025 06:41:21;100;0;317.98;-4;-20.40;-3.97;523.3;14.40;76080;2834.323;-1757.890;1;317;-110;-112.9;43.7;44.0;15;15.3;26.1;0.0;
26/02/2025 06:41:42;100;0;318.96;-4;-20.54;-3.96;526.0;14.40;76072;2834.326;-1757.893;1;317;-110;-111.3;43.7;44.0;15;14.9;26.1;0.0;
26/02/2025 06:42:02;100;0;319.84;-4;-20.15;-3.95;528.7;14.40;76075;2834.329;-1757.896;1;317;-110;-111.3;43.7;44.0;15;15.3;26.1;0.0;
26/02/2025 06:42:22;100;0;320.42;-4;-20.61;-3.89;531.3;14.30;76068;2834.331;-1757.898;1;317;-110;-111.3;43.7;44.0;15;15.3;26.1;0.0;
26/02/2025 06:42:42;100;0;319.49;-4;-20.52;-3.98;534.1;14.30;76064;2834.334;-1757.901;1;317;-110;-112.9;43.7;44.0;15;15.3;26.1;0.0;
26/02/2025 06:43:02;100;0;319.41;-4;-20.27;-3.93;536.9;14.30;76054;2834.337;-1757.904;1;317;-110;-112.9;43.7;44.0;15;15.3;26.1;0.0;
26/02/2025 06:43:22;100;0;317.94;-4;-20.39;-3.96;539.4;14.30;76063;2834.340;-1757.906;1;317;-110;-111.3;43.7;44.0;15;15.3;26.1;0.0;
26/02/2025 06:43:42;100;0;316.68;-4;-20.30;-4.02;542.1;14.20;76056;2834.343;-1757.909;1;317;-110;-112.9;43.7;44.0;15;14.9;26.1;0.0;
26/02/2025 06:44:02;100;0;316.24;-4;-20.16;-3.97;544.6;14.20;76044;2834.345;-1757.912;1;317;-110;-111.3;43.7;44.0;15;15.3;26.1;0.0;
26/02/2025 06:44:22;100;0;316.22;-4;-20.22;-4.02;547.1;14.20;76039;2834.348;-1757.914;1;317;-110;-109.7;43.7;44.0;15;15.3;26.1;0.0;
26/02/2025 06:44:42;100;0;316.56;-4;-20.17;-4.00;549.7;14.20;76042;2834.351;-1757.917;1;317;-110;-112.9;43.7;44.0;15;15.3;26.1;0.0;
26/02/2025 06:45:02;100;0;316.89;-4;-19.90;-4.01;552.2;14.10;76044;2834.353;-1757.920;1;317;-110;-112.9;43.7;44.0;15;15.3;26.1;0.0;
26/02/2025 06:45:22;100;0;317.92;-4;-19.96;-4.02;554.6;14.10;76055;2834.356;-1757.922;1;317;-110;-112.9;43.7;44.0;15;15.3;26.1;0.0;
26/02/2025 06:45:42;100;0;318.87;-4;-19.98;-4.02;557.0;14.10;76034;2834.359;-1757.925;1;317;-110;-112.9;43.7;44.0;15;15.3;26.1;0.0;
26/02/2025 06:46:02;100;0;320.47;-4;-19.88;-3.99;559.3;14.10;76040;2834.361;-1757.927;1;317;-110;-111.3;43.7;44.0;15;15.3;26.1;0.0;
26/02/2025 06:46:22;100;0;321.97;-4;-19.86;-4.05;561.9;14.10;76027;2834.364;-1757.929;1;317;-110;-111.3;43.7;44.0;15;14.9;26.1;0.0;
26/02/2025 06:46:42;100;0;323.49;-4;-19.90;-4.07;564.2;14.00;76016;2834.367;-1757.931;1;317;-110;-112.9;43.7;44.0;17;17.1;26.1;0.0;
26/02/2025 06:47:02;100;0;323.81;-4;-20.10;-2.78;566.5;14.00;76016;2834.369;-1757.933;1;317;-110;-112.9;43.7;44.0;17;17.6;26.1;0.0;
26/02/2025 06:47:22;100;0;322.82;-4;-20.09;-2.79;568.9;14.00;76006;2834.372;-1757.936;1;317;-110;-114.5;43.7;44.0;17;17.6;26.1;0.0;
26/02/2025 06:47:42;100;0;323.31;-4;-20.24;-2.72;571.5;14.00;76012;2834.375;-1757.938;1;317;-110;-112.9;43.7;44.0;17;17.6;26.1;0.0;
26/02/2025 06:48:02;100;0;325.72;-4;-20.12;-2.73;574.0;14.00;76005;2834.378;-1757.940;1;317;-110;-112.9;43.7;44.0;19;19.0;26.1;0.0;
26/02/2025 06:48:22;100;0;327.04;-4;-20.24;-1.86;576.6;13.90;75996;2834.381;-1757.943;1;317;-110;-112.9;43.7;44.0;19;19.4;26.1;0.0;
26/02/2025 06:48:42;100;0;327.95;-4;-20.17;-1.82;579.1;13.90;76002;2834.384;-1757.945;1;317;-110;-111.3;43.7;44.0;21;21.2;26.1;0.0;
26/02/2025 06:49:02;100;0;330.09;-4;-20.41;-0.72;581.7;13.90;76005;2834.387;-1757.947;1;317;-110;-112.9;43.7;44.0;24;23.9;26.1;0.0;
26/02/2025 06:49:22;100;0;326.24;-4;-20.23;0.55;584.3;13.90;75984;2834.390;-1757.949;1;317;-110;-111.3;43.7;44.0;20;19.4;26.1;0.0;
26/02/2025 06:49:42;100;0;321.09;-4;-20.07;-1.97;586.9;13.90;75975;2834.393;-1757.951;1;317;-110;-111.3;43.7;44.0;16;15.8;26.1;0.0;
26/02/2025 06:50:02;100;0;318.25;-4;-19.79;-3.99;589.4;13.80;75972;2834.396;-1757.954;1;317;-110;-111.3;43.7;44.0;16;15.8;26.1;0.0;
26/02/2025 06:50:22;100;0;314.84;-4;-19.79;-3.87;592.1;13.80;75964;2834.399;-1757.957;1;317;-110;-112.9;43.7;44.0;16;15.8;26.1;0.0;
26/02/2025 06:50:42;100;0;316.26;-4;-20.44;-3.77;594.5;13.80;75965;2834.401;-1757.959;1;317;-110;-111.3;43.7;44.0;16;15.8;26.1;0.0;
26/02/2025 06:51:02;100;0;314.20;-4;-20.59;-3.68;597.1;13.80;75955;2834.404;-1757.962;1;317;-110;-112.9;43.7;44.0;16;15.8;26.1;0.0;
26/02/2025 06:51:22;100;0;313.98;-4;-19.93;-3.82;599.7;13.70;75953;2834.406;-1757.965;1;317;-110;-112.9;43.7;44.2;16;15.8;26.1;0.0;
26/02/2025 06:51:42;100;0;313.35;-4;-19.90;-3.74;602.3;13.70;75954;2834.409;-1757.968;1;317;-110;-112.9;43.7;44.0;16;15.8;26.1;0.0;
26/02/2025 06:52:02;100;0;311.12;-4;-20.10;-3.80;604.9;13.70;75947;2834.411;-1757.971;1;317;-110;-111.3;43.7;44.0;16;15.8;26.1;0.0;
26/02/2025 06:52:22;100;0;310.41;-4;-19.87;-3.60;607.6;13.70;75945;2834.414;-1757.974;1;317;-110;-112.9;43.7;44.0;16;15.8;26.1;0.0;
26/02/2025 06:52:42;100;0;307.84;-4;-19.96;-3.84;610.3;13.70;75937;2834.416;-1757.977;1;317;-110;-111.3;43.7;44.0;14;14.0;26.1;0.0;
26/02/2025 06:53:02;100;0;306.92;-4;-20.05;-4.81;613.1;13.60;75930;2834.419;-1757.981;1;317;-110;-111.3;43.7;44.2;14;14.0;26.1;0.0;
26/02/2025 06:53:22;100;0;303.14;-4;-20.04;-4.81;615.7;13.60;75923;2834.421;-1757.984;1;317;-110;-112.9;43.7;44.0;10;9.9;26.1;0.0;
26/02/2025 06:53:42;100;0;299.06;-4;-19.61;-7.11;618.5;13.60;75927;2834.423;-1757.988;1;317;-110;-111.3;43.7;44.0;5;5.0;26.1;0.0;
26/02/2025 06:54:02;100;0;300.17;-4;-19.81;-8.99;621.2;13.60;75914;2834.425;-1757.991;1;317;-110;-112.9;43.7;44.0;7;7.2;26.1;0.0;
26/02/2025 06:54:22;100;0;304.75;-4;-19.28;-7.80;623.8;13.60;75923;2834.427;-1757.995;1;317;-110;-111.3;43.7;44.0;12;12.2;26.1;0.0;
26/02/2025 06:54:42;100;0;308.07;-4;-19.46;-5.25;626.4;13.50;75921;2834.430;-1757.998;1;317;-110;-112.9;43.7;44.0;14;14.0;26.1;0.0;
26/02/2025 06:55:02;100;0;309.20;-4;-19.48;-4.32;629.0;13.50;75910;2834.432;-1758.001;1;317;-110;-111.3;43.7;44.0;14;14.4;26.1;0.0;
26/02/2025 06:55:22;100;0;309.94;-4;-19.62;-4.37;631.5;13.50;75904;2834.434;-1758.004;1;317;-110;-112.9;43.7;44.0;14;14.4;26.1;0.0;
26/02/2025 06:55:42;100;0;311.99;-4;-19.69;-4.33;633.9;13.50;75904;2834.437;-1758.007;1;317;-110;-111.3;43.7;44.0;14;14.4;26.1;0.0;
26/02/2025 06:56:02;100;0;314.45;-4;-19.72;-4.38;636.3;13.50;75907;2834.439;-1758.009;1;317;-110;-111.3;43.7;44.0;14;14.4;26.1;0.0;
26/02/2025 06:56:22;100;0;315.45;-4;-19.67;-4.32;638.8;13.50;75897;2834.442;-1758.012;1;317;-110;-112.9;43.7;44.0;14;14.4;26.1;0.0;
26/02/2025 06:56:42;100;0;315.21;-4;-19.65;-4.33;641.2;13.40;75889;2834.444;-1758.014;1;317;-110;-111.3;43.7;44.0;14;14.4;26.1;0.0;
26/02/2025 06:57:02;100;0;316.90;-4;-19.68;-4.35;643.4;13.40;75885;2834.447;-1758.017;1;317;-110;-111.3;43.7;44.0;14;14.4;26.1;0.0;
26/02/2025 06:57:22;100;0;319.46;-4;-19.59;-4.37;645.8;13.40;75883;2834.449;-1758.019;1;317;-110;-112.9;43.7;44.0;14;14.4;26.1;0.0;
26/02/2025 06:57:42;100;0;321.81;-4;-19.53;-4.38;648.2;13.30;75876;2834.452;-1758.022;1;317;-110;-111.3;43.7;44.0;16;15.8;26.1;0.0;
26/02/2025 06:58:02;100;0;322.96;-4;-19.52;-3.48;650.5;13.30;75873;2834.455;-1758.024;1;317;-110;-112.9;43.7;44.0;16;16.2;26.1;0.0;
26/02/2025 06:58:22;100;0;322.54;-4;-19.72;-3.48;652.8;13.30;75874;2834.457;-1758.026;1;317;-110;-114.5;43.7;44.0;16;16.2;26.1;0.0;
26/02/2025 06:58:42;100;0;321.79;-4;-19.59;-3.46;655.0;13.30;75870;2834.460;-1758.028;1;317;-110;-111.3;43.7;44.0;16;16.2;26.1;0.0;
26/02/2025 06:59:02;100;0;318.49;-4;-19.39;-3.48;657.3;13.30;75868;2834.462;-1758.030;1;317;-110;-112.9;43.7;44.0;16;16.2;26.1;0.0;
26/02/2025 06:59:22;100;0;317.16;-4;-19.44;-3.38;659.5;13.30;75863;2834.465;-1758.033;1;317;-110;-112.9;43.7;44.0;16;16.2;26.1;0.0;
26/02/2025 06:59:42;100;0;317.58;-4;-19.67;-3.67;661.7;13.30;75858;2834.467;-1758.035;1;317;-110;-112.9;43.7;44.0;16;16.2;26.1;0.0;
26/02/2025 07:00:02;100;0;317.04;-4;-19.42;-3.49;664.0;13.20;75851;2834.470;-1758.038;1;317;-110;-112.9;43.7;44.0;16;16.2;26.1;0.0;
26/02/2025 07:00:22;100;0;318.58;-4;-19.50;-3.51;666.3;13.20;75849;2834.472;-1758.040;1;317;-110;-111.3;43.7;44.0;16;16.2;26.1;0.0;
26/02/2025 07:00:42;100;0;320.62;-4;-19.41;-3.55;668.6;13.20;75848;2834.475;-1758.042;1;317;-110;-111.3;43.7;44.0;16;16.2;26.1;0.0;
26/02/2025 07:01:02;100;0;322.62;-4;-19.59;-3.51;670.9;13.20;75835;2834.477;-1758.044;1;317;-110;-111.3;43.7;44.0;16;16.2;26.1;0.0;
26/02/2025 07:01:22;100;0;322.51;-4;-19.69;-3.46;673.1;13.20;75827;2834.480;-1758.047;1;317;-110;-112.9;43.7;44.0;16;16.2;26.1;0.0;
26/02/2025 07:01:42;100;0;323.65;-4;-19.56;-3.52;675.4;13.10;75828;2834.483;-1758.049;1;317;-110;-112.9;43.7;44.0;18;18.1;26.1;0.0;
26/02/2025 07:02:02;100;0;324.14;-4;-19.64;-2.40;677.5;13.10;75831;2834.485;-1758.051;1;317;-110;-112.9;43.7;44.0;18;18.5;26.1;0.0;
26/02/2025 07:02:22;100;0;325.02;-4;-19.51;-2.43;679.8;13.10;75823;2834.488;-1758.053;1;317;-110;-111.3;43.7;44.0;18;18.5;26.1;0.0;
26/02/2025 07:02:42;100;0;324.68;-4;-19.83;-2.41;682.1;13.10;75819;2834.491;-1758.055;1;317;-110;-112.9;43.7;44.0;18;18.5;26.1;0.0;
26/02/2025 07:03:02;100;0;322.17;-4;-19.96;-2.42;684.4;13.10;75812;2834.493;-1758.057;1;317;-110;-111.3;43.7;44.0;18;18.5;26.1;0.0;
26/02/2025 07:03:22;100;0;322.24;-4;-19.59;-2.30;686.8;13.00;75799;2834.496;-1758.059;1;317;-110;-112.9;43.7;44.0;18;18.5;26.1;0.0;
26/02/2025 07:03:42;100;0;323.56;-4;-19.87;-2.33;689.2;13.00;75800;2834.499;-1758.061;1;317;-110;-112.9;43.7;44.0;18;18.5;26.1;0.0;
26/02/2025 07:04:02;100;0;322.84;-4;-19.73;-2.31;691.8;13.00;75786;2834.502;-1758.064;1;317;-110;-112.9;43.7;44.0;18;18.5;26.1;0.0;
26/02/2025 07:04:22;100;0;319.28;-4;-19.44;-2.32;694.2;13.00;75786;2834.504;-1758.066;1;317;-110;-112.9;43.7;44.0;16;15.8;26.1;0.0;
26/02/2025 07:04:42;100;0;316.34;-4;-19.40;-4.04;696.5;13.00;75775;2834.507;-1758.069;1;317;-110;-112.9;43.7;44.0;16;15.3;26.1;0.0;
26/02/2025 07:05:02;100;0;315.00;-4;-19.28;-3.95;698.8;12.90;75771;2834.509;-1758.071;1;317;-110;-111.3;43.7;44.0;16;15.3;26.1;0.0;
26/02/2025 07:05:22;100;0;313.56;-4;-19.22;-3.97;701.1;12.90;75761;2834.512;-1758.074;1;317;-110;-111.3;43.7;44.0;16;15.3;26.1;0.0;
26/02/2025 07:05:42;100;0;312.21;-4;-19.38;-3.93;703.3;12.90;75767;2834.514;-1758.077;1;317;-110;-111.3;43.7;44.0;16;15.8;26.1;0.0;
26/02/2025 07:06:02;100;0;310.27;-4;-19.36;-3.95;705.6;12.90;75760;2834.516;-1758.079;1;317;-110;-111.3;43.7;44.0;16;15.3;26.1;0.0;
26/02/2025 07:06:22;100;0;309.49;-4;-19.19;-3.92;707.9;12.90;75752;2834.518;-1758.082;1;317;-110;-112.9;43.7;44.0;16;15.3;26.1;0.0;
26/02/2025 07:06:42;100;0;307.62;-4;-19.57;-3.95;710.0;12.80;75747;2834.520;-1758.085;1;317;-110;-111.3;43.7;44.0;14;14.0;26.1;0.0;
26/02/2025 07:07:02;100;0;304.32;-4;-19.72;-4.79;712.3;12.80;75745;2834.522;-1758.088;1;317;-110;-112.9;43.7;44.0;12;12.2;26.1;0.0;
26/02/2025 07:07:22;100;0;307.65;-4;-18.58;-5.59;714.5;12.80;75727;2834.524;-1758.090;1;317;-110;-111.3;44.1;44.3;14;14.0;26.1;0.0;
26/02/2025 07:07:42;100;0;310.01;-4;-20.17;-4.45;716.8;12.80;75719;2834.527;-1758.093;1;317;-110;-112.9;44.1;44.5;14;14.4;26.1;0.0;
26/02/2025 07:08:02;100;0;312.25;-4;-20.01;-4.40;719.0;12.70;75712;2834.529;-1758.096;1;317;-110;-111.3;44.1;44.3;14;14.4;26.1;0.0;
26/02/2025 07:08:22;100;0;315.09;-4;-20.12;-4.37;721.3;12.70;75706;2834.531;-1758.098;1;317;-110;-112.9;44.1;44.3;16;15.8;26.1;0.0;
26/02/2025 07:08:42;100;0;318.68;-4;-20.01;-3.47;723.8;12.70;75712;2834.534;-1758.101;1;317;-110;-111.3;44.1;44.3;16;16.2;26.1;0.0;
26/02/2025 07:09:02;100;0;319.93;-4;-20.11;-3.51;726.2;12.70;75697;2834.537;-1758.103;1;317;-110;-112.9;44.1;44.5;16;16.2;26.1;0.0;
26/02/2025 07:09:22;100;0;319.24;-4;-20.35;-3.50;728.7;12.60;75689;2834.539;-1758.106;1;317;-110;-112.9;44.1;44.5;16;16.2;26.1;0.0;
26/02/2025 07:09:42;100;0;319.25;-4;-20.11;-3.54;731.3;12.60;75680;2834.542;-1758.108;1;317;-110;-112.9;44.1;44.5;16;16.2;26.1;0.0;
26/02/2025 07:10:02;100;0;319.60;-4;-20.11;-3.54;733.9;12.60;75675;2834.545;-1758.111;1;317;-110;-111.3;44.1;44.3;16;16.2;26.1;0.0;
26/02/2025 07:10:22;100;0;321.86;-4;-19.70;-3.46;736.7;12.60;75676;2834.548;-1758.113;1;317;-110;-112.9;44.1;44.3;16;16.2;26.1;0.0;
26/02/2025 07:10:42;100;0;321.35;-4;-20.06;-3.62;739.3;12.60;75660;2834.551;-1758.116;1;317;-110;-112.9;44.1;44.3;16;16.2;26.1;0.0;
26/02/2025 07:11:02;100;0;320.77;-4;-20.08;-3.50;742.0;12.50;75655;2834.554;-1758.119;1;317;-110;-112.9;44.1;44.5;16;16.2;26.1;0.0;
26/02/2025 07:11:22;100;0;319.72;-4;-20.11;-3.56;744.8;12.50;75651;2834.557;-1758.121;1;317;-110;-112.9;44.1;44.3;16;16.2;26.1;0.0;
26/02/2025 07:11:42;100;0;318.31;-4;-19.98;-3.59;747.7;12.50;75646;2834.560;-1758.124;1;317;-110;-112.9;44.1;44.3;16;16.2;26.1;0.0;
26/02/2025 07:12:02;100;0;318.41;-4;-20.21;-3.63;750.6;12.50;75644;2834.563;-1758.127;1;317;-110;-111.3;44.1;44.5;16;16.2;26.1;0.0;
26/02/2025 07:12:22;100;0;316.92;-4;-20.30;-3.51;753.6;12.40;75629;2834.566;-1758.130;1;317;-110;-111.3;44.1;44.3;16;16.2;26.1;0.0;
26/02/2025 07:12:42;100;0;314.75;-4;-20.13;-3.48;756.6;12.40;75624;2834.569;-1758.134;1;317;-110;-109.7;44.1;44.3;16;16.2;26.1;0.0;
26/02/2025 07:13:02;100;0;312.87;-4;-19.60;-3.68;759.4;12.40;75620;2834.572;-1758.137;1;317;-110;-111.3;44.1;44.3;16;16.2;26.1;0.0;
26/02/2025 07:13:22;100;0;308.88;-4;-19.94;-3.55;762.3;12.40;75615;2834.575;-1758.140;1;317;-110;-112.9;44.1;44.5;16;16.2;26.1;0.0;
26/02/2025 07:13:42;100;0;306.22;-4;-20.49;-3.51;765.3;12.30;75616;2834.577;-1758.144;1;317;-110;-111.3;44.1;44.5;14;14.0;26.1;0.0;
26/02/2025 07:14:02;100;0;303.66;-4;-20.07;-4.79;768.2;12.30;75623;2834.579;-1758.147;1;317;-110;-112.9;44.1;44.3;11;10.4;26.1;0.0;
26/02/2025 07:14:22;100;0;303.36;-4;-20.19;-6.78;771.1;12.30;75602;2834.582;-1758.151;1;317;-110;-111.3;44.1;44.3;11;10.4;26.1;0.0;
26/02/2025 07:14:42;100;0;298.33;-4;-19.59;-6.37;773.9;12.30;75603;2834.584;-1758.155;1;317;-110;-112.9;44.1;44.5;4;4.1;26.1;0.0;
26/02/2025 07:15:02;100;0;297.58;-4;-19.80;-9.83;776.7;12.30;75601;2834.586;-1758.159;1;317;-110;-112.9;44.1;44.5;4;3.6;26.1;0.0;
26/02/2025 07:15:22;100;0;299.51;-4;-19.27;-9.71;779.5;12.20;75594;2834.588;-1758.162;1;317;-110;-112.9;44.1;44.3;6;5.9;26.1;0.0;
26/02/2025 07:15:42;100;0;299.76;-4;-19.60;-8.45;782.1;12.20;75587;2834.590;-1758.166;1;317;-110;-111.3;44.1;44.5;6;6.3;26.1;0.0;
26/02/2025 07:16:03;100;0;300.37;-4;-19.91;-8.54;784.9;12.20;75580;2834.592;-1758.169;1;317;-110;-112.9;44.1;44.3;6;6.3;26.1;0.0;
26/02/2025 07:16:23;100;0;300.36;-4;-19.52;-8.58;787.5;12.20;75567;2834.594;-1758.173;1;317;-110;-112.9;44.1;44.5;6;6.3;26.1;0.0;
26/02/2025 07:16:43;100;0;301.57;-4;-19.52;-8.55;790.2;12.10;75573;2834.596;-1758.176;1;317;-110;-111.3;44.1;44.5;9;9.0;26.1;0.0;
26/02/2025 07:17:03;100;0;303.20;-4;-19.56;-6.93;792.7;12.10;75566;2834.598;-1758.180;1;317;-110;-112.9;44.1;44.3;9;9.5;26.1;0.0;
26/02/2025 07:17:23;100;0;304.00;-4;-19.75;-6.95;795.3;12.10;75560;2834.600;-1758.183;1;317;-110;-112.9;44.1;44.5;11;10.8;26.1;0.0;
26/02/2025 07:17:43;100;0;305.30;-4;-19.77;-6.03;797.9;12.10;75553;2834.602;-1758.186;1;317;-110;-111.3;44.1;44.5;11;10.8;26.1;0.0;
26/02/2025 07:18:03;100;0;306.98;-4;-19.68;-6.07;800.4;12.00;75553;2834.605;-1758.189;1;317;-110;-111.3;44.1;44.5;14;14.0;26.1;0.0;
26/02/2025 07:18:23;100;0;308.25;-4;-19.62;-4.56;803.0;12.00;75543;2834.607;-1758.192;1;317;-110;-112.9;44.1;44.3;14;14.4;26.1;0.0;
26/02/2025 07:18:43;100;0;308.49;-4;-19.43;-4.53;805.4;12.00;75543;2834.609;-1758.195;1;317;-110;-109.7;44.1;44.5;14;14.4;26.1;0.0;
26/02/2025 07:19:03;100;0;309.46;-4;-20.01;-4.43;807.8;12.00;75531;2834.612;-1758.198;1;317;-110;-111.3;44.1;44.5;14;14.4;26.1;0.0;
26/02/2025 07:19:23;100;0;312.14;-4;-20.01;-4.52;810.2;11.90;75536;2834.614;-1758.201;1;317;-110;-114.5;44.1;44.5;14;14.4;26.1;0.0;
26/02/2025 07:19:43;100;0;315.76;-4;-19.68;-4.52;812.9;11.90;75526;2834.617;-1758.204;1;317;-110;-111.3;44.1;44.5;14;14.4;26.1;0.0;
26/02/2025 07:20:03;100;0;317.18;-4;-19.52;-4.53;815.3;11.90;75529;2834.619;-1758.206;1;317;-110;-112.9;44.1;44.5;14;14.4;26.1;0.0;
26/02/2025 07:20:23;100;0;319.12;-4;-19.63;-4.49;817.7;11.90;75511;2834.622;-1758.209;1;317;-110;-112.9;44.1;44.5;14;14.4;26.1;0.0;
26/02/2025 07:20:43;100;0;321.27;-4;-19.64;-4.47;820.1;11.90;75517;2834.625;-1758.211;1;317;-110;-111.3;44.1;44.5;16;16.2;26.1;0.0;
26/02/2025 07:21:03;100;0;321.97;-4;-19.70;-3.48;822.6;11.90;75524;2834.627;-1758.213;1;317;-110;-111.3;44.1;44.3;16;16.2;26.1;0.0;
26/02/2025 07:21:23;100;0;322.58;-4;-19.56;-3.45;825.0;11.80;75520;2834.630;-1758.216;1;317;-110;-111.3;44.1;44.5;16;16.2;26.1;0.0;
26/02/2025 07:21:43;100;0;323.75;-4;-19.57;-3.45;827.3;11.80;75505;2834.633;-1758.218;1;317;-110;-111.3;44.1;44.5;16;16.2;26.1;0.0;
26/02/2025 07:22:03;100;0;323.69;-4;-19.69;-3.42;829.9;11.80;75508;2834.636;-1758.220;1;317;-110;-111.3;44.1;44.5;16;16.7;26.1;0.0;
26/02/2025 07:22:23;100;0;321.83;-4;-19.80;-3.44;832.1;11.80;75502;2834.638;-1758.222;1;317;-110;-111.3;44.1;44.5;16;16.7;26.1;0.0;
26/02/2025 07:22:43;100;0;321.33;-4;-19.57;-3.42;834.3;11.70;75505;2834.641;-1758.224;1;317;-110;-112.9;44.1;44.3;16;16.2;26.1;0.0;
26/02/2025 07:23:03;100;0;320.89;-4;-19.64;-3.37;836.6;11.70;75503;2834.643;-1758.226;1;317;-110;-112.9;44.1;44.3;16;16.2;26.1;0.0;
26/02/2025 07:23:23;100;0;320.90;-4;-19.63;-3.45;839.0;11.70;75489;2834.646;-1758.229;1;317;-110;-112.9;44.1;44.5;16;16.7;26.1;0.0;
26/02/2025 07:23:43;100;0;321.08;-4;-19.65;-3.45;841.1;11.70;75487;2834.648;-1758.231;1;317;-110;-112.9;44.1;44.5;16;16.7;26.1;0.0;
26/02/2025 07:24:03;100;0;319.48;-4;-19.61;-3.46;843.3;11.70;75475;2834.651;-1758.233;1;317;-110;-111.3;44.1;44.5;16;16.7;26.1;0.0;
26/02/2025 07:24:23;100;0;317.99;-4;-19.57;-3.46;845.4;11.60;75473;2834.653;-1758.235;1;317;-110;-111.3;44.1;44.5;16;16.2;26.1;0.0;
26/02/2025 07:24:43;100;0;317.96;-4;-19.61;-3.45;847.5;11.60;75474;2834.655;-1758.237;1;317;-110;-112.9;44.1;44.3;16;16.7;26.1;0.0;
26/02/2025 07:25:03;100;0;318.68;-4;-19.69;-3.36;849.5;11.60;75467;2834.658;-1758.239;1;317;-130;-130.6;44.1;44.5;16;16.7;26.1;0.0;
26/02/2025 07:25:23;100;0;319.63;-4;-19.11;-3.35;851.6;11.60;75510;2834.660;-1758.242;1;317;-130;-133.9;44.1;44.5;16;16.7;26.1;0.0;
26/02/2025 07:25:43;100;0;320.35;-4;-19.39;-3.33;853.7;11.60;75522;2834.662;-1758.244;1;317;-130;-133.9;44.1;44.5;16;16.2;26.1;0.0;
26/02/2025 07:26:03;100;0;320.39;-4;-19.54;-3.35;855.9;11.50;75513;2834.665;-1758.246;1;317;-130;-133.9;44.1;44.5;16;16.7;26.1;0.0;
26/02/2025 07:26:23;100;0;321.84;-4;-19.22;-3.31;858.1;11.50;75508;2834.668;-1758.248;1;317;-130;-133.9;44.1;44.3;16;16.7;26.1;0.0;
26/02/2025 07:26:43;100;0;324.05;-4;-19.28;-3.37;860.1;11.50;75514;2834.670;-1758.250;1;317;-150;-150.0;44.1;44.5;19;19.0;26.1;0.0;
26/02/2025 07:27:03;100;0;324.70;-4;-19.35;-1.84;862.4;11.50;75544;2834.673;-1758.252;1;317;-150;-153.2;44.1;44.5;19;19.4;26.1;0.0;
26/02/2025 07:27:23;100;0;324.14;-4;-19.41;-1.76;864.7;11.50;75541;2834.676;-1758.254;1;317;-150;-153.2;44.1;44.5;19;19.4;26.1;0.0;
26/02/2025 07:27:43;100;0;324.07;-4;-19.84;-1.65;867.1;11.40;75543;2834.678;-1758.257;1;317;-150;-153.2;44.1;44.5;19;19.4;26.1;0.0;
26/02/2025 07:28:03;100;0;325.84;-4;-19.53;-1.72;869.6;11.40;75541;2834.681;-1758.259;1;317;-150;-154.8;44.1;44.3;19;19.4;26.1;0.0;
26/02/2025 07:28:23;100;0;325.83;-4;-19.29;-1.69;872.0;11.40;75534;2834.684;-1758.261;1;317;-150;-153.2;44.1;44.3;19;19.4;26.1;0.0;
26/02/2025 07:28:43;100;0;323.68;-4;-19.13;-1.78;874.2;11.40;75531;2834.687;-1758.263;1;317;-150;-153.2;44.1;44.3;19;19.4;26.1;0.0;
26/02/2025 07:29:03;100;0;320.33;-4;-19.13;-1.74;876.4;11.40;75512;2834.689;-1758.265;1;317;-150;-154.8;44.1;44.5;16;15.8;26.1;0.0;
26/02/2025 07:29:23;100;0;318.26;-4;-18.89;-3.79;878.5;11.30;75505;2834.692;-1758.268;1;317;-150;-154.8;44.5;44.5;16;15.8;26.1;0.0;
26/02/2025 07:29:43;100;0;317.14;-4;-19.20;-3.70;880.6;11.30;75506;2834.694;-1758.270;1;317;-150;-154.8;44.5;44.5;16;15.8;26.1;0.0;
26/02/2025 07:30:03;100;0;314.92;-4;-19.02;-3.72;882.8;11.30;75499;2834.697;-1758.272;1;317;-150;-154.8;44.5;44.3;16;15.8;26.1;0.0;
26/02/2025 07:30:23;100;0;313.24;-4;-19.04;-3.77;884.9;11.30;75502;2834.699;-1758.275;1;317;-150;-154.8;44.5;44.5;16;15.8;26.1;0.0;
26/02/2025 07:30:43;100;0;313.32;-4;-19.00;-3.78;887.1;11.30;75505;2834.701;-1758.277;1;317;-150;-153.2;44.5;44.5;16;15.8;26.1;0.0;
26/02/2025 07:31:03;100;0;311.69;-4;-18.97;-3.77;889.1;11.30;75495;2834.703;-1758.280;1;317;-150;-154.8;44.8;44.8;16;15.8;26.1;0.0;
26/02/2025 07:31:23;100;0;311.16;-4;-19.88;-3.77;891.3;11.20;75491;2834.705;-1758.282;1;317;-150;-153.2;44.8;44.9;16;15.8;26.1;0.0;
26/02/2025 07:31:43;100;0;309.68;-4;-20.14;-3.80;893.6;11.20;75489;2834.707;-1758.285;1;317;-150;-153.2;44.8;44.9;16;15.8;26.1;0.0;
26/02/2025 07:32:03;100;0;309.61;-4;-20.18;-3.74;895.9;11.20;75484;2834.710;-1758.288;1;317;-150;-153.2;44.8;44.9;16;15.8;26.1;0.0;
26/02/2025 07:32:23;100;0;306.50;-4;-20.11;-3.70;898.2;11.20;75473;2834.712;-1758.290;1;317;-150;-153.2;44.8;44.9;14;14.0;26.1;0.0;
26/02/2025 07:32:43;100;0;305.00;-4;-20.21;-4.63;900.6;11.20;75467;2834.714;-1758.293;1;317;-150;-154.8;44.8;44.9;14;14.0;26.1;0.0;
26/02/2025 07:33:03;100;0;305.42;-4;-20.07;-4.58;902.8;11.10;75472;2834.716;-1758.296;1;317;-150;-153.2;44.8;45.1;14;13.5;26.1;0.0;
26/02/2025 07:33:23;100;0;306.04;-4;-20.16;-4.65;905.2;11.10;75470;2834.718;-1758.299;1;317;-150;-153.2;44.8;44.9;14;13.5;26.1;0.0;
26/02/2025 07:33:43;100;0;306.79;-4;-20.13;-4.68;907.4;11.10;75447;2834.720;-1758.302;1;317;-150;-153.2;44.8;44.9;14;13.5;26.1;0.0;
26/02/2025 07:34:03;100;0;306.85;-4;-20.24;-4.65;909.9;11.10;75460;2834.722;-1758.305;1;317;-150;-153.2;44.8;44.9;14;13.5;26.1;0.0;
26/02/2025 07:34:23;100;0;307.56;-4;-19.97;-4.68;912.3;11.10;75458;2834.724;-1758.308;1;317;-150;-153.2;44.8;44.9;14;13.5;26.1;0.0;
26/02/2025 07:34:43;100;0;307.71;-4;-20.30;-4.65;914.6;11.00;75446;2834.726;-1758.311;1;317;-150;-153.2;44.8;44.9;14;14.0;26.1;0.0;
26/02/2025 07:35:03;100;0;306.89;-4;-20.28;-4.60;917.1;11.00;75443;2834.728;-1758.314;1;317;-150;-153.2;44.8;45.1;14;13.5;26.1;0.0;
26/02/2025 07:35:23;100;0;307.73;-4;-19.90;-4.68;919.5;11.00;75442;2834.731;-1758.317;1;317;-150;-154.8;44.8;44.9;14;13.5;26.1;0.0;
26/02/2025 07:35:43;100;0;308.41;-4;-19.98;-4.67;921.9;11.00;75438;2834.733;-1758.319;1;317;-150;-154.8;44.8;44.9;14;13.5;26.1;0.0;
26/02/2025 07:36:03;100;0;308.57;-4;-20.13;-4.69;924.1;11.00;75435;2834.735;-1758.322;1;317;-150;-153.2;44.8;44.9;14;13.5;26.1;0.0;
26/02/2025 07:36:23;100;0;309.17;-4;-20.03;-4.71;926.5;10.90;75426;2834.737;-1758.325;1;317;-150;-153.2;44.8;44.9;14;13.5;26.1;0.0;
26/02/2025 07:36:43;100;0;311.18;-4;-19.70;-4.68;928.8;10.90;75429;2834.739;-1758.328;1;317;-150;-154.8;44.8;44.9;14;13.5;26.1;0.0;
26/02/2025 07:37:03;100;0;315.86;-4;-20.07;-4.61;931.1;10.90;75415;2834.742;-1758.330;1;317;-150;-156.5;44.8;44.9;14;13.5;26.1;0.0;
26/02/2025 07:37:23;100;0;319.95;-4;-20.10;-4.59;933.3;10.90;75417;2834.744;-1758.332;1;317;-150;-153.2;44.8;44.9;16;16.2;26.1;0.0;
26/02/2025 07:37:43;100;0;322.31;-4;-20.35;-3.12;935.7;10.90;75410;2834.747;-1758.334;1;317;-150;-153.2;44.8;44.9;16;16.7;26.1;0.0;
26/02/2025 07:38:03;100;0;323.77;-4;-20.31;-3.09;938.1;10.90;75405;2834.750;-1758.337;1;317;-150;-153.2;44.8;44.9;18;18.1;26.1;0.0;
26/02/2025 07:38:23;100;0;321.89;-4;-20.26;-2.32;940.7;10.80;75401;2834.753;-1758.339;1;317;-150;-153.2;44.8;44.9;18;18.5;26.1;0.0;
26/02/2025 07:38:43;100;0;318.61;-4;-20.49;-2.29;943.2;10.80;75391;2834.755;-1758.342;1;317;-150;-153.2;44.8;44.9;16;15.8;26.1;0.0;
26/02/2025 07:39:03;100;0;316.58;-4;-20.10;-3.76;945.7;10.80;75391;2834.758;-1758.344;1;317;-150;-154.8;44.8;44.9;16;15.3;26.1;0.0;
26/02/2025 07:39:23;100;0;316.04;-4;-20.44;-3.72;948.2;10.80;75388;2834.761;-1758.347;1;317;-150;-153.2;44.8;44.9;16;15.8;26.1;0.0;
26/02/2025 07:39:43;100;0;313.85;-4;-20.24;-3.73;950.8;10.80;75391;2834.763;-1758.350;1;317;-150;-153.2;44.8;44.9;16;15.8;26.1;0.0;
26/02/2025 07:40:03;100;0;315.09;-4;-20.12;-3.70;953.3;10.80;75384;2834.766;-1758.353;1;317;-150;-154.8;44.8;45.1;16;15.3;26.1;0.0;
26/02/2025 07:40:23;100;0;317.08;-4;-20.32;-3.74;955.9;10.70;75390;2834.768;-1758.355;1;317;-150;-154.8;44.8;44.9;16;15.3;26.1;0.0;
26/02/2025 07:40:43;100;0;317.41;-4;-19.62;-3.82;958.4;10.70;75370;2834.771;-1758.358;1;317;-150;-153.2;44.8;45.1;16;15.3;26.1;0.0;
26/02/2025 07:41:03;100;0;316.10;-4;-19.75;-3.83;960.6;10.70;75367;2834.773;-1758.360;1;317;-150;-153.2;44.8;44.9;16;15.3;26.1;0.0;
26/02/2025 07:41:23;100;0;317.05;-4;-20.09;-3.73;963.1;10.70;75374;2834.776;-1758.363;1;317;-150;-156.5;44.8;44.9;16;15.3;26.1;0.0;
26/02/2025 07:41:43;100;0;316.11;-4;-19.52;-3.80;965.6;10.70;75369;2834.779;-1758.366;1;317;-150;-154.8;44.8;44.9;16;15.3;26.1;0.0;
26/02/2025 07:42:03;100;0;316.36;-4;-19.87;-3.78;967.9;10.60;75362;2834.781;-1758.368;1;317;-150;-153.2;44.8;44.9;16;15.3;26.1;0.0;
26/02/2025 07:42:23;100;0;318.07;-4;-20.19;-3.74;970.3;10.60;75362;2834.784;-1758.370;1;317;-150;-156.5;44.8;44.9;16;15.3;26.1;0.0;
26/02/2025 07:42:43;100;0;317.00;-4;-19.75;-3.76;972.6;10.60;75352;2834.786;-1758.373;1;317;-150;-153.2;44.8;45.1;16;15.3;26.1;0.0;
26/02/2025 07:43:03;100;0;315.00;-4;-20.05;-3.76;974.9;10.60;75348;2834.788;-1758.375;1;317;-150;-153.2;44.8;44.9;16;15.3;26.1;0.0;
26/02/2025 07:43:23;100;0;315.99;-4;-20.00;-3.74;977.2;10.60;75348;2834.791;-1758.378;1;317;-150;-153.2;44.8;44.9;16;15.8;26.1;0.0;
26/02/2025 07:43:43;100;0;316.40;-4;-19.95;-3.74;979.6;10.60;75338;2834.793;-1758.380;1;317;-150;-153.2;44.8;44.9;16;15.3;26.1;0.0;
26/02/2025 07:44:03;100;0;315.41;-4;-20.37;-3.83;982.0;10.50;75339;2834.796;-1758.383;1;317;-150;-154.8;44.8;44.9;16;15.8;26.1;0.0;
26/02/2025 07:44:23;100;0;314.14;-4;-20.44;-3.75;984.6;10.50;75319;2834.799;-1758.386;1;317;-150;-153.2;44.8;45.1;16;15.8;26.1;0.0;
26/02/2025 07:44:43;100;0;315.73;-4;-19.89;-3.72;987.2;10.50;75324;2834.801;-1758.389;1;317;-150;-153.2;44.8;45.1;16;15.3;26.1;0.0;
26/02/2025 07:45:03;100;0;317.76;-4;-20.17;-3.73;989.8;10.50;75317;2834.804;-1758.391;1;317;-150;-153.2;44.8;45.1;16;15.3;26.1;0.0;
26/02/2025 07:45:23;100;0;319.30;-4;-20.23;-3.78;992.4;10.50;75312;2834.807;-1758.394;1;317;-150;-153.2;44.8;44.9;16;15.8;26.1;0.0;
26/02/2025 07:45:43;100;0;319.85;-4;-19.94;-3.71;995.0;10.40;75313;2834.810;-1758.396;1;317;-150;-153.2;44.8;44.9;16;15.3;26.1;0.0;
26/02/2025 07:46:03;100;0;319.00;-4;-19.85;-3.79;997.8;10.40;75317;2834.813;-1758.399;1;317;-150;-153.2;44.8;44.9;16;15.3;26.1;0.0;
26/02/2025 07:46:12;118;0;318.75;-4;-19.84;-3.75;998.8;10.40;75325;2834.814;-1758.400;1;317;450;-150.0;22.0;21.9;6;5.9;26.1;0.0;
26/02/2025 07:46:22;118;0;49.37;-4;-5.91;-9.53;999.9;10.40;75295;2834.815;-1758.399;1;317;450;-22.6;22.0;21.6;6;5.4;24.8;-1.0;
26/02/2025 07:46:32;118;0;39.68;-4;20.68;-9.25;999.9;10.40;75028;2834.815;-1758.399;1;317;450;100.0;22.0;21.9;6;5.4;24.6;-1.0;
26/02/2025 07:46:42;118;0;34.02;-4;29.60;-9.81;999.0;10.40;74783;2834.816;-1758.399;1;317;450;224.2;22.0;22.2;6;5.9;24.7;-1.0;
26/02/2025 07:46:52;118;0;34.83;-4;28.74;-9.63;997.7;10.40;74528;2834.817;-1758.398;1;317;450;345.2;22.0;22.1;6;5.9;24.7;-1.0;
26/02/2025 07:47:02;118;0;35.63;-4;26.53;-9.08;996.2;10.40;74271;2834.818;-1758.397;1;317;450;451.6;22.0;22.1;6;5.4;24.3;-1.0;
26/02/2025 07:47:12;118;0;319.31;-4;23.76;-7.85;994.4;10.40;74062;2834.820;-1758.398;1;317;450;451.6;22.0;22.1;6;5.9;26.0;-1.0;
26/02/2025 07:47:22;118;0;313.52;-4;21.79;-8.50;992.5;10.50;74069;2834.822;-1758.400;1;317;450;451.6;22.0;22.1;6;5.9;26.0;-1.0;
26/02/2025 07:47:42;117;0;305.12;-4;19.09;-8.26;989.1;10.50;74065;2834.825;-1758.405;1;317;450;451.6;22.0;22.1;6;5.9;26.1;-1.0;
26/02/2025 07:48:02;117;0;297.27;-4;18.80;-8.36;985.6;10.60;74067;2834.827;-1758.410;1;317;450;451.6;21.6;21.5;40;40.2;26.1;-1.0;
26/02/2025 07:48:22;117;0;302.14;-4;21.49;9.44;982.2;10.60;74061;2834.830;-1758.414;1;317;450;453.2;21.6;21.5;33;32.5;26.1;-1.0;
26/02/2025 07:48:42;117;0;304.16;-4;22.55;5.42;978.6;10.60;74053;2834.832;-1758.418;1;317;450;451.6;22.4;22.4;31;31.1;26.1;-1.0;
26/02/2025 07:49:02;117;0;305.51;-4;21.53;4.72;974.7;10.60;74048;2834.835;-1758.422;1;317;450;450.0;22.4;22.5;31;31.1;26.1;-1.0;
26/02/2025 07:49:22;117;0;307.44;-4;21.18;4.61;971.1;10.60;74052;2834.838;-1758.426;1;317;450;450.0;22.4;22.5;29;28.9;26.1;-1.0;
26/02/2025 07:49:42;117;0;307.14;-4;20.80;3.43;967.5;10.60;74055;2834.841;-1758.430;1;317;450;453.2;22.4;22.5;29;28.9;26.1;-1.0;
26/02/2025 07:50:02;117;0;307.31;-4;20.81;3.30;963.8;10.60;74046;2834.844;-1758.435;1;317;450;453.2;22.4;22.5;29;28.9;26.1;-1.0;
26/02/2025 07:50:22;117;0;307.80;-4;20.70;3.37;960.4;10.60;74052;2834.847;-1758.439;1;317;450;451.6;22.4;22.5;29;28.4;26.1;-1.0;
26/02/2025 07:50:42;117;0;309.41;-4;20.65;3.48;956.7;10.50;74045;2834.850;-1758.443;1;317;450;451.6;22.4;22.5;29;28.9;26.1;-1.0;
26/02/2025 07:51:03;117;0;310.48;-4;20.87;3.29;953.3;10.50;74032;2834.853;-1758.447;1;317;450;451.6;22.4;22.5;29;28.9;26.1;-1.0;
26/02/2025 07:51:23;117;0;310.57;-4;20.77;3.09;949.8;10.50;74037;2834.856;-1758.450;1;317;450;453.2;22.4;22.5;29;28.4;26.1;-1.0;
26/02/2025 07:51:43;117;0;310.90;-4;20.68;3.38;946.5;10.50;74031;2834.859;-1758.454;1;317;450;451.6;22.4;22.5;29;28.9;26.1;-1.0;
26/02/2025 07:52:03;117;0;310.59;-4;20.64;3.42;943.1;10.40;74030;2834.862;-1758.458;1;317;450;451.6;22.4;22.5;29;28.4;26.0;-1.0;
26/02/2025 07:52:23;117;0;311.19;-4;20.59;3.35;939.8;10.40;74033;2834.865;-1758.462;1;317;450;453.2;22.4;22.5;29;28.9;26.1;-1.0;
26/02/2025 07:52:43;117;0;311.23;-4;20.54;3.34;936.5;10.40;74027;2834.868;-1758.465;1;317;450;451.6;22.4;22.5;29;28.9;26.1;-1.0;
