Timestamp;NavState;SecurityLevel;Heading;Declination;Pitch;Roll;Depth;Temperature;Pa;Lat;Lon;DeadReckoning;DesiredH;BallastCmd;BallastPos;LinCmd;LinPos;AngCmd;AngPos;Voltage;Altitude;
21/02/2025 19:11:13;119;0;200.97;-4;-54.64;-14.78;-0.1;17.70;75779;2834.122;-1757.219;0;161;500;509.7;100.0;100.6;0;-0.5;27.3;-1.0;
21/02/2025 19:11:22;116;0;213.36;-4;-53.13;-9.75;0.0;17.70;75769;2834.125;-1757.213;0;161;500;506.5;100.0;100.6;0;-0.5;27.3;-1.0;
21/02/2025 19:11:48;116;0;261.60;-4;-53.98;-15.41;-0.1;17.80;75782;2834.128;-1757.219;0;161;500;508.1;100.0;100.7;0;-0.5;27.2;-1.0;
21/02/2025 19:12:16;116;0;277.71;-4;-52.19;-20.21;0.0;17.90;75795;2834.131;-1757.228;0;161;500;508.1;100.0;100.6;0;-0.5;27.3;-1.0;
21/02/2025 19:12:36;116;0;274.32;-4;-56.10;-3.24;-0.1;17.90;75801;2834.132;-1757.231;0;161;500;508.1;100.0;100.6;0;-0.5;27.3;-1.0;
21/02/2025 19:12:52;116;0;270.72;-4;-59.14;-15.28;0.0;18.00;75805;2834.137;-1757.243;0;314;500;508.1;100.0;100.6;0;-0.5;27.3;-1.0;
21/02/2025 19:13:05;116;0;275.14;-4;-54.30;-20.87;-0.0;18.00;75812;2834.137;-1757.246;0;314;500;509.7;100.0;100.6;0;-0.5;27.3;-1.0;
21/02/2025 19:13:56;116;0;260.79;-4;-61.80;-6.93;-0.1;18.10;75830;2834.139;-1757.248;0;314;500;508.1;100.0;100.6;0;-0.5;27.3;-1.0;
21/02/2025 19:14:58;116;0;230.67;-4;-58.76;-13.06;-0.1;18.40;75847;2834.143;-1757.252;0;314;500;508.1;100.0;100.7;0;-0.5;27.3;-1.0;
21/02/2025 19:16:46;116;0;271.60;-4;-55.53;-11.16;-0.1;18.80;75884;2834.148;-1757.256;0;314;500;508.1;100.0;100.6;0;-0.5;27.3;-1.0;
21/02/2025 19:18:09;116;0;273.02;-4;-55.06;-22.30;-0.1;19.10;75905;2834.152;-1757.259;0;314;500;508.1;100.0;100.6;0;-0.5;27.3;-1.0;
21/02/2025 19:18:29;110;0;268.84;-4;-54.62;-21.75;-0.1;19.30;75916;2834.152;-1757.259;0;314;-70;395.2;100.0;99.9;-6;-5.9;27.3;-1.0;
21/02/2025 19:18:39;110;0;262.00;-4;-52.13;-16.71;0.3;19.30;76263;2834.152;-1757.259;1;314;-70;241.9;100.0;99.9;-6;-6.3;27.2;-1.0;
21/02/2025 19:18:49;110;0;261.04;-4;-58.03;-13.08;0.7;19.30;76504;2834.152;-1757.259;1;314;-70;82.3;100.0;99.9;-6;-5.9;27.2;-1.0;
21/02/2025 19:18:59;110;0;269.13;-4;-69.26;-29.70;0.8;19.40;76846;2834.153;-1757.259;1;314;-70;-69.4;100.0;99.9;-6;-5.9;27.2;-1.0;
21/02/2025 19:19:09;110;0;282.17;-4;-66.54;-12.76;1.3;19.40;77156;2834.153;-1757.260;1;314;-70;-69.4;41.7;41.7;-6;-6.3;27.3;-1.0;
21/02/2025 19:19:29;100;0;303.33;-4;-29.64;-14.67;5.0;19.50;77120;2834.156;-1757.263;1;314;-70;-66.1;41.7;41.4;-6;-6.3;27.3;-1.0;
21/02/2025 19:19:49;100;0;311.79;-4;-18.81;-14.72;8.3;19.50;77139;2834.160;-1757.267;1;314;-70;-62.9;42.1;42.4;17;17.1;27.3;-1.0;
21/02/2025 19:20:09;100;0;313.55;-4;-19.90;-3.06;10.7;19.60;77131;2834.163;-1757.270;1;314;-70;-64.5;42.1;42.6;19;19.0;27.3;-1.0;
21/02/2025 19:20:29;100;0;313.86;-4;-18.79;-1.89;13.2;19.60;77133;2834.166;-1757.272;1;314;-70;-62.9;42.4;42.4;19;19.4;27.3;0.0;
21/02/2025 19:20:49;100;0;311.13;-4;-19.97;-2.07;15.6;19.60;77127;2834.169;-1757.275;1;314;-70;-62.9;42.4;42.4;17;17.1;27.3;0.0;
21/02/2025 19:21:09;100;0;309.95;-4;-20.79;-3.30;18.1;19.60;77132;2834.172;-1757.278;1;314;-70;-64.5;42.4;42.4;17;16.7;27.3;0.0;
21/02/2025 19:21:29;100;0;311.72;-4;-18.36;-3.16;20.5;19.60;77150;2834.176;-1757.281;1;314;-70;-62.9;42.9;42.9;17;17.1;27.3;0.0;
21/02/2025 19:21:49;100;0;312.24;-4;-19.80;-3.28;23.0;19.60;77147;2834.179;-1757.284;1;314;-70;-64.5;42.9;43.2;17;16.7;27.3;0.0;
21/02/2025 19:22:09;100;0;314.08;-4;-20.80;-3.15;25.7;19.60;77141;2834.182;-1757.287;1;314;-70;-64.5;42.9;43.2;19;19.4;27.3;0.0;
21/02/2025 19:22:29;100;0;313.88;-4;-21.74;-1.74;28.5;19.60;77158;2834.185;-1757.290;1;314;-70;-61.3;42.9;43.2;19;19.4;27.3;0.0;
21/02/2025 19:22:49;100;0;314.32;-4;-20.25;-1.66;31.3;19.60;77153;2834.189;-1757.293;1;314;-70;-66.1;42.9;43.2;19;19.4;27.3;0.0;
21/02/2025 19:23:09;100;0;311.33;-4;-19.81;-1.74;34.1;19.60;77156;2834.192;-1757.296;1;314;-70;-62.9;42.9;43.2;17;17.1;27.3;0.0;
21/02/2025 19:23:29;100;0;307.07;-4;-21.11;-3.25;36.9;19.70;77165;2834.195;-1757.299;1;314;-70;-62.9;42.9;43.2;17;17.1;27.3;0.0;
21/02/2025 19:23:49;100;0;306.54;-4;-21.34;-3.10;39.5;19.70;77163;2834.198;-1757.302;1;314;-70;-66.1;42.9;43.2;17;16.7;27.3;0.0;
21/02/2025 19:24:09;100;0;306.58;-4;-20.58;-3.07;42.3;19.70;77166;2834.201;-1757.306;1;314;-70;-62.9;42.9;43.3;17;16.7;27.3;0.0;
21/02/2025 19:24:29;100;0;307.46;-4;-20.06;-3.08;45.0;19.70;77168;2834.204;-1757.309;1;314;-70;-62.9;42.9;43.2;17;17.1;27.3;0.0;
21/02/2025 19:24:49;100;0;308.64;-4;-20.69;-3.05;47.8;19.70;77171;2834.207;-1757.312;1;314;-70;-62.9;42.9;43.2;17;17.1;27.3;0.0;
21/02/2025 19:25:09;100;0;308.74;-4;-20.50;-3.09;50.6;19.70;77182;2834.210;-1757.316;1;314;-70;-64.5;42.9;43.2;17;17.1;27.3;0.0;
21/02/2025 19:25:29;100;0;306.67;-4;-20.99;-3.17;53.5;19.70;77174;2834.213;-1757.319;1;314;-70;-64.5;42.9;43.2;17;17.1;27.3;0.0;
21/02/2025 19:25:49;100;0;305.60;-4;-20.10;-3.08;56.3;19.70;77171;2834.217;-1757.322;1;314;-70;-62.9;42.9;43.2;17;17.1;27.3;0.0;
21/02/2025 19:26:09;100;0;302.93;-4;-20.27;-3.06;59.1;19.70;77188;2834.220;-1757.326;1;314;-70;-62.9;42.9;43.2;17;17.1;27.3;0.0;
21/02/2025 19:26:29;100;0;301.97;-4;-20.51;-3.11;62.0;19.70;77177;2834.222;-1757.330;1;314;-70;-64.5;42.9;43.2;17;17.1;27.3;0.0;
21/02/2025 19:26:49;100;0;302.08;-4;-20.38;-3.08;64.8;19.70;77179;2834.225;-1757.333;1;314;-70;-62.9;42.9;43.2;17;17.1;27.2;0.0;
21/02/2025 19:27:09;100;0;299.09;-4;-20.65;-3.10;67.7;19.70;77188;2834.228;-1757.337;1;314;-70;-62.9;42.9;43.2;15;14.9;27.3;0.0;
21/02/2025 19:27:29;100;0;294.50;-4;-20.70;-4.34;70.5;19.60;77186;2834.230;-1757.341;1;314;-70;-62.9;42.9;43.3;13;13.1;27.3;0.0;
21/02/2025 19:27:49;100;0;292.15;-4;-20.31;-5.04;73.4;19.70;77194;2834.233;-1757.345;1;314;-70;-62.9;42.9;43.2;10;9.9;27.3;0.0;
21/02/2025 19:28:09;100;0;292.30;-4;-19.96;-6.71;76.2;19.70;77194;2834.235;-1757.349;1;314;-70;-62.9;42.9;43.2;10;9.9;27.3;0.0;
21/02/2025 19:28:29;100;0;293.88;-4;-20.14;-6.75;78.9;19.60;77198;2834.237;-1757.352;1;314;-70;-62.9;42.9;43.2;13;13.1;27.3;0.0;
21/02/2025 19:28:49;100;0;294.95;-4;-20.28;-4.80;81.7;19.60;77195;2834.240;-1757.356;1;314;-70;-62.9;42.9;43.3;13;13.5;27.3;0.0;
21/02/2025 19:29:09;100;0;296.25;-4;-20.26;-4.77;84.5;19.60;77195;2834.242;-1757.360;1;314;-70;-64.5;42.9;43.2;13;13.5;27.3;0.0;
21/02/2025 19:29:29;100;0;295.56;-4;-20.11;-4.74;87.3;19.60;77187;2834.245;-1757.364;1;314;-70;-62.9;42.9;43.2;13;13.5;27.3;0.0;
21/02/2025 19:29:49;100;0;294.81;-4;-20.27;-4.79;90.0;19.60;77193;2834.247;-1757.368;1;314;-70;-62.9;42.9;43.2;13;13.5;27.3;0.0;
21/02/2025 19:30:09;100;0;295.28;-4;-20.17;-4.83;92.7;19.60;77209;2834.250;-1757.371;1;314;-70;-62.9;42.9;43.2;13;13.5;27.3;0.0;
21/02/2025 19:30:29;100;0;295.99;-4;-20.16;-4.76;95.5;19.60;77207;2834.252;-1757.375;1;314;-70;-62.9;42.9;43.2;13;13.5;27.3;0.0;
21/02/2025 19:30:49;100;0;296.76;-4;-20.30;-4.75;98.4;19.60;77199;2834.255;-1757.379;1;314;-70;-62.9;42.9;43.3;13;13.5;27.3;0.0;
21/02/2025 19:31:09;100;0;296.32;-4;-20.17;-4.75;101.2;19.60;77210;2834.258;-1757.383;1;314;-70;-62.9;42.9;43.2;13;13.5;27.2;0.0;
21/02/2025 19:31:29;100;0;297.89;-4;-20.36;-4.80;104.1;19.60;77213;2834.260;-1757.387;1;314;-70;-64.5;42.9;43.2;13;13.5;27.3;0.0;
21/02/2025 19:31:49;100;0;295.95;-4;-20.05;-4.78;107.0;19.60;77209;2834.263;-1757.391;1;314;-70;-62.9;42.9;43.2;13;13.5;27.3;0.0;
21/02/2025 19:32:09;100;0;294.81;-4;-19.99;-4.71;109.9;19.60;77214;2834.265;-1757.395;1;314;-70;-62.9;42.9;43.2;13;13.5;27.3;0.0;
21/02/2025 19:32:29;100;0;292.10;-4;-19.20;-4.89;112.6;19.60;77191;2834.268;-1757.399;1;314;-70;-62.9;42.9;43.2;9;9.0;27.3;0.0;
21/02/2025 19:32:49;100;0;291.95;-4;-19.89;-7.14;115.4;19.60;77183;2834.270;-1757.403;1;314;-70;-64.5;42.9;43.2;9;9.0;27.3;0.0;
21/02/2025 19:33:09;100;0;290.80;-4;-19.62;-7.13;118.2;19.60;77172;2834.272;-1757.407;1;314;-70;-62.9;42.9;43.2;9;9.0;27.3;0.0;
21/02/2025 19:33:29;100;0;288.85;-4;-19.23;-7.10;121.0;19.60;77153;2834.274;-1757.411;1;314;-70;-62.9;42.9;43.2;3;2.7;27.3;0.0;
21/02/2025 19:33:49;100;0;286.60;-4;-19.16;-10.45;123.7;19.50;77129;2834.276;-1757.415;1;314;-70;-62.9;42.9;43.2;3;2.7;27.3;0.0;
21/02/2025 19:34:09;100;0;294.05;-4;-19.28;-10.43;126.4;19.50;77132;2834.279;-1757.419;1;314;-70;-62.9;42.9;43.2;12;12.2;27.3;0.0;
21/02/2025 19:34:29;100;0;294.35;-4;-20.20;-5.22;129.2;19.50;77103;2834.281;-1757.423;1;314;-70;-61.3;42.9;43.2;12;12.6;27.3;0.0;
21/02/2025 19:34:49;100;0;293.69;-4;-19.37;-5.32;131.9;19.50;77077;2834.284;-1757.427;1;314;-70;-62.9;42.9;43.2;12;12.6;27.3;0.0;
21/02/2025 19:35:09;100;0;296.79;-4;-19.66;-5.27;134.5;19.40;77080;2834.286;-1757.430;1;314;-70;-62.9;42.9;43.3;14;14.4;27.3;0.0;
21/02/2025 19:35:29;100;0;294.25;-4;-19.96;-4.02;137.2;19.40;77049;2834.289;-1757.434;1;314;-70;-62.9;42.9;43.2;12;11.7;27.3;0.0;
21/02/2025 19:35:49;100;0;296.67;-4;-19.65;-5.78;140.0;19.40;77031;2834.291;-1757.438;1;314;-70;-64.5;42.9;43.2;14;14.4;27.3;0.0;
21/02/2025 19:36:09;100;0;297.11;-4;-19.56;-4.11;142.6;19.40;77021;2834.294;-1757.441;1;314;-70;-62.9;42.9;43.2;14;14.9;27.3;0.0;
21/02/2025 19:36:29;100;0;298.32;-4;-19.19;-4.12;145.2;19.30;77007;2834.296;-1757.445;1;314;-70;-62.9;42.9;43.3;14;14.9;27.3;0.0;
21/02/2025 19:36:49;100;0;302.07;-4;-19.30;-4.17;147.7;19.30;77001;2834.299;-1757.448;1;314;-70;-62.9;42.9;43.2;14;14.9;27.3;0.0;
21/02/2025 19:37:09;100;0;301.82;-4;-19.19;-4.20;150.1;19.30;76983;2834.302;-1757.451;1;314;-70;-62.9;42.9;43.2;14;14.9;27.3;0.0;
21/02/2025 19:37:30;100;0;304.69;-4;-19.81;-4.15;152.6;19.20;76964;2834.304;-1757.455;1;314;-70;-64.5;42.9;43.2;14;14.9;27.3;0.0;
21/02/2025 19:37:50;100;0;305.37;-4;-19.68;-4.16;155.2;19.20;76956;2834.307;-1757.458;1;314;-70;-64.5;42.9;43.2;14;14.9;27.3;0.0;
21/02/2025 19:38:10;100;0;304.00;-4;-18.71;-4.15;157.5;19.10;76959;2834.310;-1757.461;1;314;-70;-62.9;43.3;43.3;14;14.9;27.2;0.0;
21/02/2025 19:38:30;100;0;298.32;-4;-18.99;-4.22;159.9;19.10;76932;2834.313;-1757.464;1;314;-70;-62.9;43.6;43.7;14;14.9;27.3;0.0;
21/02/2025 19:38:50;100;0;293.94;-4;-20.83;-4.25;162.4;19.10;76922;2834.315;-1757.468;1;314;-70;-62.9;43.6;43.9;14;14.9;27.3;0.0;
21/02/2025 19:39:10;100;0;291.51;-4;-20.88;-4.14;165.1;19.00;76899;2834.317;-1757.471;1;314;-70;-62.9;43.6;44.0;9;9.0;27.3;0.0;
21/02/2025 19:39:30;100;0;289.65;-4;-20.72;-7.30;167.8;19.00;76893;2834.319;-1757.475;1;314;-70;-62.9;43.6;43.9;7;7.2;27.3;0.0;
21/02/2025 19:39:50;100;0;289.63;-4;-20.59;-8.14;170.6;19.00;76873;2834.321;-1757.479;1;314;-70;-62.9;43.6;43.9;7;7.2;27.3;0.0;
21/02/2025 19:40:10;100;0;288.58;-4;-20.46;-8.19;173.3;18.90;76869;2834.323;-1757.483;1;314;-70;-62.9;43.6;44.0;5;5.0;27.3;0.0;
21/02/2025 19:40:30;100;0;287.43;-4;-20.46;-9.44;175.9;18.90;76862;2834.325;-1757.487;1;314;-70;-62.9;43.6;44.0;5;4.5;27.3;0.0;
21/02/2025 19:40:50;100;0;288.66;-4;-20.47;-9.50;178.5;18.80;76858;2834.327;-1757.490;1;314;-70;-62.9;43.6;44.0;5;4.5;27.3;0.0;
21/02/2025 19:41:10;100;0;293.80;-4;-20.12;-9.48;181.1;18.80;76857;2834.330;-1757.494;1;314;-70;-62.9;43.6;43.9;11;10.8;27.3;0.0;
21/02/2025 19:41:30;100;0;297.94;-4;-20.45;-6.07;183.6;18.80;76842;2834.332;-1757.497;1;314;-70;-62.9;43.6;44.0;14;14.0;27.3;0.0;
21/02/2025 19:41:50;100;0;299.91;-4;-20.75;-4.16;186.2;18.70;76838;2834.335;-1757.501;1;314;-70;-62.9;43.6;44.0;14;14.9;27.3;0.0;
21/02/2025 19:42:10;100;0;300.34;-4;-21.27;-4.15;188.7;18.70;76826;2834.337;-1757.504;1;314;-70;-64.5;43.6;44.0;14;14.9;27.3;0.0;
21/02/2025 19:42:30;100;0;300.16;-4;-21.52;-4.09;191.5;18.70;76811;2834.340;-1757.507;1;314;-70;-62.9;43.6;44.0;14;14.9;27.3;0.0;
21/02/2025 19:42:50;100;0;302.70;-4;-21.76;-3.99;194.3;18.60;76807;2834.343;-1757.511;1;314;-70;-62.9;43.6;44.0;14;14.9;27.3;0.0;
21/02/2025 19:43:10;100;0;302.19;-4;-21.60;-4.10;197.2;18.60;76785;2834.345;-1757.514;1;314;-70;-62.9;43.6;44.0;14;14.9;27.2;0.0;
21/02/2025 19:43:30;100;0;305.75;-4;-21.76;-4.04;200.0;18.50;76774;2834.348;-1757.517;1;314;-70;-64.5;43.6;44.0;14;14.9;27.2;0.0;
21/02/2025 19:43:50;100;0;306.41;-4;-21.08;-4.11;203.0;18.50;76765;2834.351;-1757.521;1;314;-70;-62.9;43.6;43.9;14;14.9;27.3;0.0;
21/02/2025 19:44:10;100;0;310.71;-4;-21.54;-4.15;205.8;18.40;76749;2834.355;-1757.524;1;314;-70;-62.9;43.6;44.0;16;16.2;27.3;0.0;
21/02/2025 19:44:30;100;0;316.73;-4;-21.62;-3.36;208.8;18.40;76737;2834.358;-1757.527;1;314;-70;-62.9;43.6;43.9;21;21.7;27.3;0.0;
21/02/2025 19:44:50;100;0;316.07;-4;-21.60;-0.55;211.8;18.40;76738;2834.362;-1757.530;1;314;-70;-62.9;43.6;44.0;21;21.7;27.3;0.0;
21/02/2025 19:45:10;100;0;312.88;-4;-20.91;-0.56;214.6;18.30;76732;2834.365;-1757.533;1;314;-70;-62.9;43.6;44.0;17;17.1;27.3;0.0;
21/02/2025 19:45:30;100;0;312.38;-4;-20.62;-3.34;217.4;18.30;76706;2834.368;-1757.536;1;314;-70;-64.5;43.6;44.0;17;16.7;27.3;0.0;
21/02/2025 19:45:50;100;0;313.97;-4;-20.89;-3.23;220.1;18.20;76705;2834.372;-1757.539;1;314;-70;-62.9;43.6;44.0;17;16.7;27.3;0.0;
21/02/2025 19:46:10;100;0;313.77;-4;-20.71;-3.58;222.9;18.20;76693;2834.375;-1757.542;1;314;-70;-64.5;43.6;43.9;17;16.7;27.2;0.0;
21/02/2025 19:46:30;100;0;314.14;-4;-20.86;-3.33;225.7;18.10;76688;2834.378;-1757.545;1;314;-70;-64.5;43.6;44.0;17;16.7;27.3;0.0;
21/02/2025 19:46:50;100;0;314.86;-4;-20.70;-3.35;228.5;18.10;76678;2834.382;-1757.548;1;314;-70;-62.9;43.6;44.0;19;19.4;27.3;0.0;
21/02/2025 19:47:10;100;0;315.78;-4;-21.18;-1.68;231.3;18.00;76666;2834.385;-1757.551;1;314;-70;-62.9;43.6;44.0;19;19.9;27.3;0.0;
21/02/2025 19:47:30;100;0;311.15;-4;-21.04;-1.64;234.2;18.00;76661;2834.388;-1757.554;1;314;-70;-66.1;43.6;44.0;16;15.3;27.3;0.0;
21/02/2025 19:47:50;100;0;306.28;-4;-20.89;-3.95;237.1;18.00;76642;2834.392;-1757.557;1;314;-70;-62.9;43.6;44.0;16;15.3;27.3;0.0;
21/02/2025 19:48:10;100;0;306.57;-4;-20.57;-3.99;239.8;17.90;76629;2834.395;-1757.560;1;314;-70;-62.9;43.6;43.9;16;15.3;27.3;0.0;
21/02/2025 19:48:30;100;0;305.68;-4;-20.21;-3.93;242.6;17.90;76624;2834.398;-1757.564;1;314;-70;-62.9;43.6;44.0;16;15.3;27.3;0.0;
21/02/2025 19:48:50;100;0;303.25;-4;-20.48;-4.01;245.4;17.80;76603;2834.401;-1757.568;1;314;-70;-62.9;43.6;43.9;16;15.3;27.3;0.0;
21/02/2025 19:49:10;100;0;299.65;-4;-20.55;-4.02;248.1;17.80;76600;2834.403;-1757.571;1;314;-70;-62.9;43.6;44.0;16;15.3;27.3;0.0;
21/02/2025 19:49:30;100;0;299.26;-4;-20.37;-4.03;250.9;17.70;76582;2834.406;-1757.575;1;314;-70;-62.9;43.6;44.0;16;15.3;27.3;0.0;
21/02/2025 19:49:50;100;0;300.01;-4;-20.54;-3.94;253.8;17.70;76577;2834.409;-1757.578;1;314;-70;-62.9;43.6;44.0;16;15.3;27.3;0.0;
21/02/2025 19:50:10;100;0;303.51;-4;-20.31;-3.87;256.5;17.60;76570;2834.411;-1757.582;1;314;-70;-62.9;43.6;44.0;16;15.3;27.3;0.0;
21/02/2025 19:50:30;100;0;303.38;-4;-20.55;-4.09;259.2;17.60;76556;2834.414;-1757.585;1;314;-70;-66.1;43.6;43.9;16;15.3;27.3;0.0;
21/02/2025 19:50:50;100;0;307.01;-4;-20.73;-3.94;261.9;17.60;76549;2834.417;-1757.588;1;314;-70;-62.9;43.6;43.9;16;15.3;27.3;0.0;
21/02/2025 19:51:10;100;0;307.78;-4;-20.64;-4.01;264.6;17.50;76545;2834.420;-1757.592;1;314;-70;-62.9;43.6;43.9;16;15.3;27.3;0.0;
21/02/2025 19:51:30;100;0;307.50;-4;-20.67;-3.95;267.3;17.50;76533;2834.423;-1757.595;1;314;-70;-62.9;43.6;43.9;16;15.3;27.3;0.0;
21/02/2025 19:51:50;100;0;308.01;-4;-20.73;-3.92;270.1;17.40;76513;2834.426;-1757.598;1;314;-70;-64.5;43.6;44.0;16;15.3;27.3;0.0;
21/02/2025 19:52:10;100;0;310.11;-4;-20.72;-3.93;272.9;17.40;76514;2834.430;-1757.601;1;314;-70;-62.9;43.6;43.9;16;15.3;27.3;0.0;
21/02/2025 19:52:30;100;0;307.42;-4;-20.55;-4.01;275.7;17.30;76494;2834.433;-1757.604;1;314;-70;-62.9;43.6;43.9;16;15.3;27.3;0.0;
21/02/2025 19:52:50;100;0;305.46;-4;-20.40;-4.02;278.4;17.30;76495;2834.436;-1757.608;1;314;-70;-62.9;43.6;44.0;16;15.3;27.3;0.0;
21/02/2025 19:53:10;100;0;303.23;-4;-20.45;-4.02;281.1;17.30;76489;2834.438;-1757.611;1;314;-70;-62.9;43.6;44.0;16;15.3;27.3;0.0;
21/02/2025 19:53:30;100;0;300.47;-4;-20.39;-4.02;283.7;17.20;76489;2834.441;-1757.615;1;314;-70;-62.9;43.6;44.0;16;15.3;27.3;0.0;
21/02/2025 19:53:50;100;0;298.43;-4;-20.45;-4.02;286.4;17.20;76476;2834.444;-1757.618;1;314;-70;-61.3;43.6;44.0;14;14.0;27.3;0.0;
21/02/2025 19:54:10;100;0;297.18;-4;-20.67;-4.76;289.2;17.10;76462;2834.446;-1757.622;1;314;-70;-64.5;43.6;44.0;14;13.5;27.2;0.0;
21/02/2025 19:54:30;100;0;296.59;-4;-20.61;-4.75;292.0;17.10;76455;2834.449;-1757.626;1;314;-70;-62.9;43.6;43.9;14;13.5;27.3;0.0;
21/02/2025 19:54:50;100;0;294.94;-4;-20.75;-4.75;294.9;17.10;76445;2834.451;-1757.629;1;314;-70;-62.9;43.6;44.0;14;14.0;27.3;0.0;
21/02/2025 19:55:10;100;0;294.69;-4;-20.62;-4.73;297.8;17.00;76448;2834.454;-1757.633;1;314;-70;-62.9;43.6;44.0;12;11.7;27.3;0.0;
21/02/2025 19:55:30;100;0;293.78;-4;-20.42;-5.83;300.6;17.00;76438;2834.456;-1757.637;1;314;-70;-62.9;43.6;44.0;12;11.7;27.3;0.0;
21/02/2025 19:55:50;100;0;293.13;-4;-20.76;-5.93;303.4;16.90;76436;2834.459;-1757.641;1;314;-70;-62.9;43.6;44.0;12;11.7;27.3;0.0;
21/02/2025 19:56:10;100;0;291.61;-4;-20.37;-5.81;306.2;16.90;76425;2834.461;-1757.645;1;314;-70;-62.9;43.6;44.0;8;7.7;27.3;0.0;
21/02/2025 19:56:30;100;0;293.33;-4;-19.95;-7.72;308.9;16.80;76411;2834.463;-1757.649;1;314;-70;-62.9;43.6;43.9;11;10.8;27.3;0.0;
21/02/2025 19:56:50;100;0;295.17;-4;-20.27;-5.88;311.6;16.80;76409;2834.466;-1757.652;1;314;-70;-62.9;43.6;44.0;11;11.7;27.3;0.0;
21/02/2025 19:57:10;100;0;297.00;-4;-20.01;-5.80;314.2;16.80;76408;2834.468;-1757.656;1;314;-70;-62.9;43.6;43.9;13;13.1;27.3;0.0;
21/02/2025 19:57:30;100;0;297.92;-4;-19.60;-4.90;316.9;16.70;76407;2834.471;-1757.660;1;314;-70;-62.9;43.6;44.0;13;13.5;27.3;0.0;
21/02/2025 19:57:50;100;0;296.20;-4;-20.32;-4.86;319.4;16.70;76386;2834.473;-1757.663;1;314;-70;-62.9;43.6;43.9;13;13.5;27.3;0.0;
21/02/2025 19:58:10;100;0;295.89;-4;-20.51;-4.89;322.2;16.70;76382;2834.476;-1757.667;1;314;-70;-66.1;43.6;43.9;13;13.5;27.3;0.0;
21/02/2025 19:58:30;100;0;294.76;-4;-20.66;-4.82;325.0;16.60;76378;2834.478;-1757.670;1;314;-70;-62.9;43.6;44.0;13;13.5;27.3;0.0;
21/02/2025 19:58:50;100;0;294.36;-4;-20.64;-4.88;327.8;16.60;76376;2834.480;-1757.674;1;314;-70;-62.9;43.6;44.0;13;13.5;27.3;0.0;
21/02/2025 19:59:10;100;0;293.17;-4;-20.67;-4.80;330.7;16.50;76358;2834.483;-1757.678;1;314;-70;-62.9;43.6;44.0;10;9.5;27.3;0.0;
21/02/2025 19:59:30;100;0;293.46;-4;-20.74;-6.78;333.5;16.50;76352;2834.485;-1757.682;1;314;-70;-66.1;43.6;44.0;10;9.5;27.3;0.0;
21/02/2025 19:59:50;100;0;295.82;-4;-20.96;-6.59;336.5;16.50;76348;2834.488;-1757.686;1;314;-70;-62.9;43.6;44.0;13;13.1;27.3;0.0;
21/02/2025 20:00:10;100;0;296.03;-4;-21.35;-4.61;339.5;16.40;76342;2834.490;-1757.690;1;314;-70;-62.9;43.6;43.9;13;14.0;27.2;0.0;
21/02/2025 20:00:30;100;0;295.70;-4;-20.77;-4.66;342.6;16.40;76330;2834.493;-1757.694;1;314;-70;-62.9;43.6;44.0;13;14.0;27.3;0.0;
21/02/2025 20:00:50;100;0;294.34;-4;-20.64;-4.68;345.5;16.40;76326;2834.495;-1757.698;1;314;-70;-62.9;43.6;44.0;11;10.8;27.3;0.0;
21/02/2025 20:01:10;100;0;293.21;-4;-20.17;-6.35;348.3;16.30;76319;2834.498;-1757.702;1;314;-70;-62.9;43.6;44.0;11;10.4;27.2;0.0;
21/02/2025 20:01:30;100;0;294.47;-4;-19.70;-6.41;351.0;16.30;76313;2834.500;-1757.705;1;314;-70;-64.5;43.6;44.0;11;10.4;27.3;0.0;
21/02/2025 20:01:50;100;0;297.04;-4;-19.65;-6.43;353.6;16.30;76300;2834.503;-1757.709;1;314;-70;-64.5;43.6;43.9;13;13.1;27.3;0.0;
21/02/2025 20:02:10;100;0;299.16;-4;-19.73;-4.89;356.1;16.20;76290;2834.505;-1757.712;1;314;-70;-62.9;43.6;44.0;13;13.5;27.3;0.0;
21/02/2025 20:02:30;100;0;300.51;-4;-19.93;-4.90;358.6;16.20;76290;2834.508;-1757.716;1;314;-70;-62.9;43.6;44.0;13;13.5;27.3;0.0;
21/02/2025 20:02:50;100;0;302.45;-4;-20.22;-5.01;361.0;16.20;76287;2834.510;-1757.719;1;314;-70;-62.9;43.6;44.0;13;13.5;27.3;0.0;
21/02/2025 20:03:10;100;0;305.26;-4;-19.74;-4.89;363.6;16.10;76276;2834.513;-1757.722;1;314;-70;-62.9;43.6;43.9;13;13.5;27.3;0.0;
21/02/2025 20:03:30;100;0;305.05;-4;-20.08;-4.87;366.2;16.10;76275;2834.516;-1757.725;1;314;-70;-62.9;43.6;44.0;13;13.5;27.3;0.0;
21/02/2025 20:03:50;100;0;307.14;-4;-20.07;-4.81;368.7;16.00;76257;2834.519;-1757.728;1;314;-70;-62.9;43.6;44.0;13;13.5;27.3;0.0;
21/02/2025 20:04:10;100;0;308.57;-4;-19.66;-4.89;371.2;16.00;76256;2834.522;-1757.731;1;314;-70;-64.5;43.6;43.9;15;14.9;27.2;0.0;
21/02/2025 20:04:30;100;0;305.58;-4;-19.80;-3.84;373.6;16.00;76263;2834.525;-1757.734;1;314;-70;-62.9;43.6;44.0;15;15.3;27.3;0.0;
21/02/2025 20:04:50;100;0;305.62;-4;-19.72;-3.61;376.2;15.90;76253;2834.528;-1757.737;1;314;-70;-62.9;43.6;43.9;15;15.3;27.3;0.0;
21/02/2025 20:05:10;100;0;303.31;-4;-20.86;-4.10;378.5;15.90;76240;2834.530;-1757.740;1;314;-70;-62.9;43.6;44.0;15;15.3;27.2;0.0;
21/02/2025 20:05:30;100;0;303.70;-4;-20.40;-3.87;381.3;15.90;76250;2834.533;-1757.744;1;314;-70;-62.9;43.6;44.0;15;15.3;27.3;0.0;
21/02/2025 20:05:50;100;0;304.70;-4;-19.00;-3.74;384.0;15.80;76244;2834.536;-1757.747;1;314;-70;-64.5;43.6;44.0;15;15.3;27.2;0.0;
21/02/2025 20:06:10;100;0;308.70;-4;-20.51;-3.82;386.5;15.80;76223;2834.539;-1757.750;1;314;-70;-61.3;43.6;44.0;15;15.3;27.3;0.0;
21/02/2025 20:06:30;100;0;309.78;-4;-20.52;-3.79;389.1;15.80;76221;2834.542;-1757.753;1;314;-70;-62.9;43.6;44.0;15;15.3;27.3;0.0;
21/02/2025 20:06:50;100;0;310.75;-4;-20.42;-3.78;391.6;15.70;76212;2834.545;-1757.756;1;314;-70;-62.9;43.6;43.9;15;15.3;27.2;0.0;
21/02/2025 20:07:10;100;0;311.20;-4;-20.59;-3.86;394.2;15.70;76215;2834.548;-1757.759;1;314;-70;-64.5;43.6;44.0;15;15.3;27.3;0.0;
21/02/2025 20:07:30;100;0;317.30;-4;-20.19;-3.80;396.7;15.70;76200;2834.552;-1757.762;1;314;-70;-62.9;43.6;43.9;21;21.2;27.3;0.0;
21/02/2025 20:07:50;100;0;313.99;-4;-20.08;-0.91;399.2;15.60;76196;2834.555;-1757.764;1;314;-70;-66.1;43.6;44.0;18;18.1;27.3;0.0;
21/02/2025 20:08:10;100;0;310.69;-4;-20.06;-2.68;401.6;15.60;76195;2834.558;-1757.767;1;314;-70;-62.9;43.6;44.0;16;15.8;27.3;0.0;
21/02/2025 20:08:30;100;0;309.01;-4;-20.08;-3.76;403.9;15.60;76175;2834.561;-1757.770;1;314;-70;-62.9;43.6;44.0;16;15.8;27.3;0.0;
21/02/2025 20:08:50;100;0;308.10;-4;-19.91;-3.76;406.2;15.50;76177;2834.563;-1757.773;1;314;-70;-62.9;43.6;44.0;16;16.2;27.3;0.0;
21/02/2025 20:09:10;100;0;307.91;-4;-19.98;-3.74;408.5;15.50;76169;2834.566;-1757.776;1;314;-70;-62.9;43.6;44.0;16;15.8;27.2;0.0;
21/02/2025 20:09:30;100;0;308.25;-4;-19.95;-3.75;410.8;15.50;76170;2834.569;-1757.778;1;314;-70;-64.5;43.6;44.0;16;15.8;27.3;0.0;
21/02/2025 20:09:50;100;0;307.60;-4;-19.94;-3.75;413.1;15.50;76161;2834.572;-1757.781;1;314;-70;-62.9;43.6;43.9;16;15.8;27.3;0.0;
21/02/2025 20:10:10;100;0;306.54;-4;-20.03;-3.73;415.2;15.40;76165;2834.574;-1757.784;1;314;-70;-62.9;43.6;44.0;16;15.8;27.3;0.0;
21/02/2025 20:10:30;100;0;305.61;-4;-19.93;-3.74;417.4;15.40;76146;2834.577;-1757.787;1;314;-70;-62.9;43.6;43.9;16;15.8;27.3;0.0;
21/02/2025 20:10:50;100;0;304.48;-4;-19.64;-3.78;419.6;15.40;76148;2834.579;-1757.789;1;314;-70;-62.9;43.6;44.0;16;15.8;27.3;0.0;
21/02/2025 20:11:10;100;0;304.25;-4;-20.20;-3.79;421.8;15.30;76132;2834.582;-1757.792;1;314;-70;-61.3;43.6;43.9;16;15.8;27.3;0.0;
21/02/2025 20:11:30;100;0;305.89;-4;-20.59;-3.66;424.2;15.30;76139;2834.585;-1757.795;1;314;-70;-62.9;43.6;43.9;16;15.8;27.3;0.0;
21/02/2025 20:11:50;100;0;308.02;-4;-20.44;-3.50;426.7;15.30;76124;2834.588;-1757.798;1;314;-70;-62.9;43.6;44.0;16;15.8;27.3;0.0;
21/02/2025 20:12:10;100;0;309.43;-4;-20.82;-3.70;429.1;15.20;76119;2834.590;-1757.801;1;314;-70;-62.9;43.6;44.0;16;15.8;27.3;0.0;
21/02/2025 20:12:30;100;0;308.35;-4;-20.54;-3.70;431.7;15.20;76110;2834.593;-1757.804;1;314;-70;-62.9;43.6;44.0;16;15.8;27.3;0.0;
21/02/2025 20:12:50;100;0;309.37;-4;-20.21;-3.69;434.2;15.20;76113;2834.596;-1757.807;1;314;-70;-64.5;43.6;43.9;16;15.8;27.3;0.0;
21/02/2025 20:13:11;100;0;309.19;-4;-20.28;-3.66;436.7;15.20;76103;2834.599;-1757.810;1;314;-70;-62.9;43.6;44.0;16;15.8;27.3;0.0;
21/02/2025 20:13:31;100;0;310.13;-4;-20.35;-3.70;439.1;15.10;76093;2834.602;-1757.813;1;314;-70;-62.9;43.6;44.0;16;15.8;27.3;0.0;
21/02/2025 20:13:51;100;0;309.76;-4;-19.95;-3.73;441.6;15.10;76084;2834.605;-1757.816;1;314;-70;-62.9;43.6;44.0;16;15.8;27.3;0.0;
21/02/2025 20:14:11;100;0;307.27;-4;-19.81;-3.84;444.0;15.00;76076;2834.608;-1757.819;1;314;-70;-62.9;43.6;43.9;16;16.2;27.3;0.0;
21/02/2025 20:14:31;100;0;306.64;-4;-19.80;-3.76;446.4;15.00;76077;2834.611;-1757.822;1;314;-70;-62.9;43.6;44.0;16;15.8;27.3;0.0;
21/02/2025 20:14:51;100;0;305.80;-4;-20.01;-3.72;448.7;15.00;76069;2834.614;-1757.825;1;314;-70;-62.9;43.6;44.0;16;15.8;27.3;0.0;
21/02/2025 20:15:11;100;0;307.86;-4;-20.00;-3.72;451.2;15.00;76067;2834.617;-1757.828;1;314;-70;-62.9;43.6;44.0;16;16.2;27.3;0.0;
21/02/2025 20:15:31;100;0;306.47;-4;-19.98;-3.74;453.6;15.00;76063;2834.619;-1757.831;1;314;-70;-62.9;43.6;44.0;16;15.8;27.2;0.0;
21/02/2025 20:15:51;100;0;303.26;-4;-19.81;-3.78;456.0;14.90;76053;2834.622;-1757.834;1;314;-70;-62.9;43.6;44.0;16;15.8;27.3;0.0;
21/02/2025 20:16:11;100;0;301.79;-4;-19.96;-3.71;458.5;14.90;76049;2834.625;-1757.837;1;314;-70;-61.3;43.6;44.0;16;15.8;27.2;0.0;
21/02/2025 20:16:31;100;0;301.89;-4;-20.00;-3.73;461.1;14.90;76039;2834.627;-1757.840;1;314;-70;-62.9;43.6;43.9;16;16.2;27.3;0.0;
21/02/2025 20:16:51;100;0;301.37;-4;-19.87;-3.78;463.6;14.80;76037;2834.630;-1757.843;1;314;-70;-62.9;43.6;43.9;16;15.8;27.3;0.0;
21/02/2025 20:17:11;100;0;301.02;-4;-19.97;-3.77;466.2;14.80;76031;2834.633;-1757.847;1;314;-70;-62.9;43.6;44.0;16;15.8;27.3;0.0;
21/02/2025 20:17:31;100;0;302.24;-4;-20.10;-3.72;468.9;14.80;76019;2834.636;-1757.850;1;314;-70;-62.9;43.6;44.0;16;15.8;27.3;0.0;
21/02/2025 20:17:51;100;0;304.03;-4;-20.06;-3.69;471.6;14.80;76012;2834.639;-1757.854;1;314;-70;-62.9;43.6;44.0;16;15.8;27.3;0.0;
21/02/2025 20:18:11;100;0;305.20;-4;-19.84;-3.68;474.4;14.70;76004;2834.642;-1757.857;1;314;-70;-62.9;43.6;44.0;16;15.8;27.3;0.0;
21/02/2025 20:18:31;100;0;305.39;-4;-20.18;-3.86;477.2;14.70;76009;2834.645;-1757.861;1;314;-70;-64.5;43.6;44.0;16;15.8;27.3;0.0;
21/02/2025 20:18:51;100;0;306.19;-4;-20.45;-3.63;480.0;14.70;75994;2834.648;-1757.864;1;314;-70;-64.5;43.6;44.0;16;15.8;27.3;0.0;
21/02/2025 20:19:11;100;0;306.54;-4;-20.06;-3.61;483.0;14.60;75997;2834.651;-1757.868;1;314;-70;-62.9;43.6;44.0;16;15.8;27.3;0.0;
21/02/2025 20:19:31;100;0;307.61;-4;-20.06;-3.67;485.8;14.60;75978;2834.654;-1757.871;1;314;-70;-62.9;43.6;43.9;16;15.8;27.2;0.0;
21/02/2025 20:19:51;100;0;306.66;-4;-20.03;-3.74;488.6;14.60;75974;2834.657;-1757.875;1;314;-70;-62.9;43.6;44.0;16;16.2;27.3;0.0;
21/02/2025 20:20:11;100;0;303.98;-4;-19.99;-3.78;491.5;14.50;75974;2834.660;-1757.878;1;314;-70;-62.9;43.6;43.9;16;15.8;27.3;0.0;
21/02/2025 20:20:31;100;0;302.20;-4;-20.03;-3.70;494.4;14.50;75965;2834.663;-1757.882;1;314;-70;-62.9;43.6;44.0;16;15.8;27.3;0.0;
21/02/2025 20:20:51;100;0;300.71;-4;-19.93;-3.74;497.2;14.50;75959;2834.666;-1757.886;1;314;-70;-62.9;43.6;43.9;16;16.2;27.3;0.0;
21/02/2025 20:21:11;100;0;302.39;-4;-19.91;-3.73;500.1;14.50;75960;2834.669;-1757.890;1;314;-70;-66.1;43.6;44.0;16;15.8;27.3;0.0;
21/02/2025 20:21:31;100;0;301.85;-4;-19.94;-3.75;503.0;14.40;75953;2834.672;-1757.893;1;314;-70;-62.9;43.6;43.9;16;15.8;27.3;0.0;
21/02/2025 20:21:51;100;0;299.24;-4;-19.74;-3.72;505.9;14.40;75940;2834.675;-1757.897;1;314;-70;-62.9;43.6;43.9;14;14.0;27.3;0.0;
21/02/2025 20:22:11;100;0;298.48;-4;-19.58;-4.81;508.7;14.40;75942;2834.677;-1757.901;1;314;-70;-62.9;43.6;44.0;14;14.0;27.3;0.0;
21/02/2025 20:22:31;100;0;298.34;-4;-19.58;-4.83;511.5;14.40;75945;2834.680;-1757.905;1;314;-70;-62.9;43.6;44.0;14;13.5;27.3;0.0;
21/02/2025 20:22:51;100;0;297.29;-4;-19.81;-4.80;514.3;14.30;75928;2834.683;-1757.908;1;314;-70;-61.3;43.6;43.9;14;14.0;27.3;0.0;
21/02/2025 20:23:11;100;0;296.55;-4;-19.66;-4.79;517.2;14.30;75928;2834.685;-1757.912;1;314;-70;-62.9;43.6;44.0;14;14.0;27.3;0.0;
21/02/2025 20:23:31;100;0;298.02;-4;-19.41;-4.77;520.1;14.30;75932;2834.688;-1757.916;1;314;-70;-62.9;43.6;44.0;14;13.5;27.3;0.0;
21/02/2025 20:23:51;100;0;300.53;-4;-19.71;-4.93;523.0;14.20;75918;2834.691;-1757.920;1;314;-70;-62.9;43.6;44.0;14;14.0;27.3;0.0;
21/02/2025 20:24:11;100;0;305.55;-4;-19.60;-4.82;525.9;14.20;75914;2834.694;-1757.924;1;314;-70;-62.9;43.6;44.0;14;13.5;27.3;0.0;
21/02/2025 20:24:31;100;0;307.74;-4;-19.36;-4.70;528.8;14.20;75909;2834.697;-1757.927;1;314;-70;-62.9;43.6;44.0;14;14.0;27.3;0.0;
21/02/2025 20:24:51;100;0;309.20;-4;-19.22;-4.83;531.6;14.20;75899;2834.701;-1757.931;1;314;-70;-62.9;43.6;43.9;14;13.5;27.3;0.0;
21/02/2025 20:25:11;100;0;308.86;-4;-19.32;-4.79;534.4;14.20;75899;2834.704;-1757.934;1;314;-70;-62.9;43.6;44.0;14;14.0;27.3;0.0;
21/02/2025 20:25:31;100;0;308.16;-4;-19.33;-4.79;537.3;14.10;75898;2834.707;-1757.938;1;314;-70;-64.5;43.6;44.0;14;14.0;27.3;0.0;
21/02/2025 20:25:51;100;0;306.91;-4;-19.54;-4.82;540.1;14.10;75897;2834.710;-1757.941;1;314;-70;-62.9;43.6;43.9;14;14.0;27.3;0.0;
21/02/2025 20:26:11;100;0;306.98;-4;-19.49;-4.81;542.9;14.10;75897;2834.714;-1757.945;1;314;-70;-62.9;43.6;44.0;14;14.0;27.3;0.0;
21/02/2025 20:26:31;100;0;308.48;-4;-19.41;-4.80;545.8;14.10;75886;2834.717;-1757.948;1;314;-70;-62.9;43.6;44.0;14;14.0;27.3;0.0;
21/02/2025 20:26:51;100;0;310.55;-4;-19.23;-4.77;548.6;14.00;75880;2834.720;-1757.952;1;314;-70;-62.9;43.6;44.0;14;14.0;27.3;0.0;
21/02/2025 20:27:11;100;0;311.16;-4;-19.63;-4.81;551.4;14.00;75873;2834.724;-1757.955;1;314;-70;-62.9;43.6;44.0;16;15.8;27.2;0.0;
21/02/2025 20:27:31;100;0;307.20;-4;-18.13;-3.20;554.2;14.00;75876;2834.727;-1757.959;1;314;-70;-62.9;44.2;44.3;16;16.7;27.3;0.0;
21/02/2025 20:27:51;100;0;302.91;-4;-20.05;-3.32;556.8;14.00;75877;2834.730;-1757.962;1;314;-70;-66.1;44.2;44.6;16;16.7;27.2;0.0;
21/02/2025 20:28:11;100;0;300.38;-4;-20.09;-3.17;559.7;13.90;75868;2834.733;-1757.966;1;314;-70;-62.9;44.2;44.6;16;16.7;27.2;0.0;
21/02/2025 20:28:31;100;0;296.38;-4;-20.35;-3.30;562.5;13.90;75862;2834.735;-1757.970;1;314;-70;-62.9;44.2;44.6;13;13.1;27.3;0.0;
21/02/2025 20:28:51;100;0;294.81;-4;-20.29;-5.21;565.2;13.90;75862;2834.738;-1757.973;1;314;-70;-62.9;44.2;44.5;13;13.1;27.3;0.0;
21/02/2025 20:29:11;100;0;293.77;-4;-20.21;-5.27;567.9;13.90;75862;2834.740;-1757.977;1;314;-70;-62.9;44.2;44.6;11;10.8;27.3;0.0;
21/02/2025 20:29:31;100;0;294.35;-4;-20.21;-6.21;570.5;13.80;75861;2834.742;-1757.981;1;314;-70;-62.9;44.2;44.5;11;10.8;27.2;0.0;
21/02/2025 20:29:51;100;0;296.47;-4;-20.36;-6.22;573.2;13.80;75842;2834.745;-1757.984;1;314;-70;-62.9;44.2;44.6;13;13.1;27.3;0.0;
21/02/2025 20:30:11;100;0;300.40;-4;-20.28;-4.92;575.8;13.80;75840;2834.748;-1757.988;1;314;-70;-61.3;44.2;44.6;13;13.5;27.3;0.0;
21/02/2025 20:30:31;100;0;307.25;-4;-20.68;-4.98;578.5;13.80;75820;2834.751;-1757.991;1;314;-70;-62.9;44.2;44.5;15;14.9;27.2;0.0;
21/02/2025 20:30:51;100;0;310.85;-4;-20.53;-4.13;581.2;13.80;75829;2834.754;-1757.994;1;314;-70;-62.9;44.2;44.5;15;15.3;27.3;0.0;
21/02/2025 20:31:11;100;0;312.59;-4;-20.57;-3.99;583.8;13.70;75830;2834.757;-1757.997;1;314;-70;-62.9;44.2;44.6;18;18.5;27.3;0.0;
21/02/2025 20:31:31;100;0;312.67;-4;-20.82;-2.07;586.5;13.70;75812;2834.760;-1758.000;1;314;-70;-62.9;44.2;44.5;18;19.4;27.3;0.0;
21/02/2025 20:31:51;100;0;312.91;-4;-20.98;-2.03;589.3;13.70;75816;2834.763;-1758.003;1;314;-70;-61.3;44.2;44.6;18;19.0;27.3;0.0;
21/02/2025 20:32:11;100;0;312.59;-4;-21.25;-2.06;592.0;13.70;75816;2834.767;-1758.006;1;314;-70;-62.9;44.2;44.6;18;19.0;27.3;0.0;
21/02/2025 20:32:31;100;0;311.66;-4;-21.09;-2.09;594.6;13.60;75812;2834.770;-1758.009;1;314;-70;-66.1;44.2;44.6;18;19.0;27.3;0.0;
21/02/2025 20:32:51;100;0;311.21;-4;-21.23;-2.04;597.3;13.60;75800;2834.773;-1758.012;1;314;-70;-62.9;44.2;44.6;16;15.8;27.3;0.0;
21/02/2025 20:33:11;100;0;312.59;-4;-20.43;-3.72;600.1;13.60;75806;2834.776;-1758.015;1;314;-70;-62.9;44.2;44.6;16;15.8;27.3;0.0;
21/02/2025 20:33:31;100;0;310.68;-4;-20.24;-3.81;602.6;13.60;75790;2834.779;-1758.018;1;314;-70;-62.9;44.2;44.6;16;15.8;27.3;0.0;
21/02/2025 20:33:51;100;0;311.17;-4;-20.39;-3.78;605.0;13.60;75794;2834.782;-1758.021;1;314;-70;-62.9;44.2;44.6;16;15.8;27.3;0.0;
21/02/2025 20:34:11;100;0;312.36;-4;-20.39;-3.79;607.5;13.50;75792;2834.785;-1758.024;1;314;-70;-64.5;44.2;44.6;18;18.5;27.3;0.0;
21/02/2025 20:34:31;100;0;312.26;-4;-20.49;-2.29;609.9;13.50;75790;2834.788;-1758.026;1;314;-70;-62.9;44.2;44.8;18;19.0;27.3;0.0;
21/02/2025 20:34:51;100;0;312.29;-4;-20.54;-2.33;612.3;13.50;75787;2834.791;-1758.029;1;314;-70;-62.9;44.2;44.6;18;19.0;27.3;0.0;
21/02/2025 20:35:11;100;0;311.82;-4;-20.31;-2.29;614.6;13.50;75787;2834.794;-1758.032;1;314;-70;-62.9;44.2;44.6;18;19.0;27.3;0.0;
21/02/2025 20:35:31;100;0;309.40;-4;-20.46;-2.36;616.9;13.40;75772;2834.797;-1758.034;1;314;-70;-64.5;44.2;44.6;18;19.0;27.3;0.0;
21/02/2025 20:35:51;100;0;307.69;-4;-20.51;-2.28;619.2;13.40;75767;2834.800;-1758.037;1;314;-70;-62.9;44.2;44.5;16;15.8;27.3;0.0;
21/02/2025 20:36:11;100;0;306.02;-4;-20.43;-3.73;621.4;13.40;75768;2834.802;-1758.040;1;314;-70;-61.3;44.2;44.6;16;16.2;27.3;0.0;
21/02/2025 20:36:31;100;0;303.76;-4;-20.36;-3.69;623.7;13.40;75758;2834.805;-1758.043;1;314;-70;-62.9;44.2;44.6;16;16.2;27.3;0.0;
21/02/2025 20:36:51;100;0;300.92;-4;-20.42;-3.73;626.0;13.40;75757;2834.808;-1758.046;1;314;-70;-62.9;44.2;44.6;16;16.2;27.3;0.0;
21/02/2025 20:37:11;100;0;300.21;-4;-20.36;-3.65;628.3;13.30;75757;2834.810;-1758.049;1;314;-70;-62.9;44.2;44.6;16;16.2;27.2;0.0;
21/02/2025 20:37:31;100;0;299.63;-4;-20.43;-3.72;630.5;13.30;75750;2834.812;-1758.052;1;314;-70;-62.9;44.2;44.6;16;15.8;27.3;0.0;
21/02/2025 20:37:51;100;0;298.88;-4;-20.40;-3.66;632.8;13.30;75746;2834.815;-1758.055;1;314;-70;-62.9;44.2;44.6;16;16.2;27.3;0.0;
21/02/2025 20:38:11;100;0;298.29;-4;-20.50;-3.69;635.2;13.30;75748;2834.817;-1758.058;1;314;-70;-62.9;44.2;44.6;16;16.2;27.3;0.0;
21/02/2025 20:38:31;100;0;297.35;-4;-20.44;-3.67;637.5;13.30;75745;2834.820;-1758.061;1;314;-70;-62.9;44.2;44.6;16;16.2;27.3;0.0;
21/02/2025 20:38:51;100;0;295.75;-4;-20.44;-3.69;639.7;13.30;75748;2834.822;-1758.064;1;314;-70;-62.9;44.2;44.6;14;14.0;27.3;0.0;
21/02/2025 20:39:11;100;0;294.67;-4;-20.13;-4.75;641.8;13.20;75739;2834.824;-1758.067;1;314;-70;-62.9;44.2;44.6;14;14.0;27.3;0.0;
21/02/2025 20:39:31;100;0;294.22;-4;-20.06;-4.73;644.0;13.20;75735;2834.826;-1758.070;1;314;-70;-62.9;44.2;44.5;14;14.0;27.3;0.0;
21/02/2025 20:39:51;100;0;294.46;-4;-20.35;-4.79;646.1;13.20;75731;2834.828;-1758.073;1;314;-70;-62.9;44.2;44.6;14;14.0;27.2;0.0;
21/02/2025 20:40:11;100;0;295.15;-4;-20.52;-4.83;648.4;13.20;75731;2834.830;-1758.076;1;314;-70;-62.9;44.2;44.6;14;14.0;27.3;0.0;
21/02/2025 20:40:31;100;0;293.87;-4;-19.40;-4.81;650.6;13.10;75730;2834.832;-1758.080;1;314;-70;-61.3;44.2;44.5;14;14.0;27.3;0.0;
21/02/2025 20:40:51;100;0;291.87;-4;-19.93;-4.78;652.8;13.10;75717;2834.834;-1758.083;1;314;-70;-61.3;44.2;44.6;14;14.0;27.3;0.0;
21/02/2025 20:41:11;100;0;292.13;-4;-20.10;-4.69;654.8;13.10;75718;2834.836;-1758.086;1;314;-70;-62.9;44.2;44.6;12;12.2;27.3;0.0;
21/02/2025 20:41:31;100;0;292.34;-4;-20.25;-5.70;656.9;13.10;75716;2834.838;-1758.088;1;314;-70;-62.9;44.2;44.6;12;11.7;27.3;0.0;
21/02/2025 20:41:51;100;0;295.23;-4;-20.15;-5.73;659.0;13.10;75711;2834.840;-1758.091;1;314;-70;-62.9;44.2;44.5;14;14.4;27.2;0.0;
21/02/2025 20:42:11;100;0;294.01;-4;-20.60;-4.25;661.2;13.10;75701;2834.843;-1758.094;1;314;-70;-62.9;44.2;44.6;14;14.9;27.2;0.0;
21/02/2025 20:42:31;100;0;293.99;-4;-20.70;-4.16;663.5;13.00;75696;2834.845;-1758.098;1;314;-70;-62.9;44.2;44.6;14;14.9;27.2;0.0;
21/02/2025 20:42:51;100;0;294.41;-4;-20.76;-4.08;665.7;13.00;75681;2834.847;-1758.101;1;314;-70;-64.5;44.2;44.5;14;14.9;27.3;0.0;
21/02/2025 20:43:11;100;0;297.44;-4;-20.86;-4.12;668.0;13.00;75682;2834.849;-1758.104;1;314;-70;-62.9;44.2;44.6;14;14.9;27.3;0.0;
21/02/2025 20:43:31;100;0;300.96;-4;-21.09;-4.12;670.4;13.00;75674;2834.852;-1758.107;1;314;-70;-62.9;44.2;44.6;14;14.9;27.3;0.0;
21/02/2025 20:43:51;100;0;302.29;-4;-20.58;-4.06;672.8;13.00;75664;2834.854;-1758.110;1;314;-70;-62.9;44.2;44.6;14;14.9;27.3;0.0;
21/02/2025 20:44:11;100;0;306.08;-4;-20.92;-4.16;675.2;12.90;75657;2834.857;-1758.113;1;314;-70;-62.9;44.2;44.6;14;14.9;27.3;0.0;
21/02/2025 20:44:31;100;0;309.53;-4;-20.48;-4.27;677.8;12.90;75655;2834.860;-1758.116;1;314;-70;-62.9;44.2;44.6;16;15.8;27.2;0.0;
21/02/2025 20:44:51;100;0;310.63;-4;-20.43;-3.26;680.3;12.90;75653;2834.863;-1758.118;1;314;-70;-62.9;44.2;44.6;16;16.7;27.3;0.0;
21/02/2025 20:45:11;100;0;312.01;-4;-20.63;-3.21;682.9;12.90;75652;2834.866;-1758.121;1;314;-70;-62.9;44.2;44.6;16;16.7;27.3;0.0;
21/02/2025 20:45:31;100;0;313.58;-4;-20.40;-3.30;685.4;12.80;75641;2834.869;-1758.124;1;314;-70;-62.9;44.2;44.6;19;19.4;27.2;0.0;
21/02/2025 20:45:51;100;0;314.56;-4;-20.83;-1.44;687.8;12.80;75643;2834.872;-1758.127;1;314;-70;-62.9;44.2;44.6;19;20.8;27.3;0.0;
21/02/2025 20:46:11;100;0;314.18;-4;-20.89;-1.49;690.5;12.80;75631;2834.876;-1758.130;1;314;-70;-62.9;44.2;44.6;19;20.3;27.3;0.0;
21/02/2025 20:46:31;100;0;313.61;-4;-20.54;-1.29;693.1;12.80;75621;2834.879;-1758.132;1;314;-70;-62.9;44.2;44.6;19;20.3;27.3;0.0;
21/02/2025 20:46:51;100;0;310.85;-4;-20.87;-1.65;695.6;12.80;75621;2834.882;-1758.135;1;314;-70;-64.5;44.2;44.6;17;17.1;27.2;0.0;
21/02/2025 20:47:11;100;0;308.31;-4;-20.53;-2.06;698.2;12.70;75622;2834.885;-1758.138;1;314;-70;-64.5;44.2;44.6;17;19.4;27.3;0.0;
21/02/2025 20:47:32;100;0;304.79;-4;-20.22;-2.14;700.6;12.70;75607;2834.887;-1758.141;1;314;-70;-62.9;44.2;44.6;15;14.9;27.3;0.0;
21/02/2025 20:47:52;100;0;303.07;-4;-20.20;-3.69;703.1;12.70;75603;2834.890;-1758.144;1;314;-70;-62.9;44.2;44.6;15;15.8;27.3;0.0;
21/02/2025 20:48:12;100;0;299.19;-4;-19.96;-3.67;705.6;12.70;75604;2834.893;-1758.148;1;314;-70;-62.9;44.2;44.6;15;16.2;27.3;0.0;
21/02/2025 20:48:32;100;0;297.88;-4;-19.79;-3.70;707.9;12.70;75602;2834.895;-1758.151;1;314;-70;-62.9;44.2;44.6;15;16.2;27.3;0.0;
21/02/2025 20:48:52;100;0;296.29;-4;-19.66;-3.70;710.2;12.60;75581;2834.897;-1758.154;1;314;-70;-62.9;44.2;44.5;15;16.2;27.3;0.0;
21/02/2025 20:49:12;100;0;294.48;-4;-19.38;-3.64;712.5;12.60;75580;2834.900;-1758.157;1;314;-70;-62.9;44.2;44.6;15;16.2;27.2;0.0;
21/02/2025 20:49:32;100;0;292.95;-4;-19.67;-3.79;714.6;12.60;75580;2834.902;-1758.160;1;314;-70;-61.3;44.2;44.6;13;12.6;27.3;0.0;
21/02/2025 20:49:52;100;0;293.68;-4;-20.18;-5.56;716.9;12.60;75578;2834.904;-1758.164;1;314;-70;-61.3;44.2;44.6;13;12.2;27.3;0.0;
21/02/2025 20:50:12;100;0;293.30;-4;-19.70;-5.54;719.0;12.50;75568;2834.906;-1758.167;1;314;-70;-66.1;44.2;44.6;13;12.6;27.3;0.0;
21/02/2025 20:50:32;100;0;295.27;-4;-20.22;-5.51;721.3;12.50;75577;2834.908;-1758.170;1;314;-70;-62.9;44.2;44.6;13;12.6;27.3;0.0;
21/02/2025 20:50:52;100;0;297.60;-4;-19.67;-5.47;723.4;12.50;75570;2834.910;-1758.173;1;314;-70;-62.9;44.2;44.5;15;14.9;27.3;0.0;
21/02/2025 20:51:12;100;0;298.44;-4;-20.14;-3.81;725.5;12.50;75565;2834.912;-1758.176;1;314;-70;-61.3;44.2;44.6;15;15.8;27.3;0.0;
21/02/2025 20:51:32;100;0;298.41;-4;-19.84;-3.55;727.7;12.50;75559;2834.915;-1758.179;1;314;-70;-62.9;44.2;44.6;15;15.8;27.3;0.0;
21/02/2025 20:51:52;100;0;296.31;-4;-19.74;-3.88;730.0;12.50;75562;2834.917;-1758.182;1;314;-70;-62.9;44.2;44.6;15;15.8;27.3;0.0;
21/02/2025 20:52:12;100;0;293.43;-4;-19.62;-3.91;732.1;12.40;75565;2834.919;-1758.185;1;314;-70;-62.9;44.2;44.6;13;12.6;27.3;0.0;
21/02/2025 20:52:32;100;0;292.12;-4;-19.62;-5.46;734.2;12.40;75547;2834.921;-1758.188;1;314;-70;-62.9;44.2;44.6;13;12.6;27.2;0.0;
21/02/2025 20:52:52;100;0;293.20;-4;-19.54;-5.42;736.3;12.40;75540;2834.923;-1758.191;1;314;-70;-64.5;44.2;44.6;13;12.6;27.3;0.0;
21/02/2025 20:53:12;100;0;293.61;-4;-19.58;-5.43;738.3;12.40;75536;2834.925;-1758.193;1;314;-90;-90.3;44.2;44.6;13;12.6;27.3;0.0;
21/02/2025 20:53:32;100;0;297.30;-4;-19.73;-5.35;740.5;12.30;75610;2834.927;-1758.196;1;314;-90;-91.9;44.2;44.6;13;12.6;27.3;0.0;
21/02/2025 20:53:52;100;0;303.52;-4;-19.28;-5.28;742.9;12.30;75600;2834.930;-1758.200;1;314;-90;-91.9;44.2;44.5;15;14.9;27.3;0.0;
21/02/2025 20:54:12;100;0;304.60;-4;-19.44;-3.60;745.3;12.30;75598;2834.933;-1758.203;1;314;-90;-96.8;44.2;44.6;15;15.8;27.3;0.0;
21/02/2025 20:54:32;100;0;306.72;-4;-19.55;-3.60;747.7;12.30;75585;2834.936;-1758.206;1;314;-90;-95.2;44.2;44.6;15;15.3;27.2;0.0;
21/02/2025 20:54:52;100;0;307.25;-4;-19.58;-3.62;750.1;12.30;75575;2834.938;-1758.209;1;314;-90;-96.8;44.2;44.6;15;15.8;27.2;0.0;
21/02/2025 20:55:12;100;0;305.28;-4;-19.75;-3.59;752.6;12.30;75578;2834.941;-1758.212;1;314;-90;-96.8;44.2;44.6;15;15.3;27.3;0.0;
21/02/2025 20:55:32;100;0;303.79;-4;-19.76;-3.58;755.1;12.20;75559;2834.944;-1758.215;1;314;-90;-96.8;44.2;44.6;15;15.3;27.3;0.0;
21/02/2025 20:55:52;100;0;302.20;-4;-19.84;-3.56;757.6;12.20;75573;2834.947;-1758.218;1;314;-90;-98.4;44.2;44.5;15;15.8;27.3;0.0;
21/02/2025 20:56:12;100;0;300.28;-4;-19.74;-3.52;760.1;12.20;75558;2834.949;-1758.222;1;314;-90;-98.4;44.2;44.6;15;15.3;27.3;0.0;
21/02/2025 20:56:32;100;0;299.33;-4;-19.66;-3.51;762.7;12.20;75564;2834.952;-1758.225;1;314;-90;-96.8;44.2;44.6;15;15.8;27.2;0.0;
21/02/2025 20:56:52;100;0;299.07;-4;-19.49;-3.53;765.1;12.10;75551;2834.954;-1758.228;1;314;-90;-96.8;44.2;44.6;15;15.8;27.3;0.0;
21/02/2025 20:57:12;100;0;298.12;-4;-19.39;-3.58;767.6;12.10;75533;2834.957;-1758.232;1;314;-90;-98.4;44.2;44.6;15;15.8;27.3;0.0;
21/02/2025 20:57:32;100;0;299.79;-4;-19.35;-3.56;770.0;12.10;75534;2834.959;-1758.235;1;314;-90;-98.4;44.2;44.6;15;15.8;27.3;0.0;
21/02/2025 20:57:52;100;0;300.37;-4;-19.25;-3.55;772.5;12.00;75513;2834.962;-1758.238;1;314;-90;-96.8;44.2;44.6;15;15.8;27.2;0.0;
21/02/2025 20:58:12;100;0;301.74;-4;-19.26;-3.55;774.7;12.00;75533;2834.965;-1758.242;1;314;-90;-98.4;44.2;44.6;15;15.8;27.3;0.0;
21/02/2025 20:58:32;100;0;301.17;-4;-19.39;-3.61;777.1;12.00;75505;2834.967;-1758.245;1;314;-90;-98.4;44.2;44.6;15;15.8;27.3;0.0;
21/02/2025 20:58:52;100;0;301.01;-4;-19.60;-3.58;779.5;12.00;75499;2834.970;-1758.248;1;314;-90;-98.4;44.2;44.6;15;15.8;27.3;0.0;
21/02/2025 20:59:12;100;0;299.85;-4;-19.66;-3.56;782.0;12.00;75505;2834.972;-1758.251;1;314;-90;-98.4;44.2;44.6;15;15.8;27.3;0.0;
21/02/2025 20:59:32;100;0;297.95;-4;-19.34;-3.63;784.5;11.90;75489;2834.975;-1758.255;1;314;-90;-96.8;44.2;44.6;15;15.8;27.3;0.0;
21/02/2025 20:59:52;100;0;295.50;-4;-19.23;-3.59;786.9;11.90;75479;2834.977;-1758.258;1;314;-90;-98.4;44.2;44.6;13;13.1;27.3;0.0;
21/02/2025 21:00:12;100;0;296.09;-4;-19.05;-5.12;789.5;11.90;75476;2834.980;-1758.262;1;314;-90;-96.8;44.2;44.6;13;12.6;27.2;0.0;
21/02/2025 21:00:32;100;0;296.83;-4;-19.29;-5.25;791.8;11.90;75460;2834.982;-1758.265;1;314;-90;-98.4;44.2;44.5;13;12.6;27.3;0.0;
21/02/2025 21:00:52;100;0;297.61;-4;-19.07;-5.11;794.3;11.80;75448;2834.985;-1758.269;1;314;-90;-96.8;44.2;44.6;13;13.1;27.3;0.0;
21/02/2025 21:01:12;100;0;298.73;-4;-19.06;-5.22;796.7;11.80;75439;2834.987;-1758.272;1;314;-90;-98.4;44.2;44.6;13;12.6;27.2;0.0;
21/02/2025 21:01:32;100;0;298.87;-4;-19.58;-5.23;799.1;11.80;75438;2834.990;-1758.275;1;314;-90;-98.4;44.2;44.6;13;13.1;27.3;0.0;
21/02/2025 21:01:52;100;0;298.90;-4;-18.36;-5.24;801.6;11.80;75438;2834.992;-1758.279;1;314;-90;-96.8;44.7;44.6;13;12.6;27.3;0.0;
21/02/2025 21:02:12;100;0;299.80;-4;-18.85;-5.19;803.9;11.70;75434;2834.995;-1758.282;1;314;-90;-98.4;45.0;45.1;13;12.6;27.3;0.0;
21/02/2025 21:02:32;100;0;299.73;-4;-20.36;-5.14;806.4;11.70;75422;2834.997;-1758.285;1;314;-90;-96.8;45.0;45.4;13;13.1;27.3;0.0;
21/02/2025 21:02:52;100;0;298.78;-4;-20.31;-5.20;808.8;11.70;75426;2835.000;-1758.289;1;314;-90;-96.8;45.0;45.2;13;12.6;27.3;0.0;
21/02/2025 21:03:12;100;0;300.30;-4;-20.17;-5.14;811.3;11.70;75415;2835.002;-1758.292;1;314;-90;-96.8;45.0;45.2;13;12.6;27.3;0.0;
21/02/2025 21:03:32;100;0;300.91;-4;-20.54;-4.99;813.8;11.60;75414;2835.005;-1758.295;1;314;-90;-96.8;45.0;45.4;13;13.1;27.3;0.0;
21/02/2025 21:03:52;100;0;299.91;-4;-20.87;-5.11;816.2;11.60;75415;2835.007;-1758.298;1;314;-90;-98.4;45.0;45.4;13;12.6;27.3;0.0;
21/02/2025 21:04:12;100;0;299.22;-4;-20.78;-5.07;818.7;11.60;75411;2835.010;-1758.301;1;314;-90;-96.8;45.0;45.2;13;12.6;27.3;0.0;
21/02/2025 21:04:32;100;0;300.20;-4;-20.88;-5.15;821.1;11.60;75404;2835.012;-1758.304;1;314;-90;-96.8;45.0;45.4;13;12.6;27.3;0.0;
21/02/2025 21:04:52;100;0;298.77;-4;-20.80;-5.21;823.5;11.60;75401;2835.015;-1758.307;1;314;-90;-98.4;45.0;45.4;13;12.6;27.3;0.0;
21/02/2025 21:05:12;100;0;300.02;-4;-20.82;-5.28;826.0;11.50;75403;2835.017;-1758.311;1;314;-90;-96.8;45.0;45.2;13;12.6;27.2;0.0;
21/02/2025 21:05:32;100;0;299.70;-4;-21.27;-5.27;828.5;11.50;75403;2835.020;-1758.314;1;314;-90;-96.8;45.0;45.4;13;13.1;27.3;0.0;
21/02/2025 21:05:52;100;0;301.31;-4;-20.37;-4.97;831.0;11.50;75395;2835.022;-1758.317;1;314;-90;-100.0;45.0;45.2;13;13.1;27.3;0.0;
21/02/2025 21:06:12;100;0;304.10;-4;-21.25;-5.25;833.5;11.50;75392;2835.025;-1758.320;1;314;-90;-96.8;45.0;45.4;13;12.6;27.3;0.0;
21/02/2025 21:06:32;100;0;305.64;-4;-20.11;-5.02;836.1;11.40;75386;2835.028;-1758.323;1;314;-90;-98.4;45.0;45.4;13;13.1;27.2;0.0;
21/02/2025 21:06:52;100;0;307.88;-4;-20.88;-5.10;838.6;11.40;75382;2835.031;-1758.326;1;314;-90;-98.4;45.0;45.4;15;14.9;27.3;0.0;
21/02/2025 21:07:12;100;0;307.02;-4;-21.23;-3.59;841.2;11.40;75380;2835.034;-1758.329;1;314;-90;-98.4;45.0;45.4;15;15.8;27.3;0.0;
21/02/2025 21:07:32;100;0;307.58;-4;-20.69;-3.66;843.9;11.40;75379;2835.037;-1758.333;1;314;-90;-98.4;45.0;45.4;15;15.8;27.3;0.0;
21/02/2025 21:07:52;100;0;308.30;-4;-21.08;-3.66;846.5;11.30;75374;2835.040;-1758.336;1;314;-90;-98.4;45.0;45.4;15;15.8;27.3;0.0;
21/02/2025 21:08:12;100;0;310.38;-4;-20.83;-3.76;849.2;11.30;75355;2835.043;-1758.339;1;314;-90;-96.8;45.0;45.4;15;15.8;27.2;0.0;
21/02/2025 21:08:32;100;0;308.87;-4;-20.60;-3.60;851.8;11.30;75372;2835.046;-1758.342;1;314;-90;-98.4;45.0;45.4;15;15.8;27.3;0.0;
21/02/2025 21:08:52;100;0;311.81;-4;-21.11;-4.11;854.5;11.30;75352;2835.049;-1758.345;1;314;-90;-96.8;45.0;45.4;15;15.8;27.3;0.0;
21/02/2025 21:09:12;100;0;313.10;-4;-21.43;-3.72;857.1;11.30;75356;2835.052;-1758.348;1;314;-90;-98.4;45.0;45.4;18;18.5;27.3;0.0;
21/02/2025 21:09:32;100;0;308.29;-4;-21.11;-2.25;860.0;11.20;75357;2835.055;-1758.351;1;314;-90;-96.8;45.0;45.4;15;14.4;27.3;0.0;
21/02/2025 21:09:52;100;0;313.81;-4;-22.14;-3.54;862.4;11.20;75355;2835.058;-1758.353;1;314;-90;-96.8;44.4;44.0;19;19.9;27.3;0.0;
21/02/2025 21:10:12;100;0;318.27;-4;-19.77;-1.28;865.1;11.20;75336;2835.062;-1758.356;1;314;-90;-98.4;44.4;44.0;22;22.1;27.3;0.0;
21/02/2025 21:10:32;100;0;313.35;-4;-19.46;-0.25;867.7;11.20;75329;2835.065;-1758.359;1;314;-90;-98.4;44.4;44.0;17;17.1;27.3;0.0;
21/02/2025 21:10:52;100;0;311.29;-4;-19.08;-3.11;870.1;11.20;75325;2835.068;-1758.362;1;314;-90;-98.4;44.4;44.0;17;17.1;27.3;0.0;
21/02/2025 21:11:12;100;0;310.39;-4;-18.83;-3.23;872.5;11.10;75313;2835.071;-1758.365;1;314;-90;-96.8;44.7;44.9;17;17.1;27.3;0.0;
21/02/2025 21:11:32;100;0;308.46;-4;-19.92;-3.21;874.8;11.10;75313;2835.074;-1758.368;1;314;-90;-98.4;44.7;45.1;17;16.7;27.3;0.0;
21/02/2025 21:11:52;100;0;308.46;-4;-19.55;-3.06;877.2;11.10;75306;2835.077;-1758.371;1;314;-90;-98.4;44.7;45.1;15;14.9;27.2;0.0;
21/02/2025 21:12:12;100;0;307.79;-4;-20.19;-3.73;879.7;11.10;75307;2835.080;-1758.374;1;314;-90;-100.0;44.7;45.1;15;15.8;27.3;0.0;
21/02/2025 21:12:32;100;0;308.36;-4;-20.02;-3.67;882.1;11.00;75311;2835.083;-1758.377;1;314;-90;-98.4;44.7;45.1;15;15.8;27.3;0.0;
21/02/2025 21:12:52;100;0;308.80;-4;-19.67;-3.75;884.6;11.00;75304;2835.086;-1758.380;1;314;-90;-98.4;44.7;45.1;15;15.8;27.3;0.0;
21/02/2025 21:13:12;100;0;309.50;-4;-20.27;-3.59;886.9;11.00;75290;2835.088;-1758.382;1;314;-90;-98.4;44.7;45.1;15;15.8;27.3;0.0;
21/02/2025 21:13:32;100;0;308.68;-4;-20.69;-3.76;889.5;11.00;75292;2835.091;-1758.385;1;314;-90;-98.4;44.7;45.1;15;15.8;27.3;0.0;
21/02/2025 21:13:52;100;0;307.43;-4;-20.77;-3.58;892.2;11.00;75279;2835.094;-1758.388;1;314;-90;-98.4;44.7;45.2;15;15.8;27.3;0.0;
21/02/2025 21:14:12;100;0;307.57;-4;-20.88;-3.66;894.9;11.00;75285;2835.097;-1758.392;1;314;-90;-98.4;44.7;45.1;15;15.8;27.3;0.0;
21/02/2025 21:14:32;100;0;306.42;-4;-20.44;-3.73;897.9;10.90;75283;2835.101;-1758.395;1;314;-90;-98.4;44.7;45.1;15;15.8;27.3;0.0;
21/02/2025 21:14:52;100;0;306.62;-4;-19.88;-3.70;900.8;10.90;75287;2835.104;-1758.399;1;314;-90;-98.4;44.7;45.1;15;15.8;27.2;0.0;
21/02/2025 21:15:12;100;0;307.87;-4;-20.75;-3.37;903.7;10.90;75275;2835.107;-1758.402;1;314;-90;-98.4;44.7;45.1;15;15.8;27.3;0.0;
21/02/2025 21:15:32;100;0;304.03;-4;-19.61;-3.92;906.6;10.90;75273;2835.110;-1758.406;1;314;-90;-98.4;44.7;45.1;15;15.8;27.3;0.0;
21/02/2025 21:15:52;100;0;304.85;-4;-20.16;-3.66;909.4;10.90;75276;2835.113;-1758.409;1;314;-90;-96.8;44.7;45.2;15;15.8;27.3;0.0;
21/02/2025 21:16:12;100;0;305.62;-4;-20.34;-3.64;912.2;10.90;75268;2835.116;-1758.413;1;314;-90;-98.4;44.7;45.1;15;15.8;27.3;0.0;
21/02/2025 21:16:32;100;0;309.32;-4;-20.50;-3.64;915.3;10.80;75261;2835.120;-1758.417;1;314;-90;-96.8;44.7;45.1;15;15.8;27.3;0.0;
21/02/2025 21:16:52;100;0;306.60;-4;-20.02;-3.54;918.3;10.80;75253;2835.123;-1758.420;1;314;-90;-96.8;44.7;45.1;15;15.8;27.3;0.0;
21/02/2025 21:17:12;100;0;306.23;-4;-20.01;-3.39;921.1;10.80;75254;2835.126;-1758.424;1;314;-90;-98.4;44.7;45.1;15;15.8;27.2;0.0;
21/02/2025 21:17:32;100;0;305.15;-4;-19.71;-3.84;923.7;10.80;75252;2835.129;-1758.427;1;314;-90;-98.4;44.7;45.1;15;15.8;27.3;0.0;
21/02/2025 21:17:52;100;0;306.14;-4;-18.83;-3.70;926.4;10.70;75239;2835.132;-1758.430;1;314;-90;-98.4;45.1;45.1;15;15.8;27.2;0.0;
21/02/2025 21:18:12;100;0;306.49;-4;-20.56;-3.41;928.5;10.70;75254;2835.134;-1758.433;1;314;-90;-98.4;45.1;45.1;15;15.8;27.3;0.0;
21/02/2025 21:18:32;100;0;304.26;-4;-20.60;-3.81;930.9;10.70;75238;2835.137;-1758.436;1;314;-90;-98.4;45.1;45.1;15;15.8;27.3;0.0;
21/02/2025 21:18:52;100;0;304.71;-4;-20.42;-3.66;933.5;10.70;75243;2835.140;-1758.439;1;314;-90;-96.8;45.1;45.1;15;15.8;27.3;0.0;
21/02/2025 21:19:12;100;0;303.73;-4;-20.01;-3.76;936.2;10.70;75240;2835.143;-1758.443;1;314;-90;-98.4;45.1;45.1;15;15.8;27.3;0.0;
21/02/2025 21:19:32;100;0;301.84;-4;-19.85;-3.86;938.8;10.60;75239;2835.146;-1758.446;1;314;-90;-98.4;45.1;45.1;15;15.8;27.2;0.0;
21/02/2025 21:19:52;100;0;300.85;-4;-19.91;-3.65;941.4;10.60;75240;2835.148;-1758.449;1;314;-90;-96.8;45.1;45.1;15;15.8;27.3;0.0;
21/02/2025 21:20:12;100;0;298.50;-4;-19.87;-3.68;944.1;10.60;75234;2835.151;-1758.453;1;314;-90;-98.4;45.1;45.1;15;15.8;27.2;0.0;
21/02/2025 21:20:32;100;0;298.46;-4;-19.99;-3.57;946.6;10.60;75238;2835.153;-1758.456;1;314;-90;-98.4;45.1;45.1;15;15.8;27.3;0.0;
21/02/2025 21:20:52;100;0;295.67;-4;-20.65;-3.71;949.3;10.60;75228;2835.156;-1758.460;1;314;-90;-96.8;45.1;45.1;15;15.8;27.2;0.0;
21/02/2025 21:21:12;100;0;295.08;-4;-20.05;-3.74;951.9;10.60;75229;2835.158;-1758.464;1;314;-90;-98.4;45.1;45.1;13;13.1;27.3;0.0;
21/02/2025 21:21:32;100;0;297.66;-4;-19.87;-5.12;954.6;10.50;75224;2835.161;-1758.467;1;314;-90;-96.8;45.1;45.2;13;13.1;27.3;0.0;
21/02/2025 21:21:52;100;0;297.82;-4;-19.94;-5.05;957.3;10.50;75224;2835.163;-1758.471;1;314;-90;-98.4;45.1;45.1;13;13.1;27.3;0.0;
21/02/2025 21:22:12;100;0;298.19;-4;-19.77;-5.10;959.9;10.50;75216;2835.166;-1758.474;1;314;-90;-98.4;45.1;45.2;13;13.1;27.3;0.0;
21/02/2025 21:22:32;100;0;299.41;-4;-19.62;-5.15;962.5;10.50;75205;2835.168;-1758.478;1;314;-90;-98.4;45.1;45.1;13;13.1;27.3;0.0;
21/02/2025 21:22:53;100;0;300.56;-4;-19.84;-5.18;965.0;10.50;75211;2835.171;-1758.481;1;314;-90;-98.4;45.1;45.1;15;14.9;27.3;0.0;
21/02/2025 21:23:13;100;0;301.55;-4;-20.09;-3.49;967.8;10.40;75205;2835.174;-1758.485;1;314;-90;-98.4;45.1;45.1;15;16.2;27.2;0.0;
21/02/2025 21:23:33;100;0;300.82;-4;-20.06;-3.51;970.5;10.40;75200;2835.177;-1758.488;1;314;-90;-98.4;45.1;45.1;15;16.2;27.3;0.0;
21/02/2025 21:23:53;100;0;296.10;-4;-20.21;-3.58;973.2;10.40;75203;2835.179;-1758.492;1;314;-90;-100.0;45.1;45.1;13;13.1;27.2;0.0;
21/02/2025 21:24:13;100;0;295.27;-4;-20.24;-5.30;976.0;10.40;75196;2835.182;-1758.496;1;314;-90;-96.8;45.1;45.1;13;12.6;27.3;0.0;
21/02/2025 21:24:33;100;0;297.78;-4;-19.96;-5.22;979.0;10.40;75186;2835.184;-1758.500;1;314;-90;-98.4;45.1;45.1;13;12.6;27.3;0.0;
21/02/2025 21:24:53;100;0;300.23;-4;-19.89;-5.25;981.9;10.40;75192;2835.187;-1758.504;1;314;-90;-98.4;45.1;45.1;13;12.6;27.2;0.0;
21/02/2025 21:25:13;100;0;301.74;-4;-19.64;-5.29;984.6;10.40;75190;2835.190;-1758.507;1;314;-90;-98.4;45.1;45.1;13;12.6;27.2;0.0;
21/02/2025 21:25:33;100;0;302.66;-4;-19.77;-5.32;987.5;10.40;75187;2835.193;-1758.511;1;314;-90;-96.8;45.1;45.2;15;14.9;27.3;0.0;
21/02/2025 21:25:53;100;0;303.11;-4;-20.03;-3.66;990.3;10.30;75194;2835.196;-1758.514;1;314;-90;-98.4;45.1;45.1;15;15.8;27.3;0.0;
21/02/2025 21:26:13;100;0;303.50;-4;-20.17;-3.65;993.2;10.30;75184;2835.199;-1758.518;1;314;-90;-100.0;45.1;45.2;15;16.2;27.2;0.0;
21/02/2025 21:26:33;100;0;302.97;-4;-19.90;-3.64;996.1;10.30;75174;2835.202;-1758.522;1;314;-90;-96.8;45.1;45.2;15;15.8;27.2;0.0;
21/02/2025 21:26:53;100;0;303.19;-4;-19.85;-3.70;998.9;10.30;75177;2835.205;-1758.525;1;314;-90;-98.4;45.1;45.1;15;15.8;27.3;0.0;
21/02/2025 21:26:55;118;0;302.99;-4;-19.85;-3.68;999.3;10.30;75183;2835.205;-1758.526;1;314;270;-95.2;25.7;25.5;7;8.1;27.2;0.0;
21/02/2025 21:27:05;118;0;51.76;-4;-6.53;-8.23;1000.4;10.30;75167;2835.207;-1758.524;1;314;270;32.3;25.7;25.3;7;8.1;25.9;-1.0;
21/02/2025 21:27:15;118;0;42.35;-4;15.77;-8.01;1000.6;10.30;74898;2835.208;-1758.524;1;314;270;158.1;25.7;25.8;7;8.1;25.8;-1.0;
21/02/2025 21:27:25;118;0;38.99;-4;21.91;-8.50;1000.2;10.30;74645;2835.208;-1758.524;1;314;270;272.6;25.7;25.9;7;8.1;25.8;-1.0;
21/02/2025 21:27:35;118;0;308.28;-4;20.68;-7.23;999.3;10.30;74415;2835.210;-1758.525;1;314;270;272.6;25.7;25.9;7;8.1;27.2;-1.0;
21/02/2025 21:27:45;118;0;305.35;-4;19.39;-7.89;998.4;10.30;74431;2835.211;-1758.526;1;314;270;269.4;25.7;25.9;7;8.1;27.2;-1.0;
21/02/2025 21:28:06;117;0;300.64;-4;19.01;-7.72;996.5;10.30;74431;2835.213;-1758.529;1;314;270;272.6;25.7;25.9;7;8.1;27.2;-1.0;
21/02/2025 21:28:26;117;0;296.66;-4;18.91;-7.80;994.4;10.40;74433;2835.215;-1758.532;1;314;270;272.6;25.3;24.7;28;28.0;27.2;-1.0;
21/02/2025 21:28:46;117;0;296.94;-4;21.72;2.72;992.3;10.40;74432;2835.217;-1758.534;1;314;270;272.6;25.3;24.7;28;28.4;27.2;-1.0;
21/02/2025 21:29:06;117;0;297.13;-4;22.17;2.72;990.0;10.40;74421;2835.220;-1758.537;1;314;270;274.2;26.0;25.9;28;28.4;27.2;-1.0;
21/02/2025 21:29:26;117;0;296.99;-4;20.50;2.71;987.7;10.40;74419;2835.222;-1758.541;1;314;270;272.6;26.0;26.1;28;28.4;27.3;-1.0;
21/02/2025 21:29:46;117;0;296.95;-4;19.99;2.72;985.6;10.40;74429;2835.224;-1758.543;1;314;270;272.6;26.0;26.2;28;28.4;27.3;-1.0;
21/02/2025 21:30:06;117;0;297.32;-4;20.21;2.77;983.5;10.30;74417;2835.226;-1758.546;1;314;270;272.6;26.0;26.2;28;28.4;27.2;-1.0;
21/02/2025 21:30:26;117;0;297.30;-4;20.39;2.73;981.4;10.30;74417;2835.229;-1758.549;1;314;270;269.4;26.0;26.1;28;28.4;27.2;-1.0;
21/02/2025 21:30:46;117;0;297.21;-4;20.39;2.73;979.1;10.30;74410;2835.231;-1758.552;1;314;270;272.6;26.0;26.2;28;28.4;27.3;-1.0;
21/02/2025 21:31:06;117;0;297.44;-4;20.13;2.73;976.8;10.30;74412;2835.233;-1758.555;1;314;270;272.6;26.0;26.2;28;28.4;27.2;-1.0;
21/02/2025 21:31:26;117;0;298.25;-4;19.91;2.75;974.5;10.30;74398;2835.236;-1758.559;1;314;270;272.6;26.0;26.1;28;28.4;27.2;-1.0;
21/02/2025 21:31:46;117;0;297.82;-4;19.93;2.95;972.3;10.30;74404;2835.238;-1758.562;1;314;270;272.6;26.0;26.1;28;28.4;27.3;-1.0;
21/02/2025 21:32:06;117;0;298.30;-4;19.93;2.59;970.0;10.30;74401;2835.240;-1758.565;1;314;270;272.6;26.0;26.2;28;28.4;27.3;-1.0;
21/02/2025 21:32:26;117;0;299.37;-4;19.64;2.73;967.9;10.30;74407;2835.243;-1758.568;1;314;270;274.2;26.0;26.1;28;28.4;27.3;-1.0;
21/02/2025 21:32:46;117;0;299.00;-4;20.17;2.71;965.7;10.20;74389;2835.245;-1758.570;1;314;270;272.6;26.0;26.2;28;28.4;27.2;-1.0;
21/02/2025 21:33:06;117;0;299.24;-4;19.59;2.69;963.5;10.20;74398;2835.247;-1758.573;1;314;270;272.6;26.0;26.1;28;28.4;27.2;-1.0;
21/02/2025 21:33:26;117;0;298.44;-4;20.37;2.91;961.3;10.20;74388;2835.250;-1758.576;1;314;270;272.6;26.0;26.1;28;28.4;27.3;-1.0;
21/02/2025 21:33:46;117;0;298.91;-4;20.12;2.82;958.9;10.20;74380;2835.252;-1758.580;1;314;270;272.6;26.0;26.2;28;28.4;27.3;-1.0;
21/02/2025 21:34:06;117;0;299.30;-4;20.26;2.72;956.7;10.20;74381;2835.254;-1758.583;1;314;270;269.4;26.0;26.1;28;28.4;27.3;-1.0;
21/02/2025 21:34:26;117;0;298.62;-4;20.15;2.81;954.4;10.20;74381;2835.257;-1758.586;1;314;270;272.6;26.0;26.1;28;28.4;27.2;-1.0;
21/02/2025 21:34:46;117;0;299.14;-4;20.25;2.74;952.0;10.20;74381;2835.259;-1758.589;1;314;270;272.6;26.0;26.1;28;28.4;27.2;-1.0;
21/02/2025 21:35:06;117;0;298.46;-4;19.81;2.73;949.6;10.10;74377;2835.262;-1758.592;1;314;270;272.6;26.0;26.1;28;28.4;27.2;-1.0;
21/02/2025 21:35:26;117;0;299.27;-4;19.53;2.70;947.3;10.10;74370;2835.264;-1758.595;1;314;270;271.0;26.0;26.2;28;28.4;27.3;-1.0;
21/02/2025 21:35:46;117;0;301.07;-4;20.61;2.52;945.2;10.10;74366;2835.266;-1758.598;1;314;270;272.6;26.0;26.2;28;28.4;27.2;-1.0;
21/02/2025 21:36:06;117;0;300.47;-4;19.88;2.79;942.9;10.10;74366;2835.269;-1758.601;1;314;270;272.6;26.0;26.2;28;28.4;27.3;-1.0;
21/02/2025 21:36:26;117;0;301.50;-4;20.06;2.75;940.7;10.10;74361;2835.271;-1758.604;1;314;270;272.6;26.0;26.2;28;28.4;27.3;-1.0;
21/02/2025 21:36:46;117;0;303.55;-4;20.30;2.60;938.5;10.10;74366;2835.274;-1758.607;1;314;270;272.6;26.0;26.1;28;28.4;27.3;-1.0;
21/02/2025 21:37:06;117;0;302.87;-4;19.69;2.72;936.3;10.10;74357;2835.276;-1758.610;1;314;270;272.6;26.0;26.2;28;28.4;27.2;-1.0;
21/02/2025 21:37:26;117;0;304.40;-4;20.06;2.71;934.2;10.10;74348;2835.279;-1758.612;1;314;270;272.6;26.0;26.1;28;28.4;27.2;-1.0;
21/02/2025 21:37:46;117;0;303.43;-4;20.52;2.80;932.1;10.00;74347;2835.281;-1758.615;1;314;270;272.6;26.0;26.2;28;28.4;27.2;-1.0;
21/02/2025 21:38:06;117;0;303.18;-4;20.21;2.74;929.9;10.10;74357;2835.284;-1758.618;1;314;270;274.2;26.0;26.1;28;28.4;27.3;-1.0;
21/02/2025 21:38:26;117;0;304.13;-4;20.25;2.76;927.8;10.00;74345;2835.286;-1758.620;1;314;270;272.6;26.0;26.1;28;28.4;27.3;-1.0;
21/02/2025 21:38:46;117;0;304.42;-4;19.90;2.72;925.6;10.00;74345;2835.289;-1758.623;1;314;270;272.6;26.0;26.1;28;28.4;27.2;-1.0;
21/02/2025 21:39:06;117;0;304.71;-4;20.20;2.87;923.5;10.00;74330;2835.291;-1758.626;1;314;270;272.6;26.0;26.2;28;28.4;27.3;-1.0;
21/02/2025 21:39:26;117;0;304.94;-4;19.82;2.73;921.4;10.00;74341;2835.294;-1758.628;1;314;270;271.0;26.0;26.1;28;28.4;27.3;-1.0;
21/02/2025 21:39:46;117;0;305.08;-4;19.35;2.75;919.4;10.00;74331;2835.296;-1758.631;1;314;270;272.6;26.0;26.2;28;28.4;27.3;-1.0;
21/02/2025 21:40:06;117;0;305.55;-4;20.08;2.73;917.4;10.00;74331;2835.299;-1758.634;1;314;290;293.5;26.0;26.1;28;28.4;27.2;-1.0;
21/02/2025 21:40:26;117;0;307.29;-4;19.75;2.72;915.4;10.00;74287;2835.301;-1758.636;1;314;310;293.5;26.0;26.2;28;28.4;27.2;-1.0;
21/02/2025 21:40:46;117;0;307.84;-4;19.61;2.72;913.3;10.00;74283;2835.304;-1758.639;1;314;310;312.9;26.0;26.1;28;28.4;27.2;-1.0;
21/02/2025 21:41:06;117;0;310.20;-4;19.21;2.80;911.2;10.00;74243;2835.307;-1758.641;1;314;310;311.3;26.0;26.1;25;24.8;27.2;-1.0;
21/02/2025 21:41:26;117;0;309.80;-4;18.81;0.73;909.1;9.90;74243;2835.309;-1758.644;1;314;310;311.3;25.6;25.6;25;24.4;27.3;-1.0;
21/02/2025 21:41:46;117;0;308.39;-4;20.00;0.64;906.9;9.90;74244;2835.312;-1758.647;1;314;310;311.3;25.6;25.0;25;24.4;27.3;-1.0;
21/02/2025 21:42:06;117;0;306.61;-4;20.07;0.72;904.6;9.90;74247;2835.315;-1758.649;1;314;310;311.3;25.6;25.0;27;27.1;27.3;-1.0;
21/02/2025 21:42:26;117;0;306.42;-4;20.33;2.21;902.4;9.90;74241;2835.317;-1758.652;1;314;310;311.3;25.6;25.0;27;27.1;27.2;-1.0;
21/02/2025 21:42:46;117;0;305.52;-4;20.43;2.17;900.0;9.90;74237;2835.320;-1758.655;1;314;310;312.9;25.6;25.0;27;27.1;27.2;-1.0;
21/02/2025 21:43:06;117;0;305.31;-4;20.53;2.23;897.7;9.90;74245;2835.323;-1758.658;1;314;310;308.1;25.6;25.0;27;27.1;27.3;-1.0;
21/02/2025 21:43:26;117;0;304.65;-4;19.87;2.31;895.3;9.90;74245;2835.325;-1758.661;1;314;310;312.9;25.6;25.0;27;27.1;27.3;-1.0;
21/02/2025 21:43:46;117;0;303.22;-4;20.56;2.12;893.0;9.90;74236;2835.328;-1758.664;1;314;310;312.9;25.6;25.0;27;27.1;27.2;-1.0;
21/02/2025 21:44:06;117;0;303.06;-4;20.61;2.23;890.6;9.90;74234;2835.331;-1758.667;1;314;310;312.9;25.6;25.0;27;27.1;27.3;-1.0;
21/02/2025 21:44:26;117;0;301.87;-4;20.22;2.23;888.2;9.90;74234;2835.333;-1758.670;1;314;310;311.3;25.6;25.0;27;27.1;27.2;-1.0;
21/02/2025 21:44:46;117;0;302.36;-4;20.47;2.15;885.7;9.90;74255;2835.336;-1758.673;1;314;310;311.3;25.6;25.2;27;27.1;27.2;-1.0;
21/02/2025 21:45:06;117;0;303.09;-4;20.18;2.17;883.4;9.90;74245;2835.338;-1758.676;1;314;310;311.3;25.6;25.0;27;27.1;27.3;-1.0;
21/02/2025 21:45:26;117;0;303.49;-4;20.47;2.38;880.9;9.90;74237;2835.341;-1758.679;1;314;310;311.3;25.6;25.0;27;27.1;27.2;-1.0;
21/02/2025 21:45:46;117;0;304.00;-4;20.34;2.18;878.6;9.90;74245;2835.344;-1758.682;1;314;310;311.3;25.6;25.0;27;27.5;27.2;-1.0;
21/02/2025 21:46:06;117;0;303.84;-4;20.54;2.06;876.1;9.80;74241;2835.346;-1758.685;1;314;310;311.3;25.6;25.0;27;27.1;27.2;-1.0;
21/02/2025 21:46:26;117;0;303.19;-4;20.48;2.25;873.8;9.90;74249;2835.349;-1758.688;1;314;310;311.3;25.6;25.0;27;27.1;27.2;-1.0;
