Timestamp;NavState;SecurityLevel;Heading;Declination;Pitch;Roll;Depth;Temperature;Pa;Lat;Lon;DeadReckoning;DesiredH;BallastCmd;BallastPos;LinCmd;LinPos;AngCmd;AngPos;Voltage;Altitude;
03/03/2025 22:52:22;119;0;45.06;-4;-48.70;-26.91;-0.2;16.70;75564;2838.718;-1802.782;0;326;500;504.8;100.0;100.4;0;-0.5;25.1;-1.0;
03/03/2025 22:52:31;116;0;24.95;-4;-51.92;-2.35;-0.2;16.70;75565;2838.727;-1802.789;0;326;500;506.5;100.0;100.6;0;-0.5;25.1;-1.0;
03/03/2025 22:52:56;116;0;39.35;-4;-45.89;-1.47;-0.2;16.80;75565;2838.733;-1802.793;0;326;500;506.5;100.0;100.4;0;-0.5;25.0;-1.0;
03/03/2025 22:53:24;116;0;357.11;-4;-48.26;-22.57;-0.2;16.90;75575;2838.737;-1802.799;0;135;500;504.8;100.0;100.4;0;-0.5;25.1;-1.0;
03/03/2025 22:53:43;116;0;19.76;-4;-43.79;-2.68;0.1;16.90;75588;2838.739;-1802.801;0;135;500;504.8;100.0;100.4;0;-0.5;25.1;-1.0;
03/03/2025 22:54:03;116;0;29.77;-4;-50.37;-6.59;-0.2;17.00;75599;2838.744;-1802.805;0;135;500;504.8;100.0;100.6;0;-0.5;25.1;-1.0;
03/03/2025 22:54:23;116;0;359.19;-4;-60.98;-7.46;-0.2;17.00;75600;2838.750;-1802.809;0;135;500;504.8;100.0;100.6;0;-0.5;25.1;-1.0;
03/03/2025 22:54:43;116;0;40.71;-4;-62.29;-19.60;-0.2;17.10;75599;2838.754;-1802.811;0;135;500;504.8;100.0;100.4;0;-0.5;25.0;-1.0;
03/03/2025 22:55:04;116;0;29.42;-4;-48.90;3.17;-0.2;17.20;75613;2838.758;-1802.817;0;135;500;504.8;100.0;100.4;0;-0.5;25.1;-1.0;
03/03/2025 22:55:24;116;0;7.18;-4;-47.84;-12.58;-0.2;17.20;75617;2838.763;-1802.821;0;135;500;504.8;100.0;100.6;0;-0.9;25.1;-1.0;
03/03/2025 22:55:44;116;0;344.05;-4;-45.53;-13.78;-0.1;17.30;75626;2838.769;-1802.827;0;135;500;504.8;100.0;100.4;0;-0.5;25.0;-1.0;
03/03/2025 22:56:04;116;0;5.30;-4;-52.48;-16.37;0.1;17.40;75622;2838.772;-1802.829;0;135;500;504.8;100.0;100.6;0;-0.5;25.1;-1.0;
03/03/2025 22:56:24;116;0;3.22;-4;-57.40;-5.70;-0.2;17.40;75641;2838.778;-1802.834;0;135;500;504.8;100.0;100.6;0;-0.5;25.1;-1.0;
03/03/2025 22:56:44;116;0;355.15;-4;-44.66;-8.81;0.2;17.50;75648;2838.782;-1802.837;0;135;500;506.5;100.0;100.4;0;-0.5;25.1;-1.0;
03/03/2025 22:57:04;116;0;0.46;-4;-60.95;-11.85;-0.3;17.60;75652;2838.788;-1802.842;0;135;500;504.8;100.0;100.6;0;-0.5;25.0;-1.0;
03/03/2025 22:57:24;116;0;36.61;-4;-57.45;-10.08;-0.3;17.60;75653;2838.793;-1802.845;0;135;500;504.8;100.0;100.6;0;-0.5;25.1;-1.0;
03/03/2025 22:57:44;116;0;52.10;-4;-45.23;-17.56;-0.2;17.70;75666;2838.798;-1802.849;0;135;500;504.8;100.0;100.4;0;-0.5;25.1;-1.0;
03/03/2025 22:58:04;116;0;18.31;-4;-52.83;4.52;-0.3;17.80;75671;2838.806;-1802.854;0;135;500;506.5;100.0;100.6;0;-0.5;25.1;-1.0;
03/03/2025 22:58:24;116;0;9.92;-4;-53.46;-5.45;-0.2;17.80;75668;2838.809;-1802.856;0;135;500;504.8;100.0;100.6;0;-0.5;25.1;-1.0;
03/03/2025 22:58:44;116;0;39.44;-4;-61.76;-17.32;-0.1;17.90;75674;2838.815;-1802.860;0;135;500;506.5;100.0;100.6;0;-0.5;25.1;-1.0;
03/03/2025 22:59:04;116;0;24.68;-4;-45.59;-0.32;-0.2;18.00;75679;2838.819;-1802.863;0;135;500;506.5;100.0;100.6;0;-0.9;25.1;-1.0;
03/03/2025 22:59:24;116;0;50.16;-4;-60.66;-38.91;-0.1;18.00;75697;2838.825;-1802.868;0;135;500;506.5;100.0;100.4;0;-0.5;25.1;-1.0;
03/03/2025 22:59:44;116;0;14.10;-4;-55.40;-3.33;-0.2;18.10;75695;2838.830;-1802.872;0;135;500;504.8;100.0;100.6;0;-0.5;25.1;-1.0;
03/03/2025 23:00:04;116;0;345.19;-4;-54.42;-8.32;-0.0;18.10;75706;2838.834;-1802.874;0;135;500;504.8;100.0;100.6;0;-0.5;25.1;-1.0;
03/03/2025 23:00:24;116;0;350.52;-4;-43.60;-5.01;-0.1;18.20;75714;2838.841;-1802.880;0;135;500;504.8;100.0;100.6;0;-0.5;25.1;-1.0;
03/03/2025 23:00:47;116;0;354.03;-4;-49.65;-13.03;-0.2;18.30;75711;2838.844;-1802.882;0;135;500;504.8;100.0;100.4;0;-0.5;25.1;-1.0;
03/03/2025 23:01:07;116;0;20.89;-4;-58.79;-12.98;-0.1;18.30;75722;2838.849;-1802.888;0;135;500;506.5;100.0;100.6;0;-0.5;25.0;-1.0;
03/03/2025 23:01:27;116;0;13.89;-4;-47.44;-3.20;-0.3;18.40;75722;2838.854;-1802.891;0;135;500;504.8;100.0;100.6;0;-0.5;25.1;-1.0;
03/03/2025 23:01:47;116;0;3.90;-4;-51.55;-28.01;-0.3;18.50;75727;2838.858;-1802.895;0;135;500;506.5;100.0;100.4;0;-0.5;25.1;-1.0;
03/03/2025 23:02:07;116;0;35.12;-4;-56.94;-23.85;-0.3;18.50;75730;2838.862;-1802.899;0;135;500;504.8;100.0;100.6;0;-0.5;25.1;-1.0;
03/03/2025 23:02:27;116;0;355.71;-4;-44.88;-11.27;-0.1;18.60;75743;2838.866;-1802.903;0;135;500;504.8;100.0;100.4;0;-0.5;25.1;-1.0;
03/03/2025 23:02:47;116;0;18.24;-4;-54.21;-16.40;-0.1;18.60;75759;2838.878;-1802.913;0;135;500;506.5;100.0;100.6;0;-0.5;25.1;-1.0;
03/03/2025 23:03:20;116;0;41.32;-4;-59.13;0.47;-0.1;18.70;75752;2838.879;-1802.915;0;135;500;506.5;100.0;100.4;0;-0.5;25.1;-1.0;
03/03/2025 23:03:40;116;0;49.31;-4;-55.56;-6.88;-0.2;18.70;75759;2838.884;-1802.918;0;135;500;506.5;100.0;100.4;0;-0.5;25.1;-1.0;
03/03/2025 23:04:43;116;0;9.69;-4;-56.00;-18.73;-0.3;18.80;75781;2838.898;-1802.932;0;135;500;506.5;100.0;100.4;0;-0.5;25.0;-1.0;
03/03/2025 23:06:44;116;0;358.57;-4;-55.42;-15.47;-0.2;19.20;75806;2838.924;-1802.955;0;135;500;506.5;100.0;100.6;0;-0.5;25.0;-1.0;
03/03/2025 23:07:57;116;0;348.83;-4;-50.13;-4.60;-0.0;19.40;75820;2838.941;-1802.969;0;135;500;506.5;100.0;100.6;0;-0.5;25.1;-1.0;
03/03/2025 23:08:08;116;0;3.79;-4;-46.00;-13.61;-0.2;19.50;75833;2838.944;-1802.970;0;135;500;506.5;100.0;100.6;0;-0.5;25.1;-1.0;
03/03/2025 23:08:28;110;0;358.08;-4;-49.83;-17.64;-0.2;19.50;75841;2838.944;-1802.970;0;135;-110;382.3;100.0;100.4;-7;-7.2;25.1;-1.0;
03/03/2025 23:08:38;110;0;15.60;-4;-57.54;-23.35;0.1;19.60;76182;2838.944;-1802.971;1;135;-110;238.7;100.0;100.4;-7;-7.7;25.0;-1.0;
03/03/2025 23:08:48;110;0;35.35;-4;-52.10;-18.02;0.3;19.60;76428;2838.944;-1802.971;1;135;-110;85.5;100.0;100.4;-7;-7.7;25.0;-1.0;
03/03/2025 23:08:58;110;0;9.47;-4;-64.13;-6.75;0.8;19.60;76747;2838.944;-1802.971;1;135;-110;-72.6;100.0;100.6;-7;-7.7;25.0;-1.0;
03/03/2025 23:09:08;110;0;1.62;-4;-63.36;-18.67;1.1;19.60;77079;2838.944;-1802.971;1;135;-110;-109.7;41.7;55.1;-7;-7.7;25.0;-1.0;
03/03/2025 23:09:18;110;0;1.63;-4;-49.80;-16.83;2.4;19.60;77113;2838.944;-1802.972;1;135;-110;-109.7;41.7;41.7;-7;-7.7;25.0;-1.0;
03/03/2025 23:09:38;100;0;21.39;-4;-18.96;-16.06;5.5;19.70;77113;2838.948;-1802.971;1;135;-110;-104.8;41.7;41.4;-7;-7.7;25.1;-1.0;
03/03/2025 23:09:58;100;0;29.47;-4;-16.69;-15.12;8.2;19.70;77119;2838.951;-1802.969;1;135;-110;-103.2;42.7;42.9;-70;-69.9;25.1;-1.0;
03/03/2025 23:10:18;100;0;40.03;-4;-18.61;-46.07;10.6;19.80;77117;2838.953;-1802.968;1;135;-110;-100.0;43.1;43.2;-70;-70.4;25.1;-1.0;
03/03/2025 23:10:38;100;0;51.45;-4;-21.23;-45.90;13.3;19.90;77131;2838.955;-1802.965;1;135;-110;-100.0;43.1;43.4;-70;-70.4;25.0;0.0;
03/03/2025 23:10:58;100;0;66.39;-4;-20.17;-45.25;16.0;19.90;77133;2838.956;-1802.962;1;135;-110;-100.0;43.1;43.4;-55;-55.1;25.1;0.0;
03/03/2025 23:11:18;100;0;81.50;-4;-19.26;-38.10;18.8;19.90;77127;2838.956;-1802.959;1;135;-110;-104.8;43.1;43.4;-36;-36.1;25.1;0.0;
03/03/2025 23:11:38;100;0;93.80;-4;-20.73;-28.49;21.3;19.90;77141;2838.956;-1802.956;1;135;-110;-101.6;43.1;43.4;-17;-17.1;25.1;0.0;
03/03/2025 23:11:58;100;0;103.97;-4;-19.92;-19.28;24.0;19.90;77145;2838.955;-1802.953;1;135;-110;-101.6;43.1;43.6;-1;-0.9;25.0;0.0;
03/03/2025 23:12:18;100;0;109.87;-4;-20.62;-11.16;26.6;19.90;77148;2838.953;-1802.950;1;135;-110;-101.6;43.1;43.6;8;8.1;25.0;0.0;
03/03/2025 23:12:38;100;0;112.70;-4;-21.90;-7.26;29.1;19.90;77147;2838.952;-1802.948;1;135;-110;-100.0;43.1;43.6;12;12.2;25.1;0.0;
03/03/2025 23:12:58;100;0;116.94;-4;-22.38;-5.37;31.6;19.80;77151;2838.950;-1802.946;1;135;-110;-100.0;42.4;42.4;15;15.3;25.1;0.0;
03/03/2025 23:13:18;100;0;119.02;-4;-20.86;-4.01;34.1;19.80;77150;2838.949;-1802.943;1;135;-110;-101.6;42.4;42.4;15;15.3;25.1;0.0;
03/03/2025 23:13:38;100;0;118.80;-4;-20.20;-4.14;36.6;19.80;77161;2838.947;-1802.941;1;135;-110;-101.6;42.4;42.4;15;15.3;25.0;0.0;
03/03/2025 23:13:58;100;0;121.26;-4;-20.19;-3.82;39.2;19.80;77168;2838.945;-1802.938;1;135;-110;-101.6;42.4;42.4;15;15.3;25.1;0.0;
03/03/2025 23:14:18;100;0;122.04;-4;-20.04;-3.95;41.7;19.80;77166;2838.943;-1802.936;1;135;-110;-101.6;42.4;42.3;15;15.3;25.1;0.0;
03/03/2025 23:14:38;100;0;119.82;-4;-20.34;-3.95;44.2;19.80;77173;2838.941;-1802.933;1;135;-110;-101.6;42.4;42.4;15;15.3;25.1;0.0;
03/03/2025 23:14:58;100;0;118.42;-4;-20.43;-3.87;46.7;19.70;77165;2838.939;-1802.931;1;135;-110;-101.6;42.4;42.3;15;15.3;25.1;0.0;
03/03/2025 23:15:18;100;0;118.11;-4;-20.02;-3.90;49.2;19.70;77165;2838.937;-1802.928;1;135;-110;-101.6;42.4;42.3;15;15.3;25.1;0.0;
03/03/2025 23:15:38;100;0;117.66;-4;-20.25;-3.95;51.6;19.70;77169;2838.936;-1802.926;1;135;-110;-101.6;42.4;42.3;15;15.3;25.1;0.0;
03/03/2025 23:15:58;100;0;117.15;-4;-20.21;-3.86;54.1;19.70;77172;2838.934;-1802.923;1;135;-110;-101.6;42.4;42.3;15;15.3;25.0;0.0;
03/03/2025 23:16:18;100;0;117.40;-4;-20.09;-3.87;56.6;19.70;77172;2838.932;-1802.921;1;135;-110;-101.6;42.4;42.3;15;15.3;25.1;0.0;
03/03/2025 23:16:38;100;0;119.02;-4;-20.11;-3.85;59.1;19.70;77179;2838.930;-1802.918;1;135;-110;-100.0;42.4;42.3;15;14.9;25.1;0.0;
03/03/2025 23:16:58;100;0;120.33;-4;-20.26;-3.86;61.5;19.70;77182;2838.929;-1802.916;1;135;-110;-100.0;42.4;42.3;15;15.3;25.1;0.0;
03/03/2025 23:17:18;100;0;120.08;-4;-20.28;-3.94;64.2;19.70;77185;2838.927;-1802.913;1;135;-110;-101.6;42.4;42.3;15;15.3;25.0;0.0;
03/03/2025 23:17:39;100;0;117.77;-4;-19.95;-3.97;66.5;19.70;77177;2838.925;-1802.911;1;135;-110;-101.6;42.4;42.3;15;15.3;25.0;0.0;
03/03/2025 23:17:59;100;0;116.74;-4;-20.10;-3.95;68.9;19.60;77173;2838.923;-1802.909;1;135;-110;-103.2;42.4;42.6;15;15.3;25.1;0.0;
03/03/2025 23:18:19;100;0;111.63;-4;-19.88;-3.92;71.4;19.60;77154;2838.922;-1802.906;1;135;-110;-100.0;42.4;42.3;10;9.9;25.1;0.0;
03/03/2025 23:18:39;100;0;105.14;-4;-19.90;-6.77;73.7;19.60;77151;2838.921;-1802.903;1;135;-110;-101.6;42.4;42.3;2;1.8;25.0;0.0;
03/03/2025 23:18:59;100;0;105.12;-4;-19.33;-10.73;76.1;19.60;77127;2838.920;-1802.901;1;135;-110;-100.0;42.4;42.3;0;0.0;25.0;0.0;
03/03/2025 23:19:19;100;0;104.71;-4;-19.15;-11.75;78.5;19.60;77117;2838.919;-1802.898;1;135;-110;-101.6;42.4;42.3;0;-0.5;25.1;0.0;
03/03/2025 23:19:39;100;0;106.46;-4;-18.99;-11.77;80.8;19.50;77107;2838.917;-1802.895;1;135;-110;-100.0;42.7;42.9;4;4.1;25.1;0.0;
03/03/2025 23:19:59;100;0;111.37;-4;-19.89;-9.30;83.0;19.50;77094;2838.916;-1802.893;1;135;-110;-101.6;42.7;42.9;10;9.9;25.1;0.0;
03/03/2025 23:20:19;100;0;113.92;-4;-20.07;-6.44;85.4;19.50;77090;2838.915;-1802.890;1;135;-110;-101.6;42.7;42.9;13;13.1;25.1;0.0;
03/03/2025 23:20:39;100;0;113.76;-4;-20.51;-4.76;87.7;19.50;77088;2838.913;-1802.888;1;135;-110;-101.6;42.7;42.9;13;13.5;25.0;0.0;
03/03/2025 23:20:59;100;0;113.79;-4;-19.94;-4.75;90.1;19.40;77092;2838.912;-1802.886;1;135;-110;-100.0;42.7;43.0;13;13.5;25.0;0.0;
03/03/2025 23:21:19;100;0;111.07;-4;-20.02;-4.80;92.3;19.40;77062;2838.910;-1802.883;1;135;-110;-100.0;42.7;43.0;10;9.9;25.0;0.0;
03/03/2025 23:21:39;100;0;113.76;-4;-19.47;-6.65;94.3;19.40;77040;2838.909;-1802.881;1;135;-130;-132.3;42.7;43.0;14;14.0;25.0;0.0;
03/03/2025 23:21:59;100;0;113.73;-4;-19.09;-4.39;96.7;19.30;77106;2838.907;-1802.879;1;135;-130;-133.9;42.7;42.9;12;11.7;25.1;0.0;
03/03/2025 23:22:19;100;0;114.38;-4;-19.15;-5.81;98.8;19.30;77094;2838.906;-1802.876;1;135;-130;-133.9;42.7;43.0;12;11.3;25.1;0.0;
03/03/2025 23:22:39;100;0;114.04;-4;-19.18;-5.67;101.2;19.30;77086;2838.904;-1802.874;1;135;-130;-133.9;42.7;43.0;12;11.3;25.1;0.0;
03/03/2025 23:22:59;100;0;118.96;-4;-18.81;-5.63;103.3;19.20;77068;2838.903;-1802.872;1;135;-130;-133.9;43.1;43.0;15;14.9;25.1;0.0;
03/03/2025 23:23:19;100;0;122.46;-4;-18.97;-3.80;105.6;19.20;77058;2838.901;-1802.870;1;135;-130;-133.9;43.4;43.4;15;14.9;25.0;0.0;
03/03/2025 23:23:39;100;0;125.23;-4;-20.54;-4.01;107.9;19.20;77057;2838.899;-1802.868;1;135;-130;-133.9;43.4;43.7;15;14.9;25.0;0.0;
03/03/2025 23:23:59;100;0;125.99;-4;-20.95;-3.90;110.3;19.10;77037;2838.897;-1802.866;1;135;-130;-133.9;43.4;43.6;15;14.9;25.1;0.0;
03/03/2025 23:24:19;100;0;128.65;-4;-21.05;-3.97;112.8;19.10;77040;2838.895;-1802.864;1;135;-130;-133.9;43.4;43.7;15;14.9;25.0;0.0;
03/03/2025 23:24:39;100;0;131.22;-4;-21.08;-4.13;115.2;19.00;77028;2838.893;-1802.862;1;135;-130;-133.9;43.4;43.6;17;17.1;25.1;0.0;
03/03/2025 23:24:59;100;0;132.72;-4;-21.25;-2.49;117.6;19.00;77016;2838.890;-1802.860;1;135;-130;-133.9;43.4;43.7;17;17.6;25.1;0.0;
03/03/2025 23:25:19;100;0;133.41;-4;-21.84;-2.70;120.1;19.00;77011;2838.888;-1802.858;1;135;-130;-133.9;43.4;43.7;17;17.6;25.0;0.0;
03/03/2025 23:25:39;100;0;134.53;-4;-21.36;-2.60;122.5;18.90;77005;2838.886;-1802.856;1;135;-130;-133.9;43.4;43.7;20;19.9;25.1;0.0;
03/03/2025 23:25:59;100;0;136.27;-4;-21.75;-1.22;124.9;18.90;77009;2838.883;-1802.855;1;135;-130;-133.9;43.4;43.7;23;23.0;25.1;0.0;
03/03/2025 23:26:19;100;0;134.57;-4;-22.09;0.49;127.4;18.90;76996;2838.881;-1802.853;1;135;-130;-133.9;42.7;42.7;21;20.8;25.1;0.0;
03/03/2025 23:26:39;100;0;133.80;-4;-19.98;-0.92;129.8;18.80;76995;2838.878;-1802.851;1;135;-130;-132.3;42.7;42.6;19;19.0;25.0;0.0;
03/03/2025 23:26:59;100;0;135.80;-4;-19.27;-2.51;132.1;18.80;76993;2838.876;-1802.850;1;135;-130;-133.9;42.7;42.4;21;21.2;25.0;0.0;
03/03/2025 23:27:19;100;0;135.15;-4;-19.67;-0.63;134.3;18.80;76984;2838.874;-1802.848;1;135;-130;-133.9;42.7;42.6;21;21.7;25.1;0.0;
03/03/2025 23:27:39;100;0;129.82;-4;-19.66;-0.60;136.5;18.70;76969;2838.872;-1802.846;1;135;-130;-133.9;42.7;42.4;17;17.1;25.1;0.0;
03/03/2025 23:27:59;100;0;124.10;-4;-19.29;-3.03;138.8;18.70;76953;2838.870;-1802.844;1;135;-130;-133.9;42.7;42.6;15;14.9;25.1;0.0;
03/03/2025 23:28:19;100;0;118.99;-4;-19.22;-4.21;141.0;18.70;76943;2838.868;-1802.842;1;135;-130;-133.9;42.7;42.6;15;14.4;25.1;0.0;
03/03/2025 23:28:39;100;0;116.91;-4;-19.04;-4.23;143.1;18.60;76931;2838.866;-1802.840;1;135;-130;-133.9;42.7;42.4;15;14.4;25.0;0.0;
03/03/2025 23:28:59;100;0;113.79;-4;-18.92;-4.23;145.3;18.60;76924;2838.865;-1802.838;1;135;-130;-133.9;43.1;43.0;13;13.1;25.1;0.0;
03/03/2025 23:29:19;100;0;111.86;-4;-19.60;-4.89;147.5;18.50;76917;2838.864;-1802.835;1;135;-130;-133.9;43.1;43.3;13;13.1;25.1;0.0;
03/03/2025 23:29:39;100;0;111.21;-4;-19.76;-4.96;149.7;18.50;76908;2838.862;-1802.833;1;135;-130;-133.9;43.1;43.3;11;10.8;25.1;0.0;
03/03/2025 23:29:59;100;0;113.21;-4;-20.07;-6.16;152.0;18.50;76890;2838.861;-1802.830;1;135;-130;-132.3;43.1;43.3;11;10.4;25.1;0.0;
03/03/2025 23:30:19;100;0;112.24;-4;-19.99;-6.14;154.5;18.40;76881;2838.859;-1802.828;1;135;-130;-133.9;43.1;43.3;11;10.4;25.0;0.0;
03/03/2025 23:30:39;100;0;110.48;-4;-20.04;-6.19;157.0;18.40;76875;2838.858;-1802.825;1;135;-130;-133.9;43.1;43.3;9;9.0;25.0;0.0;
03/03/2025 23:30:59;100;0;109.58;-4;-19.76;-6.69;159.4;18.30;76857;2838.857;-1802.823;1;135;-130;-133.9;43.1;43.3;9;9.5;25.1;0.0;
03/03/2025 23:31:19;100;0;109.51;-4;-20.17;-6.72;161.8;18.30;76861;2838.855;-1802.820;1;135;-130;-133.9;43.1;43.3;9;9.9;25.0;0.0;
03/03/2025 23:31:39;100;0;108.98;-4;-20.11;-6.47;164.6;18.30;76855;2838.854;-1802.817;1;135;-130;-133.9;43.1;43.3;5;5.0;25.1;0.0;
03/03/2025 23:31:59;100;0;109.96;-4;-19.55;-9.05;167.1;18.20;76845;2838.853;-1802.814;1;135;-130;-133.9;43.1;43.3;7;7.2;25.1;0.0;
03/03/2025 23:32:19;100;0;110.89;-4;-19.51;-7.68;169.6;18.20;76845;2838.851;-1802.811;1;135;-130;-133.9;43.1;43.3;7;7.2;25.1;0.0;
03/03/2025 23:32:39;100;0;112.31;-4;-19.54;-7.67;172.3;18.20;76838;2838.850;-1802.808;1;135;-130;-132.3;43.1;43.3;10;9.9;25.0;0.0;
03/03/2025 23:32:59;100;0;112.47;-4;-19.79;-6.31;174.8;18.10;76826;2838.848;-1802.806;1;135;-130;-133.9;43.1;43.3;10;9.9;25.1;0.0;
03/03/2025 23:33:19;100;0;112.42;-4;-19.79;-6.29;177.5;18.10;76819;2838.847;-1802.803;1;135;-130;-135.5;43.1;43.3;10;9.9;25.0;0.0;
03/03/2025 23:33:39;100;0;113.25;-4;-19.78;-6.23;180.1;18.10;76812;2838.845;-1802.800;1;135;-130;-133.9;43.1;43.3;10;10.4;25.1;0.0;
03/03/2025 23:33:59;100;0;113.32;-4;-19.84;-6.29;182.8;18.00;76808;2838.843;-1802.797;1;135;-130;-132.3;43.1;43.4;10;10.4;25.1;0.0;
03/03/2025 23:34:19;100;0;115.96;-4;-19.50;-6.29;185.5;18.00;76806;2838.841;-1802.794;1;135;-130;-133.9;43.1;43.4;12;12.2;25.0;0.0;
03/03/2025 23:34:39;100;0;117.99;-4;-19.64;-5.22;188.1;17.90;76795;2838.840;-1802.791;1;135;-130;-132.3;43.1;43.3;14;14.0;25.1;0.0;
03/03/2025 23:34:59;100;0;118.90;-4;-19.73;-4.30;190.8;17.90;76788;2838.838;-1802.789;1;135;-130;-133.9;43.1;43.3;14;14.4;25.0;0.0;
03/03/2025 23:35:19;100;0;120.58;-4;-20.06;-4.25;193.5;17.90;76776;2838.836;-1802.786;1;135;-130;-133.9;43.1;43.3;14;14.4;25.0;0.0;
03/03/2025 23:35:39;100;0;124.60;-4;-19.99;-4.23;196.3;17.80;76777;2838.833;-1802.783;1;135;-130;-133.9;43.1;43.3;14;14.4;25.0;0.0;
03/03/2025 23:35:59;100;0;127.33;-4;-20.00;-4.21;199.2;17.80;76765;2838.831;-1802.781;1;135;-130;-133.9;43.1;43.3;14;14.4;25.1;0.0;
03/03/2025 23:36:19;100;0;129.26;-4;-19.96;-4.20;202.0;17.80;76755;2838.828;-1802.778;1;135;-130;-132.3;43.1;43.3;14;14.4;25.1;0.0;
03/03/2025 23:36:39;100;0;129.97;-4;-19.79;-4.26;204.8;17.70;76749;2838.826;-1802.776;1;135;-130;-133.9;43.1;43.3;14;14.4;25.1;0.0;
03/03/2025 23:36:59;100;0;130.49;-4;-19.85;-4.23;207.6;17.70;76745;2838.823;-1802.773;1;135;-130;-133.9;43.1;43.3;14;14.0;25.0;0.0;
03/03/2025 23:37:19;100;0;132.02;-4;-20.25;-4.29;210.3;17.60;76735;2838.820;-1802.771;1;135;-130;-133.9;43.1;43.3;16;15.8;25.0;0.0;
03/03/2025 23:37:39;100;0;132.12;-4;-20.40;-3.40;213.3;17.60;76720;2838.818;-1802.769;1;135;-130;-133.9;43.1;43.3;16;16.2;25.1;0.0;
03/03/2025 23:37:59;100;0;135.60;-4;-18.75;-3.03;216.1;17.60;76725;2838.815;-1802.766;1;135;-130;-133.9;43.4;43.3;18;18.1;25.0;0.0;
03/03/2025 23:38:19;100;0;132.52;-4;-20.10;-2.24;218.8;17.50;76720;2838.812;-1802.764;1;135;-130;-133.9;43.4;43.3;18;18.5;25.1;0.0;
03/03/2025 23:38:39;100;0;133.37;-4;-19.67;-2.25;221.4;17.50;76716;2838.810;-1802.762;1;135;-130;-133.9;43.4;43.3;18;18.1;25.0;0.0;
03/03/2025 23:38:59;100;0;134.44;-4;-20.13;-2.52;224.0;17.50;76709;2838.807;-1802.760;1;135;-130;-133.9;43.4;43.3;18;18.5;25.0;0.0;
03/03/2025 23:39:19;100;0;137.97;-4;-19.73;-1.80;226.7;17.40;76703;2838.804;-1802.758;1;135;-130;-133.9;43.4;43.3;22;22.1;25.0;0.0;
03/03/2025 23:39:39;100;0;139.24;-4;-21.21;-0.32;229.2;17.40;76705;2838.801;-1802.757;1;135;-130;-133.9;43.4;43.2;26;26.2;25.1;0.0;
03/03/2025 23:39:59;100;0;136.89;-4;-20.51;1.92;231.9;17.30;76690;2838.799;-1802.755;1;135;-130;-133.9;43.4;43.3;21;21.2;25.0;0.0;
03/03/2025 23:40:19;100;0;134.04;-4;-20.26;-0.97;234.8;17.30;76697;2838.796;-1802.752;1;135;-130;-133.9;43.4;43.3;17;17.1;25.0;0.0;
03/03/2025 23:40:39;100;0;128.68;-4;-18.55;-2.86;237.3;17.30;76696;2838.793;-1802.750;1;135;-130;-132.3;43.9;44.0;17;16.7;25.0;0.0;
03/03/2025 23:40:59;100;0;133.87;-4;-23.06;-2.87;239.7;17.30;76694;2838.791;-1802.749;1;135;-130;-133.9;43.0;43.0;19;19.4;25.1;0.0;
03/03/2025 23:41:19;100;0;131.29;-4;-20.06;-1.93;242.7;17.20;76685;2838.788;-1802.746;1;135;-130;-132.3;43.0;42.9;16;15.8;25.1;0.0;
03/03/2025 23:41:39;100;0;130.77;-4;-19.42;-3.48;245.4;17.20;76685;2838.786;-1802.744;1;135;-130;-133.9;43.0;42.9;16;15.8;25.1;0.0;
03/03/2025 23:41:59;100;0;133.38;-4;-19.62;-3.83;248.1;17.20;76687;2838.783;-1802.741;1;135;-130;-133.9;43.0;42.9;18;18.1;25.1;0.0;
03/03/2025 23:42:19;100;0;135.32;-4;-19.35;-2.41;250.8;17.10;76686;2838.780;-1802.739;1;135;-130;-133.9;43.0;42.7;18;18.5;25.0;0.0;
03/03/2025 23:42:39;100;0;134.63;-4;-20.12;-2.33;253.1;17.10;76682;2838.778;-1802.738;1;135;-130;-133.9;43.0;42.7;20;19.9;25.0;0.0;
03/03/2025 23:42:59;100;0;133.77;-4;-19.30;-1.23;255.8;17.10;76675;2838.775;-1802.735;1;135;-130;-133.9;43.0;42.9;17;17.1;25.0;0.0;
03/03/2025 23:43:19;100;0;131.98;-4;-19.36;-3.06;258.2;17.10;76668;2838.773;-1802.733;1;135;-130;-135.5;43.0;42.9;17;17.1;25.1;0.0;
03/03/2025 23:43:39;100;0;128.41;-4;-19.75;-3.04;260.5;17.00;76669;2838.771;-1802.731;1;135;-130;-133.9;43.0;42.9;17;16.7;25.1;0.0;
03/03/2025 23:43:59;100;0;126.38;-4;-19.88;-3.01;263.0;17.00;76664;2838.769;-1802.729;1;135;-130;-133.9;43.0;42.9;15;14.4;25.0;0.0;
03/03/2025 23:44:19;100;0;125.80;-4;-19.32;-4.30;265.3;17.00;76655;2838.767;-1802.727;1;135;-130;-135.5;43.0;42.7;15;14.4;25.1;0.0;
03/03/2025 23:44:39;100;0;123.56;-4;-19.39;-4.36;267.5;16.90;76653;2838.765;-1802.725;1;135;-130;-133.9;43.0;42.7;15;14.4;25.1;0.0;
03/03/2025 23:44:59;100;0;119.03;-4;-20.05;-4.27;269.9;16.90;76651;2838.763;-1802.723;1;135;-130;-133.9;43.0;42.7;15;14.4;25.0;0.0;
03/03/2025 23:45:19;100;0;116.46;-4;-19.65;-4.17;272.2;16.90;76637;2838.761;-1802.720;1;135;-130;-133.9;43.0;42.9;15;14.4;25.1;0.0;
03/03/2025 23:45:39;100;0;115.02;-4;-19.94;-4.30;274.7;16.90;76629;2838.760;-1802.718;1;135;-130;-133.9;43.0;42.7;13;13.1;25.0;0.0;
03/03/2025 23:45:59;100;0;113.93;-4;-19.76;-4.97;277.4;16.80;76620;2838.758;-1802.715;1;135;-130;-133.9;43.0;42.9;13;13.1;25.0;0.0;
03/03/2025 23:46:19;100;0;116.63;-4;-19.09;-4.97;279.9;16.80;76629;2838.756;-1802.712;1;135;-130;-133.9;43.0;42.7;13;13.1;25.1;0.0;
03/03/2025 23:46:39;100;0;117.94;-4;-19.24;-5.02;282.4;16.80;76626;2838.754;-1802.710;1;135;-130;-133.9;43.0;42.7;13;13.1;25.0;0.0;
03/03/2025 23:46:59;100;0;119.26;-4;-19.31;-4.99;284.7;16.80;76616;2838.753;-1802.707;1;135;-130;-133.9;43.0;42.7;15;14.9;25.0;0.0;
03/03/2025 23:47:19;100;0;119.30;-4;-19.50;-3.78;286.9;16.70;76615;2838.751;-1802.705;1;135;-130;-137.1;43.0;42.7;15;15.3;25.1;0.0;
03/03/2025 23:47:39;100;0;119.10;-4;-19.63;-3.83;289.6;16.70;76618;2838.749;-1802.702;1;135;-130;-133.9;43.0;42.7;15;15.3;25.0;0.0;
03/03/2025 23:47:59;100;0;117.71;-4;-19.47;-3.79;291.9;16.60;76593;2838.747;-1802.700;1;135;-130;-133.9;43.0;42.7;15;15.3;25.0;0.0;
03/03/2025 23:48:19;100;0;112.93;-4;-19.06;-3.82;294.4;16.60;76582;2838.746;-1802.697;1;135;-130;-133.9;43.0;42.7;11;10.8;25.1;0.0;
03/03/2025 23:48:39;100;0;109.81;-4;-18.98;-6.13;296.6;16.60;76584;2838.744;-1802.695;1;135;-130;-133.9;43.3;43.4;11;10.4;25.1;0.0;
03/03/2025 23:48:59;100;0;109.84;-4;-19.83;-6.03;299.0;16.60;76574;2838.743;-1802.692;1;135;-130;-133.9;43.3;43.6;9;9.0;25.0;0.0;
03/03/2025 23:49:19;100;0;108.06;-4;-20.28;-6.98;301.5;16.50;76566;2838.742;-1802.689;1;135;-130;-133.9;43.3;43.6;5;5.0;25.0;0.0;
03/03/2025 23:49:39;100;0;107.84;-4;-19.75;-9.31;304.2;16.50;76562;2838.741;-1802.686;1;135;-130;-135.5;43.3;43.6;3;2.7;25.0;0.0;
03/03/2025 23:49:59;100;0;110.27;-4;-19.75;-10.12;306.9;16.50;76551;2838.739;-1802.683;1;135;-130;-133.9;43.3;43.6;8;8.1;25.0;0.0;
03/03/2025 23:50:19;100;0;109.47;-4;-19.85;-7.15;309.5;16.50;76542;2838.738;-1802.680;1;135;-130;-133.9;43.3;43.7;8;8.6;25.1;0.0;
03/03/2025 23:50:39;100;0;112.50;-4;-19.70;-7.16;312.0;16.40;76532;2838.736;-1802.678;1;135;-130;-135.5;43.3;43.6;10;9.9;25.0;0.0;
03/03/2025 23:50:59;100;0;114.48;-4;-19.96;-6.31;314.4;16.40;76515;2838.735;-1802.675;1;135;-130;-133.9;43.3;43.7;13;13.1;25.0;0.0;
03/03/2025 23:51:19;100;0;114.04;-4;-19.98;-4.81;317.0;16.40;76516;2838.733;-1802.672;1;135;-130;-133.9;43.3;43.6;13;13.5;25.1;0.0;
03/03/2025 23:51:39;100;0;110.64;-4;-20.03;-4.70;319.8;16.30;76504;2838.731;-1802.669;1;135;-130;-133.9;43.3;43.7;7;7.2;25.0;0.0;
03/03/2025 23:51:59;100;0;108.74;-4;-19.62;-8.00;322.4;16.30;76515;2838.730;-1802.666;1;135;-130;-135.5;43.3;43.7;5;5.0;25.1;0.0;
03/03/2025 23:52:19;100;0;109.52;-4;-19.57;-9.13;325.1;16.30;76500;2838.729;-1802.663;1;135;-130;-135.5;43.3;43.6;5;4.5;25.1;0.0;
03/03/2025 23:52:40;100;0;111.23;-4;-19.65;-9.11;327.7;16.30;76489;2838.727;-1802.661;1;135;-130;-135.5;43.3;43.7;9;9.0;25.1;0.0;
03/03/2025 23:53:00;100;0;109.18;-4;-20.02;-6.82;330.3;16.20;76485;2838.726;-1802.658;1;135;-130;-135.5;43.3;43.6;6;5.9;25.1;0.0;
03/03/2025 23:53:20;100;0;108.77;-4;-19.67;-8.75;333.0;16.20;76482;2838.724;-1802.655;1;135;-130;-137.1;43.3;43.6;4;4.1;25.0;0.0;
03/03/2025 23:53:40;100;0;111.17;-4;-19.70;-9.50;335.8;16.20;76482;2838.723;-1802.652;1;135;-130;-132.3;43.3;43.6;7;7.2;25.1;0.0;
03/03/2025 23:54:00;100;0;113.11;-4;-19.64;-7.69;338.6;16.10;76464;2838.721;-1802.649;1;135;-130;-132.3;43.3;43.7;9;9.0;25.0;0.0;
03/03/2025 23:54:20;100;0;113.16;-4;-20.00;-6.70;341.4;16.10;76457;2838.719;-1802.645;1;135;-130;-133.9;43.3;43.6;9;9.5;25.0;0.0;
03/03/2025 23:54:40;100;0;113.40;-4;-20.01;-6.67;344.1;16.10;76453;2838.718;-1802.643;1;135;-130;-133.9;43.3;43.6;11;10.8;25.0;0.0;
03/03/2025 23:55:00;100;0;112.81;-4;-20.00;-5.79;346.9;16.00;76458;2838.716;-1802.639;1;135;-130;-133.9;43.3;43.6;9;9.0;25.0;0.0;
03/03/2025 23:55:20;100;0;113.05;-4;-19.85;-7.03;349.7;16.00;76448;2838.714;-1802.636;1;135;-130;-133.9;43.3;43.6;9;8.6;25.1;0.0;
03/03/2025 23:55:40;100;0;114.33;-4;-19.79;-7.06;352.7;16.00;76449;2838.713;-1802.633;1;135;-130;-135.5;43.3;43.6;9;8.6;25.1;0.0;
03/03/2025 23:56:00;100;0;116.10;-4;-19.65;-7.13;355.3;16.00;76447;2838.711;-1802.630;1;135;-130;-133.9;43.3;43.6;13;13.1;25.0;0.0;
03/03/2025 23:56:20;100;0;116.79;-4;-20.00;-4.78;358.1;15.90;76432;2838.709;-1802.627;1;135;-130;-133.9;43.3;43.6;13;13.1;25.0;0.0;
03/03/2025 23:56:40;100;0;120.07;-4;-20.09;-4.76;360.8;15.90;76430;2838.707;-1802.625;1;135;-130;-135.5;43.3;43.7;13;13.1;25.1;0.0;
03/03/2025 23:57:00;100;0;124.75;-4;-20.05;-4.78;363.6;15.90;76410;2838.705;-1802.622;1;135;-130;-133.9;43.3;43.6;13;13.5;25.0;0.0;
03/03/2025 23:57:20;100;0;126.64;-4;-20.27;-4.63;366.4;15.80;76409;2838.702;-1802.620;1;135;-130;-133.9;43.3;43.7;13;13.5;25.0;0.0;
03/03/2025 23:57:40;100;0;130.54;-4;-19.59;-4.75;369.0;15.80;76403;2838.700;-1802.617;1;135;-130;-133.9;43.3;43.7;15;15.3;25.1;0.0;
03/03/2025 23:58:00;100;0;131.36;-4;-20.26;-3.62;371.7;15.80;76403;2838.697;-1802.615;1;135;-130;-135.5;43.3;43.6;15;15.3;25.0;0.0;
03/03/2025 23:58:20;100;0;134.29;-4;-20.10;-3.63;374.7;15.80;76386;2838.694;-1802.613;1;135;-130;-133.9;43.3;43.6;17;17.1;25.1;0.0;
03/03/2025 23:58:40;100;0;136.03;-4;-20.17;-2.82;377.3;15.70;76385;2838.692;-1802.611;1;135;-130;-133.9;43.3;43.7;19;19.0;25.1;0.0;
03/03/2025 23:59:00;100;0;136.50;-4;-20.15;-1.73;380.1;15.70;76384;2838.689;-1802.609;1;135;-130;-133.9;43.3;43.7;19;19.4;25.1;0.0;
03/03/2025 23:59:20;100;0;136.87;-4;-20.26;-1.73;382.8;15.70;76380;2838.686;-1802.607;1;135;-130;-133.9;43.3;43.7;19;19.4;25.0;0.0;
03/03/2025 23:59:40;100;0;136.69;-4;-20.07;-1.69;385.5;15.60;76376;2838.683;-1802.605;1;135;-130;-133.9;43.3;43.7;19;19.4;25.1;0.0;
04/03/2025 00:00:00;100;0;136.81;-4;-20.16;-1.72;388.4;15.60;76360;2838.680;-1802.603;1;135;-130;-133.9;43.3;43.7;19;19.4;25.0;0.0;
04/03/2025 00:00:20;100;0;138.30;-4;-20.40;-1.64;391.1;15.60;76367;2838.677;-1802.601;1;135;-130;-133.9;43.3;43.6;21;21.2;25.1;0.0;
04/03/2025 00:00:40;100;0;138.08;-4;-20.57;-0.71;393.8;15.60;76353;2838.675;-1802.599;1;135;-130;-133.9;43.3;43.6;21;21.7;25.1;0.0;
04/03/2025 00:01:00;100;0;137.37;-4;-20.93;-0.46;396.7;15.50;76350;2838.672;-1802.597;1;135;-130;-132.3;43.3;43.7;21;21.7;25.1;0.0;
04/03/2025 00:01:20;100;0;135.54;-4;-20.48;-0.65;399.7;15.50;76350;2838.669;-1802.594;1;135;-130;-133.9;43.3;43.6;18;18.1;25.0;0.0;
04/03/2025 00:01:40;100;0;134.55;-4;-20.54;-2.65;402.4;15.50;76345;2838.666;-1802.592;1;135;-130;-133.9;43.3;43.7;18;17.6;25.0;0.0;
04/03/2025 00:02:00;100;0;134.20;-4;-20.12;-2.62;405.3;15.40;76336;2838.663;-1802.590;1;135;-130;-133.9;43.3;43.6;18;17.6;25.0;0.0;
04/03/2025 00:02:20;100;0;133.14;-4;-20.38;-2.64;408.1;15.40;76334;2838.660;-1802.588;1;135;-130;-132.3;43.3;43.7;16;15.8;25.0;0.0;
04/03/2025 00:02:40;100;0;134.95;-4;-20.28;-3.64;410.8;15.40;76332;2838.658;-1802.586;1;135;-130;-133.9;43.3;43.6;19;19.0;25.1;0.0;
04/03/2025 00:03:00;100;0;134.20;-4;-20.49;-1.82;413.5;15.40;76328;2838.655;-1802.583;1;135;-130;-133.9;43.3;43.7;17;17.1;25.0;0.0;
04/03/2025 00:03:20;100;0;131.42;-4;-20.31;-3.12;416.4;15.30;76332;2838.652;-1802.581;1;135;-130;-133.9;43.3;43.7;17;16.7;25.0;0.0;
04/03/2025 00:03:40;100;0;132.68;-4;-20.25;-3.08;419.3;15.30;76318;2838.649;-1802.579;1;135;-130;-133.9;43.3;43.6;17;16.7;25.0;0.0;
04/03/2025 00:04:00;100;0;130.04;-4;-20.12;-3.10;422.1;15.30;76313;2838.647;-1802.576;1;135;-130;-133.9;43.3;43.6;15;14.9;25.1;0.0;
04/03/2025 00:04:20;100;0;127.38;-4;-20.16;-4.20;424.8;15.30;76317;2838.644;-1802.574;1;135;-130;-133.9;43.3;43.6;15;14.9;25.1;0.0;
04/03/2025 00:04:40;100;0;126.86;-4;-20.00;-3.98;427.9;15.20;76307;2838.642;-1802.571;1;135;-130;-133.9;43.3;43.6;15;14.4;25.1;0.0;
04/03/2025 00:05:00;100;0;128.41;-4;-20.07;-4.05;430.7;15.20;76300;2838.639;-1802.568;1;135;-130;-133.9;43.3;43.6;15;14.9;25.1;0.0;
04/03/2025 00:05:20;100;0;129.61;-4;-19.97;-4.10;433.7;15.20;76290;2838.637;-1802.566;1;135;-130;-133.9;43.3;43.6;15;14.9;25.1;0.0;
04/03/2025 00:05:40;100;0;130.85;-4;-20.01;-4.08;436.6;15.20;76294;2838.634;-1802.563;1;135;-130;-133.9;43.3;43.6;15;14.9;25.1;0.0;
04/03/2025 00:06:00;100;0;131.96;-4;-19.98;-4.09;439.3;15.10;76284;2838.631;-1802.561;1;135;-130;-133.9;43.3;43.6;17;17.1;25.0;0.0;
04/03/2025 00:06:20;100;0;132.54;-4;-20.08;-2.74;442.2;15.10;76284;2838.628;-1802.558;1;135;-130;-133.9;43.3;43.6;17;17.6;25.0;0.0;
04/03/2025 00:06:40;100;0;130.12;-4;-20.16;-2.73;445.1;15.10;76274;2838.626;-1802.556;1;135;-130;-133.9;43.3;43.7;15;14.9;25.0;0.0;
04/03/2025 00:07:00;100;0;128.46;-4;-19.83;-4.25;447.9;15.00;76263;2838.623;-1802.553;1;135;-130;-133.9;43.3;43.7;15;14.4;25.1;0.0;
04/03/2025 00:07:20;100;0;128.77;-4;-19.82;-4.28;450.7;15.00;76267;2838.621;-1802.551;1;135;-130;-133.9;43.3;43.6;15;14.4;25.1;0.0;
04/03/2025 00:07:40;100;0;128.39;-4;-19.71;-4.26;453.5;15.00;76262;2838.618;-1802.549;1;135;-130;-133.9;43.3;43.6;15;14.4;25.0;0.0;
04/03/2025 00:08:00;100;0;128.09;-4;-19.64;-4.29;456.3;15.00;76247;2838.616;-1802.546;1;135;-130;-133.9;43.3;43.7;15;14.4;25.1;0.0;
04/03/2025 00:08:20;100;0;127.50;-4;-19.80;-4.24;459.1;15.00;76264;2838.613;-1802.543;1;135;-130;-135.5;43.3;43.6;15;14.4;25.1;0.0;
04/03/2025 00:08:40;100;0;127.97;-4;-19.49;-4.26;461.8;14.90;76256;2838.611;-1802.541;1;135;-130;-137.1;43.3;43.7;15;14.4;25.0;0.0;
04/03/2025 00:09:00;100;0;129.21;-4;-19.49;-4.35;464.5;14.90;76241;2838.608;-1802.538;1;135;-130;-133.9;43.3;43.6;15;14.4;25.1;0.0;
04/03/2025 00:09:20;100;0;128.00;-4;-19.79;-4.31;467.3;14.90;76236;2838.606;-1802.536;1;135;-130;-135.5;43.3;43.7;15;14.4;25.1;0.0;
04/03/2025 00:09:40;100;0;125.64;-4;-20.03;-4.25;470.3;14.90;76229;2838.603;-1802.533;1;135;-130;-133.9;43.3;43.6;15;14.4;25.1;0.0;
04/03/2025 00:10:00;100;0;124.00;-4;-20.00;-4.21;473.2;14.80;76227;2838.601;-1802.530;1;135;-130;-132.3;43.3;43.7;15;14.4;25.1;0.0;
04/03/2025 00:10:20;100;0;122.62;-4;-20.04;-4.23;476.3;14.80;76217;2838.599;-1802.527;1;135;-130;-133.9;43.3;43.7;15;14.4;25.0;0.0;
04/03/2025 00:10:40;100;0;121.71;-4;-19.94;-4.23;479.3;14.80;76202;2838.596;-1802.524;1;135;-130;-133.9;43.3;43.7;15;14.4;25.1;0.0;
04/03/2025 00:11:00;100;0;120.99;-4;-19.87;-4.24;482.4;14.70;76201;2838.594;-1802.521;1;135;-130;-133.9;43.3;43.6;15;14.4;25.0;0.0;
04/03/2025 00:11:20;100;0;119.64;-4;-19.94;-4.26;485.4;14.70;76205;2838.592;-1802.518;1;135;-130;-133.9;43.3;43.6;15;14.4;25.1;0.0;
04/03/2025 00:11:40;100;0;116.50;-4;-19.93;-4.25;488.5;14.70;76203;2838.590;-1802.515;1;135;-130;-133.9;43.3;43.6;12;12.2;25.0;0.0;
04/03/2025 00:12:00;100;0;115.78;-4;-19.74;-5.48;491.5;14.70;76198;2838.588;-1802.511;1;135;-130;-135.5;43.3;43.6;12;12.2;25.1;0.0;
04/03/2025 00:12:20;100;0;116.01;-4;-19.59;-5.45;494.6;14.60;76186;2838.586;-1802.508;1;135;-130;-132.3;43.3;43.6;12;12.2;25.0;0.0;
04/03/2025 00:12:40;100;0;119.37;-4;-19.32;-5.45;497.5;14.60;76181;2838.584;-1802.505;1;135;-130;-133.9;43.3;43.6;14;14.0;25.1;0.0;
04/03/2025 00:13:00;100;0;122.48;-4;-19.33;-4.15;500.4;14.60;76188;2838.581;-1802.502;1;135;-130;-133.9;43.3;43.6;14;14.0;25.1;0.0;
04/03/2025 00:13:20;100;0;127.34;-4;-19.30;-4.42;503.3;14.60;76167;2838.579;-1802.499;1;135;-130;-137.1;43.3;43.6;14;14.0;25.0;0.0;
04/03/2025 00:13:40;100;0;130.52;-4;-19.35;-4.34;506.2;14.60;76168;2838.576;-1802.496;1;135;-130;-133.9;43.3;43.6;14;14.4;25.1;0.0;
04/03/2025 00:14:00;100;0;131.80;-4;-19.74;-4.38;509.0;14.50;76156;2838.573;-1802.494;1;135;-130;-133.9;43.3;43.6;16;15.8;25.1;0.0;
04/03/2025 00:14:20;100;0;133.56;-4;-19.77;-3.45;512.0;14.50;76156;2838.570;-1802.492;1;135;-130;-133.9;43.3;43.7;16;16.2;25.0;0.0;
04/03/2025 00:14:40;100;0;135.27;-4;-19.74;-3.45;514.8;14.50;76144;2838.567;-1802.489;1;135;-130;-133.9;43.3;43.7;18;18.1;25.1;0.0;
04/03/2025 00:15:00;100;0;135.92;-4;-19.77;-2.14;517.8;14.40;76140;2838.564;-1802.487;1;135;-130;-133.9;43.3;43.7;18;18.5;25.1;0.0;
04/03/2025 00:15:20;100;0;136.38;-4;-19.88;-2.13;520.6;14.40;76133;2838.561;-1802.485;1;135;-130;-133.9;43.3;43.6;18;18.5;25.1;0.0;
04/03/2025 00:15:40;100;0;135.80;-4;-19.95;-2.19;523.6;14.40;76137;2838.559;-1802.483;1;135;-130;-137.1;43.3;43.7;18;18.5;25.1;0.0;
04/03/2025 00:16:00;100;0;137.03;-4;-20.08;-2.10;526.5;14.40;76136;2838.555;-1802.480;1;135;-130;-133.9;43.3;43.7;20;19.9;25.1;0.0;
04/03/2025 00:16:20;100;0;135.79;-4;-20.10;-1.28;529.4;14.40;76131;2838.553;-1802.478;1;135;-130;-133.9;43.3;43.7;20;20.3;25.0;0.0;
04/03/2025 00:16:40;100;0;133.37;-4;-20.13;-1.28;532.5;14.30;76124;2838.550;-1802.476;1;135;-130;-133.9;43.3;43.7;17;17.1;25.0;0.0;
04/03/2025 00:17:00;100;0;131.80;-4;-20.09;-3.09;535.2;14.30;76125;2838.547;-1802.473;1;135;-130;-133.9;43.3;43.7;17;16.7;25.0;0.0;
04/03/2025 00:17:20;100;0;129.40;-4;-20.24;-3.05;538.1;14.30;76121;2838.544;-1802.471;1;135;-130;-133.9;43.3;43.6;17;16.7;25.1;0.0;
04/03/2025 00:17:40;100;0;127.35;-4;-20.46;-2.99;541.1;14.30;76121;2838.542;-1802.468;1;135;-130;-133.9;43.3;43.7;15;14.9;25.0;0.0;
04/03/2025 00:18:00;100;0;126.62;-4;-20.13;-4.22;544.0;14.20;76117;2838.539;-1802.465;1;135;-130;-133.9;43.3;43.7;15;14.4;25.1;0.0;
04/03/2025 00:18:20;100;0;124.33;-4;-19.69;-4.29;546.9;14.20;76105;2838.537;-1802.462;1;135;-130;-133.9;43.3;43.6;15;14.4;25.0;0.0;
04/03/2025 00:18:40;100;0;120.55;-4;-19.71;-4.29;549.7;14.20;76100;2838.535;-1802.460;1;135;-130;-133.9;43.3;43.6;15;14.4;25.1;0.0;
04/03/2025 00:19:00;100;0;117.97;-4;-19.67;-4.30;552.4;14.20;76088;2838.533;-1802.457;1;135;-130;-133.9;43.3;43.6;15;14.4;25.0;0.0;
04/03/2025 00:19:20;100;0;118.79;-4;-19.46;-4.26;555.1;14.10;76089;2838.531;-1802.454;1;135;-130;-133.9;43.3;43.7;15;14.4;25.1;0.0;
04/03/2025 00:19:40;100;0;118.00;-4;-19.66;-4.33;557.7;14.10;76095;2838.529;-1802.451;1;135;-130;-133.9;43.3;43.6;15;14.4;25.1;0.0;
04/03/2025 00:20:00;100;0;120.00;-4;-19.51;-4.26;560.4;14.10;76074;2838.527;-1802.449;1;135;-130;-133.9;43.3;43.7;15;14.4;25.1;0.0;
04/03/2025 00:20:20;100;0;121.16;-4;-19.64;-4.23;562.8;14.10;76072;2838.525;-1802.446;1;135;-130;-133.9;43.3;43.6;15;14.4;25.1;0.0;
04/03/2025 00:20:40;100;0;122.88;-4;-19.79;-4.21;565.5;14.00;76062;2838.523;-1802.444;1;135;-130;-133.9;43.3;43.6;15;14.4;25.0;0.0;
04/03/2025 00:21:00;100;0;122.61;-4;-19.59;-4.23;568.2;14.00;76058;2838.521;-1802.441;1;135;-130;-133.9;43.3;43.6;15;14.4;25.0;0.0;
04/03/2025 00:21:20;100;0;122.37;-4;-19.31;-4.26;570.8;14.00;76049;2838.519;-1802.439;1;135;-130;-133.9;43.3;43.6;15;14.4;25.0;0.0;
04/03/2025 00:21:40;100;0;123.40;-4;-18.98;-4.39;573.2;14.00;76055;2838.517;-1802.436;1;135;-130;-135.5;43.6;43.6;15;14.4;25.1;0.0;
04/03/2025 00:22:00;100;0;121.81;-4;-18.89;-4.36;575.4;13.90;76040;2838.515;-1802.434;1;135;-130;-133.9;43.9;43.9;15;14.4;25.0;0.0;
04/03/2025 00:22:20;100;0;121.10;-4;-19.91;-4.30;577.8;13.90;76027;2838.513;-1802.432;1;135;-130;-133.9;43.9;44.2;15;14.4;25.1;0.0;
04/03/2025 00:22:40;100;0;121.36;-4;-20.18;-4.38;580.2;13.90;76030;2838.511;-1802.429;1;135;-130;-135.5;43.9;44.3;15;14.4;25.0;0.0;
04/03/2025 00:23:00;100;0;122.23;-4;-20.35;-4.33;582.6;13.90;76015;2838.509;-1802.427;1;135;-130;-133.9;43.9;44.2;15;14.4;25.0;0.0;
04/03/2025 00:23:20;100;0;122.42;-4;-20.09;-4.34;585.0;13.90;76018;2838.507;-1802.425;1;135;-130;-133.9;43.9;44.2;15;14.4;25.0;0.0;
04/03/2025 00:23:40;100;0;122.29;-4;-20.24;-4.37;587.5;13.80;76012;2838.505;-1802.423;1;135;-130;-132.3;43.9;44.2;15;14.4;25.1;0.0;
04/03/2025 00:24:00;100;0;122.51;-4;-20.24;-4.35;589.9;13.80;76012;2838.503;-1802.420;1;135;-130;-133.9;43.9;44.2;15;14.4;25.0;0.0;
04/03/2025 00:24:20;100;0;122.80;-4;-20.06;-4.30;592.4;13.80;76002;2838.501;-1802.418;1;135;-130;-133.9;43.9;44.2;15;14.4;25.0;0.0;
04/03/2025 00:24:40;100;0;121.90;-4;-20.09;-4.30;594.9;13.80;75997;2838.499;-1802.416;1;135;-130;-133.9;43.9;44.2;15;14.4;25.1;0.0;
04/03/2025 00:25:00;100;0;120.56;-4;-20.06;-4.35;597.2;13.70;75995;2838.498;-1802.413;1;135;-130;-133.9;43.9;44.2;15;14.4;25.0;0.0;
04/03/2025 00:25:20;100;0;119.54;-4;-20.07;-4.50;599.8;13.70;75996;2838.496;-1802.411;1;135;-130;-133.9;43.9;44.2;15;14.4;25.0;0.0;
04/03/2025 00:25:40;100;0;117.63;-4;-19.87;-4.47;602.1;13.70;75987;2838.494;-1802.409;1;135;-130;-133.9;43.9;44.3;15;14.4;25.0;0.0;
04/03/2025 00:26:00;100;0;117.46;-4;-19.97;-4.21;604.6;13.70;75992;2838.492;-1802.406;1;135;-130;-133.9;43.9;44.2;15;14.4;25.0;0.0;
04/03/2025 00:26:20;100;0;116.21;-4;-19.96;-4.39;606.9;13.60;75970;2838.491;-1802.404;1;135;-130;-133.9;43.9;44.2;15;14.4;25.0;0.0;
04/03/2025 00:26:40;100;0;115.60;-4;-19.97;-4.46;609.3;13.60;75970;2838.489;-1802.401;1;135;-130;-133.9;43.9;44.2;15;14.4;25.0;0.0;
04/03/2025 00:27:00;100;0;114.15;-4;-19.94;-4.41;611.7;13.60;75955;2838.488;-1802.399;1;135;-130;-133.9;43.9;44.2;13;13.1;25.0;0.0;
04/03/2025 00:27:21;100;0;114.13;-4;-19.81;-5.01;614.2;13.60;75963;2838.486;-1802.396;1;135;-130;-135.5;43.9;44.3;13;13.1;25.0;0.0;
04/03/2025 00:27:41;100;0;117.02;-4;-19.98;-5.03;616.5;13.60;75954;2838.484;-1802.394;1;135;-130;-133.9;43.9;44.2;13;13.1;25.0;0.0;
04/03/2025 00:28:01;100;0;119.87;-4;-20.18;-4.96;619.0;13.50;75955;2838.483;-1802.391;1;135;-130;-135.5;43.9;44.0;15;14.9;25.0;0.0;
04/03/2025 00:28:21;100;0;121.49;-4;-20.19;-3.78;621.7;13.50;75949;2838.480;-1802.389;1;135;-130;-133.9;43.9;44.2;15;15.3;25.1;0.0;
04/03/2025 00:28:41;100;0;124.25;-4;-20.26;-3.75;624.2;13.50;75943;2838.478;-1802.386;1;135;-130;-133.9;43.9;44.2;15;15.3;25.0;0.0;
04/03/2025 00:29:01;100;0;125.39;-4;-20.53;-3.82;626.7;13.50;75928;2838.476;-1802.384;1;135;-130;-133.9;43.9;44.3;15;14.9;25.0;0.0;
04/03/2025 00:29:21;100;0;127.19;-4;-20.35;-3.67;629.3;13.40;75923;2838.474;-1802.382;1;135;-130;-133.9;43.9;44.2;15;15.3;25.0;0.0;
04/03/2025 00:29:41;100;0;130.13;-4;-20.31;-3.85;631.7;13.40;75925;2838.472;-1802.380;1;135;-130;-133.9;43.9;44.2;15;15.3;25.0;0.0;
04/03/2025 00:30:01;100;0;133.17;-4;-20.25;-3.80;634.3;13.40;75915;2838.469;-1802.378;1;135;-130;-133.9;43.9;44.2;17;17.1;25.0;0.0;
04/03/2025 00:30:21;100;0;136.09;-4;-20.48;-2.54;637.0;13.40;75911;2838.466;-1802.376;1;135;-130;-132.3;43.9;44.2;20;19.9;25.0;0.0;
04/03/2025 00:30:41;100;0;136.07;-4;-20.47;-1.28;639.6;13.30;75901;2838.464;-1802.374;1;135;-130;-133.9;43.9;44.3;20;20.3;25.0;0.0;
04/03/2025 00:31:01;100;0;129.15;-4;-20.18;-1.36;642.2;13.30;75896;2838.461;-1802.372;1;135;-130;-133.9;43.9;44.2;15;14.4;25.0;0.0;
04/03/2025 00:31:21;100;0;126.01;-4;-20.04;-4.29;644.7;13.30;75893;2838.459;-1802.369;1;135;-130;-133.9;43.9;44.3;15;14.4;25.1;0.0;
04/03/2025 00:31:41;100;0;123.33;-4;-20.28;-4.34;647.3;13.30;75895;2838.457;-1802.367;1;135;-130;-133.9;43.9;44.2;15;14.4;25.0;0.0;
04/03/2025 00:32:01;100;0;118.23;-4;-19.58;-4.25;649.7;13.30;75883;2838.455;-1802.365;1;135;-130;-133.9;43.9;44.2;15;14.4;25.1;0.0;
04/03/2025 00:32:21;100;0;116.96;-4;-20.29;-4.37;652.1;13.20;75882;2838.454;-1802.362;1;135;-130;-133.9;43.9;44.2;15;14.4;25.0;0.0;
04/03/2025 00:32:41;100;0;119.73;-4;-19.65;-4.17;654.5;13.20;75855;2838.452;-1802.360;1;135;-130;-133.9;43.9;44.2;15;14.4;25.0;0.0;
04/03/2025 00:33:01;100;0;120.53;-4;-20.36;-4.58;656.9;13.20;75853;2838.450;-1802.358;1;135;-130;-135.5;43.9;44.2;15;14.4;25.1;0.0;
04/03/2025 00:33:21;100;0;121.67;-4;-20.05;-4.31;659.4;13.20;75841;2838.448;-1802.355;1;135;-130;-137.1;43.9;44.2;15;14.4;25.0;0.0;
04/03/2025 00:33:41;100;0;120.48;-4;-19.93;-4.29;662.0;13.10;75842;2838.446;-1802.353;1;135;-130;-133.9;43.9;44.2;15;14.4;25.0;0.0;
04/03/2025 00:34:01;100;0;122.86;-4;-19.53;-4.35;664.6;13.10;75835;2838.444;-1802.350;1;135;-130;-133.9;43.9;44.2;15;14.4;25.0;0.0;
04/03/2025 00:34:21;100;0;122.88;-4;-20.02;-4.22;667.2;13.10;75831;2838.442;-1802.348;1;135;-130;-133.9;43.9;44.2;15;14.4;25.1;0.0;
04/03/2025 00:34:41;100;0;122.18;-4;-20.27;-4.43;669.7;13.10;75829;2838.440;-1802.345;1;135;-130;-133.9;43.9;44.2;15;14.4;25.1;0.0;
04/03/2025 00:35:01;100;0;124.50;-4;-19.61;-4.22;672.1;13.00;75825;2838.438;-1802.343;1;135;-130;-137.1;43.9;44.2;15;14.4;25.0;0.0;
04/03/2025 00:35:21;100;0;123.74;-4;-19.99;-4.32;674.8;13.00;75817;2838.436;-1802.340;1;135;-130;-135.5;43.9;44.2;15;14.4;25.0;0.0;
04/03/2025 00:35:41;100;0;122.81;-4;-19.54;-4.40;677.0;13.00;75805;2838.434;-1802.339;1;135;-130;-133.9;43.9;44.2;15;14.4;25.0;0.0;
04/03/2025 00:36:01;100;0;121.20;-4;-19.24;-4.28;679.4;13.00;75812;2838.432;-1802.336;1;135;-130;-135.5;43.9;44.2;15;14.4;25.0;0.0;
04/03/2025 00:36:21;100;0;119.41;-4;-19.70;-4.43;681.8;13.00;75801;2838.430;-1802.334;1;135;-130;-133.9;43.9;44.3;15;14.4;25.0;0.0;
04/03/2025 00:36:41;100;0;114.56;-4;-19.12;-4.47;684.1;12.90;75784;2838.429;-1802.331;1;135;-130;-133.9;43.9;44.2;13;12.6;25.0;0.0;
04/03/2025 00:37:01;100;0;115.43;-4;-20.05;-5.67;686.4;12.90;75776;2838.427;-1802.329;1;135;-130;-133.9;43.9;44.2;13;12.6;25.0;0.0;
04/03/2025 00:37:21;100;0;116.46;-4;-19.75;-5.08;688.8;12.90;75777;2838.426;-1802.326;1;135;-130;-133.9;43.9;44.2;13;12.6;25.0;0.0;
04/03/2025 00:37:41;100;0;112.12;-4;-20.07;-5.30;691.2;12.80;75771;2838.424;-1802.324;1;135;-130;-133.9;43.9;44.2;11;10.8;25.0;0.0;
04/03/2025 00:38:01;100;0;112.63;-4;-19.72;-6.21;693.8;12.80;75772;2838.423;-1802.321;1;135;-130;-133.9;43.9;44.2;11;10.8;25.1;0.0;
04/03/2025 00:38:21;100;0;113.85;-4;-19.35;-6.13;696.3;12.80;75758;2838.421;-1802.318;1;135;-130;-133.9;43.9;44.2;11;10.8;25.0;0.0;
04/03/2025 00:38:41;100;0;116.14;-4;-19.37;-6.16;698.7;12.80;75768;2838.419;-1802.316;1;135;-130;-133.9;43.9;44.2;13;13.5;25.0;0.0;
04/03/2025 00:39:01;100;0;119.25;-4;-19.57;-4.53;701.3;12.70;75755;2838.417;-1802.313;1;135;-130;-133.9;43.9;44.2;13;13.5;25.1;0.0;
04/03/2025 00:39:21;100;0;119.44;-4;-19.42;-4.73;703.9;12.70;75744;2838.415;-1802.311;1;135;-130;-135.5;43.9;44.2;13;13.5;25.0;0.0;
04/03/2025 00:39:41;100;0;118.71;-4;-19.60;-4.72;706.3;12.70;75740;2838.414;-1802.308;1;135;-130;-133.9;43.9;44.2;13;13.5;25.0;0.0;
04/03/2025 00:40:01;100;0;119.43;-4;-19.68;-4.73;708.5;12.70;75728;2838.412;-1802.306;1;135;-130;-133.9;43.9;44.2;13;13.5;25.1;0.0;
04/03/2025 00:40:21;100;0;117.05;-4;-19.42;-4.59;711.0;12.60;75723;2838.410;-1802.303;1;135;-130;-132.3;43.9;44.2;13;14.0;25.0;0.0;
04/03/2025 00:40:41;100;0;115.99;-4;-19.62;-4.71;713.3;12.60;75716;2838.409;-1802.301;1;135;-130;-133.9;43.9;44.2;13;13.5;25.1;0.0;
04/03/2025 00:41:01;100;0;116.71;-4;-19.86;-4.62;715.6;12.60;75696;2838.407;-1802.299;1;135;-130;-133.9;43.9;44.2;13;14.0;25.1;0.0;
04/03/2025 00:41:21;100;0;116.12;-4;-19.77;-4.63;718.0;12.60;75699;2838.405;-1802.296;1;135;-130;-133.9;43.9;44.2;13;13.5;25.1;0.0;
04/03/2025 00:41:41;100;0;115.53;-4;-19.58;-4.57;720.4;12.50;75686;2838.404;-1802.294;1;135;-130;-133.9;43.9;44.2;13;13.5;25.0;0.0;
04/03/2025 00:42:01;100;0;114.33;-4;-19.75;-4.77;722.6;12.50;75683;2838.402;-1802.292;1;135;-130;-133.9;43.9;44.2;13;14.0;25.0;0.0;
04/03/2025 00:42:21;100;0;113.75;-4;-19.59;-4.67;724.9;12.50;75678;2838.401;-1802.289;1;135;-130;-135.5;43.9;44.2;13;14.0;25.0;0.0;
04/03/2025 00:42:41;100;0;113.63;-4;-20.04;-4.67;727.4;12.50;75674;2838.399;-1802.287;1;135;-130;-133.9;43.9;44.2;11;10.8;25.0;0.0;
04/03/2025 00:43:01;100;0;117.21;-4;-19.35;-6.28;729.8;12.40;75667;2838.398;-1802.284;1;135;-130;-133.9;43.9;44.2;13;13.1;25.0;0.0;
04/03/2025 00:43:21;100;0;118.21;-4;-19.65;-4.77;732.1;12.40;75666;2838.396;-1802.282;1;135;-130;-133.9;43.9;44.2;13;13.5;25.0;0.0;
04/03/2025 00:43:41;100;0;118.55;-4;-19.56;-4.80;734.5;12.40;75661;2838.394;-1802.280;1;135;-130;-133.9;43.9;44.2;13;13.5;25.0;0.0;
04/03/2025 00:44:01;100;0;118.54;-4;-19.80;-4.86;737.0;12.30;75654;2838.392;-1802.277;1;135;-130;-133.9;43.9;44.2;13;13.5;25.0;0.0;
04/03/2025 00:44:21;100;0;117.68;-4;-19.67;-4.77;739.5;12.30;75657;2838.391;-1802.274;1;135;-130;-133.9;43.9;44.2;13;13.5;25.0;0.0;
04/03/2025 00:44:41;100;0;118.67;-4;-19.91;-4.77;742.2;12.30;75661;2838.389;-1802.272;1;135;-130;-133.9;43.9;44.2;13;13.5;25.0;0.0;
04/03/2025 00:45:01;100;0;124.53;-4;-19.10;-4.63;744.8;12.30;75651;2838.386;-1802.269;1;135;-130;-133.9;43.9;44.2;13;13.5;25.0;0.0;
04/03/2025 00:45:21;100;0;128.20;-4;-19.96;-4.53;747.3;12.30;75648;2838.384;-1802.267;1;135;-130;-133.9;43.9;44.2;13;13.5;25.0;0.0;
04/03/2025 00:45:41;100;0;129.82;-4;-19.48;-4.86;750.0;12.30;75646;2838.382;-1802.265;1;135;-130;-133.9;43.9;44.2;15;14.9;25.0;0.0;
04/03/2025 00:46:01;100;0;134.25;-4;-19.46;-3.92;752.7;12.20;75633;2838.379;-1802.262;1;135;-130;-133.9;43.9;44.2;17;17.1;25.0;0.0;
04/03/2025 00:46:21;100;0;136.81;-4;-19.88;-2.96;755.3;12.20;75630;2838.376;-1802.261;1;135;-130;-133.9;43.9;44.2;20;19.9;25.0;0.0;
04/03/2025 00:46:41;100;0;136.41;-4;-19.59;-1.56;757.9;12.20;75631;2838.373;-1802.259;1;135;-130;-133.9;43.9;44.3;20;19.9;25.0;0.0;
04/03/2025 00:47:01;100;0;139.52;-4;-20.25;-1.50;760.5;12.20;75623;2838.371;-1802.257;1;135;-130;-133.9;43.9;44.2;24;23.9;25.1;0.0;
04/03/2025 00:47:21;100;0;138.49;-4;-20.35;0.60;763.2;12.10;75611;2838.368;-1802.255;1;135;-130;-133.9;43.9;44.2;24;24.4;25.0;0.0;
04/03/2025 00:47:41;100;0;134.75;-4;-19.70;0.52;765.7;12.10;75609;2838.365;-1802.253;1;135;-130;-135.5;43.9;44.2;18;18.1;25.0;0.0;
04/03/2025 00:48:01;100;0;133.00;-4;-19.96;-2.61;768.3;12.10;75611;2838.363;-1802.251;1;135;-130;-133.9;43.9;44.2;18;18.1;25.0;0.0;
04/03/2025 00:48:21;100;0;129.72;-4;-19.58;-2.63;771.0;12.10;75592;2838.360;-1802.249;1;135;-130;-133.9;43.9;44.2;15;14.9;25.0;0.0;
04/03/2025 00:48:41;100;0;130.42;-4;-19.50;-4.20;773.5;12.00;75598;2838.358;-1802.246;1;135;-130;-135.5;43.9;44.2;15;14.9;25.0;0.0;
04/03/2025 00:49:01;100;0;130.67;-4;-19.30;-4.20;776.2;12.00;75591;2838.355;-1802.244;1;135;-130;-133.9;43.9;44.2;15;14.9;25.0;0.0;
04/03/2025 00:49:21;100;0;132.20;-4;-19.37;-4.29;778.9;12.00;75573;2838.352;-1802.242;1;135;-130;-133.9;43.9;44.3;15;14.9;25.0;0.0;
04/03/2025 00:49:41;100;0;132.68;-4;-19.43;-4.26;781.4;12.00;75563;2838.350;-1802.240;1;135;-130;-133.9;43.9;44.2;17;17.1;25.0;0.0;
04/03/2025 00:50:01;100;0;134.15;-4;-19.14;-2.74;784.2;11.90;75549;2838.347;-1802.237;1;135;-130;-135.5;43.9;44.2;17;17.6;25.0;0.0;
04/03/2025 00:50:21;100;0;134.00;-4;-19.51;-2.76;786.8;11.90;75552;2838.344;-1802.235;1;135;-130;-132.3;43.9;44.2;17;17.6;25.0;0.0;
04/03/2025 00:50:41;100;0;133.67;-4;-19.53;-2.74;789.4;11.90;75548;2838.342;-1802.233;1;135;-130;-133.9;43.9;44.2;17;17.6;25.1;0.0;
04/03/2025 00:51:01;100;0;131.29;-4;-20.62;-2.91;791.9;11.90;75543;2838.340;-1802.231;1;135;-130;-132.3;43.9;44.2;17;17.6;25.0;0.0;
04/03/2025 00:51:21;100;0;128.89;-4;-19.42;-2.75;794.6;11.80;75537;2838.337;-1802.229;1;135;-130;-135.5;43.9;44.2;15;14.9;25.0;0.0;
04/03/2025 00:51:41;100;0;129.20;-4;-19.75;-4.10;797.2;11.80;75534;2838.335;-1802.227;1;135;-130;-133.9;43.9;44.2;15;14.9;25.0;0.0;
04/03/2025 00:52:01;100;0;130.58;-4;-19.37;-4.33;799.8;11.80;75521;2838.332;-1802.224;1;135;-130;-133.9;43.9;44.2;15;14.9;25.0;0.0;
04/03/2025 00:52:21;100;0;129.96;-4;-18.61;-4.01;802.3;11.80;75518;2838.330;-1802.222;1;135;-130;-133.9;44.3;44.5;15;14.9;25.0;0.0;
04/03/2025 00:52:41;100;0;128.41;-4;-20.57;-4.24;804.7;11.70;75516;2838.328;-1802.220;1;135;-130;-133.9;44.3;44.6;15;14.4;25.0;0.0;
04/03/2025 00:53:01;100;0;128.81;-4;-20.15;-4.07;807.2;11.70;75519;2838.325;-1802.218;1;135;-130;-133.9;44.3;44.8;15;14.9;25.0;0.0;
04/03/2025 00:53:21;100;0;128.25;-4;-20.22;-4.20;809.7;11.70;75512;2838.323;-1802.216;1;135;-130;-133.9;44.3;44.8;15;14.9;25.1;0.0;
04/03/2025 00:53:41;100;0;126.15;-4;-20.59;-4.09;812.1;11.70;75507;2838.321;-1802.214;1;135;-130;-135.5;44.3;44.8;15;14.9;25.0;0.0;
04/03/2025 00:54:01;100;0;123.01;-4;-20.42;-4.14;814.6;11.70;75505;2838.319;-1802.211;1;135;-130;-133.9;44.3;44.6;15;14.9;25.0;0.0;
04/03/2025 00:54:21;100;0;124.14;-4;-20.78;-4.08;817.0;11.60;75498;2838.317;-1802.209;1;135;-130;-133.9;44.3;44.6;15;14.4;25.0;0.0;
04/03/2025 00:54:41;100;0;125.75;-4;-20.29;-4.09;819.5;11.60;75496;2838.315;-1802.207;1;135;-130;-135.5;44.3;44.8;15;14.9;25.0;0.0;
04/03/2025 00:55:01;100;0;125.65;-4;-20.33;-4.10;822.1;11.60;75476;2838.313;-1802.205;1;135;-130;-133.9;44.3;44.6;15;14.9;25.1;0.0;
04/03/2025 00:55:21;100;0;126.52;-4;-20.29;-4.14;824.6;11.60;75482;2838.311;-1802.202;1;135;-130;-133.9;44.3;44.8;15;14.9;25.0;0.0;
04/03/2025 00:55:41;100;0;127.22;-4;-20.24;-4.16;827.2;11.60;75466;2838.308;-1802.200;1;135;-130;-133.9;44.3;44.8;15;14.9;25.1;0.0;
04/03/2025 00:56:01;100;0;127.54;-4;-20.09;-4.15;829.6;11.50;75458;2838.306;-1802.198;1;135;-130;-133.9;44.3;44.6;15;14.9;25.0;0.0;
04/03/2025 00:56:21;100;0;129.66;-4;-20.03;-4.11;832.3;11.50;75469;2838.304;-1802.196;1;135;-130;-135.5;44.3;44.6;15;14.4;25.1;0.0;
04/03/2025 00:56:41;100;0;130.75;-4;-20.18;-4.18;834.6;11.50;75456;2838.301;-1802.194;1;135;-130;-135.5;44.3;44.6;17;17.1;25.0;0.0;
04/03/2025 00:57:01;100;0;129.70;-4;-20.37;-2.76;837.3;11.40;75450;2838.299;-1802.192;1;135;-130;-135.5;44.3;44.6;17;17.6;25.0;0.0;
04/03/2025 00:57:21;100;0;129.34;-4;-20.39;-2.76;839.8;11.40;75432;2838.297;-1802.189;1;135;-130;-133.9;44.3;44.6;17;17.6;25.0;0.0;
04/03/2025 00:57:41;100;0;126.84;-4;-20.46;-2.80;842.7;11.40;75446;2838.294;-1802.187;1;135;-130;-133.9;44.3;44.8;15;14.9;25.0;0.0;
04/03/2025 00:58:01;100;0;125.79;-4;-20.26;-4.24;845.5;11.40;75437;2838.292;-1802.184;1;135;-130;-133.9;44.3;44.8;15;14.4;25.1;0.0;
04/03/2025 00:58:21;100;0;125.37;-4;-20.20;-4.23;848.2;11.40;75437;2838.290;-1802.182;1;135;-130;-133.9;44.3;44.8;15;14.9;25.0;0.0;
04/03/2025 00:58:41;100;0;124.57;-4;-20.37;-4.23;851.0;11.30;75433;2838.287;-1802.179;1;135;-130;-133.9;44.3;44.8;15;14.9;25.0;0.0;
04/03/2025 00:59:01;100;0;122.58;-4;-20.37;-4.20;854.0;11.30;75418;2838.285;-1802.176;1;135;-130;-135.5;44.3;44.8;15;14.4;25.1;0.0;
04/03/2025 00:59:21;100;0;120.03;-4;-20.44;-4.27;857.1;11.30;75415;2838.283;-1802.173;1;135;-130;-133.9;44.3;44.6;15;14.4;25.0;0.0;
04/03/2025 00:59:41;100;0;115.88;-4;-19.77;-4.26;860.2;11.30;75420;2838.281;-1802.169;1;135;-130;-133.9;44.3;44.8;12;11.3;25.0;0.0;
04/03/2025 01:00:01;100;0;114.65;-4;-20.00;-5.58;863.2;11.20;75407;2838.279;-1802.166;1;135;-130;-133.9;44.3;44.8;12;12.2;25.0;0.0;
04/03/2025 01:00:21;100;0;114.44;-4;-20.04;-5.56;866.2;11.20;75407;2838.277;-1802.163;1;135;-130;-133.9;44.3;44.6;10;9.9;25.1;0.0;
04/03/2025 01:00:41;100;0;113.78;-4;-19.57;-6.76;869.4;11.20;75403;2838.275;-1802.159;1;135;-130;-133.9;44.3;44.8;10;9.9;25.0;0.0;
04/03/2025 01:01:01;100;0;115.30;-4;-19.82;-6.63;872.5;11.20;75395;2838.273;-1802.156;1;135;-130;-132.3;44.3;44.6;10;9.9;25.0;0.0;
04/03/2025 01:01:21;100;0;117.00;-4;-19.83;-6.73;875.4;11.10;75397;2838.271;-1802.153;1;135;-130;-133.9;44.3;44.8;13;13.1;25.0;0.0;
04/03/2025 01:01:41;100;0;117.83;-4;-20.14;-4.73;878.6;11.10;75380;2838.269;-1802.150;1;135;-130;-133.9;44.3;44.8;13;13.5;25.0;0.0;
04/03/2025 01:02:01;100;0;117.85;-4;-19.89;-4.75;881.7;11.10;75387;2838.267;-1802.146;1;135;-130;-133.9;44.3;44.6;13;13.5;25.0;0.0;
04/03/2025 01:02:21;100;0;118.80;-4;-20.45;-4.73;884.6;11.10;75371;2838.265;-1802.143;1;135;-130;-133.9;44.3;44.8;13;13.5;25.0;0.0;
04/03/2025 01:02:42;100;0;119.87;-4;-20.32;-4.83;887.7;11.10;75375;2838.262;-1802.140;1;135;-130;-133.9;44.3;44.8;13;13.5;25.0;0.0;
04/03/2025 01:03:02;100;0;120.77;-4;-20.10;-4.72;890.8;11.00;75368;2838.260;-1802.137;1;135;-130;-133.9;44.3;44.8;13;13.5;25.1;0.0;
04/03/2025 01:03:22;100;0;121.17;-4;-20.79;-4.55;893.8;11.00;75369;2838.258;-1802.134;1;135;-130;-133.9;44.3;44.8;13;13.5;25.0;0.0;
04/03/2025 01:03:42;100;0;121.92;-4;-20.13;-4.68;896.6;11.00;75362;2838.256;-1802.131;1;135;-130;-135.5;44.3;44.8;15;14.9;25.1;0.0;
04/03/2025 01:04:02;100;0;124.25;-4;-20.27;-3.89;899.5;11.00;75360;2838.253;-1802.128;1;135;-130;-133.9;44.3;44.8;15;14.9;25.0;0.0;
04/03/2025 01:04:22;100;0;123.76;-4;-20.30;-3.92;902.2;11.00;75356;2838.251;-1802.126;1;135;-130;-132.3;44.3;44.6;15;15.3;25.1;0.0;
04/03/2025 01:04:42;100;0;123.74;-4;-19.70;-4.02;905.0;10.90;75348;2838.249;-1802.123;1;135;-130;-133.9;44.3;44.8;15;14.9;25.0;0.0;
04/03/2025 01:05:02;100;0;125.28;-4;-20.48;-4.04;907.6;10.90;75354;2838.247;-1802.121;1;135;-130;-133.9;44.3;44.8;15;14.9;25.0;0.0;
04/03/2025 01:05:22;100;0;127.87;-4;-20.46;-4.43;910.5;10.90;75345;2838.244;-1802.118;1;135;-130;-135.5;44.3;44.6;15;14.9;25.0;0.0;
04/03/2025 01:05:42;100;0;128.80;-4;-19.69;-3.86;913.5;10.90;75349;2838.241;-1802.115;1;135;-130;-133.9;44.3;44.8;15;15.3;25.0;0.0;
04/03/2025 01:06:02;100;0;127.97;-4;-20.21;-3.92;916.4;10.80;75331;2838.239;-1802.113;1;135;-130;-133.9;44.3;44.8;15;15.3;25.0;0.0;
04/03/2025 01:06:22;100;0;127.32;-4;-19.89;-3.87;919.5;10.80;75328;2838.236;-1802.110;1;135;-130;-135.5;44.3;44.6;15;14.9;25.1;0.0;
04/03/2025 01:06:42;100;0;128.72;-4;-19.83;-4.08;922.7;10.80;75330;2838.233;-1802.107;1;135;-130;-133.9;44.3;44.8;15;14.9;25.0;0.0;
04/03/2025 01:07:02;100;0;128.95;-4;-19.64;-4.08;926.2;10.80;75325;2838.230;-1802.104;1;135;-130;-133.9;44.3;44.8;15;14.9;25.0;0.0;
04/03/2025 01:07:22;100;0;129.89;-4;-19.82;-4.01;929.3;10.80;75329;2838.227;-1802.101;1;135;-130;-133.9;44.3;44.6;15;14.9;25.0;0.0;
04/03/2025 01:07:42;100;0;130.75;-4;-20.20;-3.89;932.6;10.80;75319;2838.224;-1802.098;1;135;-130;-132.3;44.3;44.6;15;14.9;25.0;0.0;
04/03/2025 01:08:02;100;0;134.44;-4;-20.03;-3.86;936.0;10.70;75314;2838.221;-1802.095;1;135;-130;-135.5;44.3;44.6;15;14.9;25.0;0.0;
04/03/2025 01:08:22;100;0;137.32;-4;-19.32;-3.36;938.9;10.70;75316;2838.218;-1802.093;1;135;-130;-135.5;44.3;44.8;19;19.0;25.0;0.0;
04/03/2025 01:08:42;100;0;135.09;-4;-20.07;-2.25;942.0;10.70;75308;2838.215;-1802.090;1;135;-130;-135.5;44.3;44.8;17;17.1;25.0;0.0;
04/03/2025 01:09:02;100;0;133.69;-4;-19.37;-3.26;944.8;10.70;75312;2838.212;-1802.088;1;135;-130;-133.9;44.3;44.8;17;16.7;25.0;0.0;
04/03/2025 01:09:22;100;0;134.83;-4;-19.51;-3.15;947.5;10.70;75315;2838.209;-1802.086;1;135;-130;-133.9;44.3;44.6;19;19.0;25.0;0.0;
04/03/2025 01:09:42;100;0;141.86;-4;-22.43;-1.98;950.1;10.60;75303;2838.206;-1802.084;1;135;-130;-137.1;43.6;43.4;30;29.8;25.1;0.0;
04/03/2025 01:10:02;100;0;139.14;-4;-17.74;3.60;952.6;10.60;75305;2838.204;-1802.082;1;135;-130;-133.9;44.3;44.5;24;23.9;25.0;0.0;
04/03/2025 01:10:22;100;0;130.72;-4;-17.65;0.29;955.2;10.60;75283;2838.201;-1802.080;1;135;-130;-133.9;45.0;45.2;16;15.8;25.0;0.0;
04/03/2025 01:10:42;100;0;126.69;-4;-19.79;-3.67;957.4;10.60;75292;2838.199;-1802.078;1;135;-130;-133.9;45.0;45.4;16;15.8;25.0;0.0;
04/03/2025 01:11:02;100;0;129.00;-4;-18.08;-3.58;959.6;10.60;75293;2838.197;-1802.076;1;135;-130;-133.9;45.6;45.7;16;15.8;25.0;0.0;
04/03/2025 01:11:22;100;0;127.57;-4;-23.93;-3.73;961.9;10.50;75291;2838.195;-1802.075;1;135;-130;-133.9;44.4;44.2;16;15.8;25.0;0.0;
04/03/2025 01:11:42;100;0;131.77;-4;-19.11;-3.17;964.4;10.50;75282;2838.193;-1802.073;1;135;-130;-135.5;44.4;44.0;16;15.8;25.0;0.0;
04/03/2025 01:12:02;100;0;129.65;-4;-17.91;-3.43;966.5;10.50;75290;2838.190;-1802.071;1;135;-130;-133.9;45.0;45.1;16;15.8;25.0;0.0;
04/03/2025 01:12:22;100;0;131.16;-4;-22.26;-3.79;968.4;10.50;75277;2838.189;-1802.069;1;135;-150;-146.8;44.3;44.3;20;19.9;25.0;0.0;
04/03/2025 01:12:42;100;0;135.72;-4;-20.36;-1.47;971.0;10.50;75324;2838.186;-1802.067;1;135;-150;-150.0;44.3;44.2;20;19.9;25.0;0.0;
04/03/2025 01:13:02;100;0;133.66;-4;-20.27;-1.62;973.6;10.50;75323;2838.183;-1802.065;1;135;-150;-151.6;44.3;44.2;18;18.1;25.0;0.0;
04/03/2025 01:13:22;100;0;132.20;-4;-19.14;-2.78;976.3;10.40;75313;2838.181;-1802.063;1;135;-150;-151.6;44.3;44.3;18;17.6;25.1;0.0;
04/03/2025 01:13:42;100;0;131.80;-4;-20.23;-2.70;979.0;10.40;75319;2838.178;-1802.061;1;135;-150;-151.6;44.3;44.2;16;15.8;25.1;0.0;
04/03/2025 01:14:02;100;0;145.42;-4;-16.09;-3.94;981.7;10.40;75311;2838.175;-1802.059;1;135;-150;-150.0;45.5;45.7;31;31.1;25.0;0.0;
04/03/2025 01:14:22;100;0;137.81;-4;-23.14;4.27;984.2;10.40;75298;2838.172;-1802.058;1;135;-150;-151.6;44.6;45.7;25;31.1;25.0;24.3;
04/03/2025 01:14:25;118;0;136.05;-4;-23.04;0.17;984.6;10.40;75308;2838.172;-1802.057;1;135;450;-148.4;21.1;20.9;7;7.2;25.0;24.4;
04/03/2025 01:14:35;118;0;110.01;-4;-7.30;-8.56;985.8;10.40;75294;2838.171;-1802.055;1;135;450;-22.6;21.1;20.8;7;7.2;23.4;-1.0;
04/03/2025 01:14:45;118;0;93.08;-4;23.50;-8.66;986.0;10.40;75025;2838.171;-1802.056;1;135;450;103.2;21.1;21.1;7;6.8;23.4;-1.0;
04/03/2025 01:14:55;118;0;90.49;-4;29.46;-9.39;985.1;10.40;74770;2838.171;-1802.055;1;135;450;227.4;21.1;21.1;7;6.8;23.7;-1.0;
04/03/2025 01:15:05;118;0;88.55;-4;31.08;-8.41;984.1;10.40;74517;2838.171;-1802.054;1;135;450;350.0;21.1;21.2;7;7.2;23.7;-1.0;
04/03/2025 01:15:15;118;0;88.47;-4;30.06;-8.68;982.5;10.40;74272;2838.171;-1802.053;1;135;450;451.6;21.1;21.2;7;6.8;23.4;-1.0;
04/03/2025 01:15:25;118;0;129.01;-4;28.68;-7.81;980.1;10.40;74056;2838.169;-1802.051;1;135;450;451.6;21.1;21.2;7;7.2;25.0;-1.0;
04/03/2025 01:15:35;118;0;121.09;-4;22.51;-6.84;977.7;10.40;74076;2838.168;-1802.049;1;135;450;453.2;21.1;21.2;7;7.2;25.0;-1.0;
04/03/2025 01:15:55;117;0;114.85;-4;21.86;-7.85;973.0;10.50;74065;2838.165;-1802.044;1;135;450;451.6;22.4;22.4;7;7.2;25.0;-1.0;
04/03/2025 01:16:15;117;0;99.46;-4;17.70;-7.41;969.4;10.50;74066;2838.164;-1802.039;1;135;450;451.6;21.7;21.1;57;56.9;25.0;-1.0;
04/03/2025 01:16:35;117;0;110.29;-4;21.85;18.72;966.3;10.60;74072;2838.162;-1802.036;1;135;450;451.6;21.7;21.1;39;38.8;25.0;-1.0;
04/03/2025 01:16:55;117;0;117.69;-4;23.67;8.66;962.1;10.60;74071;2838.160;-1802.032;1;135;450;451.6;22.8;22.8;32;32.0;25.0;-1.0;
04/03/2025 01:17:15;117;0;119.45;-4;20.54;4.87;957.7;10.60;74060;2838.157;-1802.027;1;135;450;451.6;22.8;23.0;32;32.0;25.0;-1.0;
04/03/2025 01:17:35;117;0;121.89;-4;21.58;6.94;953.7;10.60;74066;2838.154;-1802.023;1;135;450;450.0;22.8;23.0;30;29.8;25.0;-1.0;
04/03/2025 01:17:55;117;0;123.71;-4;20.02;4.21;949.6;10.60;74055;2838.151;-1802.019;1;135;450;451.6;22.8;23.1;30;29.8;25.0;-1.0;
04/03/2025 01:18:15;117;0;125.08;-4;17.99;4.30;945.9;10.60;74053;2838.148;-1802.015;1;135;450;451.6;22.2;22.2;30;29.3;25.0;-1.0;
04/03/2025 01:18:35;117;0;127.73;-4;21.34;4.31;942.6;10.60;74052;2838.145;-1802.012;1;135;450;453.2;22.2;21.6;30;29.8;25.0;-1.0;
04/03/2025 01:18:55;117;0;128.62;-4;20.34;3.52;939.0;10.50;74046;2838.142;-1802.009;1;135;450;451.6;22.2;21.6;30;29.8;25.0;-1.0;
04/03/2025 01:19:15;117;0;130.17;-4;21.17;3.81;936.0;10.50;74028;2838.139;-1802.006;1;135;450;451.6;22.2;21.6;30;29.8;25.0;-1.0;
04/03/2025 01:19:35;117;0;130.89;-4;20.49;3.77;932.8;10.50;74038;2838.136;-1802.003;1;135;450;451.6;22.2;21.6;30;29.8;25.0;-1.0;
04/03/2025 01:19:55;117;0;130.48;-4;21.66;4.13;929.4;10.50;74039;2838.133;-1802.001;1;135;450;451.6;22.2;21.6;30;29.3;25.0;-1.0;
04/03/2025 01:20:15;117;0;130.37;-4;21.63;3.84;926.0;10.50;74042;2838.130;-1801.998;1;135;450;451.6;22.2;21.6;30;29.8;25.0;-1.0;
04/03/2025 01:20:35;117;0;131.62;-4;21.11;4.06;922.4;10.40;74032;2838.127;-1801.995;1;135;450;451.6;22.2;21.6;30;29.8;25.0;-1.0;
04/03/2025 01:20:55;117;0;133.13;-4;21.42;3.78;919.1;10.40;74033;2838.124;-1801.992;1;135;450;451.6;22.2;21.6;28;28.0;25.0;-1.0;
04/03/2025 01:21:15;117;0;132.13;-4;21.19;2.97;915.6;10.40;74033;2838.121;-1801.989;1;135;450;451.6;22.2;21.6;28;28.0;25.1;-1.0;
04/03/2025 01:21:35;117;0;131.70;-4;20.44;2.90;912.3;10.40;74029;2838.118;-1801.986;1;135;450;451.6;22.2;21.6;28;27.5;25.0;-1.0;
04/03/2025 01:21:55;117;0;131.77;-4;20.15;3.00;909.4;10.40;74022;2838.115;-1801.984;1;135;450;451.6;22.2;21.6;28;28.0;25.0;-1.0;
04/03/2025 01:22:15;117;0;129.67;-4;21.24;2.54;906.6;10.40;74014;2838.113;-1801.981;1;135;450;453.2;22.2;21.6;28;27.5;25.0;-1.0;
04/03/2025 01:22:35;117;0;129.93;-4;21.03;2.89;903.7;10.40;74026;2838.110;-1801.979;1;135;450;451.6;22.2;21.6;28;27.5;25.0;-1.0;
04/03/2025 01:22:55;117;0;130.78;-4;21.36;3.08;900.8;10.40;74013;2838.107;-1801.977;1;135;450;451.6;22.2;21.5;28;27.5;25.0;-1.0;
04/03/2025 01:23:15;117;0;127.83;-4;21.23;2.77;897.8;10.30;74024;2838.105;-1801.974;1;135;450;453.2;22.2;21.6;28;27.5;25.0;-1.0;
04/03/2025 01:23:35;117;0;129.81;-4;23.30;2.96;894.6;10.30;74016;2838.102;-1801.971;1;135;450;453.2;23.2;23.1;28;27.5;25.1;-1.0;
04/03/2025 01:23:55;117;0;125.69;-4;20.83;2.34;890.6;10.30;74014;2838.099;-1801.968;1;135;450;453.2;23.2;23.4;28;27.5;25.0;-1.0;
04/03/2025 01:24:15;117;0;126.52;-4;18.60;2.98;887.3;10.30;74002;2838.096;-1801.964;1;135;450;453.2;22.8;22.8;28;27.5;25.0;-1.0;
04/03/2025 01:24:35;117;0;125.53;-4;19.87;3.53;884.3;10.30;74017;2838.094;-1801.961;1;135;450;451.6;22.8;22.8;28;28.0;25.0;-1.0;
04/03/2025 01:24:55;117;0;123.41;-4;19.05;2.74;881.2;10.30;73998;2838.091;-1801.958;1;135;450;450.0;22.8;22.8;28;27.5;25.0;-1.0;
