Timestamp;NavState;SecurityLevel;Heading;Declination;Pitch;Roll;Depth;Temperature;Pa;Lat;Lon;DeadReckoning;DesiredH;BallastCmd;BallastPos;LinCmd;LinPos;AngCmd;AngPos;Voltage;Altitude;
28/02/2025 17:12:57;119;0;96.38;-4;-48.60;-1.51;0.4;16.80;75557;2834.263;-1758.463;0;146;500;506.5;100.0;100.4;0;-0.5;25.6;-1.0;
28/02/2025 17:13:07;116;0;80.49;-4;-60.89;-6.85;0.3;16.90;75564;0.000;0.000;0;146;500;504.8;100.0;100.4;0;-0.5;25.6;-1.0;
28/02/2025 17:13:32;116;0;6.44;-4;-51.35;-10.05;0.4;16.90;75576;2834.249;-1758.478;0;146;500;508.1;100.0;100.4;0;-0.5;25.6;-1.0;
28/02/2025 17:14:01;116;0;9.39;-4;-46.90;-10.10;0.1;17.00;75588;2834.251;-1758.478;0;146;500;506.5;100.0;100.4;0;-0.5;25.6;-1.0;
28/02/2025 17:14:19;116;0;348.45;-4;-51.16;-22.85;0.1;17.10;75586;2834.251;-1758.482;0;321;500;506.5;100.0;100.6;0;-0.5;25.6;-1.0;
28/02/2025 17:14:33;116;0;338.00;-4;-37.20;-11.64;0.0;17.10;75596;2834.251;-1758.483;0;321;500;508.1;100.0;100.4;0;0.0;25.6;-1.0;
28/02/2025 17:14:53;116;0;354.99;-4;-52.76;-16.57;-0.0;17.20;75593;2834.253;-1758.486;0;321;500;504.8;100.0;100.4;0;-0.5;25.6;-1.0;
28/02/2025 17:15:13;116;0;349.30;-4;-48.75;-11.56;0.1;17.20;75609;2834.255;-1758.489;0;321;500;506.5;100.0;100.4;0;-0.5;25.5;-1.0;
28/02/2025 17:15:33;116;0;11.57;-4;-55.60;-11.98;0.1;17.30;75617;2834.255;-1758.493;0;321;500;506.5;100.0;100.4;0;-0.5;25.6;-1.0;
28/02/2025 17:15:53;116;0;8.12;-4;-54.90;-3.45;0.1;17.40;75627;2834.256;-1758.496;0;321;500;506.5;100.0;100.4;0;-0.5;25.6;-1.0;
28/02/2025 17:16:13;116;0;343.94;-4;-52.34;-21.80;0.0;17.50;75633;2834.257;-1758.499;0;321;500;506.5;100.0;100.4;0;-0.5;25.6;-1.0;
28/02/2025 17:16:33;116;0;342.28;-4;-49.48;-10.71;0.2;17.50;75639;2834.258;-1758.504;0;321;500;506.5;100.0;100.4;0;-0.5;25.6;-1.0;
28/02/2025 17:16:53;116;0;328.67;-4;-40.30;-5.94;0.2;17.60;75651;2834.259;-1758.506;0;321;500;506.5;100.0;100.4;0;0.0;25.6;-1.0;
28/02/2025 17:17:13;116;0;324.66;-4;-46.30;-10.95;0.1;17.70;75663;2834.260;-1758.508;0;321;500;506.5;100.0;100.4;0;-0.5;25.6;-1.0;
28/02/2025 17:17:33;116;0;329.40;-4;-43.72;-12.48;-0.0;17.80;75663;2834.260;-1758.512;0;321;500;506.5;100.0;100.4;0;-0.5;25.6;-1.0;
28/02/2025 17:17:53;116;0;342.82;-4;-43.62;-16.60;0.1;17.80;75662;2834.261;-1758.515;0;321;500;506.5;100.0;100.4;0;-0.5;25.6;-1.0;
28/02/2025 17:18:13;116;0;323.34;-4;-61.22;-12.98;0.2;17.90;75674;2834.263;-1758.519;0;321;500;506.5;100.0;100.4;0;-0.5;25.5;-1.0;
28/02/2025 17:18:24;116;0;319.09;-4;-52.51;-3.13;0.1;17.90;75679;2834.263;-1758.521;0;321;500;504.8;100.0;100.6;0;-0.5;25.6;-1.0;
28/02/2025 17:18:44;116;0;348.69;-4;-42.03;-6.12;0.1;18.00;75687;2834.265;-1758.525;0;321;500;506.5;100.0;100.4;0;-0.5;25.6;-1.0;
28/02/2025 17:19:04;116;0;327.02;-4;-57.06;-15.63;-0.1;18.10;75695;2834.265;-1758.528;0;321;500;506.5;100.0;100.4;0;-0.5;25.6;-1.0;
28/02/2025 17:19:24;116;0;333.96;-4;-60.02;-17.46;-0.0;18.10;75695;2834.267;-1758.531;0;321;500;506.5;100.0;100.4;0;-0.5;25.6;-1.0;
28/02/2025 17:19:45;116;0;319.63;-4;-48.16;-14.12;-0.0;18.20;75702;2834.267;-1758.534;0;321;500;506.5;100.0;100.4;0;-0.5;25.6;-1.0;
28/02/2025 17:20:05;116;0;328.62;-4;-48.87;-12.05;-0.0;18.30;75704;2834.268;-1758.538;0;321;500;506.5;100.0;100.4;0;-0.5;25.6;-1.0;
28/02/2025 17:20:25;116;0;352.62;-4;-55.62;-15.81;0.1;18.30;75709;2834.271;-1758.543;0;321;500;506.5;100.0;100.4;0;0.0;25.6;-1.0;
28/02/2025 17:20:45;116;0;357.77;-4;-54.82;-16.71;-0.0;18.40;75720;2834.272;-1758.545;0;321;500;506.5;100.0;100.4;0;-0.5;25.6;-1.0;
28/02/2025 17:21:05;116;0;322.68;-4;-49.75;-10.08;0.1;18.50;75725;2834.272;-1758.548;0;321;500;506.5;100.0;100.4;0;-0.5;25.6;-1.0;
28/02/2025 17:21:25;116;0;354.66;-4;-59.01;-18.09;-0.0;18.50;75730;2834.274;-1758.552;0;321;500;508.1;100.0;100.4;0;-0.5;25.6;-1.0;
28/02/2025 17:21:45;116;0;348.56;-4;-49.64;-37.23;0.1;18.60;75743;2834.275;-1758.555;0;321;500;506.5;100.0;100.4;0;-0.5;25.6;-1.0;
28/02/2025 17:22:05;116;0;328.89;-4;-57.43;-13.89;-0.1;18.70;75746;2834.277;-1758.558;0;321;500;506.5;100.0;100.4;0;-0.5;25.6;-1.0;
28/02/2025 17:22:25;116;0;345.33;-4;-49.30;-2.35;0.1;18.70;75753;2834.278;-1758.561;0;321;500;508.1;100.0;100.4;0;-0.5;25.4;-1.0;
28/02/2025 17:22:45;116;0;329.95;-4;-57.43;-10.56;0.1;18.80;75750;2834.280;-1758.566;0;321;500;506.5;100.0;100.4;0;0.0;25.6;-1.0;
28/02/2025 17:23:05;116;0;345.62;-4;-52.81;-16.46;-0.1;18.80;75761;2834.281;-1758.568;0;321;500;504.8;100.0;100.4;0;-0.5;25.6;-1.0;
28/02/2025 17:23:25;116;0;344.81;-4;-55.04;-13.97;-0.1;18.90;75761;2834.283;-1758.571;0;321;500;506.5;100.0;100.4;0;-0.5;25.6;-1.0;
28/02/2025 17:23:45;116;0;354.39;-4;-52.04;-21.00;0.1;19.00;75773;2834.283;-1758.575;0;321;500;508.1;100.0;100.4;0;-0.5;25.6;-1.0;
28/02/2025 17:24:05;116;0;343.53;-4;-54.62;-13.61;-0.0;19.00;75776;2834.284;-1758.578;0;321;500;506.5;100.0;100.4;0;-0.5;25.6;-1.0;
28/02/2025 17:24:25;116;0;323.57;-4;-55.65;-7.14;-0.1;19.10;75792;2834.286;-1758.581;0;321;500;506.5;100.0;100.4;0;-0.5;25.6;-1.0;
28/02/2025 17:24:45;116;0;345.09;-4;-54.90;-6.57;-0.0;19.10;75795;2834.287;-1758.584;0;321;500;506.5;100.0;100.4;0;-0.5;25.6;-1.0;
28/02/2025 17:25:05;116;0;327.82;-4;-51.20;-10.39;0.0;19.20;75791;2834.290;-1758.589;0;321;500;506.5;100.0;100.4;0;-0.5;25.6;-1.0;
28/02/2025 17:25:25;116;0;343.76;-4;-60.89;-20.50;0.0;19.20;75796;2834.290;-1758.591;0;321;500;506.5;100.0;100.6;0;-0.5;25.5;-1.0;
28/02/2025 17:25:45;116;0;323.67;-4;-54.89;-17.19;-0.1;19.30;75802;2834.291;-1758.593;0;321;500;506.5;100.0;100.4;0;-0.5;25.6;-1.0;
28/02/2025 17:26:05;116;0;339.22;-4;-49.47;-14.29;-0.0;19.30;75813;2834.292;-1758.598;0;321;500;506.5;100.0;100.4;0;-0.5;25.6;-1.0;
28/02/2025 17:26:25;116;0;344.62;-4;-48.99;-18.88;-0.0;19.40;75819;2834.294;-1758.601;0;321;500;506.5;100.0;100.4;0;0.0;25.6;-1.0;
28/02/2025 17:26:45;116;0;341.39;-4;-41.56;-18.59;-0.1;19.40;75825;2834.295;-1758.604;0;321;500;506.5;100.0;100.4;0;-0.5;25.6;-1.0;
28/02/2025 17:27:05;116;0;347.43;-4;-52.72;-5.64;-0.1;19.50;75826;2834.297;-1758.607;0;321;500;506.5;100.0;100.4;0;-0.5;25.6;-1.0;
28/02/2025 17:27:25;116;0;342.82;-4;-49.75;13.66;-0.1;19.50;75821;2834.300;-1758.613;0;321;500;506.5;100.0;100.4;0;-0.5;25.6;-1.0;
28/02/2025 17:27:45;116;0;324.30;-4;-43.14;-5.64;0.1;19.60;75838;2834.300;-1758.615;0;321;500;504.8;100.0;100.4;0;-0.5;25.6;-1.0;
28/02/2025 17:28:05;116;0;347.34;-4;-55.65;-14.30;0.2;19.60;75838;2834.302;-1758.619;0;321;500;506.5;100.0;100.4;0;-0.5;25.6;-1.0;
28/02/2025 17:28:25;116;0;336.84;-4;-59.10;-10.25;0.1;19.60;75839;2834.303;-1758.621;0;321;500;506.5;100.0;100.4;0;-0.5;25.6;-1.0;
28/02/2025 17:28:45;110;0;331.55;-4;-48.24;-19.22;-0.2;19.70;75860;2834.303;-1758.621;0;321;-90;382.3;100.0;100.4;-7;-7.2;25.6;-1.0;
28/02/2025 17:28:55;110;0;332.25;-4;-60.56;-15.01;0.1;19.70;76194;2834.303;-1758.622;1;321;-90;235.5;100.0;100.4;-7;-7.7;25.5;-1.0;
28/02/2025 17:29:05;110;0;338.66;-4;-48.54;-21.15;0.6;19.70;76457;2834.303;-1758.622;1;321;-90;77.4;100.0;100.4;-7;-7.7;25.5;-1.0;
28/02/2025 17:29:15;110;0;335.87;-4;-64.02;-8.09;0.8;19.70;76770;2834.304;-1758.622;1;321;-90;-77.4;100.0;100.4;-7;-7.2;25.5;-1.0;
28/02/2025 17:29:25;110;0;334.62;-4;-59.93;-13.34;1.0;19.80;77113;2834.304;-1758.622;1;321;-90;-88.7;43.5;43.4;-7;-7.7;25.6;-1.0;
28/02/2025 17:29:45;100;0;351.31;-4;-32.96;-13.95;4.1;19.80;77082;2834.306;-1758.623;1;321;-90;-88.7;43.5;43.3;-7;-7.2;25.6;-1.0;
28/02/2025 17:30:05;100;0;1.87;-4;-21.48;-15.70;6.9;19.80;77082;2834.310;-1758.623;1;321;-90;-85.5;43.5;43.2;57;56.9;25.6;-1.0;
28/02/2025 17:30:25;100;0;2.87;-4;-25.51;16.87;9.5;19.80;77088;2834.312;-1758.624;1;321;-90;-85.5;41.9;41.8;57;56.9;25.6;-1.0;
28/02/2025 17:30:45;100;0;355.09;-4;-21.23;16.86;12.1;19.80;77091;2834.315;-1758.624;1;321;-90;-85.5;41.9;41.7;47;46.9;25.5;-1.0;
28/02/2025 17:31:05;100;0;348.93;-4;-21.71;11.49;14.7;19.80;77089;2834.318;-1758.625;1;321;-90;-85.5;41.9;41.7;37;36.6;25.6;0.0;
28/02/2025 17:31:25;100;0;343.12;-4;-20.11;6.29;17.0;19.80;77096;2834.321;-1758.627;1;321;-90;-83.9;41.9;41.7;27;26.6;25.6;0.0;
28/02/2025 17:31:45;100;0;340.07;-4;-19.59;1.39;19.3;19.80;77090;2834.324;-1758.628;1;321;-90;-83.9;41.9;41.7;23;23.0;25.5;0.0;
28/02/2025 17:32:05;100;0;337.89;-4;-19.71;-0.40;21.4;19.80;77096;2834.326;-1758.630;1;321;-90;-85.5;41.9;41.7;19;19.0;25.6;0.0;
28/02/2025 17:32:25;100;0;335.65;-4;-19.80;-2.48;23.8;19.70;77100;2834.329;-1758.632;1;321;-90;-85.5;41.9;41.7;19;18.5;25.6;0.0;
28/02/2025 17:32:45;100;0;334.67;-4;-19.63;-2.56;26.1;19.70;77097;2834.332;-1758.633;1;321;-90;-85.5;41.9;41.7;17;16.7;25.6;0.0;
28/02/2025 17:33:06;100;0;335.24;-4;-19.59;-3.52;28.4;19.80;77102;2834.334;-1758.635;1;321;-90;-83.9;41.9;41.7;17;16.7;25.6;0.0;
28/02/2025 17:33:26;100;0;334.17;-4;-19.58;-3.63;30.7;19.70;77117;2834.337;-1758.637;1;321;-90;-85.5;41.9;41.7;17;16.2;25.6;0.0;
28/02/2025 17:33:46;100;0;334.15;-4;-19.26;-3.56;33.0;19.70;77111;2834.340;-1758.639;1;321;-90;-85.5;41.9;41.7;17;16.2;25.6;0.0;
28/02/2025 17:34:06;100;0;334.04;-4;-19.52;-3.62;35.3;19.70;77112;2834.343;-1758.641;1;321;-90;-85.5;41.9;41.7;17;16.7;25.6;0.0;
28/02/2025 17:34:26;100;0;333.96;-4;-18.98;-3.58;37.6;19.70;77120;2834.345;-1758.643;1;321;-90;-85.5;42.2;42.3;17;16.7;25.5;0.0;
28/02/2025 17:34:46;100;0;333.68;-4;-19.30;-3.49;40.0;19.70;77122;2834.348;-1758.645;1;321;-90;-83.9;42.2;42.3;17;16.7;25.6;0.0;
28/02/2025 17:35:06;100;0;332.42;-4;-19.79;-3.53;42.3;19.70;77118;2834.351;-1758.647;1;321;-90;-85.5;42.2;42.3;17;16.2;25.5;0.0;
28/02/2025 17:35:26;100;0;330.60;-4;-19.49;-3.53;44.8;19.70;77132;2834.354;-1758.649;1;321;-90;-83.9;42.2;42.3;17;16.2;25.6;0.0;
28/02/2025 17:35:46;100;0;328.91;-4;-19.66;-3.57;47.1;19.70;77140;2834.356;-1758.651;1;321;-90;-83.9;42.2;42.3;15;14.9;25.6;0.0;
28/02/2025 17:36:06;100;0;328.02;-4;-19.66;-4.62;49.4;19.70;77129;2834.359;-1758.653;1;321;-90;-83.9;42.2;42.4;15;14.4;25.6;0.0;
28/02/2025 17:36:26;100;0;328.15;-4;-19.65;-4.57;51.8;19.70;77135;2834.361;-1758.655;1;321;-90;-85.5;42.2;42.3;15;14.4;25.6;0.0;
28/02/2025 17:36:46;100;0;329.23;-4;-19.52;-4.61;54.1;19.70;77147;2834.364;-1758.657;1;321;-90;-83.9;42.2;42.3;15;14.4;25.6;0.0;
28/02/2025 17:37:06;100;0;330.35;-4;-19.77;-4.60;56.6;19.70;77147;2834.366;-1758.660;1;321;-90;-85.5;42.2;42.4;15;14.4;25.5;0.0;
28/02/2025 17:37:26;100;0;330.57;-4;-19.74;-4.60;59.0;19.70;77142;2834.369;-1758.662;1;321;-90;-85.5;42.2;42.4;15;14.4;25.6;0.0;
28/02/2025 17:37:46;100;0;330.32;-4;-19.32;-4.69;61.4;19.70;77139;2834.372;-1758.664;1;321;-90;-83.9;42.2;42.4;15;14.4;25.6;0.0;
28/02/2025 17:38:06;100;0;329.56;-4;-19.45;-4.66;63.7;19.70;77145;2834.374;-1758.666;1;321;-90;-83.9;42.2;42.4;15;14.4;25.6;0.0;
28/02/2025 17:38:26;100;0;329.17;-4;-19.44;-4.64;66.2;19.70;77149;2834.377;-1758.668;1;321;-90;-83.9;42.2;42.4;15;14.4;25.6;0.0;
28/02/2025 17:38:46;100;0;330.22;-4;-19.42;-4.67;68.4;19.60;77158;2834.380;-1758.670;1;321;-90;-83.9;42.2;42.4;15;14.4;25.6;0.0;
28/02/2025 17:39:06;100;0;330.39;-4;-19.45;-4.60;70.6;19.60;77158;2834.382;-1758.672;1;321;-90;-83.9;42.2;42.3;15;14.4;25.6;0.0;
28/02/2025 17:39:26;100;0;330.46;-4;-19.46;-4.60;72.9;19.70;77171;2834.385;-1758.674;1;321;-90;-83.9;42.2;42.3;15;14.4;25.6;0.0;
28/02/2025 17:39:46;100;0;330.34;-4;-19.57;-4.65;75.0;19.60;77164;2834.387;-1758.676;1;321;-90;-83.9;42.2;42.4;15;14.4;25.6;0.0;
28/02/2025 17:40:06;100;0;329.88;-4;-19.84;-4.57;77.5;19.60;77170;2834.390;-1758.679;1;321;-90;-83.9;42.2;42.4;15;14.4;25.6;0.0;
28/02/2025 17:40:26;100;0;328.27;-4;-19.63;-4.60;79.8;19.60;77179;2834.393;-1758.681;1;321;-90;-83.9;42.2;42.3;15;14.4;25.6;0.0;
28/02/2025 17:40:46;100;0;328.32;-4;-19.46;-4.51;82.2;19.60;77173;2834.395;-1758.683;1;321;-90;-85.5;42.2;42.4;15;14.4;25.6;0.0;
28/02/2025 17:41:06;100;0;327.60;-4;-19.61;-4.61;84.4;19.60;77183;2834.398;-1758.685;1;321;-90;-83.9;42.2;42.3;15;14.4;25.6;0.0;
28/02/2025 17:41:26;100;0;327.01;-4;-19.43;-4.57;86.6;19.60;77175;2834.400;-1758.687;1;321;-90;-83.9;42.2;42.4;15;14.4;25.6;0.0;
28/02/2025 17:41:46;100;0;327.73;-4;-19.24;-4.61;88.8;19.60;77183;2834.403;-1758.689;1;321;-90;-85.5;42.2;42.4;15;14.4;25.6;0.0;
28/02/2025 17:42:06;100;0;325.90;-4;-19.39;-4.61;90.8;19.60;77179;2834.405;-1758.692;1;321;-90;-83.9;42.2;42.3;15;14.4;25.6;0.0;
28/02/2025 17:42:26;100;0;323.62;-4;-19.19;-4.58;92.7;19.60;77170;2834.407;-1758.694;1;321;-110;-111.3;42.2;42.3;15;14.4;25.6;0.0;
28/02/2025 17:42:46;100;0;319.90;-4;-18.68;-4.50;94.9;19.60;77237;2834.409;-1758.696;1;321;-110;-112.9;42.6;42.7;15;14.4;25.6;0.0;
28/02/2025 17:43:06;100;0;315.85;-4;-21.08;-4.59;97.2;19.50;77201;2834.411;-1758.699;1;321;-110;-111.3;42.6;43.0;12;12.2;25.6;0.0;
28/02/2025 17:43:26;100;0;315.43;-4;-20.98;-5.49;99.8;19.50;77181;2834.413;-1758.702;1;321;-110;-112.9;42.6;42.9;12;11.7;25.6;0.0;
28/02/2025 17:43:46;100;0;312.40;-4;-19.83;-5.44;102.6;19.50;77162;2834.416;-1758.705;1;321;-110;-112.9;42.6;43.0;10;9.9;25.5;0.0;
28/02/2025 17:44:06;100;0;314.55;-4;-19.72;-6.89;105.4;19.50;77155;2834.418;-1758.708;1;321;-110;-112.9;42.6;42.9;12;12.2;25.6;0.0;
28/02/2025 17:44:26;100;0;315.53;-4;-20.05;-5.08;107.9;19.50;77150;2834.421;-1758.711;1;321;-110;-112.9;42.6;43.0;12;12.6;25.6;0.0;
28/02/2025 17:44:46;100;0;317.14;-4;-19.70;-5.07;110.3;19.40;77140;2834.423;-1758.714;1;321;-110;-112.9;42.6;43.0;12;13.1;25.6;0.0;
28/02/2025 17:45:06;100;0;318.64;-4;-21.13;-5.02;112.9;19.40;77141;2834.425;-1758.717;1;321;-110;-112.9;42.6;43.0;14;14.0;25.6;0.0;
28/02/2025 17:45:26;100;0;321.13;-4;-20.03;-4.13;115.6;19.40;77120;2834.428;-1758.720;1;321;-110;-112.9;42.6;43.0;14;14.4;25.6;0.0;
28/02/2025 17:45:46;100;0;320.42;-4;-20.18;-4.13;118.3;19.30;77111;2834.430;-1758.723;1;321;-110;-112.9;42.6;42.9;14;14.9;25.6;0.0;
28/02/2025 17:46:06;100;0;319.44;-4;-19.99;-4.14;120.9;19.30;77111;2834.433;-1758.725;1;321;-110;-112.9;42.6;43.0;14;14.9;25.6;0.0;
28/02/2025 17:46:26;100;0;320.33;-4;-20.04;-4.17;123.3;19.30;77103;2834.435;-1758.728;1;321;-110;-114.5;42.6;43.0;14;14.4;25.6;0.0;
28/02/2025 17:46:46;100;0;323.25;-4;-19.96;-4.30;125.8;19.30;77106;2834.438;-1758.731;1;321;-110;-112.9;42.6;43.0;14;14.9;25.6;0.0;
28/02/2025 17:47:06;100;0;321.28;-4;-20.17;-4.20;128.3;19.30;77090;2834.440;-1758.733;1;321;-110;-112.9;42.6;43.0;14;14.4;25.6;0.0;
28/02/2025 17:47:26;100;0;321.22;-4;-20.35;-4.11;130.8;19.20;77077;2834.443;-1758.736;1;321;-110;-112.9;42.6;43.0;14;14.4;25.6;0.0;
28/02/2025 17:47:46;100;0;323.66;-4;-20.09;-4.13;133.5;19.20;77064;2834.446;-1758.739;1;321;-110;-112.9;42.6;43.0;14;14.4;25.6;0.0;
28/02/2025 17:48:06;100;0;325.67;-4;-19.48;-4.33;136.1;19.20;77063;2834.448;-1758.741;1;321;-110;-112.9;42.6;43.0;14;14.9;25.6;0.0;
28/02/2025 17:48:26;100;0;323.46;-4;-19.67;-4.08;138.4;19.10;77050;2834.451;-1758.744;1;321;-110;-112.9;42.6;43.0;14;14.4;25.6;0.0;
28/02/2025 17:48:46;100;0;322.59;-4;-19.32;-4.32;141.0;19.10;77043;2834.454;-1758.746;1;321;-110;-112.9;42.6;43.0;14;14.4;25.6;0.0;
28/02/2025 17:49:06;100;0;320.86;-4;-19.99;-4.28;143.3;19.10;77038;2834.456;-1758.749;1;321;-110;-112.9;42.6;42.9;14;14.4;25.6;0.0;
28/02/2025 17:49:26;100;0;319.16;-4;-19.87;-4.30;145.9;19.00;77028;2834.458;-1758.752;1;321;-110;-112.9;42.6;42.9;14;14.9;25.5;0.0;
28/02/2025 17:49:46;100;0;322.14;-4;-19.99;-4.24;148.4;19.00;77009;2834.461;-1758.754;1;321;-110;-112.9;42.6;43.0;14;14.4;25.6;0.0;
28/02/2025 17:50:06;100;0;325.17;-4;-19.93;-4.11;151.3;19.00;77007;2834.464;-1758.757;1;321;-110;-111.3;42.6;42.9;14;14.4;25.6;0.0;
28/02/2025 17:50:26;100;0;322.39;-4;-19.73;-4.27;153.7;18.90;76995;2834.466;-1758.760;1;321;-110;-112.9;42.6;43.0;14;14.4;25.6;0.0;
28/02/2025 17:50:46;100;0;316.49;-4;-19.84;-4.20;156.5;18.90;76994;2834.469;-1758.763;1;321;-110;-112.9;42.6;43.0;14;14.4;25.6;0.0;
28/02/2025 17:51:06;100;0;313.90;-4;-19.95;-4.22;159.1;18.90;76978;2834.471;-1758.766;1;321;-110;-112.9;42.6;42.9;10;9.9;25.6;0.0;
28/02/2025 17:51:26;100;0;311.68;-4;-19.30;-6.90;161.6;18.80;76977;2834.474;-1758.769;1;321;-110;-112.9;42.6;42.9;8;8.1;25.6;0.0;
28/02/2025 17:51:46;100;0;311.20;-4;-19.25;-7.66;164.0;18.80;76963;2834.476;-1758.772;1;321;-110;-112.9;42.6;42.9;6;5.9;25.6;0.0;
28/02/2025 17:52:06;100;0;312.77;-4;-19.13;-8.83;166.7;18.80;76959;2834.478;-1758.776;1;321;-110;-116.1;42.6;43.0;10;9.9;25.6;0.0;
28/02/2025 17:52:26;100;0;314.59;-4;-19.17;-6.46;169.2;18.80;76948;2834.480;-1758.779;1;321;-110;-112.9;42.6;43.0;10;9.9;25.6;0.0;
28/02/2025 17:52:46;100;0;317.50;-4;-19.38;-6.36;171.4;18.70;76924;2834.482;-1758.781;1;321;-110;-112.9;42.6;43.0;13;13.5;25.6;0.0;
28/02/2025 17:53:06;100;0;315.56;-4;-19.55;-4.72;173.9;18.70;76922;2834.485;-1758.784;1;321;-110;-112.9;42.6;43.0;11;10.8;25.6;0.0;
28/02/2025 17:53:26;100;0;313.78;-4;-19.41;-6.46;176.5;18.60;76902;2834.487;-1758.787;1;321;-110;-112.9;42.6;43.0;11;10.4;25.6;0.0;
28/02/2025 17:53:46;100;0;315.04;-4;-18.95;-6.36;178.6;18.60;76892;2834.489;-1758.790;1;321;-110;-112.9;42.9;42.9;11;10.4;25.6;0.0;
28/02/2025 17:54:06;100;0;317.08;-4;-19.30;-6.40;181.1;18.60;76884;2834.492;-1758.793;1;321;-110;-112.9;42.9;42.9;11;10.4;25.6;0.0;
28/02/2025 17:54:26;100;0;319.78;-4;-18.67;-6.30;183.5;18.50;76878;2834.494;-1758.796;1;321;-110;-112.9;43.3;43.4;14;14.0;25.6;0.0;
28/02/2025 17:54:46;100;0;323.81;-4;-20.08;-4.35;185.8;18.50;76875;2834.496;-1758.798;1;321;-110;-112.9;43.3;43.4;14;14.4;25.6;0.0;
28/02/2025 17:55:06;100;0;326.54;-4;-20.17;-4.35;188.2;18.50;76858;2834.499;-1758.800;1;321;-110;-112.9;43.3;43.6;14;14.4;25.6;0.0;
28/02/2025 17:55:26;100;0;322.50;-4;-20.34;-4.53;190.7;18.40;76853;2834.501;-1758.803;1;321;-110;-114.5;43.3;43.4;14;14.4;25.5;0.0;
28/02/2025 17:55:46;100;0;322.52;-4;-20.55;-4.32;193.2;18.40;76850;2834.504;-1758.806;1;321;-110;-114.5;43.3;43.4;14;14.4;25.5;0.0;
28/02/2025 17:56:06;100;0;327.27;-4;-20.23;-4.33;195.6;18.30;76830;2834.506;-1758.808;1;321;-110;-112.9;43.3;43.6;14;14.4;25.6;0.0;
28/02/2025 17:56:26;100;0;330.43;-4;-20.29;-4.39;198.0;18.30;76818;2834.509;-1758.810;1;321;-110;-112.9;43.3;43.4;14;14.4;25.6;0.0;
28/02/2025 17:56:46;100;0;329.03;-4;-20.63;-4.33;200.5;18.30;76815;2834.512;-1758.812;1;321;-110;-112.9;43.3;43.6;14;14.4;25.6;0.0;
28/02/2025 17:57:06;100;0;327.94;-4;-20.60;-4.33;202.9;18.20;76804;2834.514;-1758.814;1;321;-110;-112.9;43.3;43.6;14;14.4;25.6;0.0;
28/02/2025 17:57:26;100;0;326.50;-4;-20.56;-4.33;205.6;18.20;76797;2834.517;-1758.817;1;321;-110;-112.9;43.3;43.4;14;14.4;25.6;0.0;
28/02/2025 17:57:46;100;0;324.12;-4;-20.55;-4.30;207.9;18.10;76785;2834.519;-1758.819;1;321;-110;-112.9;43.3;43.6;14;14.4;25.6;0.0;
28/02/2025 17:58:06;100;0;326.33;-4;-20.69;-4.32;210.4;18.10;76783;2834.522;-1758.821;1;321;-110;-112.9;43.3;43.4;14;14.4;25.6;0.0;
28/02/2025 17:58:26;100;0;327.04;-4;-20.49;-4.30;213.2;18.10;76756;2834.525;-1758.824;1;321;-110;-112.9;43.3;43.4;14;14.4;25.6;0.0;
28/02/2025 17:58:46;100;0;325.32;-4;-20.26;-4.37;215.7;18.00;76756;2834.527;-1758.826;1;321;-110;-112.9;43.3;43.4;14;14.4;25.6;0.0;
28/02/2025 17:59:06;100;0;323.82;-4;-20.28;-4.42;218.1;18.00;76748;2834.530;-1758.829;1;321;-110;-112.9;43.3;43.6;14;14.4;25.6;0.0;
28/02/2025 17:59:26;100;0;325.11;-4;-20.58;-4.34;220.6;17.90;76740;2834.532;-1758.831;1;321;-110;-112.9;43.3;43.4;14;14.4;25.6;0.0;
28/02/2025 17:59:46;100;0;323.98;-4;-20.58;-4.30;223.3;17.90;76732;2834.535;-1758.834;1;321;-110;-112.9;43.3;43.6;14;14.4;25.6;0.0;
28/02/2025 18:00:06;100;0;323.27;-4;-20.45;-4.33;225.9;17.90;76724;2834.538;-1758.837;1;321;-110;-112.9;43.3;43.6;14;14.4;25.6;0.0;
28/02/2025 18:00:26;100;0;322.60;-4;-20.60;-4.33;228.6;17.80;76711;2834.540;-1758.839;1;321;-110;-112.9;43.3;43.6;14;14.4;25.6;0.0;
28/02/2025 18:00:46;100;0;322.09;-4;-20.51;-4.29;231.3;17.80;76718;2834.543;-1758.842;1;321;-110;-112.9;43.3;43.6;14;14.4;25.6;0.0;
28/02/2025 18:01:06;100;0;322.41;-4;-20.74;-4.28;233.8;17.70;76698;2834.545;-1758.844;1;321;-110;-112.9;43.3;43.6;14;14.4;25.6;0.0;
28/02/2025 18:01:26;100;0;323.92;-4;-20.51;-4.29;236.7;17.70;76692;2834.548;-1758.847;1;321;-110;-112.9;43.3;43.4;14;14.4;25.5;0.0;
28/02/2025 18:01:46;100;0;325.24;-4;-20.73;-4.27;239.5;17.70;76688;2834.551;-1758.850;1;321;-110;-112.9;43.3;43.4;14;14.4;25.6;0.0;
28/02/2025 18:02:06;100;0;325.18;-4;-20.58;-4.23;242.2;17.60;76682;2834.554;-1758.852;1;321;-110;-112.9;43.3;43.6;14;14.4;25.6;0.0;
28/02/2025 18:02:26;100;0;325.06;-4;-20.51;-4.30;244.9;17.60;76670;2834.557;-1758.855;1;321;-110;-112.9;43.3;43.4;14;14.4;25.6;0.0;
28/02/2025 18:02:46;100;0;324.76;-4;-20.56;-4.32;247.6;17.60;76662;2834.559;-1758.858;1;321;-110;-112.9;43.3;43.6;14;14.4;25.6;0.0;
28/02/2025 18:03:06;100;0;325.26;-4;-20.59;-4.32;250.4;17.50;76656;2834.562;-1758.860;1;321;-110;-111.3;43.3;43.4;14;14.4;25.6;0.0;
28/02/2025 18:03:26;100;0;325.66;-4;-20.61;-4.26;253.2;17.50;76659;2834.565;-1758.863;1;321;-110;-112.9;43.3;43.6;14;14.4;25.6;0.0;
28/02/2025 18:03:46;100;0;328.35;-4;-20.42;-4.36;255.9;17.50;76649;2834.568;-1758.865;1;321;-110;-112.9;43.3;43.4;14;14.4;25.6;0.0;
28/02/2025 18:04:06;100;0;331.79;-4;-20.43;-4.24;258.6;17.40;76644;2834.571;-1758.867;1;321;-110;-112.9;43.3;43.6;16;15.8;25.6;0.0;
28/02/2025 18:04:26;100;0;334.70;-4;-20.49;-3.40;261.6;17.40;76616;2834.574;-1758.870;1;321;-110;-112.9;43.3;43.4;18;18.1;25.6;0.0;
28/02/2025 18:04:46;100;0;334.35;-4;-20.80;-2.26;264.3;17.30;76615;2834.577;-1758.872;1;321;-110;-112.9;43.3;43.6;18;18.5;25.6;0.0;
28/02/2025 18:05:06;100;0;330.16;-4;-20.73;-2.26;267.1;17.30;76613;2834.580;-1758.874;1;321;-110;-114.5;43.3;43.6;15;14.9;25.6;0.0;
28/02/2025 18:05:26;100;0;328.29;-4;-20.63;-4.36;269.9;17.20;76607;2834.583;-1758.877;1;321;-110;-114.5;43.3;43.6;15;14.4;25.6;0.0;
28/02/2025 18:05:46;100;0;327.20;-4;-20.45;-4.40;272.8;17.20;76602;2834.586;-1758.879;1;321;-110;-112.9;43.3;43.6;15;14.4;25.6;0.0;
28/02/2025 18:06:06;100;0;326.43;-4;-20.49;-4.36;275.7;17.20;76583;2834.590;-1758.882;1;321;-110;-112.9;43.3;43.6;15;14.4;25.6;0.0;
28/02/2025 18:06:26;100;0;326.96;-4;-20.35;-4.35;278.6;17.10;76581;2834.593;-1758.885;1;321;-110;-112.9;43.3;43.6;15;14.4;25.6;0.0;
28/02/2025 18:06:46;100;0;326.38;-4;-20.18;-4.41;281.4;17.10;76558;2834.596;-1758.887;1;321;-110;-112.9;43.3;43.4;15;14.4;25.6;0.0;
28/02/2025 18:07:06;100;0;324.23;-4;-20.19;-4.44;284.2;17.10;76552;2834.599;-1758.890;1;321;-110;-111.3;43.3;43.6;15;14.4;25.6;0.0;
28/02/2025 18:07:26;100;0;321.86;-4;-20.03;-4.40;287.0;17.00;76539;2834.601;-1758.893;1;321;-110;-112.9;43.3;43.4;15;14.4;25.6;0.0;
28/02/2025 18:07:47;100;0;320.79;-4;-19.88;-4.42;289.8;17.00;76524;2834.604;-1758.896;1;321;-110;-112.9;43.3;43.6;15;14.4;25.6;0.0;
28/02/2025 18:08:07;100;0;321.49;-4;-20.05;-4.41;292.5;16.90;76529;2834.607;-1758.899;1;321;-110;-112.9;43.3;43.4;15;14.4;25.5;0.0;
28/02/2025 18:08:27;100;0;319.06;-4;-19.80;-4.43;295.2;16.90;76511;2834.609;-1758.902;1;321;-110;-112.9;43.3;43.6;15;14.4;25.6;0.0;
28/02/2025 18:08:47;100;0;319.29;-4;-19.93;-4.43;298.1;16.90;76503;2834.612;-1758.905;1;321;-110;-112.9;43.3;43.6;15;14.4;25.6;0.0;
28/02/2025 18:09:07;100;0;319.63;-4;-19.85;-4.42;301.0;16.80;76497;2834.615;-1758.908;1;321;-110;-112.9;43.3;43.6;15;14.4;25.6;0.0;
28/02/2025 18:09:27;100;0;316.83;-4;-19.93;-4.49;303.8;16.80;76488;2834.618;-1758.911;1;321;-110;-112.9;43.3;43.6;13;13.1;25.6;0.0;
28/02/2025 18:09:47;100;0;313.95;-4;-20.01;-5.25;306.4;16.80;76478;2834.620;-1758.914;1;321;-110;-112.9;43.3;43.6;11;10.8;25.6;0.0;
28/02/2025 18:10:07;100;0;316.16;-4;-19.67;-6.32;309.5;16.70;76474;2834.623;-1758.918;1;321;-110;-112.9;43.3;43.6;11;10.4;25.6;0.0;
28/02/2025 18:10:27;100;0;317.42;-4;-19.71;-6.39;312.3;16.70;76470;2834.625;-1758.921;1;321;-110;-112.9;43.3;43.6;13;13.1;25.6;0.0;
28/02/2025 18:10:47;100;0;319.66;-4;-19.69;-4.87;314.9;16.60;76451;2834.628;-1758.924;1;321;-110;-112.9;43.3;43.6;13;13.5;25.6;0.0;
28/02/2025 18:11:07;100;0;322.83;-4;-19.80;-4.94;317.7;16.60;76457;2834.631;-1758.927;1;321;-110;-112.9;43.3;43.4;13;13.1;25.6;0.0;
28/02/2025 18:11:27;100;0;325.47;-4;-19.72;-4.91;320.7;16.50;76443;2834.634;-1758.929;1;321;-110;-114.5;43.3;43.6;13;13.1;25.6;0.0;
28/02/2025 18:11:47;100;0;326.75;-4;-19.85;-4.99;323.3;16.50;76431;2834.637;-1758.932;1;321;-110;-112.9;43.3;43.4;13;13.1;25.6;0.0;
28/02/2025 18:12:07;100;0;327.45;-4;-19.69;-4.91;326.0;16.50;76435;2834.640;-1758.934;1;321;-110;-112.9;43.3;43.4;15;14.9;25.6;0.0;
28/02/2025 18:12:27;100;0;327.48;-4;-19.83;-4.01;328.8;16.40;76417;2834.643;-1758.937;1;321;-110;-112.9;43.3;43.6;15;14.9;25.6;0.0;
28/02/2025 18:12:47;100;0;327.89;-4;-19.98;-4.02;331.5;16.40;76413;2834.646;-1758.939;1;321;-110;-112.9;43.3;43.6;15;14.9;25.6;0.0;
28/02/2025 18:13:07;100;0;329.23;-4;-19.94;-4.05;334.1;16.40;76409;2834.648;-1758.942;1;321;-110;-112.9;43.3;43.6;15;14.9;25.6;0.0;
28/02/2025 18:13:27;100;0;330.78;-4;-20.44;-3.97;337.0;16.30;76400;2834.652;-1758.944;1;321;-110;-112.9;43.3;43.6;15;15.3;25.6;0.0;
28/02/2025 18:13:47;100;0;332.06;-4;-20.19;-3.99;339.6;16.30;76396;2834.655;-1758.946;1;321;-110;-112.9;43.3;43.6;15;14.9;25.6;0.0;
28/02/2025 18:14:07;100;0;330.28;-4;-20.47;-3.98;342.7;16.30;76391;2834.658;-1758.949;1;321;-110;-112.9;43.3;43.4;15;14.9;25.6;0.0;
28/02/2025 18:14:27;100;0;327.87;-4;-20.39;-4.11;345.5;16.20;76375;2834.661;-1758.951;1;321;-110;-112.9;43.3;43.6;15;14.9;25.6;0.0;
28/02/2025 18:14:47;100;0;324.44;-4;-20.32;-4.05;348.3;16.20;76367;2834.664;-1758.954;1;321;-110;-112.9;43.3;43.6;15;14.9;25.6;0.0;
28/02/2025 18:15:07;100;0;321.42;-4;-20.30;-3.90;351.4;16.20;76364;2834.667;-1758.957;1;321;-110;-112.9;43.3;43.6;15;14.9;25.6;0.0;
28/02/2025 18:15:27;100;0;318.73;-4;-20.54;-3.89;354.2;16.10;76356;2834.670;-1758.960;1;321;-110;-112.9;43.3;43.6;15;14.9;25.6;0.0;
28/02/2025 18:15:47;100;0;318.97;-4;-20.43;-3.90;357.2;16.10;76335;2834.673;-1758.964;1;321;-110;-112.9;43.3;43.6;15;15.3;25.6;0.0;
28/02/2025 18:16:07;100;0;317.90;-4;-20.38;-3.93;360.0;16.00;76342;2834.675;-1758.967;1;321;-110;-114.5;43.3;43.4;13;13.1;25.6;0.0;
28/02/2025 18:16:27;100;0;316.89;-4;-20.25;-5.23;363.1;16.00;76324;2834.678;-1758.970;1;321;-110;-112.9;43.3;43.4;13;12.6;25.6;0.0;
28/02/2025 18:16:47;100;0;316.18;-4;-19.94;-5.27;365.9;16.00;76317;2834.681;-1758.973;1;321;-110;-112.9;43.3;43.4;13;12.6;25.6;0.0;
28/02/2025 18:17:07;100;0;316.83;-4;-19.88;-5.31;368.6;16.00;76317;2834.683;-1758.977;1;321;-110;-112.9;43.3;43.6;13;12.6;25.6;0.0;
28/02/2025 18:17:27;100;0;316.27;-4;-19.88;-5.31;371.4;15.90;76312;2834.686;-1758.980;1;321;-110;-112.9;43.3;43.6;13;12.6;25.6;0.0;
28/02/2025 18:17:47;100;0;315.56;-4;-19.94;-5.25;374.1;15.80;76293;2834.688;-1758.983;1;321;-110;-112.9;43.3;43.6;13;12.6;25.6;0.0;
28/02/2025 18:18:07;100;0;315.39;-4;-19.94;-5.27;377.0;15.80;76291;2834.691;-1758.986;1;321;-110;-114.5;43.3;43.6;13;12.6;25.6;0.0;
28/02/2025 18:18:27;100;0;314.40;-4;-19.84;-5.32;379.8;15.80;76290;2834.693;-1758.989;1;321;-110;-112.9;43.3;43.4;11;10.8;25.6;0.0;
28/02/2025 18:18:47;100;0;312.63;-4;-19.80;-6.36;382.4;15.70;76278;2834.696;-1758.993;1;321;-110;-112.9;43.3;43.6;9;9.0;25.6;0.0;
28/02/2025 18:19:07;100;0;312.70;-4;-19.60;-7.23;385.3;15.70;76276;2834.698;-1758.996;1;321;-110;-114.5;43.3;43.4;9;8.6;25.6;0.0;
28/02/2025 18:19:27;100;0;314.30;-4;-19.48;-7.19;388.0;15.70;76275;2834.701;-1758.999;1;321;-110;-112.9;43.3;43.6;9;8.6;25.6;0.0;
28/02/2025 18:19:47;100;0;313.07;-4;-19.44;-7.30;390.8;15.70;76279;2834.703;-1759.003;1;321;-110;-112.9;43.3;43.6;9;8.6;25.6;0.0;
28/02/2025 18:20:07;100;0;313.60;-4;-19.55;-7.28;393.6;15.60;76275;2834.706;-1759.006;1;321;-110;-111.3;43.3;43.6;9;8.6;25.6;0.0;
28/02/2025 18:20:27;100;0;314.91;-4;-19.44;-7.21;396.3;15.60;76269;2834.708;-1759.010;1;321;-110;-112.9;43.3;43.4;11;11.3;25.6;0.0;
28/02/2025 18:20:47;100;0;316.29;-4;-19.44;-5.74;399.2;15.60;76259;2834.711;-1759.013;1;321;-110;-112.9;43.3;43.6;11;11.3;25.6;0.0;
28/02/2025 18:21:07;100;0;319.48;-4;-19.51;-5.82;402.0;15.50;76260;2834.714;-1759.016;1;321;-110;-112.9;43.3;43.4;13;13.5;25.6;0.0;
28/02/2025 18:21:27;100;0;318.42;-4;-19.75;-4.73;404.7;15.50;76251;2834.716;-1759.019;1;321;-110;-112.9;43.3;43.6;13;14.0;25.6;0.0;
28/02/2025 18:21:47;100;0;321.58;-4;-19.88;-4.62;407.6;15.50;76246;2834.719;-1759.022;1;321;-110;-112.9;43.3;43.4;13;13.5;25.6;0.0;
28/02/2025 18:22:07;100;0;324.73;-4;-20.00;-4.66;410.6;15.40;76233;2834.722;-1759.025;1;321;-110;-116.1;43.3;43.4;13;14.0;25.6;0.0;
28/02/2025 18:22:27;100;0;324.81;-4;-19.62;-4.70;413.7;15.40;76237;2834.725;-1759.028;1;321;-110;-114.5;43.3;43.6;13;13.5;25.6;0.0;
28/02/2025 18:22:47;100;0;325.69;-4;-19.53;-4.68;416.7;15.40;76216;2834.729;-1759.031;1;321;-110;-112.9;43.3;43.4;13;13.5;25.6;0.0;
28/02/2025 18:23:07;100;0;327.43;-4;-19.70;-4.68;419.9;15.30;76213;2834.732;-1759.034;1;321;-110;-112.9;43.3;43.6;13;14.0;25.6;0.0;
28/02/2025 18:23:27;100;0;328.35;-4;-19.37;-4.73;423.1;15.30;76209;2834.736;-1759.037;1;321;-110;-112.9;43.3;43.6;13;13.5;25.6;0.0;
28/02/2025 18:23:47;100;0;329.44;-4;-19.26;-4.68;426.2;15.30;76196;2834.739;-1759.039;1;321;-110;-112.9;43.3;43.6;13;13.5;25.6;0.0;
28/02/2025 18:24:07;100;0;329.19;-4;-19.19;-4.76;429.1;15.20;76194;2834.742;-1759.042;1;321;-110;-114.5;43.3;43.6;13;13.5;25.6;0.0;
28/02/2025 18:24:27;100;0;328.39;-4;-19.61;-4.79;432.1;15.20;76192;2834.746;-1759.045;1;321;-110;-112.9;43.3;43.6;13;14.0;25.6;0.0;
28/02/2025 18:24:47;100;0;327.37;-4;-19.11;-4.76;435.2;15.20;76183;2834.749;-1759.047;1;321;-110;-112.9;43.3;43.4;13;13.5;25.6;0.0;
28/02/2025 18:25:07;100;0;327.63;-4;-19.25;-4.66;438.0;15.20;76187;2834.752;-1759.050;1;321;-110;-112.9;43.3;43.4;13;13.5;25.6;0.0;
28/02/2025 18:25:27;100;0;328.58;-4;-19.51;-4.71;441.1;15.10;76183;2834.756;-1759.053;1;321;-110;-112.9;43.3;43.6;13;14.0;25.6;0.0;
28/02/2025 18:25:47;100;0;329.63;-4;-19.38;-4.67;444.0;15.10;76180;2834.759;-1759.055;1;321;-110;-112.9;43.3;43.6;13;13.5;25.6;0.0;
28/02/2025 18:26:07;100;0;330.54;-4;-19.31;-4.78;447.2;15.10;76176;2834.763;-1759.058;1;321;-110;-112.9;43.3;43.4;15;14.9;25.6;0.0;
28/02/2025 18:26:27;100;0;329.95;-4;-20.01;-4.08;450.1;15.00;76169;2834.766;-1759.061;1;321;-110;-116.1;43.3;43.6;15;14.9;25.6;0.0;
28/02/2025 18:26:47;100;0;329.24;-4;-19.36;-4.13;453.1;15.00;76162;2834.769;-1759.063;1;321;-110;-112.9;43.3;43.6;15;14.9;25.5;0.0;
28/02/2025 18:27:07;100;0;328.69;-4;-19.11;-4.18;456.0;15.00;76168;2834.773;-1759.066;1;321;-110;-114.5;43.3;43.6;15;14.9;25.6;0.0;
28/02/2025 18:27:27;100;0;327.45;-4;-19.16;-4.13;458.9;15.00;76159;2834.776;-1759.069;1;321;-110;-112.9;43.3;43.6;15;14.9;25.6;0.0;
28/02/2025 18:27:47;100;0;327.62;-4;-19.27;-4.05;461.6;14.90;76146;2834.779;-1759.071;1;321;-110;-112.9;43.3;43.4;15;14.9;25.6;0.0;
28/02/2025 18:28:07;100;0;327.99;-4;-19.32;-4.10;464.6;14.90;76147;2834.782;-1759.074;1;321;-110;-112.9;43.3;43.6;15;14.9;25.6;0.0;
28/02/2025 18:28:27;100;0;328.53;-4;-19.34;-4.06;467.3;14.90;76138;2834.785;-1759.077;1;321;-110;-112.9;43.3;43.4;15;14.9;25.6;0.0;
28/02/2025 18:28:47;100;0;331.65;-4;-19.65;-4.00;470.0;14.80;76128;2834.788;-1759.079;1;321;-110;-112.9;43.3;43.6;15;14.9;25.6;0.0;
28/02/2025 18:29:07;100;0;330.90;-4;-19.57;-4.07;472.9;14.80;76130;2834.792;-1759.081;1;321;-110;-112.9;43.3;43.4;15;14.9;25.6;0.0;
28/02/2025 18:29:27;100;0;333.00;-4;-19.52;-4.04;475.9;14.80;76120;2834.795;-1759.084;1;321;-110;-114.5;43.3;43.6;15;14.9;25.6;0.0;
28/02/2025 18:29:47;100;0;334.01;-4;-19.73;-4.13;478.7;14.80;76107;2834.798;-1759.086;1;321;-110;-114.5;43.3;43.6;17;17.1;25.6;0.0;
28/02/2025 18:30:07;100;0;334.15;-4;-19.68;-2.97;481.8;14.70;76107;2834.802;-1759.088;1;321;-110;-112.9;43.3;43.6;17;17.1;25.6;0.0;
28/02/2025 18:30:27;100;0;333.21;-4;-19.82;-2.73;484.8;14.70;76110;2834.805;-1759.091;1;321;-110;-112.9;43.3;43.6;17;17.6;25.6;0.0;
28/02/2025 18:30:47;100;0;331.36;-4;-19.86;-2.95;487.5;14.70;76106;2834.808;-1759.093;1;321;-110;-112.9;43.3;43.6;15;14.9;25.6;0.0;
28/02/2025 18:31:07;100;0;331.68;-4;-19.56;-4.22;490.4;14.70;76101;2834.811;-1759.095;1;321;-110;-112.9;43.3;43.4;15;14.9;25.6;0.0;
28/02/2025 18:31:27;100;0;331.11;-4;-19.60;-4.23;493.2;14.60;76105;2834.815;-1759.098;1;321;-110;-114.5;43.3;43.6;15;14.9;25.6;0.0;
28/02/2025 18:31:47;100;0;331.06;-4;-19.62;-4.26;496.0;14.60;76096;2834.818;-1759.100;1;321;-110;-114.5;43.3;43.6;15;14.9;25.6;0.0;
28/02/2025 18:32:07;100;0;332.04;-4;-19.65;-4.20;498.8;14.60;76086;2834.821;-1759.102;1;321;-110;-112.9;43.3;43.6;15;14.9;25.6;0.0;
28/02/2025 18:32:27;100;0;332.64;-4;-19.57;-4.24;501.6;14.60;76089;2834.824;-1759.105;1;321;-110;-112.9;43.3;43.4;15;14.4;25.5;0.0;
28/02/2025 18:32:47;100;0;333.91;-4;-19.49;-4.24;504.3;14.50;76083;2834.827;-1759.107;1;321;-110;-112.9;43.3;43.6;17;17.1;25.6;0.0;
28/02/2025 18:33:07;100;0;334.86;-4;-19.46;-2.82;507.1;14.50;76070;2834.831;-1759.109;1;321;-110;-112.9;43.3;43.4;17;17.6;25.6;0.0;
28/02/2025 18:33:27;100;0;334.19;-4;-19.50;-2.88;509.7;14.50;76071;2834.834;-1759.111;1;321;-110;-112.9;43.3;43.4;17;17.6;25.6;0.0;
28/02/2025 18:33:47;100;0;333.57;-4;-19.60;-2.84;512.4;14.40;76067;2834.837;-1759.113;1;321;-110;-112.9;43.3;43.4;17;17.6;25.6;0.0;
28/02/2025 18:34:07;100;0;331.81;-4;-19.58;-2.89;515.0;14.40;76070;2834.840;-1759.115;1;321;-110;-112.9;43.3;43.6;15;14.9;25.6;0.0;
28/02/2025 18:34:27;100;0;329.27;-4;-19.63;-4.42;517.7;14.40;76060;2834.843;-1759.118;1;321;-110;-112.9;43.3;43.6;15;14.4;25.6;0.0;
28/02/2025 18:34:47;100;0;327.16;-4;-19.61;-4.37;520.3;14.40;76051;2834.845;-1759.120;1;321;-110;-112.9;43.3;43.6;15;14.4;25.6;0.0;
28/02/2025 18:35:07;100;0;325.72;-4;-19.44;-4.38;523.1;14.40;76046;2834.848;-1759.123;1;321;-110;-112.9;43.3;43.6;15;14.4;25.6;0.0;
28/02/2025 18:35:27;100;0;323.82;-4;-19.40;-4.38;525.7;14.30;76053;2834.851;-1759.125;1;321;-110;-112.9;43.3;43.6;15;14.4;25.6;0.0;
28/02/2025 18:35:47;100;0;322.55;-4;-19.35;-4.41;528.2;14.30;76051;2834.854;-1759.128;1;321;-110;-112.9;43.3;43.6;15;14.4;25.6;0.0;
28/02/2025 18:36:07;100;0;321.72;-4;-19.32;-4.41;530.5;14.30;76039;2834.856;-1759.131;1;321;-110;-112.9;43.3;43.6;15;14.4;25.6;0.0;
28/02/2025 18:36:27;100;0;320.85;-4;-19.35;-4.46;533.0;14.30;76029;2834.859;-1759.134;1;321;-110;-112.9;43.3;43.6;15;14.4;25.6;0.0;
28/02/2025 18:36:47;100;0;319.47;-4;-19.26;-4.42;535.5;14.20;76041;2834.861;-1759.136;1;321;-110;-112.9;43.3;43.6;15;14.4;25.6;0.0;
28/02/2025 18:37:07;100;0;318.27;-4;-19.26;-4.42;537.9;14.20;76034;2834.864;-1759.139;1;321;-110;-111.3;43.3;43.6;13;12.6;25.6;0.0;
28/02/2025 18:37:27;100;0;317.67;-4;-19.19;-5.41;540.3;14.20;76029;2834.866;-1759.142;1;321;-110;-112.9;43.3;43.6;13;12.6;25.6;0.0;
28/02/2025 18:37:47;100;0;316.80;-4;-19.22;-5.34;542.6;14.20;76025;2834.868;-1759.145;1;321;-110;-112.9;43.3;43.6;13;12.6;25.6;0.0;
28/02/2025 18:38:07;100;0;316.36;-4;-19.49;-5.38;545.1;14.20;76023;2834.871;-1759.148;1;321;-110;-112.9;43.3;43.6;13;12.6;25.6;0.0;
28/02/2025 18:38:27;100;0;317.81;-4;-18.98;-5.33;547.4;14.10;76016;2834.873;-1759.150;1;321;-110;-112.9;43.6;43.6;13;12.6;25.6;0.0;
28/02/2025 18:38:47;100;0;318.21;-4;-19.05;-5.37;549.9;14.10;76012;2834.875;-1759.153;1;321;-110;-112.9;43.6;43.6;13;12.6;25.6;0.0;
28/02/2025 18:39:07;100;0;320.15;-4;-19.18;-5.43;552.1;14.10;76017;2834.878;-1759.156;1;321;-110;-112.9;43.6;43.6;13;12.6;25.6;0.0;
28/02/2025 18:39:27;100;0;322.04;-4;-19.11;-5.37;554.5;14.10;76004;2834.880;-1759.158;1;321;-110;-112.9;43.6;43.6;13;12.6;25.6;0.0;
28/02/2025 18:39:47;100;0;323.56;-4;-19.04;-5.37;556.9;14.00;75994;2834.883;-1759.161;1;321;-110;-112.9;43.6;43.6;13;12.6;25.6;0.0;
28/02/2025 18:40:07;100;0;325.14;-4;-18.98;-5.39;559.2;14.00;75994;2834.885;-1759.163;1;321;-110;-112.9;43.9;43.9;13;12.6;25.6;0.0;
28/02/2025 18:40:27;100;0;327.81;-4;-19.88;-5.29;561.6;14.00;75983;2834.888;-1759.166;1;321;-110;-112.9;43.9;44.0;13;12.6;25.6;0.0;
28/02/2025 18:40:47;100;0;329.79;-4;-20.05;-5.35;564.0;14.00;75981;2834.890;-1759.168;1;321;-110;-112.9;43.9;44.0;15;14.9;25.6;0.0;
28/02/2025 18:41:07;100;0;329.82;-4;-20.53;-3.88;566.4;14.00;75973;2834.893;-1759.170;1;321;-110;-112.9;43.9;44.0;15;15.3;25.6;0.0;
28/02/2025 18:41:27;100;0;329.56;-4;-20.56;-3.84;568.9;13.90;75969;2834.896;-1759.172;1;321;-110;-112.9;43.9;44.0;15;15.3;25.6;0.0;
28/02/2025 18:41:47;100;0;329.51;-4;-20.69;-3.87;571.3;13.90;75972;2834.898;-1759.174;1;321;-110;-112.9;43.9;44.0;15;15.3;25.6;0.0;
28/02/2025 18:42:07;100;0;328.47;-4;-20.98;-3.87;573.7;13.90;75963;2834.901;-1759.176;1;321;-110;-112.9;43.9;44.2;15;15.3;25.6;0.0;
28/02/2025 18:42:27;100;0;327.33;-4;-20.50;-3.93;576.2;13.90;75955;2834.903;-1759.178;1;321;-110;-112.9;43.9;44.0;15;14.9;25.6;0.0;
28/02/2025 18:42:47;100;0;325.56;-4;-20.52;-3.91;578.7;13.90;75953;2834.906;-1759.181;1;321;-110;-112.9;43.9;44.2;15;15.3;25.6;0.0;
28/02/2025 18:43:08;100;0;325.42;-4;-20.24;-3.94;581.2;13.80;75952;2834.908;-1759.183;1;321;-110;-112.9;43.9;44.2;15;15.3;25.6;0.0;
28/02/2025 18:43:28;100;0;327.00;-4;-20.14;-3.95;583.5;13.80;75944;2834.911;-1759.185;1;321;-110;-112.9;43.9;44.0;15;14.9;25.6;0.0;
28/02/2025 18:43:48;100;0;326.42;-4;-20.15;-3.96;585.7;13.80;75939;2834.913;-1759.188;1;321;-110;-112.9;43.9;44.0;15;15.3;25.6;0.0;
28/02/2025 18:44:08;100;0;326.14;-4;-20.03;-3.97;588.0;13.80;75933;2834.916;-1759.190;1;321;-110;-112.9;43.9;44.2;15;15.3;25.6;0.0;
28/02/2025 18:44:28;100;0;324.95;-4;-19.77;-3.98;590.2;13.70;75930;2834.918;-1759.192;1;321;-110;-112.9;43.9;44.2;15;15.3;25.6;0.0;
28/02/2025 18:44:48;100;0;325.30;-4;-19.77;-3.95;592.3;13.70;75938;2834.920;-1759.194;1;321;-110;-112.9;43.9;44.0;15;15.3;25.6;0.0;
28/02/2025 18:45:08;100;0;325.82;-4;-19.91;-3.97;594.4;13.70;75925;2834.922;-1759.196;1;321;-110;-112.9;43.9;44.0;15;15.3;25.6;0.0;
28/02/2025 18:45:28;100;0;326.45;-4;-20.08;-4.07;596.4;13.70;75923;2834.924;-1759.198;1;321;-110;-112.9;43.9;44.0;15;15.3;25.6;0.0;
28/02/2025 18:45:48;100;0;328.32;-4;-19.99;-4.05;598.5;13.70;75926;2834.927;-1759.200;1;321;-110;-112.9;43.9;44.2;15;15.3;25.6;0.0;
28/02/2025 18:46:08;100;0;329.47;-4;-19.84;-4.04;600.7;13.60;75908;2834.929;-1759.202;1;321;-110;-112.9;43.9;44.0;15;14.9;25.6;0.0;
28/02/2025 18:46:28;100;0;332.95;-4;-19.84;-4.03;602.8;13.60;75903;2834.932;-1759.204;1;321;-110;-112.9;43.9;44.0;15;15.3;25.6;0.0;
28/02/2025 18:46:48;100;0;334.19;-4;-19.78;-3.99;604.9;13.60;75910;2834.934;-1759.206;1;321;-110;-112.9;43.9;44.0;15;15.3;25.6;0.0;
28/02/2025 18:47:08;100;0;335.05;-4;-19.98;-4.11;607.1;13.60;75902;2834.937;-1759.207;1;321;-110;-114.5;43.9;44.2;17;17.1;25.5;0.0;
28/02/2025 18:47:28;100;0;335.83;-4;-20.21;-2.93;609.3;13.50;75893;2834.939;-1759.209;1;321;-110;-112.9;43.9;44.2;17;17.1;25.5;0.0;
28/02/2025 18:47:48;100;0;338.66;-4;-20.00;-2.92;611.6;13.50;75901;2834.942;-1759.211;1;321;-110;-112.9;43.9;44.2;21;21.2;25.6;0.0;
28/02/2025 18:48:08;100;0;338.76;-4;-20.47;-0.69;613.8;13.50;75892;2834.944;-1759.212;1;321;-110;-112.9;43.9;44.0;21;21.7;25.5;0.0;
28/02/2025 18:48:28;100;0;337.18;-4;-20.48;-0.84;616.0;13.50;75888;2834.947;-1759.214;1;321;-110;-114.5;43.9;44.0;19;19.0;25.6;0.0;
28/02/2025 18:48:48;100;0;335.54;-4;-20.42;-2.39;618.4;13.50;75888;2834.950;-1759.216;1;321;-110;-112.9;43.9;44.2;19;18.5;25.6;0.0;
28/02/2025 18:49:08;100;0;334.31;-4;-20.18;-2.46;620.7;13.50;75884;2834.952;-1759.218;1;321;-110;-111.3;43.9;44.0;17;17.1;25.6;0.0;
28/02/2025 18:49:28;100;0;333.86;-4;-20.00;-3.42;622.8;13.40;75880;2834.955;-1759.219;1;321;-110;-112.9;43.9;44.0;17;16.7;25.6;0.0;
28/02/2025 18:49:48;100;0;333.14;-4;-19.98;-3.44;625.1;13.40;75875;2834.957;-1759.221;1;321;-110;-112.9;43.9;44.2;17;16.7;25.6;0.0;
28/02/2025 18:50:08;100;0;332.70;-4;-20.35;-3.37;627.4;13.40;75868;2834.960;-1759.223;1;321;-110;-111.3;43.9;44.0;17;16.7;25.6;0.0;
28/02/2025 18:50:28;100;0;333.11;-4;-20.21;-3.29;629.6;13.40;75858;2834.963;-1759.225;1;321;-110;-112.9;43.9;44.3;17;16.7;25.6;0.0;
28/02/2025 18:50:48;100;0;333.57;-4;-19.95;-3.35;632.0;13.40;75866;2834.965;-1759.227;1;321;-110;-112.9;43.9;44.2;17;16.7;25.6;0.0;
28/02/2025 18:51:08;100;0;334.59;-4;-20.28;-3.38;634.3;13.30;75865;2834.968;-1759.229;1;321;-110;-112.9;43.9;44.2;17;16.7;25.6;0.0;
28/02/2025 18:51:28;100;0;332.67;-4;-20.38;-3.35;636.7;13.30;75854;2834.971;-1759.231;1;321;-110;-112.9;43.9;44.2;17;16.7;25.6;0.0;
28/02/2025 18:51:48;100;0;330.85;-4;-20.60;-3.38;639.0;13.30;75845;2834.973;-1759.233;1;321;-110;-112.9;43.9;44.2;15;14.9;25.6;0.0;
28/02/2025 18:52:08;100;0;330.08;-4;-20.28;-4.24;641.6;13.30;75848;2834.976;-1759.235;1;321;-110;-112.9;43.9;44.2;15;14.4;25.6;0.0;
28/02/2025 18:52:28;100;0;329.31;-4;-20.06;-4.27;643.9;13.20;75845;2834.979;-1759.237;1;321;-110;-112.9;43.9;44.0;15;14.9;25.6;0.0;
28/02/2025 18:52:48;100;0;329.87;-4;-19.92;-4.28;646.2;13.30;75838;2834.981;-1759.239;1;321;-110;-111.3;43.9;44.0;15;14.4;25.6;0.0;
28/02/2025 18:53:08;100;0;329.98;-4;-19.94;-4.30;648.7;13.20;75837;2834.984;-1759.241;1;321;-110;-112.9;43.9;44.0;15;14.4;25.6;0.0;
28/02/2025 18:53:28;100;0;328.72;-4;-19.92;-4.31;651.1;13.20;75819;2834.986;-1759.243;1;321;-110;-112.9;43.9;44.2;15;14.4;25.6;0.0;
28/02/2025 18:53:48;100;0;326.37;-4;-19.81;-4.35;653.6;13.20;75817;2834.989;-1759.246;1;321;-110;-112.9;43.9;44.0;15;14.4;25.6;0.0;
28/02/2025 18:54:08;100;0;325.24;-4;-19.70;-4.40;656.0;13.20;75810;2834.992;-1759.248;1;321;-110;-112.9;43.9;44.0;15;14.9;25.6;0.0;
28/02/2025 18:54:28;100;0;324.54;-4;-19.54;-4.43;658.3;13.10;75811;2834.994;-1759.251;1;321;-110;-112.9;43.9;44.2;15;14.9;25.6;0.0;
28/02/2025 18:54:48;100;0;324.59;-4;-19.77;-4.38;660.7;13.10;75814;2834.997;-1759.253;1;321;-110;-112.9;43.9;44.0;15;14.4;25.6;0.0;
28/02/2025 18:55:08;100;0;320.44;-4;-20.09;-4.41;663.1;13.10;75794;2834.999;-1759.256;1;321;-110;-112.9;43.9;44.2;15;14.4;25.6;0.0;
28/02/2025 18:55:28;100;0;315.61;-4;-19.61;-4.41;665.6;13.10;75794;2835.001;-1759.259;1;321;-110;-112.9;43.9;44.2;12;11.7;25.5;0.0;
28/02/2025 18:55:48;100;0;314.17;-4;-19.38;-5.80;668.0;13.10;75792;2835.003;-1759.262;1;321;-110;-112.9;43.9;44.2;10;9.9;25.6;0.0;
28/02/2025 18:56:08;100;0;314.10;-4;-19.37;-6.77;670.6;13.00;75787;2835.006;-1759.265;1;321;-110;-114.5;43.9;44.0;10;9.9;25.6;0.0;
28/02/2025 18:56:28;100;0;315.06;-4;-19.39;-6.69;673.0;13.00;75777;2835.008;-1759.268;1;321;-110;-112.9;43.9;44.0;10;9.9;25.6;0.0;
28/02/2025 18:56:48;100;0;315.26;-4;-19.34;-6.74;675.6;13.00;75768;2835.010;-1759.271;1;321;-110;-112.9;43.9;44.0;12;12.2;25.5;0.0;
28/02/2025 18:57:08;100;0;315.15;-4;-19.47;-5.41;678.1;13.00;75766;2835.013;-1759.274;1;321;-110;-112.9;43.9;44.0;12;12.6;25.6;0.0;
28/02/2025 18:57:28;100;0;312.97;-4;-19.45;-5.39;680.6;12.90;75754;2835.015;-1759.277;1;321;-110;-112.9;43.9;44.2;9;8.6;25.6;0.0;
28/02/2025 18:57:48;100;0;312.13;-4;-19.17;-7.39;683.1;12.90;75745;2835.017;-1759.280;1;321;-110;-112.9;43.9;44.0;9;8.6;25.5;0.0;
28/02/2025 18:58:08;100;0;312.82;-4;-19.14;-7.32;685.5;12.90;75740;2835.019;-1759.283;1;321;-110;-112.9;43.9;44.0;9;8.6;25.6;0.0;
28/02/2025 18:58:28;100;0;315.30;-4;-19.43;-7.29;687.9;12.90;75724;2835.022;-1759.286;1;321;-110;-112.9;43.9;44.0;11;10.8;25.6;0.0;
28/02/2025 18:58:48;100;0;317.15;-4;-19.37;-5.98;690.6;12.80;75713;2835.024;-1759.289;1;321;-110;-112.9;43.9;44.0;13;13.1;25.6;0.0;
28/02/2025 18:59:08;100;0;319.20;-4;-19.49;-5.05;693.1;12.80;75727;2835.027;-1759.292;1;321;-110;-111.3;43.9;44.2;13;13.1;25.6;0.0;
28/02/2025 18:59:28;100;0;321.30;-4;-19.52;-4.96;695.5;12.80;75714;2835.029;-1759.295;1;321;-110;-112.9;43.9;44.0;13;13.1;25.6;0.0;
28/02/2025 18:59:48;100;0;323.99;-4;-19.41;-4.97;698.1;12.80;75715;2835.032;-1759.297;1;321;-110;-112.9;43.9;44.0;15;14.9;25.6;0.0;
28/02/2025 19:00:08;100;0;327.21;-4;-19.83;-3.89;700.7;12.80;75700;2835.035;-1759.300;1;321;-110;-112.9;43.9;44.2;15;15.3;25.5;0.0;
28/02/2025 19:00:28;100;0;324.96;-4;-19.84;-3.94;703.3;12.70;75697;2835.038;-1759.302;1;321;-110;-114.5;43.9;44.0;15;15.3;25.6;0.0;
28/02/2025 19:00:48;100;0;324.45;-4;-19.82;-3.85;705.8;12.70;75688;2835.040;-1759.305;1;321;-110;-112.9;43.9;44.2;15;15.3;25.6;0.0;
28/02/2025 19:01:08;100;0;325.01;-4;-19.83;-3.82;708.4;12.70;75676;2835.043;-1759.307;1;321;-110;-112.9;43.9;44.2;15;15.3;25.5;0.0;
28/02/2025 19:01:28;100;0;327.97;-4;-19.81;-3.88;711.0;12.70;75682;2835.046;-1759.310;1;321;-110;-112.9;43.9;44.0;15;15.3;25.6;0.0;
28/02/2025 19:01:48;100;0;326.70;-4;-19.10;-4.00;713.6;12.60;75667;2835.049;-1759.312;1;321;-110;-112.9;43.9;44.0;15;15.3;25.6;0.0;
28/02/2025 19:02:08;100;0;325.56;-4;-19.04;-3.92;716.1;12.60;75658;2835.051;-1759.315;1;321;-110;-112.9;43.9;44.2;15;15.3;25.6;0.0;
28/02/2025 19:02:28;100;0;325.84;-4;-19.42;-3.93;718.6;12.60;75661;2835.054;-1759.317;1;321;-110;-111.3;43.9;44.0;15;15.3;25.5;0.0;
28/02/2025 19:02:48;100;0;326.89;-4;-19.36;-3.89;721.2;12.60;75649;2835.057;-1759.320;1;321;-110;-112.9;43.9;44.0;15;15.3;25.6;0.0;
28/02/2025 19:03:08;100;0;327.67;-4;-19.37;-3.89;723.5;12.50;75639;2835.059;-1759.322;1;321;-110;-112.9;43.9;44.2;15;15.3;25.6;0.0;
28/02/2025 19:03:28;100;0;328.90;-4;-19.18;-4.00;726.0;12.50;75632;2835.062;-1759.325;1;321;-110;-112.9;43.9;44.0;15;15.3;25.6;0.0;
28/02/2025 19:03:48;100;0;329.66;-4;-19.39;-4.00;728.3;12.50;75622;2835.065;-1759.327;1;321;-110;-112.9;43.9;44.0;15;15.3;25.6;0.0;
28/02/2025 19:04:08;100;0;329.39;-4;-19.05;-3.97;730.8;12.40;75608;2835.068;-1759.329;1;321;-110;-111.3;43.9;44.0;15;15.3;25.6;0.0;
28/02/2025 19:04:28;100;0;328.97;-4;-19.31;-3.97;733.2;12.40;75597;2835.070;-1759.331;1;321;-110;-112.9;43.9;44.0;15;15.3;25.6;0.0;
28/02/2025 19:04:48;100;0;328.37;-4;-19.48;-3.95;735.9;12.40;75593;2835.073;-1759.334;1;321;-110;-111.3;43.9;44.2;15;15.3;25.6;0.0;
28/02/2025 19:05:08;100;0;327.45;-4;-19.21;-4.00;738.4;12.40;75583;2835.076;-1759.336;1;321;-110;-112.9;43.9;44.2;15;15.3;25.6;0.0;
28/02/2025 19:05:28;100;0;327.24;-4;-19.34;-3.99;741.1;12.30;75585;2835.079;-1759.339;1;321;-110;-112.9;43.9;44.2;15;15.3;25.6;0.0;
28/02/2025 19:05:48;100;0;327.20;-4;-19.40;-3.95;743.8;12.30;75575;2835.082;-1759.341;1;321;-110;-112.9;43.9;44.0;15;15.3;25.6;0.0;
28/02/2025 19:06:08;100;0;326.97;-4;-19.62;-3.92;746.4;12.30;75573;2835.085;-1759.344;1;321;-110;-112.9;43.9;44.2;15;15.3;25.6;0.0;
28/02/2025 19:06:28;100;0;326.86;-4;-19.58;-3.82;749.2;12.30;75574;2835.088;-1759.346;1;321;-110;-112.9;43.9;44.2;15;15.3;25.6;0.0;
28/02/2025 19:06:48;100;0;326.52;-4;-19.60;-3.91;752.0;12.30;75556;2835.091;-1759.349;1;321;-110;-111.3;43.9;44.2;15;15.3;25.6;0.0;
28/02/2025 19:07:08;100;0;327.29;-4;-19.60;-4.00;754.7;12.20;75554;2835.094;-1759.352;1;321;-110;-112.9;43.9;44.0;15;15.3;25.6;0.0;
28/02/2025 19:07:28;100;0;329.59;-4;-19.42;-3.89;757.7;12.20;75551;2835.097;-1759.354;1;321;-110;-112.9;43.9;44.2;15;15.3;25.6;0.0;
28/02/2025 19:07:48;100;0;330.96;-4;-19.41;-3.85;760.3;12.20;75541;2835.100;-1759.356;1;321;-110;-112.9;43.9;44.0;15;15.3;25.6;0.0;
28/02/2025 19:08:08;100;0;329.70;-4;-19.46;-3.94;763.3;12.20;75542;2835.104;-1759.359;1;321;-110;-112.9;43.9;44.2;15;15.3;25.6;0.0;
28/02/2025 19:08:28;100;0;328.26;-4;-19.99;-3.93;766.2;12.10;75521;2835.107;-1759.362;1;321;-110;-112.9;43.9;44.2;15;15.3;25.6;0.0;
28/02/2025 19:08:48;100;0;324.90;-4;-19.61;-4.05;769.1;12.10;75520;2835.110;-1759.365;1;321;-110;-112.9;43.9;44.2;15;15.3;25.6;0.0;
28/02/2025 19:09:08;100;0;323.41;-4;-19.79;-3.92;772.0;12.10;75510;2835.113;-1759.367;1;321;-110;-112.9;43.9;44.0;15;15.3;25.6;0.0;
28/02/2025 19:09:28;100;0;319.85;-4;-19.67;-3.99;775.1;12.00;75504;2835.116;-1759.371;1;321;-110;-112.9;43.9;44.0;15;15.3;25.6;0.0;
28/02/2025 19:09:48;100;0;316.40;-4;-19.57;-3.79;778.0;12.00;75515;2835.119;-1759.374;1;321;-110;-112.9;43.9;44.0;13;12.6;25.6;0.0;
28/02/2025 19:10:08;100;0;315.97;-4;-19.64;-5.52;780.9;12.00;75497;2835.121;-1759.377;1;321;-110;-116.1;43.9;44.0;13;12.6;25.6;0.0;
28/02/2025 19:10:28;100;0;314.90;-4;-19.43;-5.46;783.8;12.00;75490;2835.124;-1759.381;1;321;-110;-112.9;43.9;44.0;13;12.6;25.6;0.0;
28/02/2025 19:10:48;100;0;314.93;-4;-19.26;-5.41;786.7;11.90;75492;2835.127;-1759.384;1;321;-110;-112.9;43.9;44.0;13;12.6;25.6;0.0;
28/02/2025 19:11:08;100;0;314.74;-4;-19.24;-5.39;789.4;11.90;75491;2835.129;-1759.388;1;321;-110;-112.9;43.9;44.0;11;10.8;25.6;0.0;
28/02/2025 19:11:28;100;0;313.71;-4;-19.17;-6.26;792.3;11.90;75484;2835.132;-1759.391;1;321;-110;-112.9;43.9;44.2;11;10.8;25.6;0.0;
28/02/2025 19:11:48;100;0;313.24;-4;-19.00;-5.97;794.9;11.90;75486;2835.134;-1759.394;1;321;-110;-112.9;43.9;44.2;11;10.8;25.6;0.0;
28/02/2025 19:12:08;100;0;313.44;-4;-19.48;-6.24;797.5;11.90;75482;2835.137;-1759.398;1;321;-110;-112.9;43.9;44.0;11;10.8;25.6;0.0;
28/02/2025 19:12:28;100;0;309.20;-4;-18.97;-6.51;800.4;11.80;75473;2835.139;-1759.401;1;321;-110;-112.9;44.2;44.0;5;5.0;25.5;0.0;
28/02/2025 19:12:48;100;0;309.28;-4;-19.07;-9.20;803.2;11.80;75465;2835.141;-1759.405;1;321;-110;-112.9;44.2;44.2;5;4.5;25.6;0.0;
28/02/2025 19:13:08;100;0;311.79;-4;-19.45;-9.35;805.9;11.80;75462;2835.144;-1759.408;1;321;-110;-112.9;44.2;44.0;8;8.1;25.6;0.0;
28/02/2025 19:13:28;100;0;313.13;-4;-19.09;-7.39;808.7;11.80;75466;2835.146;-1759.412;1;321;-110;-111.3;44.2;44.2;10;9.9;25.6;0.0;
28/02/2025 19:13:48;100;0;313.14;-4;-18.80;-6.65;811.4;11.70;75459;2835.149;-1759.415;1;321;-110;-114.5;44.6;44.6;10;10.4;25.6;0.0;
28/02/2025 19:14:08;100;0;313.07;-4;-21.99;-6.57;814.3;11.70;75449;2835.151;-1759.419;1;321;-110;-112.9;44.6;44.8;10;9.9;25.6;0.0;
28/02/2025 19:14:28;100;0;312.75;-4;-20.89;-6.53;817.4;11.70;75450;2835.154;-1759.422;1;321;-110;-112.9;44.6;44.8;10;9.9;25.6;0.0;
28/02/2025 19:14:48;100;0;309.57;-4;-21.39;-6.42;820.5;11.70;75440;2835.156;-1759.426;1;321;-110;-111.3;44.6;44.8;5;5.0;25.6;0.0;
28/02/2025 19:15:08;100;0;306.53;-4;-20.29;-9.24;823.9;11.60;75433;2835.159;-1759.430;1;321;-110;-112.9;44.6;44.8;2;1.4;25.6;0.0;
28/02/2025 19:15:28;100;0;313.34;-4;-19.51;-11.08;827.1;11.60;75429;2835.161;-1759.434;1;321;-110;-112.9;44.6;44.8;10;9.9;25.6;0.0;
28/02/2025 19:15:48;100;0;318.24;-4;-20.10;-6.93;830.0;11.60;75424;2835.164;-1759.437;1;321;-110;-114.5;44.6;44.8;13;13.1;25.6;0.0;
28/02/2025 19:16:08;100;0;316.03;-4;-21.33;-4.88;832.8;11.60;75414;2835.167;-1759.440;1;321;-110;-112.9;44.6;44.9;13;13.5;25.6;0.0;
28/02/2025 19:16:28;100;0;322.16;-4;-20.59;-5.08;835.7;11.60;75412;2835.170;-1759.443;1;321;-110;-112.9;44.6;44.9;13;13.5;25.6;0.0;
28/02/2025 19:16:48;100;0;321.39;-4;-19.55;-4.52;838.7;11.50;75408;2835.173;-1759.446;1;321;-110;-112.9;44.6;44.8;13;13.5;25.6;0.0;
28/02/2025 19:17:08;100;0;324.84;-4;-21.14;-4.79;841.5;11.50;75402;2835.175;-1759.449;1;321;-110;-112.9;44.6;44.8;13;13.5;25.6;0.0;
28/02/2025 19:17:29;100;0;329.88;-4;-19.85;-4.74;844.3;11.50;75411;2835.178;-1759.451;1;321;-110;-112.9;44.6;44.8;15;14.9;25.5;0.0;
28/02/2025 19:17:49;100;0;328.01;-4;-21.06;-3.91;847.3;11.50;75402;2835.182;-1759.454;1;321;-110;-111.3;44.6;44.8;15;15.3;25.6;0.0;
28/02/2025 19:18:09;100;0;327.05;-4;-20.98;-3.92;850.1;11.40;75398;2835.184;-1759.456;1;321;-110;-112.9;44.6;44.9;15;15.3;25.6;0.0;
28/02/2025 19:18:29;100;0;329.77;-4;-20.35;-3.98;853.0;11.40;75393;2835.188;-1759.459;1;321;-110;-112.9;44.6;44.8;15;15.3;25.6;0.0;
28/02/2025 19:18:49;100;0;331.40;-4;-20.07;-3.90;856.0;11.40;75391;2835.191;-1759.461;1;321;-110;-112.9;44.6;44.9;15;15.3;25.5;0.0;
28/02/2025 19:19:09;100;0;326.52;-4;-21.53;-3.76;858.7;11.40;75390;2835.194;-1759.464;1;321;-110;-112.9;44.6;44.9;15;15.3;25.6;0.0;
28/02/2025 19:19:29;100;0;330.37;-4;-20.63;-4.21;861.6;11.30;75382;2835.197;-1759.466;1;321;-110;-112.9;44.6;44.9;15;15.3;25.5;0.0;
28/02/2025 19:19:49;100;0;331.82;-4;-20.45;-4.05;864.5;11.30;75378;2835.200;-1759.469;1;321;-110;-112.9;44.6;44.9;15;15.3;25.6;0.0;
28/02/2025 19:20:09;100;0;331.23;-4;-20.68;-4.01;867.4;11.30;75376;2835.203;-1759.471;1;321;-110;-112.9;44.6;44.8;15;15.3;25.5;0.0;
28/02/2025 19:20:29;100;0;331.12;-4;-20.67;-3.92;870.4;11.30;75372;2835.206;-1759.473;1;321;-110;-111.3;44.6;44.8;15;15.3;25.6;0.0;
28/02/2025 19:20:49;100;0;330.76;-4;-20.51;-3.97;873.2;11.30;75367;2835.209;-1759.476;1;321;-110;-112.9;44.6;44.8;15;15.3;25.6;0.0;
28/02/2025 19:21:09;100;0;329.24;-4;-20.55;-4.06;876.2;11.20;75355;2835.213;-1759.478;1;321;-110;-112.9;44.6;44.8;15;15.3;25.6;0.0;
28/02/2025 19:21:29;100;0;328.51;-4;-20.61;-4.09;879.1;11.20;75361;2835.216;-1759.481;1;321;-110;-112.9;44.6;44.8;15;15.3;25.6;0.0;
28/02/2025 19:21:49;100;0;327.70;-4;-20.45;-4.03;881.9;11.20;75365;2835.219;-1759.483;1;321;-110;-111.3;44.6;44.9;15;15.3;25.6;0.0;
28/02/2025 19:22:09;100;0;328.06;-4;-20.53;-4.03;884.7;11.20;75360;2835.222;-1759.486;1;321;-110;-112.9;44.6;44.9;15;15.3;25.6;0.0;
28/02/2025 19:22:29;100;0;328.89;-4;-19.84;-3.85;887.6;11.20;75350;2835.225;-1759.488;1;321;-110;-112.9;44.6;44.9;15;15.3;25.6;0.0;
28/02/2025 19:22:49;100;0;328.37;-4;-20.75;-4.19;890.0;11.10;75352;2835.227;-1759.490;1;321;-110;-112.9;44.6;44.9;15;15.3;25.6;0.0;
28/02/2025 19:23:09;100;0;327.10;-4;-20.76;-4.09;892.8;11.10;75339;2835.230;-1759.493;1;321;-110;-112.9;44.6;44.9;15;15.3;25.6;0.0;
28/02/2025 19:23:29;100;0;325.78;-4;-20.60;-4.04;895.4;11.10;75345;2835.233;-1759.495;1;321;-110;-112.9;44.6;44.8;15;15.3;25.5;0.0;
28/02/2025 19:23:49;100;0;325.16;-4;-20.56;-4.00;898.1;11.10;75343;2835.235;-1759.498;1;321;-110;-116.1;44.6;44.9;15;15.3;25.5;0.0;
28/02/2025 19:24:09;100;0;324.50;-4;-20.42;-4.01;900.7;11.00;75337;2835.238;-1759.501;1;321;-110;-111.3;44.6;44.9;15;15.3;25.6;0.0;
28/02/2025 19:24:29;100;0;323.84;-4;-20.64;-4.05;903.5;11.00;75337;2835.241;-1759.503;1;321;-110;-112.9;44.6;44.9;15;15.3;25.5;0.0;
28/02/2025 19:24:49;100;0;323.47;-4;-20.41;-3.99;906.0;11.00;75333;2835.244;-1759.506;1;321;-110;-112.9;44.6;44.9;15;15.3;25.6;0.0;
28/02/2025 19:25:09;100;0;324.83;-4;-20.42;-3.96;908.8;11.00;75334;2835.246;-1759.509;1;321;-110;-112.9;44.6;44.9;15;15.3;25.5;0.0;
28/02/2025 19:25:29;100;0;326.85;-4;-20.56;-3.96;911.3;11.00;75324;2835.249;-1759.511;1;321;-110;-112.9;44.6;44.9;15;15.3;25.5;0.0;
28/02/2025 19:25:49;100;0;327.35;-4;-20.52;-3.99;913.9;10.90;75317;2835.252;-1759.513;1;321;-110;-112.9;44.6;44.8;15;15.3;25.6;0.0;
28/02/2025 19:26:09;100;0;330.87;-4;-20.68;-3.96;916.5;10.90;75317;2835.255;-1759.515;1;321;-110;-112.9;44.6;44.9;15;15.3;25.5;0.0;
28/02/2025 19:26:29;100;0;331.48;-4;-20.38;-4.02;919.2;10.90;75320;2835.258;-1759.518;1;321;-110;-112.9;44.6;44.8;15;15.3;25.6;0.0;
28/02/2025 19:26:49;100;0;330.83;-4;-20.49;-3.98;921.8;10.90;75311;2835.260;-1759.520;1;321;-110;-112.9;44.6;44.9;15;15.3;25.6;0.0;
28/02/2025 19:27:09;100;0;331.31;-4;-20.35;-4.01;924.3;10.90;75297;2835.263;-1759.522;1;321;-110;-112.9;44.6;44.8;15;15.3;25.6;0.0;
28/02/2025 19:27:29;100;0;328.85;-4;-20.33;-3.99;926.9;10.90;75285;2835.266;-1759.524;1;321;-110;-112.9;44.6;44.9;15;15.3;25.6;0.0;
28/02/2025 19:27:49;100;0;328.28;-4;-20.42;-4.03;929.5;10.80;75283;2835.269;-1759.527;1;321;-110;-111.3;44.6;44.9;15;15.3;25.6;0.0;
28/02/2025 19:28:09;100;0;327.87;-4;-20.42;-4.03;932.2;10.80;75284;2835.272;-1759.529;1;321;-110;-116.1;44.6;44.8;15;15.3;25.6;0.0;
28/02/2025 19:28:29;100;0;327.80;-4;-20.44;-4.03;934.7;10.80;75282;2835.275;-1759.532;1;321;-110;-112.9;44.6;44.9;15;15.3;25.5;0.0;
28/02/2025 19:28:49;100;0;327.87;-4;-20.40;-4.03;937.3;10.80;75280;2835.277;-1759.534;1;321;-110;-112.9;44.6;44.8;15;15.3;25.6;0.0;
28/02/2025 19:29:09;100;0;329.08;-4;-20.68;-4.01;940.1;10.80;75278;2835.280;-1759.536;1;321;-110;-112.9;44.6;44.9;15;15.3;25.5;0.0;
28/02/2025 19:29:29;100;0;322.12;-4;-21.18;-4.14;943.1;10.80;75280;2835.283;-1759.539;1;321;-110;-111.3;44.6;44.9;15;15.3;25.6;0.0;
28/02/2025 19:29:49;100;0;321.78;-4;-20.50;-3.97;945.9;10.70;75269;2835.286;-1759.542;1;321;-110;-114.5;44.6;44.8;15;15.3;25.6;0.0;
28/02/2025 19:30:09;100;0;319.12;-4;-20.65;-3.97;948.9;10.70;75267;2835.289;-1759.545;1;321;-110;-112.9;44.6;44.9;15;15.3;25.6;0.0;
28/02/2025 19:30:29;100;0;318.38;-4;-20.26;-4.00;951.9;10.70;75260;2835.292;-1759.549;1;321;-110;-112.9;44.6;44.9;15;15.3;25.6;0.0;
28/02/2025 19:30:49;100;0;316.87;-4;-20.32;-4.05;954.8;10.70;75248;2835.294;-1759.552;1;321;-110;-112.9;44.6;44.9;13;13.1;25.6;0.0;
28/02/2025 19:31:09;100;0;314.82;-4;-20.09;-5.13;957.7;10.70;75244;2835.297;-1759.555;1;321;-110;-111.3;44.6;44.9;11;10.8;25.6;0.0;
28/02/2025 19:31:29;100;0;315.17;-4;-20.12;-6.28;960.7;10.60;75258;2835.300;-1759.559;1;321;-110;-112.9;44.6;44.8;11;10.8;25.6;0.0;
28/02/2025 19:31:49;100;0;319.11;-4;-20.12;-6.15;963.6;10.60;75245;2835.303;-1759.562;1;321;-110;-111.3;44.6;44.8;14;14.0;25.5;0.0;
28/02/2025 19:32:09;100;0;321.78;-4;-20.40;-4.26;966.6;10.60;75247;2835.306;-1759.565;1;321;-110;-112.9;44.6;44.8;14;14.4;25.6;0.0;
28/02/2025 19:32:29;100;0;323.04;-4;-20.03;-4.33;969.7;10.60;75228;2835.309;-1759.568;1;321;-110;-112.9;44.6;44.8;14;14.4;25.6;0.0;
28/02/2025 19:32:49;100;0;322.97;-4;-20.20;-4.35;972.5;10.60;75235;2835.312;-1759.571;1;321;-110;-112.9;44.6;44.9;14;14.4;25.6;0.0;
28/02/2025 19:33:09;100;0;322.03;-4;-20.12;-4.33;975.4;10.50;75227;2835.314;-1759.574;1;321;-110;-112.9;44.6;44.9;14;14.9;25.6;0.0;
28/02/2025 19:33:29;100;0;321.34;-4;-20.29;-4.38;978.2;10.50;75226;2835.317;-1759.577;1;321;-110;-112.9;44.6;44.9;14;14.4;25.5;0.0;
28/02/2025 19:33:49;100;0;321.35;-4;-20.17;-4.35;981.2;10.50;75229;2835.320;-1759.580;1;321;-110;-112.9;44.6;44.8;14;14.4;25.6;0.0;
28/02/2025 19:34:09;100;0;321.44;-4;-20.56;-4.42;984.1;10.50;75218;2835.323;-1759.583;1;321;-110;-112.9;44.6;44.9;14;14.4;25.5;0.0;
28/02/2025 19:34:29;100;0;321.61;-4;-20.33;-4.40;987.0;10.50;75218;2835.326;-1759.586;1;321;-110;-112.9;44.6;44.9;14;14.4;25.6;0.0;
28/02/2025 19:34:49;100;0;320.98;-4;-19.94;-4.42;989.8;10.40;75209;2835.329;-1759.589;1;321;-110;-112.9;44.6;44.9;14;14.4;25.6;0.0;
28/02/2025 19:35:09;100;0;320.66;-4;-19.77;-4.35;992.6;10.40;75211;2835.331;-1759.592;1;321;-110;-112.9;44.6;44.9;14;14.4;25.6;0.0;
28/02/2025 19:35:29;100;0;321.34;-4;-19.71;-4.34;995.4;10.40;75225;2835.334;-1759.595;1;321;-110;-114.5;44.6;44.9;14;14.4;25.6;0.0;
28/02/2025 19:35:49;100;0;321.91;-4;-20.32;-4.41;998.0;10.40;75203;2835.337;-1759.597;1;321;-110;-112.9;44.6;44.8;14;14.4;25.5;0.0;
28/02/2025 19:35:55;118;0;322.35;-4;-20.20;-4.38;998.8;10.40;75203;2835.338;-1759.598;1;321;450;-108.1;21.9;21.9;7;6.8;25.5;0.0;
28/02/2025 19:36:05;118;0;47.71;-4;-4.95;-9.19;999.9;10.40;75176;2835.339;-1759.597;1;321;450;19.4;21.9;21.6;7;6.8;24.1;-1.0;
28/02/2025 19:36:15;118;0;37.71;-4;23.37;-9.25;1000.1;10.40;74918;2835.339;-1759.597;1;321;450;143.5;21.9;21.9;7;6.8;24.2;-1.0;
28/02/2025 19:36:25;118;0;35.84;-4;29.82;-9.14;999.5;10.40;74665;2835.339;-1759.597;1;321;450;267.7;21.9;22.1;7;6.8;24.0;-1.0;
28/02/2025 19:36:35;118;0;35.60;-4;28.36;-8.84;998.5;10.40;74423;2835.340;-1759.597;1;321;450;387.1;21.9;22.1;7;6.8;24.1;-1.0;
28/02/2025 19:36:45;118;0;36.18;-4;26.08;-8.41;997.1;10.40;74176;2835.341;-1759.596;1;321;450;451.6;21.9;22.1;7;6.8;24.2;-1.0;
28/02/2025 19:36:55;118;0;318.25;-4;22.99;-7.86;995.3;10.40;74039;2835.343;-1759.598;1;321;450;451.6;21.9;21.9;7;6.8;25.5;-1.0;
28/02/2025 19:37:15;117;0;310.57;-4;19.86;-7.84;992.2;10.40;74049;2835.345;-1759.601;1;321;450;451.6;21.9;22.1;7;6.8;25.5;-1.0;
28/02/2025 19:37:35;117;0;302.56;-4;18.79;-7.82;989.3;10.50;74046;2835.347;-1759.605;1;321;450;453.2;21.6;21.6;49;49.2;25.5;-1.0;
28/02/2025 19:37:55;117;0;309.10;-4;21.41;14.50;986.7;10.50;74047;2835.349;-1759.609;1;321;450;453.2;21.6;21.6;40;40.2;25.5;-1.0;
28/02/2025 19:38:15;117;0;313.46;-4;22.59;9.39;983.5;10.50;74042;2835.352;-1759.612;1;321;450;451.6;22.3;22.5;33;32.9;25.6;-1.0;
28/02/2025 19:38:35;117;0;315.94;-4;21.55;5.61;980.7;10.50;74041;2835.354;-1759.615;1;321;450;451.6;22.3;22.4;31;31.1;25.5;-1.0;
28/02/2025 19:38:55;117;0;317.99;-4;21.10;4.56;977.8;10.50;74036;2835.357;-1759.618;1;321;450;451.6;22.3;22.4;31;31.1;25.5;-1.0;
28/02/2025 19:39:15;117;0;318.92;-4;20.98;4.61;975.1;10.50;74029;2835.359;-1759.621;1;321;450;453.2;22.3;22.4;31;31.1;25.6;-1.0;
28/02/2025 19:39:35;117;0;320.14;-4;21.13;4.63;972.4;10.50;74027;2835.362;-1759.624;1;321;450;451.6;22.3;22.5;29;28.9;25.6;-1.0;
28/02/2025 19:39:55;117;0;320.23;-4;21.05;3.43;969.8;10.50;74032;2835.364;-1759.627;1;321;450;451.6;22.3;22.4;29;28.9;25.5;-1.0;
28/02/2025 19:40:15;117;0;321.51;-4;21.09;3.38;967.1;10.50;74028;2835.367;-1759.629;1;321;450;451.6;22.3;22.4;29;28.9;25.6;-1.0;
28/02/2025 19:40:35;117;0;322.40;-4;20.91;3.40;964.4;10.40;74021;2835.370;-1759.632;1;321;450;451.6;22.3;22.4;29;28.9;25.6;-1.0;
28/02/2025 19:40:55;117;0;324.11;-4;20.99;3.41;961.6;10.40;74032;2835.372;-1759.635;1;321;450;450.0;22.3;22.4;29;28.9;25.6;-1.0;
28/02/2025 19:41:15;117;0;325.75;-4;21.02;3.31;958.8;10.40;74033;2835.375;-1759.637;1;321;450;453.2;22.3;22.5;29;28.4;25.5;-1.0;
28/02/2025 19:41:35;117;0;326.90;-4;21.01;3.38;956.0;10.40;74032;2835.378;-1759.640;1;321;450;450.0;22.3;22.4;29;28.9;25.6;-1.0;
28/02/2025 19:41:55;117;0;327.15;-4;20.72;3.37;953.2;10.40;74022;2835.381;-1759.642;1;321;450;453.2;22.3;22.4;29;28.9;25.6;-1.0;
28/02/2025 19:42:15;117;0;327.65;-4;20.58;3.39;950.6;10.40;74023;2835.384;-1759.645;1;321;450;453.2;22.3;22.4;29;28.4;25.6;-1.0;
