Timestamp;NavState;SecurityLevel;Heading;Declination;Pitch;Roll;Depth;Temperature;Pa;Lat;Lon;DeadReckoning;DesiredH;BallastCmd;BallastPos;LinCmd;LinPos;AngCmd;AngPos;Voltage;Altitude;
17/02/2025 11:54:58;119;0;185.79;-4;-52.19;-17.54;0.2;18.00;76017;2837.667;-1801.339;0;180;500;504.8;100.0;100.6;0;-0.5;28.2;-1.0;
17/02/2025 11:55:08;116;0;186.78;-4;-52.59;-9.85;0.1;18.00;76021;2837.675;-1801.339;0;180;500;504.8;100.0;100.6;0;-0.5;28.2;-1.0;
17/02/2025 11:55:33;116;0;169.18;-4;-55.56;-4.61;0.0;18.10;76034;2837.679;-1801.339;0;179;500;504.8;100.0;100.6;0;-0.5;28.2;-1.0;
17/02/2025 11:55:56;116;0;185.80;-4;-50.58;-14.56;0.1;18.10;76043;2837.679;-1801.339;0;-9999;500;504.8;100.0;100.6;0;-0.5;28.2;-1.0;
17/02/2025 11:56:19;116;0;181.43;-4;-53.40;-13.92;0.0;18.20;76060;2837.685;-1801.339;0;180;500;504.8;100.0;100.7;0;-0.5;28.2;-1.0;
17/02/2025 11:56:39;116;0;184.06;-4;-52.29;-11.30;0.0;18.20;76058;2837.689;-1801.340;0;180;500;503.2;100.0;100.6;0;-0.5;28.2;-1.0;
17/02/2025 11:56:59;116;0;193.33;-4;-53.04;-11.03;0.1;18.30;76066;2837.693;-1801.340;0;179;500;504.8;100.0;100.6;0;-0.5;28.2;-1.0;
17/02/2025 11:57:10;116;0;186.67;-4;-56.16;-13.38;-0.0;18.30;76066;2837.696;-1801.340;0;-9999;500;504.8;100.0;100.6;0;-0.5;28.2;-1.0;
17/02/2025 11:57:22;116;0;185.77;-4;-51.58;-4.90;0.1;18.40;76082;2837.698;-1801.340;0;179;500;504.8;100.0;100.6;0;-0.5;28.2;-1.0;
17/02/2025 11:58:25;116;0;170.63;-4;-52.92;-19.32;0.0;18.50;76094;2837.712;-1801.340;0;179;500;506.5;100.0;100.6;0;-0.5;28.2;-1.0;
17/02/2025 11:59:24;116;0;177.68;-4;-50.53;-10.15;0.0;18.80;76103;2837.726;-1801.341;0;179;500;506.5;100.0;100.6;0;-0.5;28.2;-1.0;
17/02/2025 11:59:44;116;0;182.59;-4;-52.90;-17.87;0.1;18.80;76113;2837.735;-1801.341;0;179;500;506.5;100.0;100.7;0;-0.5;28.2;-1.0;
17/02/2025 12:00:04;116;0;195.48;-4;-58.63;-11.78;0.0;18.90;76111;2837.735;-1801.341;0;179;500;504.8;100.0;100.6;0;-0.5;28.2;-1.0;
17/02/2025 12:00:24;116;0;195.59;-4;-49.60;-5.90;0.0;19.00;76133;2837.740;-1801.340;0;179;500;504.8;100.0;100.7;0;-0.5;28.2;-1.0;
17/02/2025 12:00:49;116;0;203.38;-4;-54.24;-16.88;0.0;19.00;76132;2837.745;-1801.341;0;179;500;503.2;100.0;100.6;0;-0.5;28.2;-1.0;
17/02/2025 12:01:09;116;0;183.74;-4;-46.49;-5.46;0.1;19.10;76131;2837.752;-1801.342;0;179;500;504.8;100.0;100.7;0;-0.5;28.2;-1.0;
17/02/2025 12:01:29;116;0;191.29;-4;-53.11;-8.72;0.0;19.20;76139;2837.756;-1801.341;0;179;500;504.8;100.0;100.6;0;-0.5;28.2;-1.0;
17/02/2025 12:01:49;116;0;192.03;-4;-57.67;-5.29;0.0;19.20;76141;2837.761;-1801.341;0;179;500;504.8;100.0;100.6;0;-0.5;28.2;-1.0;
17/02/2025 12:02:09;116;0;184.40;-4;-59.31;-10.95;-0.1;19.30;76142;2837.768;-1801.342;0;179;500;504.8;100.0;100.7;0;-0.5;28.2;-1.0;
17/02/2025 12:02:26;116;0;173.27;-4;-49.69;-9.69;0.0;19.30;76158;2837.769;-1801.342;0;179;500;504.8;100.0;100.6;0;-0.5;28.2;-1.0;
17/02/2025 12:02:52;116;0;186.75;-4;-51.87;-10.85;-0.1;19.40;76163;2837.775;-1801.343;0;-9999;500;504.8;100.0;100.6;0;-0.5;28.2;-1.0;
17/02/2025 12:03:03;116;0;191.00;-4;-54.89;-10.81;-0.1;19.40;76160;2837.777;-1801.343;0;105;500;504.8;100.0;100.6;0;-0.5;28.2;-1.0;
17/02/2025 12:04:06;116;0;181.32;-4;-53.63;-13.79;0.0;19.60;76175;2837.791;-1801.343;0;105;500;504.8;100.0;100.6;0;-0.5;28.2;-1.0;
17/02/2025 12:05:28;116;0;191.45;-4;-55.03;-9.12;0.0;19.80;76200;2837.807;-1801.342;0;105;500;506.5;100.0;100.6;0;-0.5;28.2;-1.0;
17/02/2025 12:05:42;116;0;188.32;-4;-51.85;-15.55;0.0;19.90;76201;2837.810;-1801.342;0;106;500;504.8;100.0;100.6;0;-0.5;28.2;-1.0;
17/02/2025 12:06:02;110;0;183.74;-4;-47.25;-14.27;0.1;19.90;76202;2837.810;-1801.342;0;106;-50;396.8;100.0;99.9;-8;-8.1;28.2;-1.0;
17/02/2025 12:06:12;110;0;177.19;-4;-50.89;-17.93;0.3;20.00;76541;2837.810;-1801.342;1;106;-50;243.5;100.0;99.9;-8;-8.6;28.2;-1.0;
17/02/2025 12:06:22;110;0;179.42;-4;-65.33;-19.28;0.7;20.00;76797;2837.810;-1801.342;1;106;-50;87.1;100.0;99.9;-8;-8.6;28.2;-1.0;
17/02/2025 12:06:32;110;0;194.03;-4;-63.07;-20.82;0.9;20.00;77122;2837.810;-1801.342;1;106;-50;-48.4;100.0;99.9;-8;-8.6;28.2;-1.0;
17/02/2025 12:06:42;110;0;212.13;-4;-67.46;-39.16;1.2;20.00;77397;2837.810;-1801.342;1;106;-50;-48.4;43.4;43.4;-8;-8.6;28.2;-1.0;
17/02/2025 12:07:02;100;0;214.37;-4;-30.15;-16.41;4.4;20.10;77370;2837.808;-1801.344;1;106;-50;-46.8;43.4;43.2;-8;-8.6;28.2;-1.0;
17/02/2025 12:07:22;100;0;225.94;-4;-20.42;-16.34;7.3;20.10;77368;2837.806;-1801.348;1;106;-50;-43.5;43.4;43.0;70;69.9;28.2;-1.0;
17/02/2025 12:07:42;100;0;223.47;-4;-24.30;23.18;10.0;20.20;77376;2837.804;-1801.350;1;106;-50;-43.5;42.1;42.1;70;70.4;28.2;-1.0;
17/02/2025 12:08:02;100;0;208.66;-4;-20.93;23.67;12.7;20.20;77371;2837.801;-1801.352;1;105;-50;-43.5;42.1;42.0;70;70.4;28.2;0.0;
17/02/2025 12:08:22;100;0;194.84;-4;-20.90;23.81;15.2;20.10;77383;2837.798;-1801.353;1;105;-50;-43.5;42.1;42.0;70;70.4;28.2;0.0;
17/02/2025 12:08:42;100;0;182.56;-4;-21.01;23.47;17.8;20.10;77378;2837.795;-1801.353;1;105;-50;-43.5;42.1;42.1;70;70.4;28.2;0.0;
17/02/2025 12:09:02;100;0;170.22;-4;-20.86;23.83;20.2;20.10;77370;2837.793;-1801.353;1;105;-50;-43.5;42.1;42.0;70;70.4;28.2;0.0;
17/02/2025 12:09:22;100;0;158.17;-4;-21.20;23.60;22.7;20.10;77382;2837.790;-1801.352;1;105;-50;-45.2;42.1;42.0;70;70.4;28.2;0.0;
17/02/2025 12:09:42;100;0;145.68;-4;-20.75;23.59;25.1;20.10;77382;2837.788;-1801.350;1;105;-50;-43.5;42.1;42.0;57;56.9;28.2;0.0;
17/02/2025 12:10:02;100;0;135.49;-4;-19.82;16.19;27.4;20.10;77385;2837.786;-1801.348;1;105;-50;-45.2;42.1;42.0;41;41.1;28.2;0.0;
17/02/2025 12:10:22;100;0;127.49;-4;-19.24;8.33;29.6;20.10;77388;2837.784;-1801.345;1;105;-50;-43.5;42.1;42.0;28;28.0;28.2;0.0;
17/02/2025 12:10:42;100;0;122.94;-4;-19.24;1.81;31.8;20.10;77401;2837.783;-1801.342;1;105;-50;-43.5;42.1;41.8;21;21.2;28.2;0.0;
17/02/2025 12:11:02;100;0;121.36;-4;-18.72;-1.34;34.0;20.10;77399;2837.782;-1801.340;1;105;-50;-43.5;42.5;42.6;19;19.0;28.2;0.0;
17/02/2025 12:11:22;100;0;121.54;-4;-19.18;-2.49;36.3;20.10;77400;2837.780;-1801.337;1;105;-50;-43.5;42.5;42.9;19;19.0;28.2;0.0;
17/02/2025 12:11:42;100;0;120.77;-4;-19.79;-2.44;38.6;20.10;77403;2837.779;-1801.334;1;105;-50;-43.5;42.5;42.9;19;19.0;28.2;0.0;
17/02/2025 12:12:02;100;0;120.39;-4;-19.12;-2.58;41.0;20.10;77388;2837.778;-1801.331;1;105;-50;-43.5;42.5;42.9;19;19.0;28.2;0.0;
17/02/2025 12:12:22;100;0;118.84;-4;-19.99;-2.54;43.2;20.10;77403;2837.777;-1801.328;1;105;-50;-45.2;42.5;42.9;17;16.7;28.2;0.0;
17/02/2025 12:12:42;100;0;119.48;-4;-19.58;-3.75;45.7;20.10;77406;2837.775;-1801.325;1;105;-50;-43.5;42.5;42.9;17;16.2;28.2;0.0;
17/02/2025 12:13:02;100;0;120.89;-4;-19.68;-3.74;48.1;20.10;77406;2837.774;-1801.323;1;105;-50;-43.5;42.5;42.9;19;19.0;28.2;0.0;
17/02/2025 12:13:22;100;0;119.95;-4;-19.83;-2.11;50.6;20.10;77399;2837.773;-1801.320;1;105;-50;-41.9;42.5;42.9;19;19.0;28.2;0.0;
17/02/2025 12:13:42;100;0;119.43;-4;-19.72;-2.08;53.0;20.10;77399;2837.771;-1801.317;1;105;-50;-43.5;42.5;42.9;19;19.4;28.2;0.0;
17/02/2025 12:14:02;100;0;118.03;-4;-19.74;-2.11;55.5;20.10;77403;2837.770;-1801.313;1;105;-50;-43.5;42.5;42.9;17;17.1;28.2;0.0;
17/02/2025 12:14:22;100;0;117.42;-4;-19.64;-3.48;57.9;20.10;77402;2837.769;-1801.311;1;105;-50;-45.2;42.5;42.9;17;16.7;28.2;0.0;
17/02/2025 12:14:42;100;0;116.78;-4;-19.69;-3.52;60.3;20.10;77408;2837.768;-1801.308;1;105;-50;-45.2;42.5;42.9;17;16.7;28.2;0.0;
17/02/2025 12:15:02;100;0;115.13;-4;-19.63;-3.48;62.8;20.10;77405;2837.767;-1801.304;1;105;-50;-43.5;42.5;42.9;15;14.9;28.2;0.0;
17/02/2025 12:15:22;100;0;114.60;-4;-19.54;-4.70;65.3;20.10;77412;2837.765;-1801.301;1;105;-50;-43.5;42.5;42.9;15;14.4;28.2;0.0;
17/02/2025 12:15:42;100;0;113.86;-4;-19.36;-4.64;67.7;20.10;77408;2837.764;-1801.298;1;105;-50;-43.5;42.5;42.9;15;14.4;28.2;0.0;
17/02/2025 12:16:02;100;0;113.98;-4;-19.67;-4.63;70.2;20.10;77409;2837.763;-1801.295;1;105;-50;-45.2;42.5;42.9;15;14.4;28.2;0.0;
17/02/2025 12:16:22;100;0;114.96;-4;-19.47;-4.61;72.5;20.10;77409;2837.762;-1801.292;1;105;-50;-43.5;42.5;42.9;15;14.4;28.2;0.0;
17/02/2025 12:16:42;100;0;115.07;-4;-19.33;-4.67;75.0;20.10;77417;2837.761;-1801.288;1;105;-50;-43.5;42.5;42.9;15;14.4;28.2;0.0;
17/02/2025 12:17:02;100;0;115.74;-4;-19.37;-4.66;77.4;20.10;77412;2837.760;-1801.285;1;105;-50;-45.2;42.5;42.9;15;14.4;28.2;0.0;
17/02/2025 12:17:22;100;0;114.26;-4;-19.36;-4.69;79.7;20.10;77416;2837.759;-1801.282;1;105;-50;-43.5;42.5;42.9;15;14.4;28.2;0.0;
17/02/2025 12:17:42;100;0;111.81;-4;-19.42;-4.72;82.1;20.10;77424;2837.758;-1801.279;1;105;-50;-45.2;42.5;42.9;15;14.4;28.2;0.0;
17/02/2025 12:18:02;100;0;109.53;-4;-19.82;-4.62;84.5;20.10;77419;2837.757;-1801.276;1;105;-50;-43.5;42.5;42.9;15;14.4;28.2;0.0;
17/02/2025 12:18:22;100;0;105.46;-4;-19.75;-4.66;86.9;20.00;77409;2837.757;-1801.272;1;105;-50;-43.5;42.5;42.9;15;14.4;28.2;0.0;
17/02/2025 12:18:42;100;0;106.82;-4;-19.17;-4.69;89.4;20.00;77417;2837.756;-1801.269;1;105;-50;-41.9;42.5;42.9;15;14.4;28.2;0.0;
17/02/2025 12:19:02;100;0;108.81;-4;-19.25;-4.72;91.8;20.00;77409;2837.755;-1801.266;1;105;-50;-41.9;42.5;42.9;15;14.4;28.2;0.0;
17/02/2025 12:19:22;100;0;104.74;-4;-19.20;-4.72;94.2;20.00;77415;2837.754;-1801.262;1;105;-50;-45.2;42.5;42.9;15;14.4;28.2;0.0;
17/02/2025 12:19:42;100;0;104.21;-4;-19.21;-4.67;96.7;20.00;77413;2837.754;-1801.259;1;105;-50;-43.5;42.5;42.9;15;14.4;28.2;0.0;
17/02/2025 12:20:02;100;0;104.92;-4;-19.11;-4.64;99.1;20.00;77413;2837.753;-1801.255;1;105;-50;-45.2;42.5;42.9;15;14.4;28.2;0.0;
17/02/2025 12:20:22;100;0;103.40;-4;-19.16;-4.68;101.5;20.00;77417;2837.753;-1801.252;1;105;-50;-41.9;42.5;42.9;15;14.4;28.2;0.0;
17/02/2025 12:20:42;100;0;101.48;-4;-19.30;-4.68;104.0;20.00;77420;2837.752;-1801.248;1;105;-50;-43.5;42.5;42.9;13;13.1;28.2;0.0;
17/02/2025 12:21:02;100;0;105.53;-4;-18.84;-5.50;106.4;20.00;77405;2837.752;-1801.245;1;105;-50;-43.5;42.9;42.9;13;12.6;28.2;0.0;
17/02/2025 12:21:22;100;0;104.45;-4;-18.95;-5.51;108.7;20.00;77401;2837.751;-1801.242;1;105;-50;-43.5;43.2;43.3;13;12.6;28.2;0.0;
17/02/2025 12:21:42;100;0;102.79;-4;-19.74;-5.52;111.0;19.90;77390;2837.751;-1801.239;1;105;-50;-43.5;43.2;43.4;13;12.6;28.2;0.0;
17/02/2025 12:22:02;100;0;102.19;-4;-19.86;-5.50;113.3;19.90;77379;2837.750;-1801.236;1;105;-50;-43.5;43.2;43.4;13;12.6;28.2;0.0;
17/02/2025 12:22:22;100;0;98.65;-4;-20.44;-5.36;115.6;19.90;77364;2837.750;-1801.232;1;105;-50;-46.8;43.2;43.4;11;10.8;28.2;0.0;
17/02/2025 12:22:42;100;0;99.26;-4;-20.67;-6.66;118.0;19.90;77342;2837.750;-1801.229;1;105;-50;-43.5;43.2;43.4;11;10.4;28.2;0.0;
17/02/2025 12:23:02;100;0;100.30;-4;-20.00;-6.61;120.3;19.90;77324;2837.750;-1801.226;1;105;-50;-43.5;43.2;43.4;11;10.4;28.2;0.0;
17/02/2025 12:23:22;100;0;101.21;-4;-20.00;-6.61;122.6;19.80;77318;2837.749;-1801.223;1;105;-50;-43.5;43.2;43.4;11;10.4;28.2;0.0;
17/02/2025 12:23:42;100;0;104.45;-4;-19.55;-6.61;124.7;19.80;77309;2837.749;-1801.220;1;105;-50;-43.5;43.2;43.4;13;13.1;28.2;0.0;
17/02/2025 12:24:02;100;0;106.41;-4;-20.02;-4.88;126.8;19.80;77301;2837.748;-1801.217;1;105;-50;-45.2;43.2;43.4;13;14.0;28.2;0.0;
17/02/2025 12:24:22;100;0;107.52;-4;-20.05;-4.89;128.9;19.80;77291;2837.748;-1801.214;1;105;-50;-43.5;43.2;43.6;13;14.0;28.2;0.0;
17/02/2025 12:24:43;100;0;109.61;-4;-20.00;-4.82;131.0;19.70;77292;2837.747;-1801.211;1;105;-50;-43.5;43.2;43.4;13;13.5;28.2;0.0;
17/02/2025 12:25:03;100;0;112.73;-4;-19.91;-4.86;133.1;19.70;77287;2837.746;-1801.209;1;105;-50;-45.2;43.2;43.6;13;14.0;28.2;0.0;
17/02/2025 12:25:23;100;0;115.70;-4;-19.88;-4.91;135.3;19.70;77277;2837.745;-1801.206;1;105;-50;-43.5;43.2;43.4;15;14.9;28.2;0.0;
17/02/2025 12:25:43;100;0;116.33;-4;-20.32;-3.98;137.4;19.70;77265;2837.744;-1801.203;1;105;-50;-43.5;43.2;43.6;15;15.3;28.2;0.0;
17/02/2025 12:26:03;100;0;113.60;-4;-20.29;-3.92;139.5;19.60;77250;2837.743;-1801.201;1;105;-50;-43.5;43.2;43.6;15;15.8;28.2;0.0;
17/02/2025 12:26:23;100;0;115.85;-4;-19.80;-4.03;141.6;19.60;77245;2837.742;-1801.198;1;105;-50;-43.5;43.2;43.4;15;15.8;28.2;0.0;
17/02/2025 12:26:43;100;0;116.19;-4;-19.92;-4.01;143.7;19.60;77229;2837.742;-1801.196;1;105;-50;-43.5;43.2;43.4;15;15.3;28.2;0.0;
17/02/2025 12:27:03;100;0;115.04;-4;-19.95;-3.93;145.7;19.60;77217;2837.741;-1801.193;1;105;-50;-43.5;43.2;43.4;15;15.3;28.2;0.0;
17/02/2025 12:27:23;100;0;112.99;-4;-19.67;-4.01;147.8;19.50;77215;2837.740;-1801.190;1;105;-50;-43.5;43.2;43.6;15;15.8;28.2;0.0;
17/02/2025 12:27:43;100;0;110.63;-4;-19.69;-4.03;149.7;19.50;77206;2837.739;-1801.188;1;105;-70;-69.4;43.2;43.4;15;15.8;28.2;0.0;
17/02/2025 12:28:03;100;0;106.90;-4;-19.27;-3.89;151.8;19.50;77259;2837.739;-1801.185;1;105;-70;-72.6;43.2;43.4;15;15.8;28.2;0.0;
17/02/2025 12:28:23;100;0;105.77;-4;-19.22;-3.83;153.9;19.40;77246;2837.738;-1801.182;1;105;-70;-71.0;43.2;43.4;15;15.8;28.2;0.0;
17/02/2025 12:28:43;100;0;103.96;-4;-19.24;-3.84;156.1;19.40;77244;2837.738;-1801.179;1;105;-70;-71.0;43.2;43.6;15;15.8;28.2;0.0;
17/02/2025 12:29:03;100;0;102.41;-4;-19.23;-3.83;158.2;19.40;77237;2837.737;-1801.176;1;105;-70;-71.0;43.2;43.4;13;13.1;28.2;0.0;
17/02/2025 12:29:23;100;0;101.16;-4;-19.13;-4.90;160.3;19.30;77236;2837.737;-1801.173;1;105;-70;-72.6;43.2;43.4;13;13.5;28.2;0.0;
17/02/2025 12:29:43;100;0;94.63;-4;-19.26;-4.99;162.3;19.30;77216;2837.737;-1801.170;1;105;-90;-90.3;43.2;43.4;6;5.4;28.2;0.0;
17/02/2025 12:30:03;100;0;100.78;-4;-18.75;-8.97;164.5;19.30;77251;2837.737;-1801.167;1;105;-90;-91.9;43.6;43.9;12;12.6;28.2;0.0;
17/02/2025 12:30:23;100;0;104.13;-4;-19.78;-5.07;166.7;19.20;77241;2837.736;-1801.164;1;105;-90;-91.9;43.6;43.9;12;13.1;28.2;0.0;
17/02/2025 12:30:43;100;0;107.24;-4;-20.17;-5.01;169.0;19.20;77237;2837.736;-1801.161;1;105;-90;-91.9;43.6;43.9;14;14.0;28.2;0.0;
17/02/2025 12:31:03;100;0;108.98;-4;-20.30;-4.38;171.5;19.20;77222;2837.735;-1801.157;1;105;-90;-91.9;43.6;44.0;14;14.4;28.2;0.0;
17/02/2025 12:31:23;100;0;109.56;-4;-20.38;-4.20;173.9;19.10;77218;2837.734;-1801.154;1;105;-90;-93.5;43.6;43.9;14;14.4;28.2;0.0;
17/02/2025 12:31:43;100;0;108.91;-4;-20.16;-4.31;176.3;19.10;77205;2837.733;-1801.151;1;105;-90;-93.5;43.6;43.9;14;14.4;28.2;0.0;
17/02/2025 12:32:03;100;0;111.15;-4;-20.16;-4.28;178.6;19.10;77198;2837.732;-1801.148;1;105;-90;-91.9;43.6;43.9;14;14.4;28.2;0.0;
17/02/2025 12:32:23;100;0;107.44;-4;-20.10;-4.26;180.8;19.00;77180;2837.732;-1801.145;1;105;-90;-91.9;43.6;43.9;14;14.4;28.2;0.0;
17/02/2025 12:32:43;100;0;100.53;-4;-20.15;-4.34;183.2;19.00;77168;2837.731;-1801.142;1;105;-90;-93.5;43.6;43.9;12;12.2;28.2;0.0;
17/02/2025 12:33:03;100;0;97.75;-4;-19.91;-5.43;185.5;19.00;77152;2837.731;-1801.139;1;105;-90;-91.9;43.6;43.9;9;9.0;28.2;0.0;
17/02/2025 12:33:23;100;0;97.65;-4;-19.61;-7.28;187.8;18.90;77151;2837.731;-1801.136;1;105;-90;-93.5;43.6;43.9;9;8.6;28.2;0.0;
17/02/2025 12:33:43;100;0;97.60;-4;-19.61;-7.29;190.2;18.90;77133;2837.731;-1801.132;1;105;-90;-93.5;43.6;43.9;9;8.6;28.2;0.0;
17/02/2025 12:34:03;100;0;100.24;-4;-19.57;-7.24;192.7;18.80;77116;2837.730;-1801.129;1;105;-90;-91.9;43.6;43.9;12;12.2;28.2;0.0;
17/02/2025 12:34:23;100;0;100.15;-4;-19.68;-5.28;195.2;18.80;77106;2837.730;-1801.125;1;105;-90;-93.5;43.6;43.9;12;12.6;28.2;0.0;
17/02/2025 12:34:43;100;0;101.68;-4;-19.68;-5.21;197.7;18.80;77092;2837.730;-1801.122;1;105;-90;-93.5;43.6;43.9;12;12.6;28.2;0.0;
17/02/2025 12:35:03;100;0;103.49;-4;-19.84;-5.27;200.3;18.70;77083;2837.729;-1801.118;1;105;-90;-93.5;43.6;43.9;12;12.6;28.2;0.0;
17/02/2025 12:35:23;100;0;102.41;-4;-20.11;-5.18;202.9;18.70;77080;2837.729;-1801.115;1;105;-90;-93.5;43.6;43.9;12;12.6;28.2;0.0;
17/02/2025 12:35:43;100;0;99.19;-4;-19.95;-5.25;205.6;18.60;77063;2837.728;-1801.111;1;105;-90;-93.5;43.6;43.9;12;12.6;28.2;0.0;
17/02/2025 12:36:03;100;0;94.96;-4;-19.93;-5.28;208.3;18.60;77054;2837.728;-1801.107;1;105;-90;-93.5;43.6;43.9;7;6.8;28.2;0.0;
17/02/2025 12:36:23;100;0;96.25;-4;-19.85;-8.11;211.1;18.50;77036;2837.728;-1801.103;1;105;-90;-93.5;43.6;43.9;9;9.0;28.2;0.0;
17/02/2025 12:36:43;100;0;95.86;-4;-19.89;-6.69;214.1;18.50;77024;2837.728;-1801.099;1;105;-90;-93.5;43.6;43.9;9;9.5;28.2;0.0;
17/02/2025 12:37:03;100;0;94.86;-4;-19.91;-6.68;216.9;18.50;77019;2837.728;-1801.095;1;105;-90;-93.5;43.6;43.9;7;7.2;28.2;0.0;
17/02/2025 12:37:23;100;0;97.37;-4;-19.57;-7.88;219.6;18.40;77001;2837.728;-1801.091;1;105;-90;-93.5;43.6;43.9;10;9.9;28.2;0.0;
17/02/2025 12:37:43;100;0;98.05;-4;-19.59;-6.25;222.3;18.40;76986;2837.727;-1801.087;1;105;-90;-93.5;43.6;43.9;10;10.4;28.2;0.0;
17/02/2025 12:38:03;100;0;98.64;-4;-19.66;-6.29;225.0;18.40;76981;2837.727;-1801.084;1;105;-90;-93.5;43.6;43.9;10;10.4;28.2;0.0;
17/02/2025 12:38:23;100;0;99.49;-4;-19.65;-6.26;227.8;18.30;76973;2837.727;-1801.080;1;105;-90;-93.5;43.6;43.9;10;10.8;28.2;0.0;
17/02/2025 12:38:43;100;0;99.10;-4;-20.11;-6.30;230.5;18.30;76977;2837.726;-1801.076;1;105;-90;-93.5;43.6;43.9;10;10.8;28.2;0.0;
17/02/2025 12:39:03;100;0;99.03;-4;-20.00;-6.22;233.3;18.20;76957;2837.726;-1801.072;1;105;-90;-93.5;43.6;43.9;10;10.8;28.2;0.0;
17/02/2025 12:39:23;100;0;99.09;-4;-19.84;-6.23;236.2;18.20;76951;2837.726;-1801.068;1;105;-90;-95.2;43.6;43.9;10;10.8;28.2;0.0;
17/02/2025 12:39:43;100;0;98.82;-4;-19.63;-6.23;238.9;18.20;76949;2837.725;-1801.064;1;105;-90;-93.5;43.6;43.9;10;10.4;28.2;0.0;
17/02/2025 12:40:03;100;0;99.50;-4;-20.05;-6.30;241.7;18.10;76943;2837.725;-1801.060;1;105;-90;-93.5;43.6;43.9;10;10.4;28.2;0.0;
17/02/2025 12:40:23;100;0;97.29;-4;-19.91;-6.25;244.5;18.10;76944;2837.725;-1801.056;1;105;-90;-93.5;43.6;43.9;10;10.8;28.2;0.0;
17/02/2025 12:40:43;100;0;97.99;-4;-19.99;-6.23;247.4;18.00;76929;2837.725;-1801.052;1;105;-90;-93.5;43.6;43.9;10;10.8;28.2;0.0;
17/02/2025 12:41:03;100;0;99.02;-4;-19.66;-6.25;250.2;18.00;76938;2837.724;-1801.048;1;105;-90;-93.5;43.6;43.9;10;10.8;28.2;0.0;
17/02/2025 12:41:23;100;0;100.95;-4;-19.47;-6.27;253.0;18.00;76916;2837.724;-1801.044;1;105;-90;-93.5;43.6;43.9;12;12.2;28.2;0.0;
17/02/2025 12:41:43;100;0;103.12;-4;-19.66;-5.20;255.7;17.90;76904;2837.723;-1801.041;1;105;-90;-91.9;43.6;43.9;12;12.6;28.2;0.0;
17/02/2025 12:42:03;100;0;104.94;-4;-19.77;-5.22;258.3;17.90;76905;2837.723;-1801.037;1;105;-90;-93.5;43.6;43.9;12;12.6;28.1;0.0;
17/02/2025 12:42:23;100;0;106.09;-4;-19.69;-5.20;261.0;17.80;76907;2837.722;-1801.033;1;105;-90;-96.8;43.6;43.9;12;12.6;28.2;0.0;
17/02/2025 12:42:43;100;0;107.23;-4;-19.76;-5.19;263.7;17.80;76890;2837.721;-1801.030;1;105;-90;-93.5;43.6;44.0;12;12.6;28.2;0.0;
17/02/2025 12:43:03;100;0;108.22;-4;-19.24;-5.22;266.3;17.80;76878;2837.720;-1801.026;1;105;-90;-93.5;43.6;43.9;12;12.6;28.2;0.0;
17/02/2025 12:43:23;100;0;108.79;-4;-19.45;-5.19;268.7;17.70;76871;2837.719;-1801.023;1;105;-90;-93.5;43.6;43.9;12;12.6;28.2;0.0;
17/02/2025 12:43:43;100;0;112.26;-4;-19.23;-5.26;271.2;17.70;76865;2837.718;-1801.020;1;105;-90;-93.5;43.6;43.9;12;12.6;28.2;0.0;
17/02/2025 12:44:03;100;0;112.96;-4;-19.40;-5.25;273.5;17.60;76841;2837.717;-1801.016;1;105;-90;-93.5;43.6;44.0;12;12.6;28.2;0.0;
17/02/2025 12:44:23;100;0;113.43;-4;-19.62;-5.32;275.9;17.60;76840;2837.716;-1801.013;1;105;-90;-93.5;43.6;44.0;12;12.6;28.2;0.0;
17/02/2025 12:44:43;100;0;115.15;-4;-19.53;-5.27;278.4;17.60;76833;2837.715;-1801.010;1;105;-90;-93.5;43.6;43.9;14;14.4;28.2;0.0;
17/02/2025 12:45:03;100;0;115.31;-4;-19.98;-4.12;280.8;17.50;76827;2837.714;-1801.007;1;105;-90;-93.5;43.6;43.9;14;14.9;28.2;0.0;
17/02/2025 12:45:23;100;0;112.72;-4;-19.52;-4.23;283.4;17.50;76823;2837.713;-1801.004;1;105;-90;-93.5;43.6;44.0;14;14.9;28.2;0.0;
17/02/2025 12:45:43;100;0;110.95;-4;-19.38;-4.17;285.8;17.40;76809;2837.712;-1801.000;1;105;-90;-93.5;43.6;43.9;14;14.9;28.2;0.0;
17/02/2025 12:46:03;100;0;109.54;-4;-19.56;-4.18;288.2;17.40;76796;2837.711;-1800.997;1;105;-90;-93.5;43.6;43.9;14;14.9;28.2;0.0;
17/02/2025 12:46:23;100;0;108.20;-4;-19.59;-4.19;290.7;17.40;76789;2837.711;-1800.994;1;105;-90;-93.5;43.6;43.9;14;14.9;28.2;0.0;
17/02/2025 12:46:43;100;0;106.23;-4;-19.73;-4.17;293.2;17.30;76769;2837.710;-1800.991;1;105;-90;-93.5;43.6;44.0;14;14.9;28.2;0.0;
17/02/2025 12:47:03;100;0;102.64;-4;-20.01;-4.17;295.8;17.30;76777;2837.709;-1800.987;1;105;-90;-93.5;43.6;43.9;12;12.2;28.2;0.0;
17/02/2025 12:47:23;100;0;101.60;-4;-19.93;-5.33;298.5;17.30;76766;2837.709;-1800.983;1;105;-90;-93.5;43.6;43.9;12;12.6;28.2;0.0;
17/02/2025 12:47:43;100;0;101.27;-4;-19.92;-5.37;301.3;17.20;76763;2837.709;-1800.979;1;105;-90;-93.5;43.6;43.9;12;12.2;28.1;0.0;
17/02/2025 12:48:03;100;0;98.90;-4;-19.72;-5.36;304.1;17.20;76742;2837.708;-1800.975;1;105;-90;-93.5;43.6;43.9;10;9.9;28.2;0.0;
17/02/2025 12:48:23;100;0;95.87;-4;-19.29;-6.84;306.9;17.10;76740;2837.708;-1800.971;1;105;-90;-93.5;43.6;44.0;8;8.1;28.2;0.0;
17/02/2025 12:48:43;100;0;95.36;-4;-19.25;-7.63;309.5;17.10;76736;2837.708;-1800.968;1;106;-90;-93.5;43.6;44.0;6;5.9;28.2;0.0;
17/02/2025 12:49:03;100;0;99.25;-4;-19.06;-8.69;312.4;17.10;76723;2837.708;-1800.963;1;106;-90;-93.5;43.6;43.9;10;9.9;28.2;0.0;
17/02/2025 12:49:23;100;0;101.94;-4;-19.59;-6.51;315.3;17.00;76708;2837.707;-1800.959;1;106;-90;-91.9;43.6;43.9;12;12.2;28.2;0.0;
17/02/2025 12:49:43;100;0;103.35;-4;-19.74;-5.11;318.4;17.00;76702;2837.706;-1800.955;1;106;-90;-93.5;43.6;43.9;12;13.1;28.2;0.0;
17/02/2025 12:50:03;100;0;103.41;-4;-19.54;-5.13;321.6;16.90;76699;2837.706;-1800.951;1;106;-90;-93.5;43.6;44.0;12;13.1;28.2;0.0;
17/02/2025 12:50:23;100;0;100.50;-4;-19.34;-5.21;324.6;16.90;76682;2837.705;-1800.946;1;106;-90;-93.5;43.6;43.9;12;12.6;28.2;0.0;
17/02/2025 12:50:43;100;0;99.98;-4;-19.34;-5.20;327.7;16.90;76671;2837.705;-1800.942;1;106;-90;-93.5;43.6;43.9;10;9.5;28.2;0.0;
17/02/2025 12:51:03;100;0;102.65;-4;-19.18;-6.96;330.9;16.90;76667;2837.704;-1800.937;1;106;-90;-95.2;43.6;43.9;12;12.2;28.2;0.0;
17/02/2025 12:51:23;100;0;104.42;-4;-19.27;-5.22;334.2;16.80;76660;2837.703;-1800.933;1;106;-90;-95.2;43.6;43.9;12;12.6;28.2;0.0;
17/02/2025 12:51:43;100;0;105.87;-4;-19.20;-5.29;337.4;16.80;76651;2837.702;-1800.928;1;106;-90;-93.5;43.6;43.9;12;12.6;28.2;0.0;
17/02/2025 12:52:03;100;0;105.90;-4;-19.33;-5.22;340.6;16.70;76649;2837.701;-1800.923;1;106;-90;-93.5;43.6;43.9;12;12.6;28.2;0.0;
17/02/2025 12:52:23;100;0;106.56;-4;-19.11;-5.25;343.8;16.70;76642;2837.700;-1800.919;1;106;-90;-93.5;43.6;44.0;12;12.6;28.2;0.0;
17/02/2025 12:52:43;100;0;102.41;-4;-19.07;-5.24;346.9;16.70;76633;2837.700;-1800.914;1;106;-90;-93.5;43.6;43.9;12;12.6;28.2;0.0;
17/02/2025 12:53:03;100;0;97.94;-4;-19.06;-5.35;350.0;16.60;76627;2837.699;-1800.910;1;106;-90;-95.2;43.6;43.9;8;8.1;28.2;0.0;
17/02/2025 12:53:23;100;0;95.87;-4;-18.97;-7.68;353.0;16.60;76607;2837.699;-1800.906;1;106;-90;-91.9;43.9;43.9;6;5.9;28.2;0.0;
17/02/2025 12:53:43;100;0;99.25;-4;-18.90;-8.80;355.9;16.60;76603;2837.699;-1800.901;1;106;-90;-93.5;44.2;44.5;9;9.5;28.2;0.0;
17/02/2025 12:54:03;100;0;103.18;-4;-20.21;-6.55;358.9;16.50;76596;2837.698;-1800.897;1;106;-90;-93.5;44.2;44.5;12;12.2;28.2;0.0;
17/02/2025 12:54:23;100;0;101.76;-4;-20.58;-5.32;361.9;16.50;76587;2837.697;-1800.893;1;106;-90;-91.9;44.2;44.6;12;12.6;28.2;0.0;
17/02/2025 12:54:43;100;0;98.55;-4;-21.08;-5.36;364.9;16.40;76577;2837.697;-1800.889;1;106;-90;-93.5;44.2;44.6;9;9.0;28.2;0.0;
17/02/2025 12:55:03;100;0;99.17;-4;-21.28;-7.23;368.2;16.40;76564;2837.697;-1800.885;1;106;-90;-93.5;44.2;44.6;9;8.6;28.2;0.0;
17/02/2025 12:55:23;100;0;99.55;-4;-20.66;-7.26;371.3;16.40;76551;2837.696;-1800.880;1;106;-90;-93.5;44.2;44.5;9;8.6;28.2;0.0;
17/02/2025 12:55:43;100;0;97.24;-4;-20.44;-7.39;374.4;16.30;76543;2837.696;-1800.876;1;106;-90;-95.2;44.2;44.6;7;7.2;28.2;0.0;
17/02/2025 12:56:03;100;0;98.63;-4;-20.38;-8.06;377.4;16.30;76528;2837.696;-1800.872;1;106;-90;-91.9;44.2;44.5;9;9.0;28.2;0.0;
17/02/2025 12:56:23;100;0;97.63;-4;-20.38;-6.76;380.3;16.30;76535;2837.695;-1800.868;1;106;-90;-93.5;44.2;44.6;9;9.5;28.2;0.0;
17/02/2025 12:56:43;100;0;96.46;-4;-20.44;-6.76;383.3;16.20;76523;2837.695;-1800.864;1;106;-90;-96.8;44.2;44.5;6;5.9;28.2;0.0;
17/02/2025 12:57:03;100;0;100.26;-4;-20.20;-8.76;386.3;16.20;76513;2837.695;-1800.860;1;106;-90;-93.5;44.2;44.5;10;9.9;28.2;0.0;
17/02/2025 12:57:23;100;0;102.31;-4;-20.33;-6.31;389.2;16.10;76498;2837.694;-1800.856;1;106;-90;-91.9;44.2;44.6;10;10.4;28.2;0.0;
17/02/2025 12:57:43;100;0;104.10;-4;-20.42;-6.42;392.1;16.10;76488;2837.694;-1800.852;1;106;-90;-93.5;44.2;44.6;12;12.6;28.2;0.0;
17/02/2025 12:58:03;100;0;104.67;-4;-20.37;-4.91;395.1;16.10;76488;2837.693;-1800.847;1;106;-90;-93.5;44.2;44.5;12;13.1;28.2;0.0;
17/02/2025 12:58:23;100;0;106.34;-4;-20.39;-5.10;398.1;16.00;76483;2837.692;-1800.843;1;106;-90;-93.5;44.2;44.6;12;13.1;28.2;0.0;
17/02/2025 12:58:43;100;0;110.37;-4;-20.43;-4.80;401.0;16.00;76468;2837.691;-1800.839;1;106;-90;-93.5;44.2;44.5;12;13.1;28.2;0.0;
17/02/2025 12:59:03;100;0;114.43;-4;-20.43;-4.92;404.1;16.00;76469;2837.689;-1800.835;1;106;-90;-93.5;44.2;44.6;12;13.1;28.2;0.0;
17/02/2025 12:59:23;100;0;115.38;-4;-20.56;-4.92;407.4;15.90;76452;2837.688;-1800.831;1;106;-90;-93.5;44.2;44.5;12;13.1;28.2;0.0;
17/02/2025 12:59:43;100;0;121.05;-4;-20.23;-4.99;410.5;15.90;76434;2837.686;-1800.828;1;106;-90;-95.2;44.2;44.6;17;17.1;28.2;0.0;
17/02/2025 13:00:03;100;0;120.55;-4;-20.70;-2.67;413.6;15.90;76436;2837.684;-1800.824;1;106;-90;-93.5;44.2;44.6;17;17.6;28.2;0.0;
17/02/2025 13:00:23;100;0;118.92;-4;-20.45;-2.69;416.6;15.80;76423;2837.683;-1800.820;1;106;-90;-93.5;44.2;44.6;15;14.4;28.2;0.0;
17/02/2025 13:00:44;100;0;117.73;-4;-20.78;-4.53;419.8;15.80;76420;2837.681;-1800.817;1;106;-90;-93.5;44.2;44.6;15;14.4;28.2;0.0;
17/02/2025 13:01:04;100;0;115.34;-4;-20.44;-4.50;422.9;15.80;76415;2837.680;-1800.813;1;106;-90;-93.5;44.2;44.5;13;13.1;28.2;0.0;
17/02/2025 13:01:24;100;0;115.49;-4;-20.05;-5.35;426.0;15.70;76400;2837.678;-1800.809;1;106;-90;-93.5;44.2;44.5;13;12.6;28.2;0.0;
17/02/2025 13:01:44;100;0;113.68;-4;-20.10;-5.41;429.2;15.70;76402;2837.677;-1800.804;1;106;-90;-91.9;44.2;44.5;13;12.6;28.2;0.0;
17/02/2025 13:02:04;100;0;113.48;-4;-20.33;-5.33;432.3;15.70;76392;2837.675;-1800.800;1;106;-90;-93.5;44.2;44.6;13;12.6;28.2;0.0;
17/02/2025 13:02:24;100;0;113.38;-4;-20.18;-5.50;435.5;15.60;76391;2837.674;-1800.796;1;106;-90;-93.5;44.2;44.6;13;12.6;28.2;0.0;
17/02/2025 13:02:44;100;0;113.15;-4;-20.24;-5.37;438.7;15.60;76380;2837.673;-1800.792;1;106;-90;-93.5;44.2;44.6;13;12.6;28.2;0.0;
17/02/2025 13:03:04;100;0;114.69;-4;-20.04;-5.30;441.9;15.50;76383;2837.671;-1800.788;1;106;-90;-93.5;44.2;44.5;13;12.6;28.2;0.0;
17/02/2025 13:03:24;100;0;115.66;-4;-20.50;-5.36;445.1;15.50;76376;2837.670;-1800.784;1;106;-90;-93.5;44.2;44.5;13;12.6;28.2;0.0;
17/02/2025 13:03:44;100;0;114.48;-4;-20.33;-5.35;448.4;15.50;76368;2837.668;-1800.780;1;106;-90;-93.5;44.2;44.6;13;12.6;28.2;0.0;
17/02/2025 13:04:04;100;0;113.45;-4;-20.13;-5.34;451.7;15.40;76353;2837.667;-1800.775;1;106;-90;-93.5;44.2;44.5;13;12.6;28.2;0.0;
17/02/2025 13:04:24;100;0;112.54;-4;-20.53;-5.39;455.0;15.40;76349;2837.665;-1800.771;1;106;-90;-93.5;44.2;44.5;13;12.6;28.2;0.0;
17/02/2025 13:04:44;100;0;112.51;-4;-20.68;-5.31;458.4;15.40;76339;2837.664;-1800.767;1;106;-90;-90.3;44.2;44.6;13;12.6;28.2;0.0;
17/02/2025 13:05:04;100;0;111.76;-4;-20.52;-5.32;461.7;15.30;76332;2837.663;-1800.763;1;106;-90;-93.5;44.2;44.5;13;12.6;28.2;0.0;
17/02/2025 13:05:24;100;0;112.50;-4;-20.71;-5.18;465.1;15.30;76326;2837.661;-1800.758;1;106;-90;-95.2;44.2;44.5;13;12.6;28.2;0.0;
17/02/2025 13:05:44;100;0;114.47;-4;-20.04;-5.33;468.4;15.30;76322;2837.660;-1800.754;1;106;-90;-95.2;44.2;44.5;13;12.6;28.2;0.0;
17/02/2025 13:06:04;100;0;116.77;-4;-20.49;-5.27;471.7;15.20;76312;2837.658;-1800.750;1;106;-90;-93.5;44.2;44.5;13;12.6;28.2;0.0;
17/02/2025 13:06:24;100;0;116.33;-4;-20.33;-5.29;475.0;15.20;76314;2837.656;-1800.746;1;106;-90;-93.5;44.2;44.6;13;12.6;28.2;0.0;
17/02/2025 13:06:44;100;0;115.72;-4;-20.25;-5.31;478.2;15.20;76303;2837.655;-1800.742;1;106;-90;-95.2;44.2;44.5;13;12.6;28.2;0.0;
17/02/2025 13:07:04;100;0;115.48;-4;-20.20;-5.30;481.5;15.20;76305;2837.653;-1800.737;1;106;-90;-93.5;44.2;44.5;13;12.6;28.2;0.0;
17/02/2025 13:07:24;100;0;115.25;-4;-20.14;-5.36;484.6;15.10;76299;2837.652;-1800.734;1;106;-90;-95.2;44.2;44.6;13;12.6;28.2;0.0;
17/02/2025 13:07:44;100;0;114.70;-4;-20.18;-5.26;487.8;15.10;76296;2837.650;-1800.729;1;106;-90;-93.5;44.2;44.5;13;12.6;28.2;0.0;
17/02/2025 13:08:04;100;0;113.97;-4;-20.21;-5.35;490.9;15.10;76296;2837.649;-1800.725;1;106;-90;-91.9;44.2;44.6;13;12.6;28.2;0.0;
17/02/2025 13:08:24;100;0;112.57;-4;-20.24;-5.31;493.9;15.00;76288;2837.648;-1800.721;1;106;-90;-93.5;44.2;44.5;13;12.6;28.2;0.0;
17/02/2025 13:08:44;100;0;111.98;-4;-20.25;-5.33;497.0;15.00;76285;2837.646;-1800.717;1;105;-90;-93.5;44.2;44.6;13;12.6;28.2;0.0;
17/02/2025 13:09:04;100;0;110.77;-4;-20.23;-5.30;500.1;15.00;76280;2837.645;-1800.713;1;105;-90;-93.5;44.2;44.5;13;12.6;28.2;0.0;
17/02/2025 13:09:24;100;0;110.36;-4;-20.45;-5.29;503.2;15.00;76282;2837.644;-1800.709;1;105;-90;-93.5;44.2;44.6;13;12.6;28.2;0.0;
17/02/2025 13:09:44;100;0;109.87;-4;-20.40;-5.21;506.2;14.90;76261;2837.643;-1800.705;1;105;-90;-93.5;44.2;44.5;13;12.6;28.2;0.0;
17/02/2025 13:10:04;100;0;107.14;-4;-20.18;-5.28;509.2;14.90;76267;2837.642;-1800.701;1;105;-90;-93.5;44.2;44.6;13;12.6;28.2;0.0;
17/02/2025 13:10:24;100;0;106.36;-4;-19.93;-5.37;512.1;14.90;76271;2837.641;-1800.697;1;105;-90;-93.5;44.2;44.5;13;12.6;28.2;0.0;
17/02/2025 13:10:44;100;0;107.21;-4;-19.69;-5.30;514.9;14.80;76264;2837.640;-1800.693;1;105;-90;-93.5;44.2;44.6;13;12.6;28.2;0.0;
17/02/2025 13:11:04;100;0;108.72;-4;-20.12;-5.30;517.7;14.80;76252;2837.640;-1800.690;1;105;-90;-93.5;44.2;44.5;13;12.6;28.2;0.0;
17/02/2025 13:11:24;100;0;107.20;-4;-19.88;-5.34;520.3;14.80;76238;2837.639;-1800.686;1;105;-90;-93.5;44.2;44.5;13;12.6;28.2;0.0;
17/02/2025 13:11:44;100;0;105.30;-4;-19.88;-5.38;523.2;14.80;76231;2837.638;-1800.682;1;106;-90;-93.5;44.2;44.5;13;12.6;28.2;0.0;
17/02/2025 13:12:04;100;0;104.04;-4;-20.02;-5.35;525.9;14.70;76230;2837.637;-1800.678;1;106;-90;-93.5;44.2;44.6;13;12.6;28.2;0.0;
17/02/2025 13:12:24;100;0;103.39;-4;-20.18;-5.36;528.6;14.70;76220;2837.637;-1800.675;1;106;-90;-93.5;44.2;44.5;13;12.6;28.2;0.0;
17/02/2025 13:12:44;100;0;103.55;-4;-20.18;-5.33;531.4;14.70;76218;2837.636;-1800.671;1;106;-90;-93.5;44.2;44.6;13;12.6;28.2;0.0;
17/02/2025 13:13:04;100;0;103.12;-4;-20.22;-5.28;534.3;14.60;76198;2837.636;-1800.667;1;106;-90;-91.9;44.2;44.5;13;12.6;28.2;0.0;
17/02/2025 13:13:24;100;0;102.14;-4;-20.36;-5.30;537.1;14.60;76207;2837.635;-1800.663;1;106;-90;-93.5;44.2;44.5;11;10.8;28.2;0.0;
17/02/2025 13:13:44;100;0;101.69;-4;-20.13;-6.40;539.9;14.60;76208;2837.635;-1800.659;1;106;-90;-93.5;44.2;44.5;11;10.8;28.2;0.0;
17/02/2025 13:14:04;100;0;103.08;-4;-20.04;-6.54;542.7;14.60;76204;2837.634;-1800.655;1;106;-90;-93.5;44.2;44.5;11;10.4;28.2;0.0;
17/02/2025 13:14:24;100;0;104.61;-4;-20.08;-6.32;545.6;14.50;76186;2837.633;-1800.651;1;106;-90;-93.5;44.2;44.5;11;10.4;28.2;0.0;
17/02/2025 13:14:44;100;0;107.67;-4;-19.99;-6.32;548.4;14.50;76190;2837.632;-1800.648;1;106;-90;-95.2;44.2;44.5;11;10.4;28.2;0.0;
17/02/2025 13:15:04;100;0;111.24;-4;-20.16;-6.32;551.2;14.50;76185;2837.631;-1800.644;1;106;-90;-93.5;44.2;44.5;13;13.1;28.2;0.0;
17/02/2025 13:15:24;100;0;112.33;-4;-20.07;-4.59;554.1;14.50;76184;2837.630;-1800.640;1;106;-90;-93.5;44.2;44.5;13;13.5;28.2;0.0;
17/02/2025 13:15:44;100;0;118.48;-4;-20.48;-4.79;556.9;14.40;76162;2837.629;-1800.637;1;106;-90;-93.5;44.2;44.5;15;14.9;28.2;0.0;
17/02/2025 13:16:04;100;0;121.24;-4;-19.93;-3.88;559.7;14.40;76156;2837.627;-1800.633;1;106;-90;-93.5;44.2;44.5;18;18.1;28.2;0.0;
17/02/2025 13:16:24;100;0;118.04;-4;-20.02;-2.45;562.4;14.40;76146;2837.626;-1800.630;1;106;-90;-95.2;44.2;44.5;15;14.9;28.2;0.0;
17/02/2025 13:16:44;100;0;113.78;-4;-19.91;-4.30;565.0;14.40;76144;2837.625;-1800.627;1;106;-90;-93.5;44.2;44.5;13;12.6;28.2;0.0;
17/02/2025 13:17:04;100;0;111.99;-4;-19.63;-5.32;567.6;14.30;76129;2837.624;-1800.623;1;106;-90;-95.2;44.2;44.5;13;12.6;28.2;0.0;
17/02/2025 13:17:24;100;0;111.09;-4;-19.69;-5.38;570.2;14.30;76136;2837.623;-1800.620;1;105;-90;-93.5;44.2;44.5;13;12.6;28.2;0.0;
17/02/2025 13:17:44;100;0;110.96;-4;-19.59;-5.43;572.7;14.30;76111;2837.622;-1800.616;1;105;-90;-93.5;44.2;44.5;13;12.6;28.2;0.0;
17/02/2025 13:18:04;100;0;111.26;-4;-19.27;-5.41;575.4;14.30;76120;2837.621;-1800.613;1;105;-90;-93.5;44.2;44.6;13;12.6;28.2;0.0;
17/02/2025 13:18:24;100;0;109.56;-4;-19.47;-5.40;577.9;14.20;76113;2837.620;-1800.609;1;105;-90;-93.5;44.2;44.5;13;12.6;28.2;0.0;
17/02/2025 13:18:44;100;0;107.86;-4;-19.75;-5.42;580.4;14.20;76114;2837.619;-1800.606;1;105;-90;-93.5;44.2;44.5;13;12.6;28.2;0.0;
17/02/2025 13:19:04;100;0;107.61;-4;-19.45;-5.32;582.9;14.20;76096;2837.618;-1800.603;1;105;-90;-93.5;44.2;44.5;13;12.6;28.2;0.0;
17/02/2025 13:19:24;100;0;107.35;-4;-19.69;-5.32;585.4;14.10;76103;2837.617;-1800.599;1;105;-90;-93.5;44.2;44.6;13;12.6;28.2;0.0;
17/02/2025 13:19:44;100;0;106.38;-4;-19.55;-5.36;587.9;14.10;76095;2837.617;-1800.596;1;105;-90;-95.2;44.2;44.6;13;12.6;28.2;0.0;
17/02/2025 13:20:04;100;0;107.33;-4;-19.45;-5.42;590.5;14.10;76094;2837.616;-1800.592;1;105;-90;-96.8;44.2;44.5;13;12.6;28.2;0.0;
17/02/2025 13:20:24;100;0;106.30;-4;-19.36;-5.40;593.0;14.10;76084;2837.615;-1800.589;1;106;-90;-93.5;44.2;44.5;13;12.6;28.2;0.0;
17/02/2025 13:20:44;100;0;105.84;-4;-19.43;-5.40;595.5;14.00;76077;2837.615;-1800.585;1;106;-90;-93.5;44.2;44.6;13;12.6;28.2;0.0;
17/02/2025 13:21:04;100;0;103.89;-4;-19.55;-5.43;598.0;14.00;76078;2837.614;-1800.582;1;106;-90;-93.5;44.2;44.5;13;12.6;28.2;0.0;
17/02/2025 13:21:24;100;0;102.14;-4;-19.53;-5.51;600.6;14.00;76074;2837.614;-1800.578;1;106;-90;-93.5;44.2;44.6;13;12.6;28.2;0.0;
17/02/2025 13:21:44;100;0;98.57;-4;-19.11;-5.40;603.1;14.00;76072;2837.613;-1800.575;1;106;-90;-93.5;44.2;44.6;9;9.0;28.2;0.0;
17/02/2025 13:22:04;100;0;101.08;-4;-19.20;-7.32;605.5;14.00;76062;2837.613;-1800.571;1;106;-90;-93.5;44.2;44.6;11;10.8;28.2;0.0;
17/02/2025 13:22:24;100;0;100.58;-4;-19.51;-5.95;607.9;13.90;76055;2837.613;-1800.568;1;106;-90;-91.9;44.2;44.6;11;11.3;28.2;0.0;
17/02/2025 13:22:44;100;0;102.75;-4;-19.20;-5.92;610.5;13.90;76044;2837.612;-1800.564;1;106;-90;-93.5;44.2;44.5;11;11.3;28.2;0.0;
17/02/2025 13:23:04;100;0;105.45;-4;-19.45;-5.97;612.9;13.90;76038;2837.611;-1800.561;1;106;-90;-93.5;44.2;44.6;11;11.3;28.2;0.0;
17/02/2025 13:23:24;100;0;107.32;-4;-19.36;-5.87;615.4;13.80;76029;2837.611;-1800.557;1;106;-90;-93.5;44.2;44.5;11;11.3;28.2;0.0;
17/02/2025 13:23:44;100;0;108.97;-4;-19.41;-5.94;617.9;13.80;76026;2837.610;-1800.554;1;106;-90;-93.5;44.2;44.6;11;11.3;28.2;0.0;
17/02/2025 13:24:04;100;0;110.98;-4;-19.42;-5.92;620.3;13.80;76024;2837.609;-1800.550;1;106;-90;-95.2;44.2;44.5;11;11.3;28.2;0.0;
17/02/2025 13:24:24;100;0;112.78;-4;-19.50;-5.93;622.8;13.80;75998;2837.608;-1800.547;1;106;-90;-93.5;44.2;44.5;13;13.1;28.2;0.0;
17/02/2025 13:24:44;100;0;114.41;-4;-19.56;-4.72;625.2;13.80;76002;2837.607;-1800.544;1;106;-90;-96.8;44.2;44.5;13;14.0;28.2;0.0;
17/02/2025 13:25:04;100;0;115.37;-4;-19.68;-4.52;627.8;13.70;76003;2837.606;-1800.541;1;106;-90;-93.5;44.2;44.6;13;14.0;28.2;0.0;
17/02/2025 13:25:24;100;0;116.15;-4;-19.64;-4.68;630.2;13.70;76001;2837.605;-1800.538;1;106;-90;-93.5;44.2;44.5;13;14.0;28.2;0.0;
17/02/2025 13:25:44;100;0;118.40;-4;-19.53;-4.75;632.7;13.70;75997;2837.603;-1800.535;1;106;-90;-93.5;44.2;44.6;15;15.3;28.2;0.0;
17/02/2025 13:26:04;100;0;120.14;-4;-19.94;-3.63;635.1;13.60;75992;2837.602;-1800.532;1;106;-90;-91.9;44.2;44.5;17;17.1;28.2;0.0;
17/02/2025 13:26:24;100;0;119.53;-4;-20.02;-3.05;637.6;13.60;75981;2837.601;-1800.529;1;106;-90;-93.5;44.2;44.6;17;17.6;28.2;0.0;
17/02/2025 13:26:44;100;0;122.09;-4;-19.99;-2.81;640.3;13.60;75985;2837.599;-1800.526;1;105;-90;-95.2;44.2;44.5;20;19.9;28.2;0.0;
17/02/2025 13:27:04;100;0;122.04;-4;-20.06;-1.60;642.8;13.60;75965;2837.598;-1800.523;1;105;-90;-95.2;44.2;44.6;20;19.9;28.2;0.0;
17/02/2025 13:27:24;100;0;119.75;-4;-20.35;-1.65;645.4;13.60;75974;2837.596;-1800.519;1;105;-90;-93.5;44.2;44.6;18;18.1;28.2;0.0;
17/02/2025 13:27:44;100;0;118.32;-4;-20.11;-2.81;648.2;13.50;75975;2837.595;-1800.516;1;105;-90;-93.5;44.2;44.5;16;15.8;28.2;0.0;
17/02/2025 13:28:04;100;0;116.72;-4;-19.84;-3.87;650.7;13.50;75959;2837.593;-1800.513;1;105;-90;-93.5;44.2;44.6;16;15.8;28.2;0.0;
17/02/2025 13:28:24;100;0;113.98;-4;-19.70;-3.52;653.4;13.50;75955;2837.592;-1800.509;1;105;-90;-95.2;44.2;44.5;14;14.0;28.2;0.0;
17/02/2025 13:28:44;100;0;113.86;-4;-19.87;-4.36;656.0;13.50;75951;2837.591;-1800.506;1;105;-90;-95.2;44.2;44.5;14;14.4;28.2;0.0;
17/02/2025 13:29:04;100;0;112.88;-4;-19.40;-4.38;658.7;13.40;75941;2837.590;-1800.502;1;105;-90;-93.5;44.2;44.5;14;14.4;28.2;0.0;
17/02/2025 13:29:24;100;0;111.12;-4;-19.24;-4.47;661.4;13.40;75940;2837.589;-1800.499;1;105;-90;-93.5;44.2;44.5;14;14.4;28.2;0.0;
17/02/2025 13:29:44;100;0;113.37;-4;-19.04;-4.36;663.8;13.40;75930;2837.588;-1800.495;1;105;-90;-93.5;44.2;44.5;14;14.4;28.2;0.0;
17/02/2025 13:30:04;100;0;115.41;-4;-19.07;-4.39;666.2;13.40;75925;2837.587;-1800.492;1;105;-90;-93.5;44.2;44.5;14;14.4;28.2;0.0;
17/02/2025 13:30:24;100;0;113.81;-4;-19.38;-4.46;668.8;13.30;75918;2837.586;-1800.489;1;105;-90;-93.5;44.2;44.6;14;14.4;28.2;0.0;
17/02/2025 13:30:44;100;0;110.24;-4;-19.55;-4.46;671.3;13.30;75918;2837.585;-1800.486;1;105;-90;-93.5;44.2;44.6;14;14.4;28.2;0.0;
17/02/2025 13:31:04;100;0;108.79;-4;-18.89;-4.40;673.8;13.30;75898;2837.584;-1800.482;1;105;-90;-93.5;44.5;44.5;14;14.4;28.2;0.0;
17/02/2025 13:31:24;100;0;108.16;-4;-18.74;-4.27;676.3;13.30;75895;2837.583;-1800.479;1;105;-90;-93.5;44.9;44.9;14;14.4;28.2;0.0;
17/02/2025 13:31:44;100;0;107.59;-4;-20.07;-4.53;678.8;13.30;75891;2837.582;-1800.475;1;105;-90;-93.5;44.9;45.1;14;14.4;28.2;0.0;
17/02/2025 13:32:04;100;0;104.62;-4;-20.60;-4.45;681.4;13.20;75874;2837.582;-1800.472;1;105;-90;-93.5;44.9;45.1;14;14.4;28.2;0.0;
17/02/2025 13:32:24;100;0;103.52;-4;-20.58;-4.41;684.3;13.20;75872;2837.581;-1800.468;1;105;-90;-93.5;44.9;45.1;14;14.4;28.2;0.0;
17/02/2025 13:32:44;100;0;104.55;-4;-20.00;-4.49;687.1;13.20;75870;2837.580;-1800.464;1;105;-90;-93.5;44.9;45.2;14;14.4;28.2;0.0;
17/02/2025 13:33:04;100;0;104.64;-4;-20.26;-4.49;689.8;13.20;75866;2837.580;-1800.461;1;105;-90;-93.5;44.9;45.1;14;14.4;28.2;0.0;
17/02/2025 13:33:24;100;0;106.12;-4;-20.34;-4.45;692.5;13.10;75852;2837.579;-1800.457;1;105;-90;-93.5;44.9;45.2;14;14.4;28.2;0.0;
17/02/2025 13:33:44;100;0;107.31;-4;-20.41;-4.35;695.4;13.10;75844;2837.578;-1800.453;1;105;-90;-93.5;44.9;45.1;14;14.4;28.2;0.0;
17/02/2025 13:34:04;100;0;107.36;-4;-20.54;-4.35;698.4;13.10;75840;2837.577;-1800.449;1;105;-90;-93.5;44.9;45.1;14;14.4;28.2;0.0;
17/02/2025 13:34:24;100;0;106.71;-4;-20.66;-4.42;701.5;13.10;75835;2837.576;-1800.445;1;105;-90;-93.5;44.9;45.2;14;14.4;28.2;0.0;
17/02/2025 13:34:44;100;0;106.38;-4;-20.55;-4.41;704.5;13.00;75827;2837.576;-1800.441;1;105;-90;-93.5;44.9;45.1;14;14.4;28.2;0.0;
17/02/2025 13:35:04;100;0;107.59;-4;-20.61;-4.38;707.7;13.00;75818;2837.575;-1800.437;1;105;-90;-91.9;44.9;45.1;14;14.4;28.2;0.0;
17/02/2025 13:35:24;100;0;108.39;-4;-20.29;-4.39;710.8;13.00;75805;2837.574;-1800.433;1;105;-90;-93.5;44.9;45.1;14;14.4;28.2;0.0;
17/02/2025 13:35:44;100;0;107.81;-4;-20.26;-4.48;713.9;13.00;75806;2837.573;-1800.429;1;105;-90;-93.5;44.9;45.1;14;14.4;28.2;0.0;
17/02/2025 13:36:04;100;0;107.00;-4;-20.14;-4.40;717.0;12.90;75808;2837.572;-1800.424;1;105;-90;-93.5;44.9;45.1;14;14.4;28.2;0.0;
17/02/2025 13:36:25;100;0;105.89;-4;-20.18;-4.49;720.1;12.90;75805;2837.571;-1800.420;1;105;-90;-93.5;44.9;45.1;14;14.4;28.2;0.0;
17/02/2025 13:36:45;100;0;104.83;-4;-20.36;-4.43;723.2;12.90;75793;2837.570;-1800.416;1;105;-90;-93.5;44.9;45.1;14;14.4;28.2;0.0;
17/02/2025 13:37:05;100;0;103.95;-4;-20.19;-4.38;726.3;12.90;75802;2837.569;-1800.412;1;105;-90;-95.2;44.9;45.2;14;14.4;28.2;0.0;
17/02/2025 13:37:25;100;0;104.24;-4;-19.60;-4.64;729.3;12.80;75779;2837.569;-1800.407;1;105;-90;-93.5;44.9;45.2;14;14.4;28.2;0.0;
17/02/2025 13:37:45;100;0;105.56;-4;-19.89;-4.47;732.3;12.80;75775;2837.568;-1800.403;1;105;-90;-93.5;44.9;45.1;14;14.4;28.2;0.0;
17/02/2025 13:38:05;100;0;106.06;-4;-19.97;-4.46;735.2;12.80;75767;2837.567;-1800.399;1;105;-90;-93.5;44.9;45.1;14;14.4;28.2;0.0;
17/02/2025 13:38:25;100;0;105.68;-4;-20.09;-4.43;738.2;12.80;75766;2837.566;-1800.395;1;105;-90;-93.5;44.9;45.1;14;14.4;28.2;0.0;
17/02/2025 13:38:45;100;0;104.56;-4;-20.12;-4.44;741.1;12.70;75763;2837.565;-1800.391;1;105;-90;-93.5;44.9;45.1;14;14.4;28.2;0.0;
17/02/2025 13:39:05;100;0;102.51;-4;-20.40;-4.49;744.1;12.70;75748;2837.565;-1800.387;1;105;-90;-93.5;44.9;45.2;12;11.7;28.2;0.0;
17/02/2025 13:39:25;100;0;103.90;-4;-19.62;-5.80;747.0;12.70;75746;2837.564;-1800.383;1;105;-90;-96.8;44.9;45.2;12;11.7;28.2;0.0;
17/02/2025 13:39:45;100;0;105.94;-4;-19.90;-5.65;749.9;12.70;75741;2837.563;-1800.379;1;105;-90;-93.5;44.9;45.2;12;11.7;28.2;0.0;
17/02/2025 13:40:05;100;0;106.07;-4;-20.55;-5.66;752.7;12.60;75742;2837.563;-1800.376;1;105;-90;-93.5;44.9;45.2;12;11.7;28.2;0.0;
17/02/2025 13:40:25;100;0;104.94;-4;-20.35;-5.68;755.6;12.60;75743;2837.562;-1800.372;1;105;-90;-93.5;44.9;45.2;12;12.2;28.2;0.0;
17/02/2025 13:40:45;100;0;104.87;-4;-20.16;-5.74;758.4;12.60;75729;2837.561;-1800.368;1;105;-90;-93.5;44.9;45.1;12;11.7;28.2;0.0;
17/02/2025 13:41:05;100;0;105.97;-4;-20.13;-5.65;761.1;12.60;75730;2837.561;-1800.364;1;106;-90;-93.5;44.9;45.1;12;11.7;28.2;0.0;
17/02/2025 13:41:25;100;0;106.57;-4;-19.66;-5.73;763.8;12.50;75714;2837.560;-1800.361;1;106;-90;-91.9;44.9;45.1;12;11.7;28.2;0.0;
17/02/2025 13:41:45;100;0;103.99;-4;-20.02;-5.74;766.4;12.50;75716;2837.559;-1800.357;1;106;-90;-96.8;44.9;45.2;12;11.7;28.2;0.0;
17/02/2025 13:42:05;100;0;104.29;-4;-19.75;-5.73;769.0;12.50;75705;2837.559;-1800.353;1;106;-90;-93.5;44.9;45.1;12;11.7;28.2;0.0;
17/02/2025 13:42:25;100;0;106.56;-4;-19.82;-5.82;771.5;12.50;75702;2837.558;-1800.350;1;106;-90;-93.5;44.9;45.1;12;11.7;28.2;0.0;
17/02/2025 13:42:45;100;0;111.67;-4;-19.92;-5.69;774.0;12.50;75699;2837.557;-1800.347;1;106;-90;-93.5;44.9;45.1;12;11.7;28.2;0.0;
17/02/2025 13:43:05;100;0;117.85;-4;-20.31;-5.67;776.4;12.40;75695;2837.556;-1800.344;1;106;-90;-93.5;44.9;45.1;15;14.9;28.2;0.0;
17/02/2025 13:43:25;100;0;118.05;-4;-20.22;-3.89;778.9;12.40;75688;2837.554;-1800.341;1;105;-90;-93.5;44.9;45.2;15;15.3;28.2;0.0;
17/02/2025 13:43:45;100;0;115.15;-4;-20.34;-3.98;781.1;12.40;75678;2837.554;-1800.338;1;105;-90;-95.2;44.9;45.1;15;15.3;28.2;0.0;
17/02/2025 13:44:05;100;0;113.56;-4;-20.40;-3.97;783.3;12.30;75668;2837.553;-1800.335;1;105;-90;-93.5;44.9;45.2;13;13.1;28.2;0.0;
17/02/2025 13:44:25;100;0;115.71;-4;-20.41;-5.30;785.6;12.30;75666;2837.552;-1800.332;1;105;-90;-93.5;44.9;45.2;13;12.6;28.1;0.0;
17/02/2025 13:44:45;100;0;116.16;-4;-20.15;-5.35;788.1;12.30;75656;2837.550;-1800.329;1;105;-90;-93.5;44.9;45.1;15;15.3;28.2;0.0;
17/02/2025 13:45:05;100;0;115.57;-4;-20.62;-3.82;790.6;12.30;75658;2837.549;-1800.326;1;105;-90;-93.5;44.9;45.2;15;15.8;28.2;0.0;
17/02/2025 13:45:25;100;0;116.09;-4;-20.33;-3.78;793.1;12.30;75651;2837.548;-1800.323;1;105;-90;-96.8;44.9;45.2;15;15.8;28.2;0.0;
17/02/2025 13:45:45;100;0;116.21;-4;-20.26;-3.80;795.7;12.20;75639;2837.547;-1800.320;1;105;-90;-93.5;44.9;45.1;15;15.8;28.2;0.0;
17/02/2025 13:46:05;100;0;115.21;-4;-20.31;-3.81;798.3;12.20;75633;2837.546;-1800.316;1;105;-90;-95.2;44.9;45.2;15;15.8;28.2;0.0;
17/02/2025 13:46:25;100;0;116.90;-4;-20.54;-3.83;800.9;12.20;75621;2837.544;-1800.313;1;105;-90;-93.5;44.9;45.1;15;15.8;28.2;0.0;
17/02/2025 13:46:45;100;0;118.39;-4;-20.34;-3.81;803.5;12.20;75609;2837.543;-1800.310;1;105;-90;-93.5;44.9;45.1;17;17.1;28.2;0.0;
17/02/2025 13:47:05;100;0;120.30;-4;-20.48;-2.72;806.1;12.10;75594;2837.542;-1800.307;1;105;-90;-93.5;44.9;45.2;17;17.6;28.2;0.0;
17/02/2025 13:47:25;100;0;118.89;-4;-20.46;-2.78;808.9;12.10;75611;2837.540;-1800.303;1;105;-90;-93.5;44.9;45.1;17;17.6;28.2;0.0;
17/02/2025 13:47:45;100;0;115.89;-4;-20.24;-2.94;811.5;12.10;75582;2837.539;-1800.300;1;105;-90;-93.5;44.9;45.2;15;14.9;28.2;0.0;
17/02/2025 13:48:05;100;0;114.67;-4;-20.00;-4.31;814.0;12.00;75581;2837.538;-1800.297;1;105;-90;-93.5;44.9;45.2;15;14.9;28.2;0.0;
17/02/2025 13:48:25;100;0;114.52;-4;-19.87;-4.30;816.5;12.00;75582;2837.537;-1800.294;1;105;-90;-93.5;44.9;45.2;15;14.9;28.2;0.0;
17/02/2025 13:48:45;100;0;113.58;-4;-19.89;-4.34;819.0;12.00;75583;2837.536;-1800.291;1;105;-90;-95.2;44.9;45.1;15;14.9;28.2;0.0;
17/02/2025 13:49:05;100;0;112.99;-4;-19.99;-4.27;821.4;12.00;75567;2837.535;-1800.287;1;105;-90;-93.5;44.9;45.4;13;13.1;28.2;0.0;
17/02/2025 13:49:25;100;0;113.10;-4;-20.02;-5.33;823.9;12.00;75560;2837.534;-1800.284;1;105;-90;-91.9;44.9;45.2;13;12.6;28.2;0.0;
17/02/2025 13:49:45;100;0;113.08;-4;-19.84;-5.33;826.2;11.90;75556;2837.533;-1800.281;1;105;-90;-93.5;44.9;45.2;13;12.6;28.2;0.0;
17/02/2025 13:50:05;100;0;112.81;-4;-19.58;-5.15;828.5;11.90;75549;2837.532;-1800.278;1;105;-90;-93.5;44.9;45.1;13;12.6;28.2;0.0;
17/02/2025 13:50:25;100;0;112.15;-4;-19.93;-5.31;830.9;11.90;75542;2837.531;-1800.275;1;105;-90;-93.5;44.9;45.2;13;12.6;28.2;0.0;
17/02/2025 13:50:45;100;0;113.08;-4;-20.24;-5.31;833.2;11.90;75549;2837.530;-1800.272;1;105;-90;-93.5;44.9;45.2;13;12.6;28.2;0.0;
17/02/2025 13:51:05;100;0;111.90;-4;-20.01;-5.30;835.6;11.80;75550;2837.529;-1800.269;1;105;-90;-93.5;44.9;45.2;13;12.6;28.2;0.0;
17/02/2025 13:51:25;100;0;108.94;-4;-19.85;-5.36;838.0;11.80;75528;2837.528;-1800.266;1;105;-90;-93.5;44.9;45.2;13;12.6;28.2;0.0;
17/02/2025 13:51:45;100;0;106.75;-4;-19.79;-5.35;840.3;11.80;75530;2837.528;-1800.263;1;105;-90;-93.5;44.9;45.2;13;12.6;28.2;0.0;
17/02/2025 13:52:05;100;0;106.66;-4;-19.97;-5.36;842.6;11.80;75525;2837.527;-1800.260;1;105;-90;-93.5;44.9;45.2;13;12.6;28.2;0.0;
17/02/2025 13:52:25;100;0;106.29;-4;-19.66;-5.39;844.9;11.80;75526;2837.526;-1800.257;1;105;-90;-93.5;44.9;45.1;13;12.6;28.2;0.0;
17/02/2025 13:52:45;100;0;104.35;-4;-19.69;-5.43;847.2;11.70;75516;2837.526;-1800.253;1;105;-90;-93.5;44.9;45.2;13;12.6;28.2;0.0;
17/02/2025 13:53:05;100;0;105.20;-4;-20.03;-5.36;849.5;11.70;75522;2837.525;-1800.250;1;105;-90;-93.5;44.9;45.2;13;12.6;28.2;0.0;
17/02/2025 13:53:25;100;0;105.16;-4;-20.12;-5.25;851.9;11.70;75511;2837.525;-1800.247;1;105;-90;-93.5;44.9;45.2;13;13.1;28.2;0.0;
17/02/2025 13:53:45;100;0;104.34;-4;-20.45;-5.24;854.5;11.70;75502;2837.524;-1800.244;1;105;-90;-93.5;44.9;45.2;13;12.6;28.2;0.0;
17/02/2025 13:54:05;100;0;102.24;-4;-19.67;-5.29;857.2;11.60;75493;2837.524;-1800.240;1;105;-90;-93.5;44.9;45.1;13;12.6;28.2;0.0;
17/02/2025 13:54:25;100;0;100.35;-4;-19.97;-5.09;859.8;11.60;75493;2837.523;-1800.236;1;105;-90;-93.5;44.9;45.1;13;12.6;28.2;0.0;
17/02/2025 13:54:45;100;0;99.10;-4;-19.34;-5.38;862.5;11.60;75475;2837.523;-1800.232;1;105;-90;-93.5;44.9;45.2;11;10.4;28.2;0.0;
17/02/2025 13:55:05;100;0;101.89;-4;-20.73;-5.78;865.1;11.60;75469;2837.523;-1800.229;1;105;-90;-93.5;44.9;45.2;11;11.7;28.2;0.0;
17/02/2025 13:55:25;100;0;103.12;-4;-20.13;-6.39;867.9;11.50;75464;2837.522;-1800.225;1;105;-90;-93.5;44.9;45.1;13;13.5;28.2;0.0;
17/02/2025 13:55:45;100;0;106.89;-4;-17.67;-4.62;870.8;11.50;75468;2837.521;-1800.221;1;105;-90;-95.2;45.6;45.7;13;13.5;28.2;0.0;
17/02/2025 13:56:05;100;0;104.15;-4;-20.02;-4.23;873.2;11.50;75453;2837.521;-1800.218;1;105;-90;-93.5;45.6;45.9;13;14.0;28.1;0.0;
17/02/2025 13:56:25;100;0;103.27;-4;-21.09;-5.07;875.7;11.50;75442;2837.520;-1800.214;1;105;-90;-93.5;45.6;45.9;13;13.5;28.2;0.0;
17/02/2025 13:56:45;100;0;103.27;-4;-20.99;-4.85;878.2;11.40;75446;2837.520;-1800.211;1;105;-90;-93.5;45.6;45.9;13;13.5;28.2;0.0;
17/02/2025 13:57:05;100;0;104.98;-4;-20.91;-4.91;880.6;11.40;75445;2837.519;-1800.208;1;105;-90;-93.5;45.6;45.9;13;13.5;28.2;0.0;
17/02/2025 13:57:25;100;0;103.25;-4;-21.16;-4.85;883.1;11.40;75439;2837.519;-1800.204;1;105;-90;-93.5;45.6;45.9;13;13.5;28.2;0.0;
17/02/2025 13:57:45;100;0;104.31;-4;-20.77;-4.47;885.7;11.40;75434;2837.518;-1800.201;1;105;-90;-93.5;45.6;45.9;13;14.0;28.2;0.0;
17/02/2025 13:58:05;100;0;103.29;-4;-21.34;-4.84;888.2;11.30;75429;2837.517;-1800.198;1;105;-90;-95.2;45.6;45.9;13;13.5;28.2;0.0;
17/02/2025 13:58:25;100;0;103.63;-4;-22.99;-4.79;890.8;11.30;75425;2837.517;-1800.195;1;105;-90;-93.5;44.7;44.8;13;13.5;28.2;0.0;
17/02/2025 13:58:45;100;0;103.48;-4;-19.01;-5.21;893.9;11.30;75418;2837.516;-1800.190;1;105;-90;-93.5;44.7;44.5;13;13.5;28.2;0.0;
17/02/2025 13:59:05;100;0;102.38;-4;-18.00;-4.93;896.6;11.30;75410;2837.516;-1800.186;1;105;-90;-93.5;45.3;45.5;13;13.5;28.2;0.0;
17/02/2025 13:59:25;100;0;101.95;-4;-20.07;-4.82;899.3;11.30;75411;2837.515;-1800.182;1;105;-90;-91.9;45.3;45.7;13;13.5;28.2;0.0;
17/02/2025 13:59:45;100;0;102.80;-4;-20.75;-4.84;901.7;11.20;75401;2837.515;-1800.179;1;105;-90;-93.5;45.3;45.7;13;14.0;28.2;0.0;
17/02/2025 14:00:05;100;0;103.80;-4;-21.50;-4.64;904.2;11.20;75403;2837.514;-1800.176;1;105;-90;-93.5;45.3;45.7;13;14.0;28.2;0.0;
17/02/2025 14:00:25;100;0;102.15;-4;-21.81;-4.79;906.9;11.20;75394;2837.514;-1800.172;1;106;-90;-93.5;45.3;45.7;13;13.5;28.2;0.0;
17/02/2025 14:00:45;100;0;103.50;-4;-19.93;-4.79;909.9;11.20;75392;2837.513;-1800.168;1;106;-90;-93.5;45.3;45.7;13;13.5;28.2;0.0;
17/02/2025 14:01:05;100;0;101.99;-4;-20.26;-4.93;912.6;11.10;75388;2837.513;-1800.165;1;106;-90;-95.2;45.3;45.7;13;13.5;28.2;0.0;
17/02/2025 14:01:25;100;0;101.50;-4;-21.05;-4.77;915.3;11.10;75384;2837.512;-1800.161;1;106;-90;-93.5;45.3;45.7;11;10.8;28.2;0.0;
17/02/2025 14:01:45;100;0;101.24;-4;-20.35;-5.91;918.1;11.10;75379;2837.512;-1800.157;1;106;-90;-93.5;45.3;45.7;11;11.3;28.2;0.0;
17/02/2025 14:02:05;100;0;101.51;-4;-20.28;-5.98;920.8;11.10;75369;2837.511;-1800.153;1;106;-90;-95.2;45.3;45.8;11;11.7;28.2;0.0;
17/02/2025 14:02:25;100;0;103.52;-4;-21.00;-5.93;923.4;11.10;75375;2837.511;-1800.150;1;106;-90;-93.5;45.3;45.7;11;11.7;28.2;0.0;
17/02/2025 14:02:45;100;0;105.26;-4;-21.35;-5.93;926.1;11.00;75365;2837.510;-1800.146;1;106;-90;-93.5;45.3;45.7;11;11.7;28.2;0.0;
17/02/2025 14:03:05;100;0;104.17;-4;-20.29;-5.90;929.0;11.00;75371;2837.509;-1800.143;1;106;-90;-91.9;45.3;45.7;11;11.7;28.2;0.0;
17/02/2025 14:03:25;100;0;107.00;-4;-21.32;-5.47;931.6;11.00;75354;2837.509;-1800.139;1;106;-90;-93.5;45.3;45.7;13;13.1;28.2;0.0;
17/02/2025 14:03:45;100;0;109.54;-4;-20.71;-5.00;934.3;11.00;75349;2837.508;-1800.136;1;106;-90;-93.5;45.3;45.7;13;13.5;28.2;0.0;
17/02/2025 14:04:05;100;0;109.29;-4;-21.21;-4.83;937.0;11.00;75358;2837.507;-1800.132;1;106;-90;-95.2;45.3;45.7;13;13.5;28.2;0.0;
17/02/2025 14:04:25;100;0;109.70;-4;-20.84;-4.82;939.7;10.90;75339;2837.506;-1800.129;1;106;-90;-93.5;45.3;45.7;13;13.5;28.2;0.0;
17/02/2025 14:04:45;100;0;108.80;-4;-20.75;-4.86;942.3;10.90;75351;2837.505;-1800.125;1;106;-90;-93.5;45.3;45.7;13;13.5;28.2;0.0;
17/02/2025 14:05:05;100;0;108.15;-4;-20.67;-4.90;944.8;10.90;75337;2837.505;-1800.122;1;106;-90;-93.5;45.3;45.8;13;13.5;28.1;0.0;
17/02/2025 14:05:25;100;0;108.25;-4;-20.72;-4.94;947.3;10.90;75335;2837.504;-1800.119;1;106;-90;-93.5;45.3;45.8;13;13.5;28.2;0.0;
17/02/2025 14:05:45;100;0;109.06;-4;-20.54;-4.92;949.7;10.90;75336;2837.503;-1800.116;1;106;-90;-93.5;45.3;45.8;13;13.5;28.2;0.0;
17/02/2025 14:06:05;100;0;108.47;-4;-20.57;-4.87;952.3;10.80;75323;2837.502;-1800.113;1;106;-90;-93.5;45.3;45.8;13;13.5;28.2;0.0;
17/02/2025 14:06:25;100;0;108.71;-4;-20.60;-4.94;954.7;10.80;75326;2837.502;-1800.109;1;106;-90;-96.8;45.3;45.7;13;13.5;28.2;0.0;
17/02/2025 14:06:45;100;0;108.78;-4;-20.55;-4.88;957.2;10.80;75321;2837.501;-1800.106;1;106;-90;-93.5;45.3;45.7;13;13.5;28.2;0.0;
17/02/2025 14:07:05;100;0;105.89;-4;-20.85;-4.91;959.7;10.80;75306;2837.500;-1800.103;1;106;-90;-93.5;45.3;45.7;13;13.5;28.2;0.0;
17/02/2025 14:07:25;100;0;104.97;-4;-21.03;-4.84;962.3;10.80;75313;2837.500;-1800.100;1;106;-90;-93.5;45.3;45.7;13;13.5;28.2;0.0;
17/02/2025 14:07:45;100;0;103.79;-4;-20.93;-4.90;964.9;10.70;75303;2837.499;-1800.096;1;106;-90;-93.5;45.3;45.7;13;13.5;28.2;0.0;
17/02/2025 14:08:05;100;0;103.87;-4;-20.47;-4.90;967.6;10.70;75299;2837.498;-1800.093;1;106;-90;-91.9;45.3;45.8;13;13.5;28.2;0.0;
17/02/2025 14:08:25;100;0;103.47;-4;-20.79;-4.95;970.2;10.70;75294;2837.498;-1800.089;1;106;-90;-93.5;45.3;45.7;13;13.5;28.2;0.0;
17/02/2025 14:08:45;100;0;103.67;-4;-20.57;-4.92;973.0;10.70;75301;2837.497;-1800.085;1;106;-90;-93.5;45.3;45.8;13;13.5;28.2;0.0;
17/02/2025 14:09:05;100;0;104.35;-4;-20.88;-4.95;975.8;10.70;75291;2837.497;-1800.082;1;106;-90;-93.5;45.3;45.8;13;13.5;28.2;0.0;
17/02/2025 14:09:25;100;0;104.27;-4;-20.24;-5.02;978.7;10.60;75282;2837.496;-1800.078;1;106;-90;-93.5;45.3;45.8;13;13.5;28.2;0.0;
17/02/2025 14:09:45;100;0;104.15;-4;-20.39;-4.77;981.3;10.60;75279;2837.495;-1800.074;1;106;-90;-95.2;45.3;45.7;13;13.5;28.2;0.0;
17/02/2025 14:10:05;100;0;100.85;-4;-20.00;-4.98;983.9;10.60;75275;2837.495;-1800.071;1;106;-90;-93.5;45.3;45.7;11;10.8;28.2;0.0;
17/02/2025 14:10:25;100;0;102.19;-4;-20.57;-6.54;986.6;10.60;75264;2837.495;-1800.067;1;106;-90;-93.5;45.3;45.7;11;10.4;28.2;0.0;
17/02/2025 14:10:45;100;0;102.98;-4;-20.11;-6.63;989.1;10.60;75260;2837.494;-1800.064;1;106;-90;-91.9;45.3;45.7;11;10.4;28.2;0.0;
17/02/2025 14:11:05;100;0;103.92;-4;-20.24;-6.62;991.8;10.50;75254;2837.493;-1800.060;1;106;-90;-93.5;45.3;45.8;11;10.4;28.1;0.0;
17/02/2025 14:11:25;100;0;105.19;-4;-19.68;-6.40;994.3;10.50;75252;2837.493;-1800.056;1;106;-90;-93.5;45.3;45.7;11;10.4;28.2;4.9;
17/02/2025 14:11:28;118;0;106.09;-4;-19.90;-6.49;994.5;10.50;75242;2837.493;-1800.056;1;106;270;-88.7;27.7;27.7;9;9.0;28.2;4.2;
17/02/2025 14:11:38;118;0;103.01;-4;-8.18;-8.20;995.5;10.50;75218;2837.493;-1800.054;1;106;270;38.7;27.7;27.4;9;9.0;26.9;-1.0;
17/02/2025 14:11:48;118;0;93.95;-4;13.47;-8.50;995.8;10.50;74951;2837.493;-1800.054;1;106;270;162.9;27.7;27.1;9;9.0;27.0;-1.0;
17/02/2025 14:11:58;118;0;91.45;-4;27.40;-8.21;995.0;10.50;74699;2837.493;-1800.053;1;106;270;271.0;27.7;27.7;9;9.0;27.0;-1.0;
17/02/2025 14:12:08;118;0;135.44;-4;25.83;-8.36;994.0;10.50;74493;2837.492;-1800.052;1;106;270;272.6;27.7;27.8;9;9.0;28.1;-1.0;
17/02/2025 14:12:18;118;0;142.32;-4;24.96;-8.37;992.9;10.50;74516;2837.491;-1800.052;1;106;270;267.7;27.7;27.7;9;9.0;28.1;-1.0;
17/02/2025 14:12:38;117;0;166.22;-4;19.66;-8.18;991.1;10.50;74504;2837.489;-1800.051;1;106;270;271.0;27.7;27.8;9;9.0;28.2;-1.0;
17/02/2025 14:12:58;117;0;172.49;-4;17.58;-8.32;989.2;10.50;74500;2837.487;-1800.051;1;106;270;271.0;26.9;27.1;-45;-45.1;28.1;-1.0;
17/02/2025 14:13:18;117;0;159.75;-4;12.69;-35.47;987.0;10.50;74494;2837.484;-1800.050;1;106;270;271.0;24.7;24.3;-31;-30.7;28.2;-1.0;
17/02/2025 14:13:38;117;0;151.53;-4;18.32;-27.34;984.9;10.50;74493;2837.482;-1800.048;1;105;270;271.0;24.2;24.4;-21;-21.2;28.2;-1.0;
17/02/2025 14:13:58;117;0;145.59;-4;20.42;-22.41;982.3;10.50;74479;2837.479;-1800.046;1;105;270;272.6;24.2;24.4;-15;-14.9;28.2;-1.0;
17/02/2025 14:14:18;117;0;138.24;-4;19.61;-18.62;979.8;10.50;74487;2837.477;-1800.044;1;105;270;271.0;24.2;24.6;-4;-4.1;28.2;-1.0;
17/02/2025 14:14:38;117;0;130.38;-4;20.97;-13.39;977.3;10.50;74485;2837.475;-1800.041;1;105;270;272.6;24.2;24.6;11;10.8;28.2;-1.0;
17/02/2025 14:14:58;117;0;129.44;-4;22.72;-6.39;974.9;10.50;74485;2837.474;-1800.039;1;105;270;271.0;25.0;25.0;11;11.3;28.1;-1.0;
17/02/2025 14:15:18;117;0;127.83;-4;20.20;-5.47;972.0;10.50;74479;2837.472;-1800.036;1;105;270;272.6;25.0;25.2;13;13.5;28.1;-1.0;
17/02/2025 14:15:38;117;0;122.81;-4;22.15;-4.65;969.6;10.40;74482;2837.470;-1800.033;1;105;270;271.0;25.7;25.6;23;23.0;28.1;-1.0;
17/02/2025 14:15:58;117;0;121.44;-4;22.13;0.13;967.4;10.40;74469;2837.469;-1800.031;1;105;270;271.0;26.3;26.4;23;23.5;28.1;-1.0;
17/02/2025 14:16:18;117;0;118.88;-4;20.58;0.10;965.2;10.40;74472;2837.468;-1800.028;1;105;270;271.0;26.3;26.7;27;27.5;28.2;-1.0;
17/02/2025 14:16:39;117;0;113.64;-4;20.34;2.29;963.1;10.40;74467;2837.467;-1800.025;1;105;270;272.6;26.3;26.7;29;28.9;28.2;-1.0;
17/02/2025 14:16:59;117;0;113.51;-4;19.87;3.48;960.8;10.40;74467;2837.466;-1800.023;1;105;270;272.6;26.3;26.7;29;29.3;28.2;-1.0;
17/02/2025 14:17:19;117;0;113.28;-4;20.61;3.24;958.6;10.30;74471;2837.465;-1800.020;1;105;270;272.6;26.3;26.7;29;29.3;28.2;-1.0;
17/02/2025 14:17:39;117;0;114.08;-4;20.10;3.25;956.2;10.30;74477;2837.464;-1800.017;1;105;270;271.0;26.3;26.5;29;29.3;28.2;-1.0;
17/02/2025 14:17:59;117;0;113.98;-4;20.18;3.37;953.9;10.30;74467;2837.463;-1800.014;1;105;270;271.0;26.3;26.5;29;29.3;28.1;-1.0;
17/02/2025 14:18:19;117;0;113.22;-4;19.63;3.22;951.6;10.30;74460;2837.463;-1800.011;1;105;270;271.0;26.3;26.7;29;29.3;28.2;-1.0;
17/02/2025 14:18:39;117;0;113.19;-4;19.66;3.16;949.4;10.30;74451;2837.462;-1800.008;1;105;270;271.0;26.3;26.7;29;29.3;28.2;-1.0;
17/02/2025 14:18:59;117;0;113.25;-4;19.79;3.28;947.3;10.30;74459;2837.461;-1800.005;1;105;270;272.6;26.3;26.7;29;29.3;28.2;-1.0;
17/02/2025 14:19:19;117;0;113.87;-4;19.28;3.31;945.4;10.20;74466;2837.460;-1800.003;1;105;290;288.7;26.3;26.7;29;29.3;28.2;-1.0;
17/02/2025 14:19:39;117;0;114.40;-4;20.12;3.54;943.3;10.20;74409;2837.459;-1800.000;1;105;290;290.3;26.3;26.7;29;29.3;28.2;-1.0;
17/02/2025 14:19:59;117;0;114.21;-4;19.34;3.49;941.2;10.20;74410;2837.458;-1759.997;1;105;290;291.9;26.3;26.7;29;29.3;28.1;-1.0;
17/02/2025 14:20:19;117;0;114.03;-4;19.46;3.37;939.0;10.20;74400;2837.457;-1759.995;1;105;290;293.5;26.3;26.7;29;29.3;28.2;-1.0;
17/02/2025 14:20:39;117;0;114.30;-4;19.31;3.27;936.9;10.20;74406;2837.456;-1759.992;1;105;290;290.3;26.3;26.7;29;29.3;28.2;-1.0;
17/02/2025 14:20:59;117;0;114.02;-4;19.51;3.23;934.8;10.20;74411;2837.455;-1759.989;1;105;290;290.3;26.3;26.7;29;29.3;28.2;-1.0;
17/02/2025 14:21:19;117;0;114.10;-4;19.65;3.27;932.6;10.20;74407;2837.455;-1759.986;1;105;290;290.3;26.3;26.7;29;29.3;28.2;-1.0;
17/02/2025 14:21:39;117;0;114.95;-4;19.44;3.40;930.4;10.20;74401;2837.454;-1759.983;1;105;290;290.3;26.3;26.7;29;29.3;28.2;-1.0;
17/02/2025 14:21:59;117;0;114.86;-4;19.42;3.34;928.2;10.20;74405;2837.453;-1759.980;1;105;290;291.9;26.3;26.7;29;29.3;28.2;-1.0;
17/02/2025 14:22:19;117;0;114.10;-4;19.44;3.33;925.9;10.10;74391;2837.452;-1759.977;1;105;290;291.9;26.3;26.5;29;29.3;28.2;-1.0;
17/02/2025 14:22:39;117;0;113.55;-4;19.04;3.28;923.6;10.10;74401;2837.450;-1759.974;1;105;290;290.3;26.3;26.7;29;29.3;28.2;-1.0;
17/02/2025 14:22:59;117;0;114.13;-4;19.31;3.23;921.4;10.10;74394;2837.450;-1759.971;1;105;290;291.9;26.3;26.5;29;29.3;28.2;-1.0;
17/02/2025 14:23:19;117;0;114.76;-4;19.51;3.43;919.2;10.10;74394;2837.449;-1759.969;1;105;290;291.9;26.3;26.7;29;29.3;28.2;-1.0;
17/02/2025 14:23:39;117;0;115.62;-4;18.60;3.25;917.0;10.10;74387;2837.448;-1759.966;1;105;290;290.3;25.9;25.9;29;29.3;28.2;-1.0;
17/02/2025 14:23:59;117;0;115.20;-4;20.99;3.08;914.9;10.10;74379;2837.447;-1759.963;1;105;290;291.9;25.9;25.5;29;29.3;28.2;-1.0;
17/02/2025 14:24:19;117;0;115.68;-4;21.86;3.22;912.6;10.10;74379;2837.446;-1759.961;1;105;290;290.3;25.9;25.3;29;29.3;28.2;-1.0;
17/02/2025 14:24:39;117;0;115.79;-4;21.51;3.17;910.2;10.10;74393;2837.445;-1759.958;1;105;290;290.3;25.9;25.2;29;29.3;28.2;-1.0;
17/02/2025 14:24:59;117;0;115.10;-4;21.82;3.14;907.8;10.00;74380;2837.444;-1759.955;1;105;290;291.9;25.9;25.3;29;29.3;28.2;-1.0;
17/02/2025 14:25:19;117;0;114.26;-4;21.80;3.32;905.5;10.00;74376;2837.443;-1759.952;1;105;290;291.9;25.9;25.3;29;29.3;28.2;-1.0;
17/02/2025 14:25:39;117;0;114.06;-4;21.53;3.30;903.0;10.00;74384;2837.442;-1759.949;1;105;290;291.9;25.9;25.3;29;29.3;28.2;-1.0;
17/02/2025 14:25:59;117;0;114.40;-4;21.87;3.28;900.7;10.00;74376;2837.441;-1759.946;1;105;290;291.9;25.9;25.3;29;29.3;28.2;-1.0;
17/02/2025 14:26:19;117;0;113.83;-4;21.85;3.17;898.1;10.00;74377;2837.440;-1759.943;1;105;290;290.3;25.9;25.3;29;29.3;28.2;-1.0;
17/02/2025 14:26:39;117;0;113.23;-4;21.65;3.27;895.6;10.00;74372;2837.439;-1759.940;1;105;290;291.9;25.9;25.3;29;29.3;28.2;-1.0;
17/02/2025 14:26:59;117;0;110.20;-4;21.28;3.27;893.1;10.00;74380;2837.438;-1759.937;1;105;290;291.9;25.9;25.3;29;29.3;28.2;-1.0;
17/02/2025 14:27:19;117;0;111.28;-4;21.44;3.20;890.5;10.00;74386;2837.437;-1759.934;1;105;290;291.9;25.9;25.3;29;29.3;28.2;-1.0;
17/02/2025 14:27:39;117;0;110.91;-4;21.45;3.22;887.9;10.00;74400;2837.436;-1759.931;1;105;290;291.9;25.9;25.2;29;29.3;28.2;-1.0;
17/02/2025 14:27:59;117;0;110.70;-4;21.68;3.36;885.4;10.00;74395;2837.435;-1759.928;1;105;290;291.9;25.9;25.2;29;29.3;28.2;-1.0;
17/02/2025 14:28:19;117;0;110.24;-4;21.56;3.15;882.9;10.00;74400;2837.435;-1759.925;1;105;290;291.9;25.9;25.2;29;29.3;28.1;-1.0;
17/02/2025 14:28:39;117;0;109.04;-4;21.66;3.27;880.3;10.00;74413;2837.434;-1759.921;1;105;290;291.9;25.9;25.2;29;29.3;28.2;-1.0;
17/02/2025 14:28:59;117;0;109.09;-4;21.52;3.25;877.7;10.00;74401;2837.433;-1759.918;1;105;290;291.9;25.9;25.3;29;29.3;28.2;-1.0;
17/02/2025 14:29:19;117;0;108.96;-4;21.69;3.10;874.9;10.00;74406;2837.432;-1759.915;1;105;290;291.9;25.9;25.3;29;29.3;28.2;-1.0;
