Timestamp;NavState;SecurityLevel;Heading;Declination;Pitch;Roll;Depth;Temperature;Pa;Lat;Lon;DeadReckoning;DesiredH;BallastCmd;BallastPos;LinCmd;LinPos;AngCmd;AngPos;Voltage;Altitude;
13/02/2025 07:18:37;119;0;43.73;-4;-57.61;-17.00;0.1;18.50;76208;2835.755;-1759.010;0;23;500;509.7;100.0;100.7;0;-0.5;28.8;-1.0;
13/02/2025 07:18:47;116;0;48.52;-4;-46.22;-14.73;0.1;18.50;76211;2835.756;-1759.011;0;23;500;509.7;100.0;100.7;0;-0.5;28.8;-1.0;
13/02/2025 07:19:14;116;0;43.15;-4;-52.86;-11.35;0.1;18.60;76224;2835.757;-1759.011;0;23;500;509.7;100.0;100.7;0;-0.5;28.8;-1.0;
13/02/2025 07:19:33;116;0;54.01;-4;-52.89;-10.22;0.1;18.70;76224;2835.757;-1759.011;0;23;500;509.7;100.0;100.7;0;-0.5;28.8;-1.0;
13/02/2025 07:19:55;116;0;64.90;-4;-52.11;-16.45;0.1;18.80;76231;2835.757;-1759.012;0;23;500;509.7;100.0;100.7;0;-0.5;28.7;-1.0;
13/02/2025 07:20:15;116;0;47.03;-4;-52.70;-13.35;0.1;18.90;76229;2835.757;-1759.011;0;23;500;508.1;100.0;100.7;0;-0.5;28.8;-1.0;
13/02/2025 07:21:18;116;0;36.36;-4;-54.27;-11.32;0.1;19.10;76257;2835.759;-1759.009;0;23;500;508.1;100.0;100.7;0;-0.5;28.8;-1.0;
13/02/2025 07:21:32;116;0;39.71;-4;-57.52;-5.40;0.1;19.10;76255;2835.759;-1759.009;0;23;500;509.7;100.0;100.7;0;-0.5;28.8;-1.0;
13/02/2025 07:22:35;116;0;25.72;-4;-53.51;-13.33;0.1;19.30;76270;2835.761;-1759.009;0;23;500;508.1;100.0;100.7;0;-0.5;28.8;-1.0;
13/02/2025 07:23:12;116;0;34.85;-4;-59.91;-22.91;0.2;19.40;76280;2835.762;-1759.009;0;23;500;509.7;100.0;100.7;0;-0.5;28.8;-1.0;
13/02/2025 07:23:23;116;0;36.32;-4;-54.21;-14.18;0.1;19.50;76289;2835.762;-1759.009;0;23;500;509.7;100.0;100.7;0;-0.5;28.8;-1.0;
13/02/2025 07:23:43;110;0;45.34;-4;-57.10;-12.69;-0.0;19.60;76292;2835.762;-1759.009;0;23;-100;395.2;100.0;99.9;-12;-12.6;28.8;-1.0;
13/02/2025 07:23:53;110;0;57.69;-4;-54.93;-28.73;0.2;19.60;76640;2835.762;-1759.009;1;23;-100;245.2;100.0;99.7;-12;-13.1;28.7;-1.0;
13/02/2025 07:24:03;110;0;50.11;-4;-59.03;-14.21;0.7;19.60;76883;2835.763;-1759.009;1;23;-100;83.9;100.0;99.7;-12;-12.6;28.7;-1.0;
13/02/2025 07:24:13;110;0;29.01;-4;-67.22;-12.53;0.9;19.70;77220;2835.763;-1759.009;1;23;-100;-74.2;100.0;99.7;-12;-13.1;28.7;-1.0;
13/02/2025 07:24:23;110;0;8.70;-4;-67.14;-19.85;1.2;19.70;77558;2835.763;-1759.009;1;23;-100;-98.4;49.2;49.2;-12;-13.1;28.7;-1.0;
13/02/2025 07:24:33;110;0;14.93;-4;-52.97;-18.13;2.9;19.80;77567;2835.763;-1759.009;1;23;-100;-100.0;49.2;49.0;-12;-13.1;28.7;-1.0;
13/02/2025 07:24:53;100;0;29.50;-4;-31.21;-18.12;7.5;19.80;77587;2835.767;-1759.007;1;23;-100;-96.8;49.2;48.9;-12;-13.1;28.8;-1.0;
13/02/2025 07:25:13;100;0;39.41;-4;-29.01;-17.26;12.7;19.90;77595;2835.770;-1759.004;1;23;-100;-96.8;49.2;48.9;19;19.0;28.8;-1.0;
13/02/2025 07:25:33;100;0;39.45;-4;-31.23;-2.15;17.4;19.90;77594;2835.773;-1759.001;1;23;-100;-95.2;49.2;48.9;19;19.4;28.8;0.0;
13/02/2025 07:25:53;100;0;39.41;-4;-31.46;-2.11;22.2;19.90;77593;2835.776;-1758.998;1;23;-100;-95.2;49.2;48.9;19;19.4;28.8;0.0;
13/02/2025 07:26:13;100;0;36.54;-4;-31.81;-1.94;26.9;19.90;77609;2835.779;-1758.996;1;23;-100;-96.8;49.2;48.9;15;14.4;28.8;0.0;
13/02/2025 07:26:33;100;0;35.15;-4;-31.92;-4.50;31.6;19.90;77609;2835.782;-1758.994;1;23;-100;-96.8;49.2;48.9;15;14.4;28.8;0.0;
13/02/2025 07:26:53;100;0;31.40;-4;-31.91;-4.38;36.4;19.90;77609;2835.785;-1758.991;1;23;-100;-98.4;49.2;48.9;11;10.8;28.8;0.0;
13/02/2025 07:27:13;100;0;30.03;-4;-31.62;-6.31;41.3;20.00;77621;2835.789;-1758.989;1;23;-100;-95.2;49.2;48.9;11;10.4;28.8;0.0;
13/02/2025 07:27:33;100;0;28.31;-4;-31.43;-6.39;46.2;20.00;77618;2835.792;-1758.987;1;23;-100;-95.2;49.2;48.9;11;10.4;28.8;0.0;
13/02/2025 07:27:53;100;0;26.15;-4;-31.47;-6.49;51.0;20.00;77618;2835.796;-1758.985;1;23;-100;-95.2;49.2;48.9;11;10.8;28.8;0.0;
13/02/2025 07:28:14;100;0;27.20;-4;-31.27;-6.15;56.0;20.00;77618;2835.799;-1758.983;1;23;-100;-95.2;49.2;48.9;11;10.4;28.8;0.0;
13/02/2025 07:28:34;100;0;29.06;-4;-30.99;-6.26;60.8;20.00;77626;2835.803;-1758.981;1;23;-100;-95.2;49.2;48.9;11;10.4;28.7;0.0;
13/02/2025 07:28:54;100;0;29.89;-4;-31.30;-6.62;65.7;20.00;77637;2835.806;-1758.979;1;23;-100;-95.2;49.2;48.9;11;10.4;28.8;0.0;
13/02/2025 07:29:14;100;0;28.96;-4;-31.50;-6.43;70.7;20.00;77628;2835.810;-1758.977;1;23;-100;-95.2;49.2;48.9;11;10.4;28.8;0.0;
13/02/2025 07:29:34;100;0;32.22;-4;-30.73;-6.39;75.5;20.00;77637;2835.813;-1758.975;1;23;-100;-96.8;49.2;48.9;11;10.4;28.8;0.0;
13/02/2025 07:29:54;100;0;32.09;-4;-30.61;-6.51;80.2;20.00;77642;2835.816;-1758.972;1;23;-100;-95.2;49.2;48.9;11;10.4;28.8;0.0;
13/02/2025 07:30:14;100;0;32.07;-4;-31.23;-6.48;84.8;20.00;77628;2835.819;-1758.970;1;23;-100;-96.8;49.2;48.9;11;10.4;28.8;0.0;
13/02/2025 07:30:34;100;0;31.23;-4;-31.40;-6.37;89.7;20.00;77636;2835.823;-1758.968;1;23;-100;-95.2;49.2;48.9;11;10.4;28.8;0.0;
13/02/2025 07:30:54;100;0;30.22;-4;-31.29;-6.42;94.5;20.00;77642;2835.826;-1758.966;1;23;-100;-95.2;49.2;48.9;11;10.4;28.8;0.0;
13/02/2025 07:31:14;100;0;28.79;-4;-31.23;-6.44;99.3;20.00;77639;2835.830;-1758.964;1;23;-100;-95.2;49.2;48.9;11;10.4;28.8;0.0;
13/02/2025 07:31:34;100;0;27.31;-4;-31.14;-6.41;104.0;20.00;77644;2835.833;-1758.962;1;23;-100;-96.8;49.2;48.9;11;10.4;28.8;0.0;
13/02/2025 07:31:54;100;0;25.50;-4;-31.17;-6.46;108.6;20.00;77650;2835.836;-1758.960;1;23;-100;-96.8;49.2;48.9;11;10.4;28.8;0.0;
13/02/2025 07:32:14;100;0;22.67;-4;-30.72;-6.40;113.2;20.00;77650;2835.840;-1758.958;1;23;-100;-96.8;49.2;48.9;11;10.4;28.8;0.0;
13/02/2025 07:32:34;100;0;22.16;-4;-30.40;-6.53;117.6;20.00;77645;2835.843;-1758.957;1;23;-100;-95.2;49.2;48.9;11;10.4;28.8;0.0;
13/02/2025 07:32:54;100;0;22.63;-4;-30.52;-6.56;121.7;20.00;77627;2835.846;-1758.956;1;23;-100;-95.2;49.2;48.9;11;10.4;28.8;0.0;
13/02/2025 07:33:14;100;0;21.03;-4;-32.54;-6.38;126.2;20.00;77628;2835.850;-1758.954;1;23;-100;-95.2;48.5;48.3;11;10.4;28.8;0.0;
13/02/2025 07:33:34;100;0;19.55;-4;-31.65;-6.33;131.0;20.00;77609;2835.853;-1758.953;1;23;-100;-96.8;48.5;48.2;11;10.4;28.8;0.0;
13/02/2025 07:33:54;100;0;20.67;-4;-30.38;-6.43;135.6;20.00;77556;2835.857;-1758.951;1;23;-100;-98.4;48.5;48.2;11;10.8;28.8;0.0;
13/02/2025 07:34:14;100;0;24.51;-4;-30.00;-6.42;140.0;20.00;77523;2835.860;-1758.950;1;23;-100;-96.8;48.5;48.2;11;10.4;28.7;0.0;
13/02/2025 07:34:34;100;0;30.29;-4;-29.81;-6.47;144.1;19.90;77505;2835.863;-1758.948;1;23;-100;-96.8;48.5;48.2;11;10.4;28.8;0.0;
13/02/2025 07:34:54;100;0;31.55;-4;-30.29;-6.36;148.4;19.90;77478;2835.866;-1758.946;1;23;-100;-98.4;48.5;48.2;11;10.4;28.8;0.0;
13/02/2025 07:35:14;100;0;29.63;-4;-29.00;-6.61;152.5;19.90;77454;2835.869;-1758.944;1;23;-100;-96.8;48.5;48.3;11;10.4;28.8;0.0;
13/02/2025 07:35:34;100;0;33.65;-4;-28.76;-6.39;156.4;19.80;77422;2835.872;-1758.942;1;23;-100;-96.8;48.8;48.9;13;13.1;28.7;0.0;
13/02/2025 07:35:54;100;0;31.48;-4;-29.67;-5.03;160.3;19.80;77406;2835.875;-1758.940;1;23;-100;-95.2;48.8;49.2;13;13.5;28.8;0.0;
13/02/2025 07:36:14;100;0;30.03;-4;-29.83;-5.07;164.2;19.80;77385;2835.878;-1758.938;1;23;-100;-95.2;48.8;49.2;11;10.8;28.8;0.0;
13/02/2025 07:36:34;100;0;27.47;-4;-30.38;-6.44;168.3;19.70;77378;2835.881;-1758.936;1;23;-100;-95.2;48.8;49.2;11;10.4;28.8;0.0;
13/02/2025 07:36:54;100;0;23.43;-4;-30.29;-6.36;172.5;19.70;77358;2835.884;-1758.935;1;23;-100;-96.8;48.8;49.2;11;10.8;28.8;0.0;
13/02/2025 07:37:14;100;0;22.11;-4;-29.96;-6.41;176.8;19.60;77352;2835.887;-1758.934;1;23;-100;-96.8;48.8;49.2;11;10.8;28.8;0.0;
13/02/2025 07:37:34;100;0;18.98;-4;-30.91;-6.43;181.1;19.60;77336;2835.891;-1758.932;1;23;-100;-96.8;48.8;49.2;11;10.8;28.8;0.0;
13/02/2025 07:37:54;100;0;19.32;-4;-31.54;-6.31;185.8;19.50;77319;2835.894;-1758.931;1;23;-100;-95.2;48.8;49.2;11;10.8;28.8;0.0;
13/02/2025 07:38:14;100;0;20.54;-4;-31.89;-6.32;191.0;19.50;77314;2835.898;-1758.930;1;23;-100;-95.2;48.8;49.2;11;10.8;28.8;0.0;
13/02/2025 07:38:34;100;0;21.56;-4;-32.65;-5.95;196.2;19.50;77296;2835.902;-1758.928;1;23;-100;-95.2;48.0;47.9;11;10.8;28.7;0.0;
13/02/2025 07:38:54;100;0;22.29;-4;-29.55;-6.39;201.2;19.40;77275;2835.906;-1758.926;1;23;-100;-95.2;48.0;47.7;11;10.8;28.8;0.0;
13/02/2025 07:39:14;100;0;27.05;-4;-28.96;-6.42;206.0;19.40;77248;2835.909;-1758.924;1;23;-100;-98.4;48.3;48.3;11;10.4;28.8;0.0;
13/02/2025 07:39:34;100;0;25.23;-4;-29.26;-6.41;210.6;19.30;77242;2835.913;-1758.922;1;23;-100;-95.2;48.3;48.5;11;10.8;28.8;0.0;
13/02/2025 07:39:54;100;0;24.02;-4;-28.77;-6.42;215.1;19.30;77225;2835.917;-1758.921;1;23;-100;-98.4;48.7;48.7;11;10.4;28.8;0.0;
13/02/2025 07:40:14;100;0;24.32;-4;-29.49;-6.42;219.6;19.20;77215;2835.920;-1758.919;1;23;-100;-96.8;48.7;48.9;11;10.4;28.8;0.0;
13/02/2025 07:40:34;100;0;25.04;-4;-29.78;-6.40;224.2;19.20;77206;2835.924;-1758.917;1;23;-100;-96.8;48.7;48.9;11;10.8;28.8;0.0;
13/02/2025 07:40:54;100;0;22.86;-4;-29.17;-6.43;228.8;19.20;77196;2835.928;-1758.915;1;23;-100;-96.8;48.7;49.0;11;10.8;28.7;0.0;
13/02/2025 07:41:14;100;0;17.77;-4;-29.35;-6.51;233.3;19.10;77179;2835.931;-1758.914;1;23;-100;-95.2;48.7;48.9;9;9.0;28.8;0.0;
13/02/2025 07:41:34;100;0;18.85;-4;-29.33;-7.50;237.8;19.00;77165;2835.935;-1758.913;1;23;-100;-96.8;48.7;48.9;9;8.1;28.8;0.0;
13/02/2025 07:41:54;100;0;19.39;-4;-29.42;-7.50;242.3;19.00;77153;2835.939;-1758.911;1;23;-100;-96.8;48.7;48.9;9;8.1;28.8;0.0;
13/02/2025 07:42:14;100;0;19.06;-4;-29.78;-7.51;246.8;19.00;77141;2835.942;-1758.910;1;23;-100;-96.8;48.7;48.9;9;8.6;28.8;0.0;
13/02/2025 07:42:34;100;0;22.04;-4;-29.84;-7.53;251.3;18.90;77135;2835.946;-1758.909;1;23;-100;-96.8;48.7;48.9;9;8.1;28.8;0.0;
13/02/2025 07:42:54;100;0;25.32;-4;-29.32;-7.45;255.9;18.90;77125;2835.950;-1758.907;1;23;-100;-95.2;48.7;49.0;9;8.6;28.7;0.0;
13/02/2025 07:43:14;100;0;27.67;-4;-29.57;-7.45;260.3;18.80;77111;2835.953;-1758.905;1;23;-100;-95.2;48.7;49.0;9;8.1;28.8;0.0;
13/02/2025 07:43:34;100;0;26.13;-4;-30.21;-7.43;264.6;18.80;77089;2835.956;-1758.903;1;23;-100;-95.2;48.7;48.9;9;8.1;28.8;0.0;
13/02/2025 07:43:54;100;0;22.07;-4;-30.14;-7.49;269.1;18.70;77066;2835.960;-1758.901;1;23;-100;-96.8;48.7;49.0;9;8.1;28.8;0.0;
13/02/2025 07:44:14;100;0;20.52;-4;-30.28;-7.45;273.6;18.70;77053;2835.963;-1758.900;1;23;-100;-96.8;48.7;49.0;9;8.6;28.8;0.0;
13/02/2025 07:44:34;100;0;19.15;-4;-30.22;-7.52;278.1;18.60;77039;2835.967;-1758.899;1;23;-100;-96.8;48.7;48.9;9;8.1;28.8;0.0;
13/02/2025 07:44:54;100;0;21.71;-4;-29.98;-7.48;282.5;18.50;77027;2835.970;-1758.897;1;23;-100;-96.8;48.7;48.9;9;8.1;28.8;0.0;
13/02/2025 07:45:14;100;0;25.63;-4;-29.71;-7.47;286.9;18.50;77009;2835.974;-1758.896;1;23;-100;-96.8;48.7;48.9;9;8.6;28.8;0.0;
13/02/2025 07:45:34;100;0;28.35;-4;-29.09;-7.51;291.1;18.40;77000;2835.977;-1758.894;1;23;-100;-95.2;48.7;48.9;9;8.6;28.8;0.0;
13/02/2025 07:45:54;100;0;33.67;-4;-31.39;-7.51;295.5;18.40;76989;2835.980;-1758.892;1;23;-100;-96.8;48.7;48.9;13;13.1;28.8;0.0;
13/02/2025 07:46:14;100;0;35.38;-4;-30.43;-4.95;300.3;18.30;76968;2835.983;-1758.889;1;23;-100;-96.8;48.7;49.0;13;13.1;28.8;0.0;
13/02/2025 07:46:34;100;0;34.62;-4;-29.87;-5.01;304.8;18.30;76940;2835.986;-1758.886;1;23;-100;-95.2;48.7;48.9;13;13.1;28.8;0.0;
13/02/2025 07:46:54;100;0;32.72;-4;-29.21;-5.10;309.1;18.20;76937;2835.990;-1758.884;1;23;-100;-96.8;48.7;49.0;13;13.1;28.8;0.0;
13/02/2025 07:47:14;100;0;29.48;-4;-29.06;-5.30;313.3;18.20;76920;2835.993;-1758.882;1;23;-100;-98.4;48.7;48.9;11;10.8;28.8;0.0;
13/02/2025 07:47:34;100;0;25.72;-4;-29.58;-6.68;317.5;18.10;76912;2835.996;-1758.881;1;23;-100;-96.8;48.7;49.0;11;10.4;28.8;0.0;
13/02/2025 07:47:54;100;0;24.00;-4;-29.45;-6.70;321.7;18.00;76891;2835.999;-1758.879;1;23;-100;-96.8;48.7;48.9;11;10.4;28.7;0.0;
13/02/2025 07:48:14;100;0;21.49;-4;-29.05;-6.77;325.8;18.00;76886;2836.003;-1758.878;1;23;-100;-98.4;48.7;48.9;11;10.4;28.8;0.0;
13/02/2025 07:48:34;100;0;22.51;-4;-29.91;-6.50;330.1;17.90;76880;2836.006;-1758.876;1;23;-100;-96.8;48.7;48.9;11;10.4;28.8;0.0;
13/02/2025 07:48:54;100;0;20.80;-4;-29.76;-6.64;334.5;17.90;76869;2836.009;-1758.875;1;23;-100;-95.2;48.7;49.0;11;10.4;28.8;0.0;
13/02/2025 07:49:14;100;0;22.17;-4;-29.65;-6.54;339.0;17.80;76860;2836.013;-1758.873;1;23;-100;-95.2;48.7;48.9;11;10.4;28.8;0.0;
13/02/2025 07:49:34;100;0;24.11;-4;-29.63;-6.55;343.3;17.80;76837;2836.016;-1758.872;1;23;-100;-95.2;48.7;48.9;11;10.4;28.8;0.0;
13/02/2025 07:49:54;100;0;25.12;-4;-30.68;-6.57;347.8;17.70;76828;2836.020;-1758.870;1;23;-100;-95.2;48.7;48.9;11;10.4;28.8;0.0;
13/02/2025 07:50:14;100;0;25.46;-4;-29.96;-6.39;352.6;17.60;76804;2836.023;-1758.868;1;23;-100;-95.2;48.7;48.9;11;10.4;28.8;0.0;
13/02/2025 07:50:34;100;0;24.59;-4;-29.45;-6.59;357.1;17.60;76797;2836.027;-1758.866;1;23;-100;-96.8;48.7;48.9;11;10.4;28.8;0.0;
13/02/2025 07:50:54;100;0;23.11;-4;-29.65;-6.38;361.6;17.50;76773;2836.030;-1758.865;1;23;-100;-95.2;48.7;48.9;11;10.4;28.8;0.0;
13/02/2025 07:51:14;100;0;21.45;-4;-29.55;-6.51;366.1;17.50;76763;2836.034;-1758.863;1;23;-100;-95.2;48.7;49.0;11;10.4;28.7;0.0;
13/02/2025 07:51:34;100;0;18.68;-4;-29.08;-6.64;370.6;17.40;76754;2836.038;-1758.862;1;23;-100;-96.8;48.7;48.9;11;10.4;28.8;0.0;
13/02/2025 07:51:54;100;0;17.95;-4;-29.32;-6.60;375.1;17.40;76748;2836.041;-1758.861;1;23;-100;-95.2;48.7;49.0;9;9.0;28.8;0.0;
13/02/2025 07:52:14;100;0;14.39;-4;-29.04;-7.35;379.7;17.30;76739;2836.045;-1758.860;1;23;-100;-95.2;48.7;49.0;7;6.8;28.8;0.0;
13/02/2025 07:52:34;100;0;14.88;-4;-29.03;-8.45;384.4;17.30;76733;2836.049;-1758.858;1;23;-100;-96.8;48.7;48.9;7;6.8;28.8;0.0;
13/02/2025 07:52:54;100;0;14.15;-4;-29.08;-8.34;389.0;17.20;76719;2836.053;-1758.857;1;23;-100;-95.2;48.7;49.0;7;6.8;28.8;0.0;
13/02/2025 07:53:14;100;0;17.57;-4;-28.98;-8.70;393.7;17.20;76708;2836.057;-1758.856;1;23;-100;-96.8;49.0;48.9;9;9.0;28.8;0.0;
13/02/2025 07:53:34;100;0;24.10;-4;-29.28;-6.91;398.5;17.10;76701;2836.061;-1758.854;1;23;-100;-96.8;49.0;48.9;9;9.0;28.8;0.0;
13/02/2025 07:53:54;100;0;28.42;-4;-29.76;-6.89;403.4;17.10;76685;2836.065;-1758.852;1;23;-100;-95.2;49.0;49.0;9;9.0;28.8;0.0;
13/02/2025 07:54:14;100;0;31.43;-4;-29.72;-7.05;408.3;17.00;76675;2836.068;-1758.850;1;23;-100;-96.8;49.0;48.9;11;10.8;28.8;0.0;
13/02/2025 07:54:34;100;0;35.60;-4;-29.58;-5.98;413.0;17.00;76669;2836.072;-1758.847;1;23;-100;-96.8;49.0;49.0;15;15.3;28.8;0.0;
13/02/2025 07:54:54;100;0;39.00;-4;-30.11;-3.88;417.7;16.90;76658;2836.075;-1758.844;1;23;-100;-95.2;49.0;48.9;19;19.0;28.8;0.0;
13/02/2025 07:55:14;100;0;40.88;-4;-30.50;-2.12;422.5;16.90;76644;2836.078;-1758.841;1;23;-100;-95.2;49.0;49.0;22;22.1;28.8;0.0;
13/02/2025 07:55:34;100;0;39.32;-4;-30.64;-0.51;427.2;16.80;76630;2836.081;-1758.839;1;23;-100;-95.2;49.0;49.0;19;19.0;28.8;0.0;
13/02/2025 07:55:54;100;0;39.44;-4;-29.90;-2.38;431.9;16.70;76625;2836.084;-1758.836;1;23;-100;-95.2;49.0;48.9;19;19.0;28.8;0.0;
13/02/2025 07:56:14;100;0;41.13;-4;-30.19;-2.25;436.3;16.70;76623;2836.086;-1758.833;1;23;-100;-96.8;49.0;48.9;22;22.1;28.8;0.0;
13/02/2025 07:56:34;100;0;42.46;-4;-30.27;-0.75;440.8;16.60;76604;2836.089;-1758.830;1;22;-100;-96.8;49.0;49.0;26;26.2;28.8;0.0;
13/02/2025 07:56:54;100;0;41.58;-4;-30.20;1.11;445.0;16.60;76598;2836.092;-1758.828;1;22;-100;-95.2;49.0;49.0;26;26.6;28.8;0.0;
13/02/2025 07:57:14;100;0;38.83;-4;-30.23;1.72;449.3;16.50;76592;2836.095;-1758.825;1;22;-100;-95.2;49.0;48.9;20;19.9;28.7;0.0;
13/02/2025 07:57:34;100;0;32.21;-4;-29.68;-2.11;453.4;16.50;76570;2836.098;-1758.823;1;22;-100;-96.8;49.0;48.9;13;13.1;28.8;0.0;
13/02/2025 07:57:54;100;0;31.72;-4;-29.31;-5.42;457.4;16.50;76571;2836.100;-1758.821;1;22;-100;-96.8;49.0;49.0;13;12.6;28.8;0.0;
13/02/2025 07:58:14;100;0;29.84;-4;-29.68;-5.42;461.4;16.40;76570;2836.103;-1758.819;1;22;-100;-95.2;49.0;49.0;11;10.8;28.7;0.0;
13/02/2025 07:58:34;100;0;29.70;-4;-29.27;-6.54;465.3;16.30;76543;2836.106;-1758.817;1;22;-100;-96.8;49.0;48.9;11;10.4;28.8;0.0;
13/02/2025 07:58:54;100;0;28.34;-4;-29.19;-6.45;469.2;16.30;76536;2836.109;-1758.816;1;22;-100;-95.2;49.0;49.0;11;10.4;28.8;0.0;
13/02/2025 07:59:14;100;0;26.11;-4;-29.38;-6.46;473.2;16.30;76541;2836.112;-1758.814;1;22;-100;-95.2;49.0;49.0;11;10.8;28.8;0.0;
13/02/2025 07:59:34;100;0;24.39;-4;-29.35;-6.50;477.1;16.20;76522;2836.116;-1758.812;1;22;-100;-96.8;49.0;48.9;11;10.4;28.8;0.0;
13/02/2025 07:59:54;100;0;22.50;-4;-29.01;-6.54;481.0;16.20;76517;2836.119;-1758.811;1;22;-100;-98.4;49.0;49.0;11;10.4;28.8;0.0;
13/02/2025 08:00:14;100;0;22.48;-4;-28.99;-6.46;484.9;16.10;76517;2836.122;-1758.810;1;22;-100;-95.2;49.3;49.3;11;10.8;28.8;0.0;
13/02/2025 08:00:34;100;0;21.71;-4;-29.62;-6.48;488.8;16.10;76506;2836.125;-1758.808;1;22;-100;-95.2;49.3;49.5;11;10.8;28.8;0.0;
13/02/2025 08:00:54;100;0;20.55;-4;-29.28;-6.56;492.7;16.00;76508;2836.128;-1758.807;1;22;-100;-95.2;49.3;49.5;11;10.8;28.8;0.0;
13/02/2025 08:01:14;100;0;18.78;-4;-29.52;-6.51;496.6;16.00;76497;2836.131;-1758.806;1;22;-100;-98.4;49.3;49.6;11;10.4;28.8;0.0;
13/02/2025 08:01:26;118;0;16.55;-4;-29.84;-6.61;498.9;16.00;76487;2836.133;-1758.806;1;22;220;-91.9;20.4;20.5;11;10.4;28.7;0.0;
13/02/2025 08:01:36;118;0;55.15;-4;-16.25;-7.19;500.2;16.00;76473;2836.134;-1758.804;1;22;220;40.3;20.4;20.3;11;10.4;28.0;-1.0;
13/02/2025 08:01:46;118;0;47.04;-4;12.90;-7.15;500.6;15.90;76185;2836.134;-1758.803;1;22;220;167.7;20.4;20.5;11;10.4;28.0;-1.0;
13/02/2025 08:01:56;118;0;43.04;-4;26.87;-7.80;499.8;15.90;75927;2836.135;-1758.803;1;22;220;221.0;20.4;20.6;11;10.4;28.0;-1.0;
13/02/2025 08:02:06;118;0;19.52;-4;29.93;-7.52;498.6;15.90;75815;2836.136;-1758.803;1;22;220;221.0;20.4;20.6;11;10.4;28.8;-1.0;
13/02/2025 08:02:26;117;0;16.78;-4;30.93;-7.50;495.6;15.90;75819;2836.138;-1758.802;1;22;220;222.6;20.4;20.6;11;10.4;28.7;-1.0;
13/02/2025 08:02:47;117;0;11.75;-4;31.23;-7.53;492.2;15.80;75816;2836.141;-1758.801;1;22;220;222.6;20.4;20.6;39;38.8;28.7;-1.0;
13/02/2025 08:03:07;117;0;12.82;-4;33.07;8.09;488.8;15.80;75810;2836.143;-1758.801;1;22;220;222.6;21.3;21.5;39;39.3;28.8;-1.0;
13/02/2025 08:03:27;117;0;12.03;-4;32.29;8.10;485.3;15.70;75809;2836.146;-1758.800;1;22;220;222.6;22.0;22.1;39;39.3;28.8;-1.0;
13/02/2025 08:03:47;117;0;11.59;-4;31.18;8.13;481.9;15.70;75802;2836.149;-1758.800;1;22;220;222.6;22.0;22.2;39;39.3;28.8;-1.0;
13/02/2025 08:04:07;117;0;11.38;-4;30.90;8.11;478.6;15.70;75798;2836.151;-1758.799;1;22;220;224.2;22.0;22.2;39;39.3;28.8;-1.0;
13/02/2025 08:04:27;117;0;11.41;-4;30.62;8.11;475.4;15.60;75797;2836.154;-1758.799;1;22;220;221.0;22.0;22.1;39;39.3;28.8;-1.0;
13/02/2025 08:04:47;117;0;11.93;-4;30.76;8.08;472.4;15.60;75788;2836.156;-1758.799;1;22;220;222.6;22.0;22.2;39;39.3;28.7;-1.0;
13/02/2025 08:05:07;117;0;13.43;-4;30.63;8.03;469.3;15.60;75788;2836.159;-1758.798;1;22;220;222.6;22.0;22.1;39;39.3;28.8;-1.0;
13/02/2025 08:05:27;117;0;20.64;-4;30.21;8.12;466.3;15.50;75784;2836.161;-1758.797;1;22;220;222.6;22.0;22.1;34;33.4;28.8;-1.0;
13/02/2025 08:05:47;117;0;19.32;-4;30.57;5.20;463.2;15.50;75777;2836.163;-1758.796;1;22;220;222.6;22.0;22.2;34;33.8;28.8;-1.0;
13/02/2025 08:06:07;117;0;19.99;-4;30.46;5.23;460.0;15.40;75770;2836.166;-1758.795;1;22;220;222.6;22.0;22.1;34;33.8;28.8;-1.0;
13/02/2025 08:06:27;117;0;20.31;-4;29.83;5.01;456.7;15.40;75769;2836.168;-1758.794;1;23;220;222.6;22.0;22.2;34;33.8;28.8;-1.0;
13/02/2025 08:06:47;117;0;20.87;-4;30.70;4.98;453.6;15.40;75761;2836.171;-1758.794;1;23;220;222.6;22.0;22.2;34;33.8;28.8;-1.0;
13/02/2025 08:07:07;117;0;20.51;-4;30.66;5.17;450.3;15.40;75757;2836.173;-1758.793;1;23;220;222.6;22.0;22.2;34;33.8;28.8;-1.0;
13/02/2025 08:07:27;117;0;22.15;-4;30.45;4.95;447.0;15.30;75754;2836.176;-1758.792;1;23;220;222.6;22.0;22.2;34;33.8;28.8;-1.0;
13/02/2025 08:07:47;117;0;21.51;-4;30.29;5.00;443.8;15.30;75748;2836.178;-1758.791;1;23;220;219.4;22.0;22.2;34;33.8;28.8;-1.0;
13/02/2025 08:08:07;117;0;19.69;-4;30.00;5.07;440.8;15.30;75751;2836.180;-1758.790;1;23;220;222.6;22.0;22.2;34;33.8;28.8;-1.0;
13/02/2025 08:08:27;117;0;17.41;-4;30.12;5.34;437.8;15.30;75757;2836.183;-1758.789;1;23;220;221.0;22.0;22.2;36;36.1;28.8;-1.0;
13/02/2025 08:08:47;117;0;14.90;-4;30.62;6.51;434.9;15.20;75741;2836.185;-1758.788;1;23;220;222.6;22.0;22.2;36;36.6;28.7;-1.0;
13/02/2025 08:09:07;117;0;14.14;-4;30.34;6.48;431.9;15.20;75755;2836.187;-1758.788;1;23;220;221.0;22.0;22.2;38;37.9;28.8;-1.0;
13/02/2025 08:09:27;117;0;13.95;-4;30.39;7.54;428.9;15.20;75758;2836.190;-1758.787;1;23;220;219.4;22.0;22.2;38;38.4;28.7;-1.0;
13/02/2025 08:09:47;117;0;14.01;-4;30.37;7.58;426.0;15.20;75747;2836.192;-1758.787;1;23;220;222.6;22.0;22.2;38;38.4;28.8;-1.0;
13/02/2025 08:10:07;117;0;14.12;-4;29.88;7.51;423.1;15.10;75745;2836.195;-1758.786;1;23;220;222.6;22.0;22.2;38;38.4;28.8;-1.0;
13/02/2025 08:10:27;117;0;15.94;-4;30.16;7.58;420.2;15.10;75727;2836.197;-1758.786;1;23;220;222.6;22.0;22.2;38;38.4;28.8;-1.0;
13/02/2025 08:10:47;117;0;15.91;-4;30.17;7.57;417.5;15.10;75743;2836.199;-1758.785;1;23;220;222.6;22.0;22.2;38;38.4;28.8;-1.0;
13/02/2025 08:11:07;117;0;16.36;-4;30.17;7.60;414.8;15.10;75740;2836.201;-1758.784;1;23;220;222.6;22.0;22.2;38;38.4;28.8;-1.0;
13/02/2025 08:11:27;117;0;15.59;-4;30.24;7.51;412.1;15.10;75746;2836.203;-1758.784;1;23;220;219.4;22.0;22.2;38;38.4;28.7;-1.0;
13/02/2025 08:11:47;117;0;14.30;-4;30.19;7.62;409.5;15.00;75732;2836.205;-1758.783;1;23;220;222.6;22.0;22.2;38;38.4;28.8;-1.0;
13/02/2025 08:12:07;117;0;14.27;-4;30.33;7.62;406.8;15.00;75739;2836.208;-1758.783;1;23;220;222.6;22.0;22.2;38;38.4;28.8;-1.0;
13/02/2025 08:12:27;117;0;13.86;-4;30.07;7.48;404.2;15.00;75748;2836.210;-1758.783;1;23;220;222.6;22.0;22.1;38;38.4;28.7;-1.0;
13/02/2025 08:12:47;117;0;11.14;-4;30.11;7.55;401.7;15.00;75741;2836.212;-1758.782;1;23;220;222.6;22.0;22.1;42;42.0;28.8;-1.0;
13/02/2025 08:13:07;117;0;10.55;-4;30.90;9.66;399.1;15.00;75744;2836.214;-1758.782;1;23;220;222.6;22.0;22.2;42;42.4;28.7;-1.0;
13/02/2025 08:13:27;117;0;12.15;-4;31.22;9.86;396.6;15.00;75744;2836.216;-1758.782;1;23;220;222.6;22.0;22.1;42;42.4;28.8;-1.0;
13/02/2025 08:13:47;117;0;13.59;-4;31.00;9.79;393.8;15.00;75756;2836.218;-1758.781;1;23;220;224.2;22.0;22.1;39;38.8;28.8;-1.0;
13/02/2025 08:14:07;117;0;14.35;-4;30.87;7.38;391.0;15.00;75753;2836.220;-1758.781;1;23;220;222.6;22.0;22.1;39;37.9;28.8;-1.0;
13/02/2025 08:14:27;117;0;15.56;-4;31.09;7.27;388.3;15.00;75759;2836.222;-1758.780;1;23;220;222.6;22.0;22.2;39;38.4;28.8;-1.0;
13/02/2025 08:14:47;117;0;17.38;-4;30.68;7.35;385.5;14.90;75752;2836.224;-1758.779;1;23;220;222.6;22.0;22.2;36;36.1;28.7;-1.0;
13/02/2025 08:15:07;117;0;18.10;-4;30.62;6.45;382.7;14.90;75754;2836.226;-1758.779;1;23;220;222.6;22.0;22.2;36;36.6;28.8;-1.0;
13/02/2025 08:15:27;117;0;18.32;-4;30.17;6.34;379.9;14.90;75749;2836.228;-1758.778;1;23;220;222.6;22.0;22.2;36;36.1;28.8;-1.0;
13/02/2025 08:15:47;117;0;20.36;-4;30.49;6.45;377.2;14.90;75750;2836.230;-1758.777;1;23;220;222.6;22.0;22.2;36;36.1;28.8;-1.0;
13/02/2025 08:16:07;117;0;19.99;-4;30.84;6.50;374.4;14.90;75761;2836.233;-1758.777;1;23;220;222.6;22.0;22.2;36;36.1;28.8;-1.0;
13/02/2025 08:16:27;117;0;20.25;-4;29.95;6.35;371.6;14.90;75759;2836.235;-1758.776;1;23;220;221.0;22.0;22.2;36;36.1;28.8;-1.0;
13/02/2025 08:16:47;117;0;18.92;-4;29.92;6.38;368.9;14.90;75754;2836.237;-1758.775;1;23;220;222.6;22.0;22.2;36;36.6;28.8;-1.0;
13/02/2025 08:17:07;117;0;19.55;-4;30.17;6.41;366.1;14.90;75774;2836.239;-1758.774;1;23;220;222.6;22.0;22.2;36;36.1;28.8;-1.0;
13/02/2025 08:17:27;117;0;21.42;-4;30.36;6.43;363.4;14.90;75776;2836.241;-1758.774;1;23;220;222.6;22.0;22.2;36;36.1;28.8;-1.0;
13/02/2025 08:17:47;117;0;22.30;-4;29.69;6.47;360.7;14.90;75768;2836.243;-1758.773;1;23;220;222.6;22.0;22.2;36;36.1;28.8;-1.0;
13/02/2025 08:18:07;117;0;22.34;-4;29.94;6.37;358.1;14.90;75780;2836.245;-1758.772;1;23;220;222.6;22.0;22.1;36;36.1;28.7;-1.0;
13/02/2025 08:18:27;117;0;20.95;-4;30.10;6.38;355.5;14.90;75786;2836.247;-1758.771;1;23;220;221.0;22.0;22.2;36;36.6;28.7;-1.0;
13/02/2025 08:18:47;117;0;21.17;-4;29.90;6.37;352.9;14.90;75786;2836.249;-1758.770;1;23;220;222.6;22.0;22.2;36;36.6;28.8;-1.0;
13/02/2025 08:19:07;117;0;21.03;-4;29.90;6.28;350.3;14.90;75793;2836.251;-1758.770;1;23;220;222.6;22.0;22.2;36;36.1;28.8;-1.0;
13/02/2025 08:19:27;117;0;20.86;-4;29.91;6.32;347.8;14.90;75788;2836.253;-1758.769;1;23;220;222.6;22.0;22.1;36;36.1;28.8;-1.0;
13/02/2025 08:19:47;117;0;19.59;-4;30.01;6.31;345.2;14.90;75794;2836.255;-1758.768;1;23;220;224.2;22.0;22.1;36;36.1;28.7;-1.0;
13/02/2025 08:20:07;117;0;18.50;-4;30.04;6.36;342.7;14.90;75791;2836.257;-1758.768;1;23;220;222.6;22.0;22.2;36;36.1;28.8;-1.0;
13/02/2025 08:20:27;117;0;18.96;-4;30.05;6.38;340.1;14.90;75802;2836.259;-1758.767;1;23;220;222.6;22.0;22.1;36;36.1;28.8;-1.0;
13/02/2025 08:20:47;117;0;23.01;-4;30.25;6.52;337.7;14.90;75805;2836.261;-1758.766;1;23;220;222.6;22.0;22.1;36;36.1;28.7;-1.0;
13/02/2025 08:21:07;117;0;24.76;-4;30.22;6.33;335.1;14.90;75802;2836.263;-1758.765;1;23;220;222.6;22.0;22.1;36;36.6;28.8;-1.0;
13/02/2025 08:21:27;117;0;25.60;-4;30.27;6.37;332.6;14.90;75805;2836.264;-1758.764;1;23;220;222.6;22.0;22.2;36;36.1;28.7;-1.0;
13/02/2025 08:21:47;117;0;26.07;-4;29.78;6.43;330.2;14.90;75803;2836.266;-1758.763;1;23;220;222.6;22.0;22.2;36;36.1;28.8;-1.0;
13/02/2025 08:22:07;117;0;26.65;-4;29.89;6.47;327.8;14.90;75808;2836.268;-1758.762;1;23;220;222.6;22.0;22.2;36;36.1;28.7;-1.0;
13/02/2025 08:22:27;117;0;28.67;-4;30.31;6.48;325.4;14.90;75813;2836.270;-1758.761;1;23;220;222.6;22.0;22.2;36;36.1;28.8;-1.0;
13/02/2025 08:22:47;117;0;30.63;-4;30.60;6.37;322.9;14.90;75824;2836.271;-1758.760;1;23;220;222.6;22.0;22.1;36;36.6;28.8;-1.0;
13/02/2025 08:23:07;117;0;27.16;-4;30.69;6.46;320.3;14.90;75824;2836.273;-1758.759;1;23;220;222.6;22.0;22.2;36;36.6;28.8;-1.0;
13/02/2025 08:23:27;117;0;29.07;-4;30.18;6.66;317.8;14.90;75818;2836.275;-1758.758;1;23;220;222.6;22.0;22.2;36;36.6;28.8;-1.0;
13/02/2025 08:23:47;117;0;27.58;-4;30.24;6.36;315.2;14.90;75837;2836.277;-1758.757;1;23;220;222.6;22.0;22.2;36;36.6;28.8;-1.0;
13/02/2025 08:24:07;117;0;27.32;-4;30.29;6.40;312.6;14.90;75828;2836.279;-1758.756;1;23;220;222.6;22.0;22.1;36;36.1;28.7;-1.0;
13/02/2025 08:24:27;117;0;27.58;-4;29.97;6.62;310.0;14.90;75837;2836.281;-1758.755;1;23;220;222.6;22.0;22.1;36;36.1;28.8;-1.0;
13/02/2025 08:24:47;117;0;30.46;-4;29.12;6.30;307.5;15.00;75845;2836.282;-1758.754;1;23;220;222.6;22.0;22.2;36;36.1;28.8;-1.0;
13/02/2025 08:25:07;117;0;33.41;-4;29.73;6.34;305.2;14.90;75847;2836.284;-1758.753;1;23;220;222.6;22.0;22.2;33;31.6;28.8;-1.0;
13/02/2025 08:25:27;117;0;31.42;-4;29.91;4.80;302.7;15.00;75861;2836.286;-1758.752;1;23;220;224.2;22.0;22.2;33;33.4;28.8;-1.0;
13/02/2025 08:25:47;117;0;28.84;-4;29.90;4.86;300.3;15.00;75850;2836.287;-1758.751;1;23;220;222.6;22.0;22.1;35;35.6;28.8;-1.0;
13/02/2025 08:26:07;117;0;27.82;-4;30.11;6.26;297.7;15.00;75862;2836.289;-1758.750;1;23;220;222.6;22.0;22.2;35;36.1;28.8;-1.0;
13/02/2025 08:26:27;117;0;26.60;-4;29.69;6.23;295.0;15.00;75868;2836.291;-1758.749;1;23;220;224.2;22.0;22.2;35;36.1;28.7;-1.0;
13/02/2025 08:26:47;117;0;25.75;-4;30.03;6.25;292.4;15.00;75870;2836.293;-1758.748;1;23;220;222.6;22.0;22.2;35;36.1;28.8;-1.0;
13/02/2025 08:27:07;117;0;22.93;-4;29.93;6.36;289.8;15.00;75878;2836.295;-1758.747;1;23;220;222.6;22.0;22.1;35;36.1;28.8;-1.0;
13/02/2025 08:27:27;117;0;22.87;-4;29.78;6.30;287.2;15.00;75884;2836.297;-1758.746;1;23;220;222.6;22.0;22.1;35;36.1;28.8;-1.0;
13/02/2025 08:27:47;117;0;26.00;-4;30.01;6.30;284.5;15.00;75884;2836.299;-1758.745;1;23;220;222.6;22.0;22.2;35;36.1;28.8;-1.0;
13/02/2025 08:28:07;117;0;29.03;-4;29.62;6.27;281.7;15.10;75892;2836.301;-1758.744;1;23;220;224.2;22.0;22.2;35;36.1;28.8;-1.0;
13/02/2025 08:28:27;117;0;33.14;-4;29.74;6.24;279.0;15.10;75895;2836.303;-1758.743;1;23;220;222.6;22.0;22.2;33;32.5;28.8;-1.0;
13/02/2025 08:28:47;117;0;34.63;-4;29.71;5.10;276.2;15.10;75906;2836.305;-1758.741;1;23;220;222.6;22.0;22.2;33;33.8;28.7;-1.0;
13/02/2025 08:29:07;117;0;36.90;-4;29.48;4.93;273.3;15.10;75920;2836.307;-1758.740;1;23;220;222.6;22.0;22.2;30;29.8;28.7;-1.0;
13/02/2025 08:29:27;117;0;36.65;-4;29.81;2.89;270.5;15.10;75935;2836.309;-1758.738;1;23;220;224.2;22.0;22.2;30;29.8;28.8;-1.0;
13/02/2025 08:29:47;117;0;34.36;-4;29.69;2.90;267.6;15.10;75934;2836.311;-1758.737;1;23;220;224.2;22.0;22.2;32;32.0;28.8;-1.0;
13/02/2025 08:30:07;117;0;32.18;-4;30.00;4.44;264.5;15.10;75925;2836.313;-1758.735;1;23;220;224.2;22.0;22.1;34;34.3;28.8;-1.0;
13/02/2025 08:30:27;117;0;31.06;-4;30.00;5.83;261.3;15.10;75945;2836.315;-1758.734;1;23;220;224.2;22.0;22.1;34;35.2;28.8;-1.0;
13/02/2025 08:30:47;117;0;29.99;-4;29.86;5.81;258.2;15.20;75954;2836.317;-1758.732;1;23;220;222.6;22.0;22.2;34;35.2;28.7;-1.0;
13/02/2025 08:31:07;117;0;30.52;-4;29.82;5.80;254.9;15.20;75947;2836.319;-1758.731;1;23;220;222.6;22.0;22.2;34;35.2;28.8;-1.0;
13/02/2025 08:31:27;117;0;29.28;-4;29.76;5.86;251.7;15.20;75961;2836.322;-1758.729;1;23;220;225.8;22.0;22.2;34;35.2;28.8;-1.0;
13/02/2025 08:31:47;117;0;29.88;-4;29.65;5.80;248.5;15.20;75961;2836.324;-1758.728;1;23;220;224.2;22.0;22.2;34;35.2;28.8;-1.0;
13/02/2025 08:32:07;117;0;30.29;-4;29.61;5.81;245.3;15.20;75966;2836.326;-1758.727;1;23;220;222.6;22.0;22.2;34;35.2;28.8;-1.0;
13/02/2025 08:32:27;117;0;30.01;-4;29.62;5.78;242.1;15.20;75967;2836.329;-1758.725;1;23;220;222.6;22.0;22.4;34;35.2;28.7;-1.0;
13/02/2025 08:32:47;117;0;30.64;-4;29.38;5.80;239.0;15.30;75969;2836.331;-1758.724;1;23;220;224.2;22.0;22.2;34;35.2;28.8;-1.0;
13/02/2025 08:33:07;117;0;31.68;-4;29.40;5.89;236.2;15.30;75980;2836.333;-1758.722;1;23;220;224.2;22.0;22.2;34;35.2;28.7;-1.0;
13/02/2025 08:33:27;117;0;32.73;-4;29.74;5.83;233.2;15.30;75979;2836.335;-1758.721;1;23;220;222.6;22.0;22.1;34;35.2;28.8;-1.0;
13/02/2025 08:33:47;117;0;32.10;-4;29.59;5.82;230.4;15.30;75991;2836.337;-1758.720;1;23;220;221.0;22.0;22.2;34;35.2;28.8;-1.0;
13/02/2025 08:34:07;117;0;31.72;-4;29.49;5.82;227.6;15.30;75996;2836.339;-1758.718;1;23;220;222.6;22.0;22.1;34;35.2;28.8;-1.0;
13/02/2025 08:34:27;117;0;30.01;-4;29.90;5.82;224.8;15.30;76005;2836.341;-1758.717;1;23;220;224.2;22.0;22.2;34;35.2;28.8;-1.0;
13/02/2025 08:34:47;117;0;27.45;-4;29.72;5.89;222.0;15.40;76002;2836.343;-1758.716;1;23;220;222.6;22.0;22.2;34;35.2;28.8;-1.0;
13/02/2025 08:35:07;117;0;24.24;-4;29.83;5.84;219.3;15.40;76015;2836.345;-1758.715;1;23;220;224.2;22.0;22.2;34;35.2;28.8;-1.0;
13/02/2025 08:35:27;117;0;22.18;-4;29.95;5.94;216.6;15.40;76042;2836.347;-1758.714;1;23;220;222.6;22.0;22.2;34;35.2;28.8;-1.0;
13/02/2025 08:35:47;117;0;23.03;-4;30.02;5.81;213.7;15.40;76049;2836.349;-1758.713;1;23;220;222.6;22.0;22.2;34;35.2;28.8;-1.0;
13/02/2025 08:36:07;117;0;24.36;-4;29.98;5.79;210.7;15.50;76057;2836.352;-1758.712;1;23;220;222.6;22.0;22.2;34;35.2;28.8;-1.0;
13/02/2025 08:36:27;117;0;23.35;-4;29.19;5.80;207.9;15.50;76067;2836.354;-1758.711;1;23;220;224.2;22.0;22.4;34;35.2;28.8;-1.0;
13/02/2025 08:36:48;117;0;24.43;-4;29.42;5.87;205.1;15.50;76085;2836.356;-1758.710;1;23;220;221.0;22.0;22.1;34;35.2;28.7;-1.0;
13/02/2025 08:37:08;117;0;24.19;-4;29.59;5.88;202.3;15.50;76087;2836.358;-1758.709;1;23;220;222.6;22.0;22.2;34;35.2;28.8;-1.0;
13/02/2025 08:37:28;117;0;26.22;-4;29.21;6.04;199.6;15.60;76092;2836.360;-1758.708;1;23;220;222.6;22.0;22.2;34;35.2;28.8;-1.0;
13/02/2025 08:37:48;117;0;26.05;-4;29.63;5.76;196.9;15.60;76098;2836.362;-1758.707;1;23;220;224.2;22.0;22.2;34;35.2;28.7;-1.0;
13/02/2025 08:38:08;117;0;26.42;-4;29.31;5.81;194.0;15.60;76098;2836.364;-1758.706;1;23;220;224.2;22.0;22.2;34;35.2;28.8;-1.0;
13/02/2025 08:38:28;117;0;27.77;-4;29.40;5.70;191.3;15.60;76115;2836.366;-1758.705;1;23;220;224.2;22.0;22.2;34;35.2;28.7;-1.0;
13/02/2025 08:38:48;117;0;28.62;-4;29.26;5.78;188.4;15.70;76123;2836.369;-1758.703;1;23;220;222.6;22.0;22.2;34;35.2;28.7;-1.0;
13/02/2025 08:39:08;117;0;27.33;-4;29.19;5.81;185.8;15.70;76128;2836.371;-1758.702;1;23;220;224.2;22.0;22.4;34;35.2;28.8;-1.0;
13/02/2025 08:39:28;117;0;24.90;-4;28.77;5.74;183.2;15.70;76139;2836.373;-1758.701;1;23;220;221.0;21.7;21.5;34;35.2;28.7;-1.0;
13/02/2025 08:39:48;117;0;27.38;-4;30.77;5.71;180.5;15.70;76147;2836.374;-1758.700;1;23;220;224.2;21.7;21.4;34;35.2;28.7;-1.0;
13/02/2025 08:40:08;117;0;28.74;-4;30.72;5.64;177.5;15.80;76154;2836.377;-1758.699;1;23;220;221.0;21.7;21.5;34;35.2;28.8;-1.0;
13/02/2025 08:40:28;117;0;29.35;-4;31.04;5.81;174.3;15.80;76164;2836.379;-1758.698;1;23;220;224.2;21.7;21.5;34;35.2;28.8;-1.0;
13/02/2025 08:40:48;117;0;32.14;-4;31.17;5.91;171.2;15.80;76176;2836.381;-1758.696;1;23;220;224.2;21.7;21.4;34;35.2;28.8;-1.0;
13/02/2025 08:41:08;117;0;34.93;-4;31.53;5.86;167.9;15.90;76180;2836.383;-1758.695;1;23;220;224.2;21.7;21.4;31;31.1;28.8;-1.0;
13/02/2025 08:41:28;117;0;33.55;-4;31.28;3.29;164.4;15.90;76190;2836.385;-1758.693;1;23;220;224.2;21.7;21.4;31;30.7;28.8;-1.0;
13/02/2025 08:41:48;117;0;29.43;-4;31.16;3.36;160.9;15.90;76210;2836.388;-1758.692;1;23;220;224.2;21.7;21.4;34;33.8;28.7;-1.0;
13/02/2025 08:42:08;117;0;27.78;-4;30.62;5.53;157.4;15.90;76224;2836.390;-1758.690;1;23;220;224.2;21.7;21.4;34;34.7;28.7;-1.0;
13/02/2025 08:42:28;117;0;23.90;-4;30.22;5.53;154.1;16.00;76230;2836.393;-1758.689;1;23;220;224.2;21.7;21.4;34;34.3;28.8;-1.0;
13/02/2025 08:42:48;117;0;20.82;-4;30.87;5.87;150.9;16.00;76238;2836.395;-1758.688;1;23;220;224.2;21.7;21.4;34;34.7;28.8;-1.0;
13/02/2025 08:43:08;117;0;18.48;-4;29.96;5.48;147.9;16.00;76251;2836.397;-1758.687;1;23;220;224.2;21.7;21.4;34;34.7;28.7;-1.0;
13/02/2025 08:43:28;117;0;17.06;-4;30.60;5.43;144.8;16.10;76255;2836.400;-1758.687;1;23;220;224.2;21.7;21.4;36;36.1;28.8;-1.0;
13/02/2025 08:43:48;117;0;14.26;-4;30.66;6.63;141.7;16.10;76262;2836.402;-1758.686;1;23;220;224.2;21.7;21.4;38;38.4;28.8;-1.0;
13/02/2025 08:44:08;117;0;12.20;-4;30.89;7.72;138.5;16.10;76280;2836.405;-1758.686;1;23;220;224.2;21.7;21.4;40;40.2;28.8;-1.0;
13/02/2025 08:44:28;117;0;13.19;-4;31.30;8.84;135.3;16.20;76278;2836.407;-1758.685;1;23;220;222.6;21.7;21.4;40;40.6;28.8;-1.0;
13/02/2025 08:44:48;117;0;13.68;-4;31.30;8.81;132.0;16.20;76288;2836.410;-1758.684;1;23;220;224.2;21.7;21.4;40;40.6;28.8;-1.0;
13/02/2025 08:45:08;117;0;12.00;-4;30.94;8.79;128.6;16.20;76295;2836.412;-1758.684;1;23;220;224.2;21.7;21.5;40;41.1;28.8;-1.0;
13/02/2025 08:45:28;117;0;9.83;-4;31.60;8.82;125.3;16.30;76313;2836.415;-1758.684;1;23;220;224.2;21.7;21.4;44;44.2;28.7;-1.0;
13/02/2025 08:45:48;117;0;8.80;-4;30.41;10.69;121.7;16.30;76343;2836.418;-1758.683;1;23;220;224.2;21.7;21.4;44;44.7;28.8;-1.0;
13/02/2025 08:46:08;117;0;13.62;-4;30.15;11.00;118.5;16.30;76358;2836.421;-1758.683;1;23;220;224.2;21.7;21.4;39;37.0;28.7;-1.0;
13/02/2025 08:46:28;117;0;15.29;-4;30.70;7.30;115.5;16.40;76386;2836.423;-1758.682;1;23;220;222.6;21.7;21.4;39;37.9;28.8;-1.0;
13/02/2025 08:46:48;117;0;18.59;-4;30.61;7.27;112.3;16.40;76412;2836.425;-1758.681;1;23;220;224.2;21.7;21.4;36;31.6;28.7;-1.0;
13/02/2025 08:47:08;117;0;22.60;-4;30.88;6.45;109.0;16.50;76425;2836.428;-1758.680;1;23;220;222.6;21.7;21.4;36;36.1;28.7;-1.0;
13/02/2025 08:47:28;117;0;25.43;-4;30.52;6.41;105.6;16.50;76442;2836.430;-1758.679;1;23;220;224.2;21.7;21.4;36;36.6;28.7;-1.0;
13/02/2025 08:47:48;117;0;28.18;-4;30.07;6.34;102.3;16.60;76468;2836.433;-1758.678;1;23;220;225.8;21.7;21.4;36;36.1;28.7;-1.0;
13/02/2025 08:48:08;117;0;28.24;-4;30.49;6.36;98.9;16.60;76503;2836.435;-1758.676;1;23;220;222.6;21.7;21.4;36;36.1;28.8;-1.0;
13/02/2025 08:48:28;117;0;24.21;-4;30.63;6.48;95.5;16.60;76508;2836.438;-1758.675;1;23;220;224.2;21.7;21.4;36;36.6;28.8;-1.0;
13/02/2025 08:48:48;117;0;22.27;-4;30.89;6.51;92.1;16.70;76535;2836.440;-1758.674;1;23;220;224.2;21.7;21.4;36;36.1;28.7;-1.0;
13/02/2025 08:49:08;117;0;21.97;-4;30.40;6.35;88.6;16.80;76558;2836.443;-1758.673;1;23;220;224.2;21.7;21.4;36;36.6;28.8;-1.0;
13/02/2025 08:49:28;117;0;22.17;-4;30.34;6.33;85.2;16.80;76566;2836.445;-1758.672;1;23;220;224.2;21.7;21.4;36;36.1;28.7;-1.0;
13/02/2025 08:49:48;117;0;22.90;-4;30.35;6.40;81.9;16.90;76572;2836.448;-1758.671;1;23;220;224.2;21.7;21.4;36;36.6;28.8;-1.0;
13/02/2025 08:50:08;117;0;25.53;-4;30.15;6.31;78.7;16.90;76590;2836.450;-1758.669;1;23;220;224.2;21.7;21.4;36;36.6;28.8;-1.0;
13/02/2025 08:50:28;117;0;26.30;-4;30.28;6.34;75.5;17.00;76604;2836.453;-1758.668;1;23;220;224.2;21.7;21.4;36;36.6;28.8;-1.0;
13/02/2025 08:50:48;117;0;27.91;-4;29.82;6.36;72.5;17.00;76612;2836.455;-1758.667;1;23;220;224.2;21.7;21.4;36;36.6;28.8;-1.0;
13/02/2025 08:51:08;117;0;28.43;-4;30.12;6.37;69.7;17.10;76625;2836.457;-1758.666;1;23;220;224.2;21.7;21.4;36;36.6;28.8;-1.0;
13/02/2025 08:51:28;117;0;28.53;-4;30.19;6.32;66.8;17.10;76628;2836.459;-1758.664;1;23;220;224.2;21.7;21.4;36;36.6;28.8;-1.0;
13/02/2025 08:51:48;117;0;31.39;-4;30.13;6.35;64.1;17.20;76644;2836.461;-1758.663;1;23;220;224.2;21.7;21.4;34;33.8;28.8;-1.0;
13/02/2025 08:52:08;117;0;31.62;-4;30.36;5.89;61.3;17.20;76648;2836.463;-1758.662;1;23;220;224.2;21.7;21.4;34;35.6;28.8;-1.0;
13/02/2025 08:52:28;117;0;30.86;-4;30.20;5.89;58.5;17.30;76651;2836.465;-1758.661;1;23;220;224.2;21.7;21.4;34;35.6;28.7;-1.0;
13/02/2025 08:52:48;117;0;31.78;-4;30.20;5.90;55.7;17.30;76659;2836.467;-1758.659;1;23;220;224.2;21.7;21.4;34;35.6;28.8;-1.0;
13/02/2025 08:53:08;117;0;30.99;-4;30.26;5.85;52.9;17.40;76672;2836.469;-1758.658;1;23;220;224.2;21.7;21.4;34;35.6;28.7;-1.0;
13/02/2025 08:53:28;117;0;30.95;-4;30.48;5.97;50.2;17.40;76680;2836.471;-1758.657;1;23;220;224.2;21.7;21.4;34;35.6;28.8;-1.0;
13/02/2025 08:53:48;117;0;30.08;-4;30.47;5.93;47.5;17.50;76698;2836.473;-1758.656;1;23;220;224.2;21.7;21.4;34;35.6;28.7;-1.0;
13/02/2025 08:54:08;117;0;28.86;-4;30.56;5.99;44.7;17.50;76700;2836.475;-1758.655;1;23;220;224.2;21.7;21.4;34;35.2;28.7;-1.0;
13/02/2025 08:54:28;117;0;26.64;-4;30.73;5.68;41.9;17.60;76720;2836.477;-1758.653;1;23;220;224.2;21.7;21.4;34;35.2;28.8;-1.0;
13/02/2025 08:54:48;117;0;23.25;-4;30.36;6.06;38.9;17.60;76722;2836.479;-1758.652;1;23;220;224.2;21.7;21.4;34;35.6;28.7;-1.0;
13/02/2025 08:55:08;117;0;23.31;-4;30.46;5.81;36.1;17.70;76739;2836.481;-1758.652;1;23;220;224.2;21.7;21.4;34;35.6;28.8;-1.0;
13/02/2025 08:55:28;117;0;22.78;-4;30.44;5.89;33.3;17.70;76743;2836.483;-1758.651;1;23;220;224.2;21.7;21.4;34;35.2;28.8;-1.0;
13/02/2025 08:55:48;117;0;20.68;-4;30.52;6.10;30.5;17.80;76752;2836.485;-1758.650;1;23;220;224.2;21.7;21.4;34;35.6;28.7;-1.0;
13/02/2025 08:56:08;117;0;20.06;-4;30.80;6.00;27.5;17.80;76747;2836.487;-1758.649;1;23;220;224.2;21.7;21.4;34;35.6;28.7;-1.0;
13/02/2025 08:56:28;117;0;15.70;-4;30.34;6.23;24.6;17.80;76748;2836.490;-1758.648;1;23;220;224.2;21.7;21.4;37;37.5;28.7;-1.0;
13/02/2025 08:56:48;117;0;17.62;-4;29.69;7.22;21.8;17.90;76763;2836.492;-1758.648;1;23;220;224.2;21.7;21.4;37;37.9;28.7;-1.0;
13/02/2025 08:57:08;117;0;15.69;-4;31.17;7.05;19.2;17.90;76770;2836.494;-1758.647;1;23;220;225.8;21.7;21.4;37;37.9;28.7;-1.0;
13/02/2025 08:57:28;117;0;16.66;-4;30.58;7.40;16.1;18.00;76775;2836.496;-1758.647;1;23;220;224.2;21.7;21.4;37;37.9;28.8;-1.0;
13/02/2025 08:57:48;117;0;15.03;-4;30.50;7.41;13.0;18.00;76779;2836.499;-1758.646;1;23;220;224.2;21.7;21.4;37;37.9;28.8;-1.0;
13/02/2025 08:58:08;117;0;14.53;-4;30.39;7.75;10.0;18.00;76784;2836.501;-1758.645;1;23;220;224.2;21.7;21.4;37;37.9;28.7;-1.0;
13/02/2025 08:58:28;117;0;17.32;-4;31.76;7.26;7.1;18.10;76786;2836.503;-1758.645;1;23;220;224.2;21.7;21.4;37;37.9;28.7;-1.0;
13/02/2025 08:58:48;117;0;14.61;-4;30.53;7.30;3.8;18.10;76799;2836.506;-1758.644;1;23;220;224.2;21.7;21.4;37;37.9;28.8;-1.0;
13/02/2025 08:58:53;115;0;16.67;-4;30.03;7.95;3.0;18.20;76793;2836.506;-1758.644;1;23;500;232.3;100.0;65.4;0;-0.5;28.7;-1.0;
13/02/2025 08:59:03;115;0;21.65;-4;11.07;-12.81;1.9;18.20;76775;2836.508;-1758.643;1;23;500;351.6;100.0;100.1;0;-0.5;28.5;-1.0;
13/02/2025 08:59:13;115;0;19.88;-4;-60.99;-15.20;2.5;18.20;76510;2836.508;-1758.643;1;23;500;464.5;100.0;100.9;0;-0.5;28.5;-1.0;
13/02/2025 08:59:23;115;0;356.96;-4;-69.88;-10.70;2.3;18.20;76246;2836.508;-1758.643;1;23;500;508.1;100.0;100.9;0;-0.5;28.5;-1.0;
13/02/2025 08:59:33;115;0;6.50;-4;-27.18;-17.60;0.1;18.30;76185;2836.510;-1758.643;1;23;500;508.1;100.0;100.9;0;-0.5;28.7;-1.0;
13/02/2025 08:59:53;119;0;47.32;-4;-59.32;-15.98;0.2;18.30;76200;2836.510;-1758.643;1;23;500;511.3;100.0;100.9;0;-0.5;28.8;-1.0;
13/02/2025 09:00:03;119;0;59.90;-4;-55.42;-14.45;0.2;18.40;76209;2836.732;-1758.644;0;23;500;508.1;100.0;100.9;0;-0.5;28.7;-1.0;
