Timestamp;NavState;SecurityLevel;Heading;Declination;Pitch;Roll;Depth;Temperature;Pa;Lat;Lon;DeadReckoning;DesiredH;BallastCmd;BallastPos;LinCmd;LinPos;AngCmd;AngPos;Voltage;Altitude;
12/02/2025 12:17:45;117;0;190.30;-4;29.40;2.30;5.0;21.40;77521;2837.287;-1758.090;1;225;200;209.7;21.7;21.8;32;32.5;29.2;-1.0;
12/02/2025 12:17:57;110;0;190.24;-4;29.33;4.45;3.0;21.40;77540;2837.286;-1758.090;1;225;-200;71.0;50.0;50.1;0;-0.9;29.2;-1.0;
12/02/2025 12:18:07;110;0;182.28;-4;13.76;-12.74;1.8;21.40;77879;2837.284;-1758.090;1;225;-200;-116.1;50.0;50.2;0;-0.9;29.1;-1.0;
12/02/2025 12:18:17;110;0;175.94;-4;-15.95;-13.67;2.0;21.40;78279;2837.284;-1758.090;1;225;-200;-200.0;50.0;51.1;0;-0.9;29.1;-1.0;
12/02/2025 12:18:27;110;0;183.08;-4;-25.96;-11.75;3.6;21.40;78431;2837.282;-1758.091;1;225;-200;-200.0;50.0;51.3;0;-0.9;29.2;-1.0;
12/02/2025 12:18:47;100;0;184.07;-4;-31.40;-11.28;8.3;21.40;78422;2837.279;-1758.091;1;225;-200;-203.2;50.0;51.3;0;-0.9;29.2;-1.0;
12/02/2025 12:19:07;100;0;184.61;-4;-32.30;-10.36;14.5;21.40;78425;2837.274;-1758.091;1;225;-200;-203.2;49.3;48.9;-43;-42.9;29.2;-1.0;
12/02/2025 12:19:27;100;0;196.23;-4;-28.68;-30.83;20.3;21.40;78422;2837.269;-1758.093;1;225;-200;-206.5;49.7;50.2;-26;-26.2;29.2;0.0;
12/02/2025 12:19:47;100;0;206.47;-4;-29.31;-21.93;26.0;21.40;78420;2837.265;-1758.096;1;225;-200;-208.1;49.7;50.4;-9;-9.0;29.2;0.0;
12/02/2025 12:20:07;100;0;211.27;-4;-30.77;-14.41;31.9;21.40;78427;2837.261;-1758.099;1;225;-200;-206.5;49.7;49.5;-4;-3.6;29.2;0.0;
12/02/2025 12:20:27;100;0;218.03;-4;-30.93;-12.09;37.9;21.40;78433;2837.257;-1758.103;1;225;-200;-206.5;49.7;49.5;0;0.5;29.2;0.0;
12/02/2025 12:20:47;100;0;224.09;-4;-30.78;-10.05;44.1;21.40;78426;2837.254;-1758.107;1;225;-200;-208.1;49.7;49.5;0;0.9;29.2;0.0;
12/02/2025 12:21:07;100;0;226.23;-4;-31.32;-10.09;50.6;21.40;78434;2837.250;-1758.111;1;225;-200;-206.5;49.7;49.5;0;0.5;29.2;0.0;
12/02/2025 12:21:27;100;0;227.93;-4;-31.26;-10.12;56.9;21.40;78418;2837.247;-1758.116;1;225;-200;-206.5;49.7;49.5;0;0.5;29.2;0.0;
12/02/2025 12:21:47;100;0;229.52;-4;-31.53;-10.09;63.5;21.30;78424;2837.244;-1758.121;1;225;-200;-206.5;49.7;49.5;2;1.8;29.1;0.0;
12/02/2025 12:22:07;100;0;230.89;-4;-30.61;-9.35;70.0;21.30;78422;2837.241;-1758.126;1;225;-200;-206.5;49.7;49.5;2;2.3;29.2;0.0;
12/02/2025 12:22:27;100;0;239.67;-4;-30.44;-9.68;76.2;21.30;78398;2837.238;-1758.131;1;225;-200;-206.5;49.7;49.5;13;13.1;29.2;0.0;
12/02/2025 12:22:47;100;0;241.46;-4;-31.09;-4.21;82.3;21.30;78406;2837.236;-1758.137;1;225;-200;-208.1;49.7;49.5;16;16.2;29.2;0.0;
12/02/2025 12:23:07;100;0;241.79;-4;-30.71;-2.62;88.4;21.30;78395;2837.234;-1758.142;1;225;-200;-208.1;49.7;49.5;16;16.2;29.2;0.0;
12/02/2025 12:23:27;100;0;243.30;-4;-32.01;-2.60;94.5;21.30;78382;2837.232;-1758.147;1;225;-200;-208.1;49.1;48.7;19;19.4;29.2;0.0;
12/02/2025 12:23:41;118;0;245.49;-4;-31.58;-0.87;98.9;21.20;78374;2837.231;-1758.151;1;225;200;-204.8;19.5;19.4;0;-0.9;29.2;0.0;
12/02/2025 12:23:51;118;0;225.95;-4;-19.82;-11.95;101.0;21.20;78344;2837.229;-1758.153;1;225;200;-75.8;19.5;19.1;0;-0.9;28.9;-1.0;
12/02/2025 12:24:01;118;0;247.48;-4;5.63;-12.06;102.0;21.20;78060;2837.229;-1758.155;1;225;200;48.4;19.5;18.9;0;-0.9;28.9;-1.0;
12/02/2025 12:24:11;118;0;261.56;-4;24.07;-13.20;101.5;21.20;77789;2837.229;-1758.155;1;225;200;172.6;19.5;19.6;0;-0.9;28.9;-1.0;
12/02/2025 12:24:21;118;0;260.29;-4;30.12;-13.77;100.3;21.20;77515;2837.229;-1758.157;1;225;200;203.2;19.5;19.7;0;-0.9;28.9;-1.0;
12/02/2025 12:24:31;118;0;251.27;-4;30.29;-13.40;98.8;21.20;77462;2837.228;-1758.158;1;225;200;203.2;19.5;19.7;0;-0.9;29.2;-1.0;
12/02/2025 12:24:51;117;0;242.15;-4;30.40;-13.42;95.8;21.20;77468;2837.227;-1758.161;1;225;200;203.2;19.5;19.7;0;-0.9;29.2;-1.0;
12/02/2025 12:25:11;117;0;230.83;-4;30.41;-13.36;92.4;21.20;77471;2837.226;-1758.164;1;225;200;203.2;19.5;19.7;-5;-5.0;29.2;-1.0;
12/02/2025 12:25:31;117;0;219.48;-4;30.33;-16.01;89.2;21.10;77459;2837.224;-1758.166;1;225;200;204.8;19.5;19.7;0;0.0;29.2;-1.0;
12/02/2025 12:25:51;117;0;206.65;-4;30.05;-12.64;86.0;21.10;77460;2837.222;-1758.167;1;225;200;203.2;19.5;19.7;6;5.9;29.2;-1.0;
12/02/2025 12:26:11;117;0;190.55;-4;31.03;-9.46;82.8;21.10;77476;2837.220;-1758.168;1;225;200;204.8;19.5;19.7;31;31.1;29.2;-1.0;
12/02/2025 12:26:31;117;0;176.54;-4;32.49;4.31;79.4;21.00;77482;2837.217;-1758.168;1;225;200;204.8;20.2;20.5;51;51.0;29.2;-1.0;
12/02/2025 12:26:51;117;0;176.31;-4;33.60;14.91;76.0;21.00;77489;2837.215;-1758.168;1;225;200;203.2;21.3;21.4;51;51.4;29.2;-1.0;
12/02/2025 12:27:11;117;0;180.68;-4;32.41;14.89;72.5;21.00;77499;2837.212;-1758.168;1;225;200;203.2;22.0;22.2;46;46.0;29.2;-1.0;
12/02/2025 12:27:31;117;0;183.00;-4;30.11;11.32;68.9;21.00;77517;2837.210;-1758.168;1;225;200;204.8;22.0;22.4;44;44.2;29.2;-1.0;
12/02/2025 12:27:51;117;0;184.75;-4;29.42;10.31;65.7;21.00;77513;2837.207;-1758.168;1;225;200;203.2;22.0;22.2;40;40.2;29.2;-1.0;
12/02/2025 12:28:11;117;0;182.51;-4;28.97;8.21;62.5;21.00;77526;2837.204;-1758.168;1;225;200;203.2;21.7;21.6;43;42.9;29.2;-1.0;
12/02/2025 12:28:31;117;0;181.63;-4;29.76;10.02;59.5;21.00;77517;2837.202;-1758.169;1;225;200;203.2;21.7;21.6;43;43.3;29.2;-1.0;
12/02/2025 12:28:51;117;0;181.13;-4;30.37;10.11;56.3;20.90;77520;2837.200;-1758.169;1;225;200;204.8;21.7;21.6;45;45.1;29.2;-1.0;
12/02/2025 12:29:11;117;0;183.14;-4;30.10;11.25;53.2;20.90;77528;2837.197;-1758.169;1;225;200;203.2;21.7;21.6;42;42.0;29.2;-1.0;
12/02/2025 12:29:31;117;0;184.40;-4;30.11;8.82;49.9;20.90;77531;2837.195;-1758.169;1;225;200;204.8;21.7;21.6;42;41.1;29.2;-1.0;
12/02/2025 12:29:51;117;0;184.61;-4;29.53;8.88;46.8;20.90;77529;2837.192;-1758.170;1;225;200;203.2;21.7;21.8;40;39.7;29.2;-1.0;
12/02/2025 12:30:11;117;0;183.45;-4;29.36;7.85;43.7;20.90;77529;2837.190;-1758.170;1;225;200;204.8;21.7;21.6;42;42.0;29.2;-1.0;
12/02/2025 12:30:31;117;0;184.77;-4;30.22;9.55;40.6;20.90;77526;2837.187;-1758.170;1;225;200;203.2;21.7;21.6;40;39.7;29.2;-1.0;
12/02/2025 12:30:51;117;0;184.79;-4;29.97;7.69;37.6;20.90;77522;2837.185;-1758.171;1;225;200;203.2;21.7;21.6;40;38.8;29.2;-1.0;
12/02/2025 12:31:11;117;0;186.79;-4;29.87;7.87;34.6;20.90;77528;2837.183;-1758.171;1;225;200;203.2;21.7;21.6;37;36.6;29.2;-1.0;
12/02/2025 12:31:31;117;0;188.96;-4;30.16;6.30;31.5;20.90;77530;2837.180;-1758.172;1;225;200;203.2;21.7;21.6;34;33.4;29.2;-1.0;
12/02/2025 12:31:51;117;0;188.29;-4;29.88;4.64;28.3;20.90;77518;2837.178;-1758.172;1;225;200;203.2;21.7;21.6;34;32.9;29.2;-1.0;
12/02/2025 12:32:11;117;0;187.02;-4;29.51;4.53;25.2;20.90;77523;2837.176;-1758.173;1;225;200;201.6;21.7;21.6;37;37.0;29.2;-1.0;
12/02/2025 12:32:31;117;0;186.01;-4;30.17;7.01;22.0;20.90;77529;2837.173;-1758.173;1;225;200;204.8;21.7;21.6;37;37.5;29.2;-1.0;
12/02/2025 12:32:51;117;0;187.52;-4;29.03;6.93;18.9;20.90;77518;2837.171;-1758.173;1;225;200;203.2;21.7;21.6;37;37.5;29.2;-1.0;
12/02/2025 12:33:11;117;0;188.44;-4;30.31;7.09;15.7;20.90;77511;2837.168;-1758.174;1;225;200;204.8;21.7;21.8;35;35.2;29.2;-1.0;
12/02/2025 12:33:31;117;0;193.69;-4;30.04;5.55;12.6;20.90;77526;2837.166;-1758.175;1;225;200;204.8;21.7;21.6;26;26.2;29.2;-1.0;
12/02/2025 12:33:51;117;0;189.08;-4;28.99;0.91;9.4;20.90;77513;2837.163;-1758.175;1;225;200;203.2;21.4;21.5;34;33.8;29.2;-1.0;
12/02/2025 12:34:11;117;0;192.75;-4;29.56;4.92;6.2;20.90;77521;2837.161;-1758.176;1;225;200;203.2;21.4;21.5;28;27.5;29.1;-1.0;
12/02/2025 12:34:31;117;0;190.39;-4;30.51;1.70;3.0;20.90;77519;2837.159;-1758.177;1;225;200;203.2;21.4;21.5;32;27.5;29.1;-1.0;
12/02/2025 12:34:34;115;0;190.51;-4;29.67;3.70;2.6;20.90;77516;2837.158;-1758.177;1;225;500;209.7;100.0;66.7;0;0.0;29.1;-1.0;
12/02/2025 12:34:44;115;0;172.42;-4;13.07;-13.15;1.3;20.90;77489;2837.156;-1758.177;1;225;500;327.4;100.0;100.1;0;0.0;28.9;-1.0;
12/02/2025 12:34:54;115;0;167.27;-4;-59.36;-16.75;1.9;20.90;77230;2837.156;-1758.177;1;225;500;443.5;100.0;100.7;0;0.0;29.0;-1.0;
12/02/2025 12:35:04;115;0;129.20;-4;-65.00;-7.73;1.4;20.90;76956;2837.156;-1758.176;1;225;500;509.7;100.0;100.9;0;0.0;29.0;-1.0;
12/02/2025 12:35:14;115;0;143.65;-4;-21.53;-11.25;-0.4;20.90;76841;2837.155;-1758.175;1;225;500;509.7;100.0;100.7;0;0.0;29.2;-1.0;
12/02/2025 12:35:34;119;0;177.21;-4;-55.37;-19.53;-0.1;20.90;76852;2837.155;-1758.175;1;225;500;509.7;100.0;100.9;0;-0.5;29.2;-1.0;
12/02/2025 12:35:44;119;0;186.12;-4;-50.30;-21.94;-0.1;20.90;76848;2837.123;-1758.139;0;225;500;509.7;100.0;100.7;0;-0.5;29.2;-1.0;
