Timestamp;NavState;SecurityLevel;Heading;Declination;Pitch;Roll;Depth;Temperature;Pa;Lat;Lon;DeadReckoning;DesiredH;BallastCmd;BallastPos;LinCmd;LinPos;AngCmd;AngPos;Voltage;Altitude;
16/02/2025 02:03:18;119;0;135.61;-4;-65.29;-7.99;0.3;17.10;75682;2837.250;-1758.443;0;160;500;508.1;100.0;100.7;0;-0.5;28.5;-1.0;
16/02/2025 02:03:28;116;0;136.93;-4;-37.72;-6.95;0.1;17.10;75689;2837.248;-1758.440;0;159;500;508.1;100.0;100.7;0;-0.9;28.5;-1.0;
16/02/2025 02:03:56;116;0;141.39;-4;-47.51;-26.46;0.2;17.20;75698;2837.246;-1758.439;0;160;500;506.5;100.0;100.7;0;-0.5;28.5;-1.0;
16/02/2025 02:04:22;116;0;156.41;-4;-54.98;-20.82;0.3;17.30;75701;2837.244;-1758.438;0;-9999;500;508.1;100.0;100.7;0;-0.5;28.5;-1.0;
16/02/2025 02:04:33;116;0;161.32;-4;-55.58;-15.32;0.1;17.30;75709;2837.243;-1758.436;0;160;500;509.7;100.0;100.7;0;-0.5;28.5;-1.0;
16/02/2025 02:04:53;116;0;149.64;-4;-47.19;-7.76;0.3;17.40;75722;2837.240;-1758.437;0;160;500;508.1;100.0;100.7;0;-0.5;28.5;-1.0;
16/02/2025 02:05:56;116;0;169.77;-4;-60.75;-27.59;0.3;17.60;75744;2837.237;-1758.433;0;160;500;509.7;100.0;100.7;0;-0.5;28.5;-1.0;
16/02/2025 02:06:29;116;0;177.38;-4;-56.04;-8.74;0.1;17.70;75757;2837.234;-1758.431;0;-9999;500;509.7;100.0;100.7;0;-0.5;28.5;-1.0;
16/02/2025 02:06:43;116;0;170.47;-4;-48.66;-21.53;0.1;17.80;75759;2837.234;-1758.429;0;161;500;509.7;100.0;100.7;0;-0.5;28.4;-1.0;
16/02/2025 02:07:45;116;0;160.24;-4;-46.30;-15.94;0.2;18.10;75787;2837.231;-1758.429;0;161;500;509.7;100.0;100.7;0;-0.5;28.5;-1.0;
16/02/2025 02:09:01;116;0;161.05;-4;-49.78;-10.14;0.1;18.40;75806;2837.228;-1758.424;0;161;500;508.1;100.0;100.7;0;-0.5;28.5;-1.0;
16/02/2025 02:09:21;116;0;152.86;-4;-40.23;-10.62;0.0;18.50;75817;2837.228;-1758.422;0;-9999;500;509.7;100.0;100.7;0;-0.5;28.5;-1.0;
16/02/2025 02:09:32;116;0;128.91;-4;-57.68;2.37;0.1;18.60;75818;2837.228;-1758.421;0;277;500;508.1;100.0;100.7;0;-0.5;28.5;-1.0;
16/02/2025 02:09:52;116;0;169.93;-4;-50.13;-5.45;0.1;18.70;75833;2837.227;-1758.421;0;277;500;508.1;100.0;100.7;0;-0.5;28.3;-1.0;
16/02/2025 02:10:03;116;0;153.58;-4;-53.09;-15.40;0.2;18.70;75832;2837.227;-1758.422;0;277;500;509.7;100.0;100.7;0;-0.5;28.5;-1.0;
16/02/2025 02:10:23;110;0;166.22;-4;-58.76;-16.74;0.1;18.80;75832;2837.227;-1758.422;0;277;-50;393.5;100.0;99.9;-8;-8.1;28.5;-1.0;
16/02/2025 02:10:33;110;0;163.83;-4;-46.03;-19.33;0.0;18.80;76185;2837.228;-1758.422;1;277;-50;248.4;100.0;99.9;-8;-8.6;28.5;-1.0;
16/02/2025 02:10:43;110;0;172.01;-4;-60.86;-36.25;0.3;18.90;76426;2837.228;-1758.422;1;277;-50;91.9;100.0;99.7;-8;-8.6;28.4;-1.0;
16/02/2025 02:10:53;110;0;163.74;-4;-71.79;-6.84;1.0;18.90;76740;2837.227;-1758.422;1;277;-50;-46.8;100.0;99.7;-8;-8.6;28.4;-1.0;
16/02/2025 02:11:03;110;0;186.42;-4;-66.08;-10.14;1.6;19.00;77033;2837.227;-1758.423;1;277;-50;-46.8;43.1;43.0;-8;-8.6;28.5;-1.0;
16/02/2025 02:11:23;100;0;203.55;-4;-29.32;-16.80;4.9;19.00;76996;2837.225;-1758.424;1;277;-50;-46.8;43.1;42.6;-8;-8.6;28.4;-1.0;
16/02/2025 02:11:43;100;0;216.99;-4;-21.35;-16.06;7.6;19.10;77009;2837.223;-1758.427;1;277;-50;-41.9;43.1;43.2;-50;-50.5;28.5;-1.0;
16/02/2025 02:12:03;100;0;225.17;-4;-19.92;-36.65;10.1;19.10;77014;2837.221;-1758.430;1;277;-50;-40.3;43.1;43.2;-42;-41.5;28.5;-1.0;
16/02/2025 02:12:23;100;0;235.29;-4;-20.54;-31.94;12.7;19.20;77023;2837.219;-1758.433;1;277;-50;-38.7;43.1;43.3;-29;-28.9;28.5;0.0;
16/02/2025 02:12:43;100;0;238.90;-4;-20.56;-25.30;15.3;19.20;77028;2837.218;-1758.436;1;277;-50;-40.3;43.1;43.2;-22;-21.7;28.5;0.0;
16/02/2025 02:13:03;100;0;245.44;-4;-19.99;-21.25;18.1;19.20;77035;2837.217;-1758.440;1;277;-50;-40.3;43.1;43.3;-13;-12.6;28.5;0.0;
16/02/2025 02:13:23;100;0;253.82;-4;-20.24;-17.35;20.7;19.20;77034;2837.217;-1758.444;1;277;-50;-38.7;43.1;43.3;1;0.9;28.5;0.0;
16/02/2025 02:13:43;100;0;259.31;-4;-21.01;-11.21;23.2;19.20;77044;2837.216;-1758.448;1;277;-50;-40.3;43.1;43.3;9;9.0;28.5;0.0;
16/02/2025 02:14:03;100;0;262.16;-4;-21.44;-7.19;25.9;19.30;77041;2837.216;-1758.452;1;277;-50;-40.3;43.1;43.3;11;10.8;28.5;0.0;
16/02/2025 02:14:23;100;0;262.42;-4;-20.93;-6.19;28.5;19.30;77049;2837.216;-1758.456;1;277;-50;-41.9;43.1;43.4;11;11.3;28.5;0.0;
16/02/2025 02:14:43;100;0;261.64;-4;-21.23;-6.09;31.3;19.30;77049;2837.216;-1758.460;1;277;-50;-40.3;43.1;43.3;11;11.3;28.5;0.0;
16/02/2025 02:15:03;100;0;262.21;-4;-20.68;-6.07;33.9;19.30;77054;2837.216;-1758.464;1;277;-50;-40.3;43.1;43.3;11;11.3;28.5;0.0;
16/02/2025 02:15:23;100;0;263.48;-4;-21.03;-6.22;36.5;19.30;77051;2837.216;-1758.468;1;277;-50;-40.3;43.1;43.4;11;11.3;28.5;0.0;
16/02/2025 02:15:43;100;0;264.58;-4;-21.12;-6.19;39.2;19.30;77062;2837.216;-1758.472;1;277;-50;-40.3;43.1;43.4;11;10.8;28.5;0.0;
16/02/2025 02:16:03;100;0;264.47;-4;-21.64;-6.32;42.0;19.30;77062;2837.216;-1758.476;1;277;-50;-40.3;43.1;43.4;11;11.3;28.4;0.0;
16/02/2025 02:16:23;100;0;264.03;-4;-20.58;-6.24;44.6;19.30;77065;2837.216;-1758.480;1;277;-50;-38.7;43.1;43.4;11;11.3;28.5;0.0;
16/02/2025 02:16:43;100;0;265.42;-4;-20.63;-6.44;47.4;19.30;77073;2837.216;-1758.484;1;277;-50;-40.3;43.1;43.4;11;11.3;28.5;0.0;
16/02/2025 02:17:03;100;0;267.32;-4;-20.52;-6.12;49.9;19.30;77077;2837.217;-1758.488;1;277;-50;-40.3;43.1;43.3;13;13.1;28.5;0.0;
16/02/2025 02:17:23;100;0;269.40;-4;-21.29;-5.07;52.4;19.30;77077;2837.217;-1758.492;1;277;-50;-40.3;43.1;43.3;13;13.5;28.5;0.0;
16/02/2025 02:17:43;100;0;269.19;-4;-21.08;-5.14;54.9;19.30;77085;2837.217;-1758.496;1;277;-50;-40.3;43.1;43.4;13;13.5;28.5;0.0;
16/02/2025 02:18:03;100;0;266.03;-4;-21.09;-5.03;57.5;19.30;77077;2837.218;-1758.500;1;277;-50;-40.3;43.1;43.4;13;13.5;28.5;0.0;
16/02/2025 02:18:23;100;0;264.72;-4;-20.56;-5.16;60.0;19.30;77088;2837.218;-1758.503;1;277;-50;-40.3;43.1;43.3;13;13.5;28.5;0.0;
16/02/2025 02:18:43;100;0;264.54;-4;-20.83;-5.24;62.2;19.30;77079;2837.218;-1758.507;1;277;-50;-40.3;43.1;43.4;13;13.5;28.5;0.0;
16/02/2025 02:19:03;100;0;265.58;-4;-20.75;-5.08;64.5;19.30;77094;2837.218;-1758.510;1;277;-50;-40.3;43.1;43.4;13;13.5;28.5;0.0;
16/02/2025 02:19:23;100;0;265.70;-4;-21.23;-5.12;66.7;19.30;77094;2837.218;-1758.514;1;277;-50;-40.3;43.1;43.3;13;13.5;28.5;0.0;
16/02/2025 02:19:43;100;0;266.19;-4;-20.86;-5.06;68.9;19.30;77094;2837.218;-1758.517;1;278;-50;-40.3;43.1;43.4;13;13.5;28.5;0.0;
16/02/2025 02:20:03;100;0;264.66;-4;-20.42;-5.13;71.0;19.30;77096;2837.218;-1758.520;1;278;-50;-38.7;43.1;43.4;13;13.1;28.5;0.0;
16/02/2025 02:20:23;100;0;266.37;-4;-20.55;-5.01;73.1;19.30;77094;2837.219;-1758.523;1;278;-50;-40.3;43.1;43.4;13;13.5;28.5;0.0;
16/02/2025 02:20:43;100;0;267.01;-4;-20.66;-5.07;75.2;19.30;77094;2837.219;-1758.527;1;278;-50;-40.3;43.1;43.4;13;13.5;28.5;0.0;
16/02/2025 02:21:03;100;0;264.62;-4;-20.55;-5.13;77.0;19.30;77096;2837.219;-1758.530;1;278;-70;-71.0;43.1;43.4;13;13.5;28.5;0.0;
16/02/2025 02:21:23;100;0;264.59;-4;-19.48;-5.07;79.0;19.30;77158;2837.219;-1758.533;1;278;-90;-91.9;43.1;43.4;13;13.5;28.5;0.0;
16/02/2025 02:21:43;100;0;264.10;-4;-18.95;-4.94;80.9;19.30;77194;2837.219;-1758.536;1;278;-110;-112.9;43.4;43.3;13;13.5;28.5;0.0;
16/02/2025 02:22:03;100;0;264.14;-4;-19.65;-4.88;82.9;19.30;77225;2837.220;-1758.539;1;278;-110;-111.3;43.4;43.4;13;13.5;28.5;0.0;
16/02/2025 02:22:23;100;0;262.96;-4;-20.24;-4.89;85.2;19.30;77203;2837.220;-1758.543;1;278;-110;-111.3;43.4;43.3;11;10.8;28.5;0.0;
16/02/2025 02:22:43;100;0;263.82;-4;-19.93;-6.29;87.8;19.30;77179;2837.220;-1758.547;1;278;-110;-111.3;43.4;43.4;11;10.4;28.5;0.0;
16/02/2025 02:23:03;100;0;265.72;-4;-19.94;-6.37;90.4;19.30;77173;2837.220;-1758.551;1;278;-110;-112.9;43.4;43.4;11;10.4;28.5;0.0;
16/02/2025 02:23:23;100;0;269.34;-4;-19.49;-6.37;93.0;19.30;77165;2837.220;-1758.555;1;278;-110;-112.9;43.4;43.3;11;10.4;28.5;0.0;
16/02/2025 02:23:43;100;0;273.02;-4;-19.60;-6.13;95.5;19.20;77149;2837.221;-1758.559;1;278;-110;-112.9;43.4;43.3;11;10.4;28.5;0.0;
16/02/2025 02:24:03;100;0;278.64;-4;-20.01;-6.29;98.2;19.20;77131;2837.222;-1758.563;1;278;-110;-112.9;43.4;43.4;13;13.1;28.4;0.0;
16/02/2025 02:24:23;100;0;279.71;-4;-19.64;-4.80;101.0;19.20;77126;2837.223;-1758.567;1;278;-110;-111.3;43.4;43.4;13;13.1;28.5;0.0;
16/02/2025 02:24:43;100;0;280.82;-4;-19.68;-4.84;103.7;19.20;77116;2837.224;-1758.572;1;278;-110;-112.9;43.4;43.3;15;14.9;28.5;0.0;
16/02/2025 02:25:03;100;0;278.96;-4;-19.90;-3.81;106.5;19.10;77106;2837.225;-1758.576;1;278;-110;-111.3;43.4;43.4;15;15.3;28.5;0.0;
16/02/2025 02:25:23;100;0;275.95;-4;-19.92;-3.76;109.1;19.10;77090;2837.225;-1758.580;1;278;-110;-112.9;43.4;43.3;13;12.6;28.5;0.0;
16/02/2025 02:25:43;100;0;275.88;-4;-19.92;-5.37;111.9;19.10;77074;2837.226;-1758.584;1;278;-110;-112.9;43.4;43.3;13;12.2;28.5;0.0;
16/02/2025 02:26:03;100;0;277.63;-4;-19.25;-5.34;114.6;19.10;77059;2837.227;-1758.589;1;277;-110;-112.9;43.4;43.4;13;12.2;28.5;0.0;
16/02/2025 02:26:23;100;0;279.53;-4;-18.79;-5.52;117.1;19.00;77043;2837.228;-1758.593;1;277;-110;-112.9;43.7;43.9;15;14.9;28.5;0.0;
16/02/2025 02:26:43;100;0;275.08;-4;-19.85;-3.96;119.5;19.00;77028;2837.229;-1758.596;1;277;-110;-112.9;43.7;44.0;13;13.1;28.5;0.0;
16/02/2025 02:27:03;100;0;272.88;-4;-19.97;-5.22;121.9;19.00;77021;2837.229;-1758.600;1;277;-110;-112.9;43.7;44.0;13;12.6;28.5;0.0;
16/02/2025 02:27:23;100;0;270.35;-4;-20.13;-5.25;124.4;19.00;77006;2837.229;-1758.604;1;277;-110;-112.9;43.7;43.9;13;12.6;28.5;0.0;
16/02/2025 02:27:43;100;0;266.58;-4;-20.70;-5.34;127.0;18.90;76986;2837.230;-1758.608;1;277;-110;-111.3;43.7;43.9;13;12.6;28.5;0.0;
16/02/2025 02:28:03;100;0;267.65;-4;-17.34;-5.20;129.4;18.90;76979;2837.230;-1758.612;1;277;-110;-112.9;44.5;44.5;13;12.6;28.5;0.0;
16/02/2025 02:28:23;100;0;267.80;-4;-19.05;-4.78;131.5;18.80;76975;2837.230;-1758.616;1;277;-110;-112.9;44.5;44.8;13;12.6;28.5;0.0;
16/02/2025 02:28:43;100;0;270.89;-4;-21.45;-5.22;133.9;18.80;76962;2837.231;-1758.619;1;277;-110;-112.9;44.5;44.8;13;12.6;28.5;0.0;
16/02/2025 02:29:03;100;0;265.39;-4;-21.88;-5.35;136.7;18.80;76960;2837.231;-1758.623;1;277;-110;-114.5;44.5;44.8;13;13.1;28.5;0.0;
16/02/2025 02:29:23;100;0;268.15;-4;-22.95;-5.38;139.4;18.70;76957;2837.231;-1758.627;1;278;-110;-114.5;43.6;43.4;13;12.6;28.5;0.0;
16/02/2025 02:29:43;100;0;267.66;-4;-20.35;-5.24;142.4;18.70;76963;2837.231;-1758.632;1;278;-110;-114.5;43.6;43.3;13;12.6;28.5;0.0;
16/02/2025 02:30:03;100;0;270.20;-4;-20.46;-5.19;145.3;18.70;76945;2837.232;-1758.636;1;278;-110;-112.9;43.6;43.4;13;12.6;28.5;0.0;
16/02/2025 02:30:23;100;0;269.08;-4;-19.97;-5.13;148.3;18.60;76922;2837.232;-1758.641;1;278;-110;-114.5;43.6;43.3;13;12.6;28.5;0.0;
16/02/2025 02:30:43;100;0;266.63;-4;-20.06;-5.21;151.1;18.60;76923;2837.232;-1758.645;1;278;-110;-112.9;43.6;43.4;13;12.6;28.5;0.0;
16/02/2025 02:31:03;100;0;265.05;-4;-20.55;-5.07;154.1;18.60;76913;2837.232;-1758.650;1;278;-110;-114.5;43.6;43.3;11;10.8;28.5;0.0;
16/02/2025 02:31:23;100;0;263.81;-4;-20.10;-5.94;157.0;18.50;76900;2837.232;-1758.654;1;278;-110;-112.9;43.6;43.4;11;10.8;28.5;0.0;
16/02/2025 02:31:43;100;0;264.82;-4;-19.91;-6.04;160.0;18.50;76894;2837.232;-1758.659;1;278;-110;-112.9;43.6;43.3;11;10.8;28.5;0.0;
16/02/2025 02:32:03;100;0;268.34;-4;-19.25;-6.09;163.0;18.50;76877;2837.233;-1758.664;1;278;-110;-112.9;43.6;43.4;11;10.8;28.5;0.0;
16/02/2025 02:32:23;100;0;269.60;-4;-19.34;-6.08;165.8;18.40;76876;2837.233;-1758.668;1;278;-110;-114.5;43.6;43.4;11;10.8;28.5;0.0;
16/02/2025 02:32:43;100;0;269.19;-4;-19.17;-6.15;168.5;18.40;76866;2837.233;-1758.673;1;278;-110;-112.9;43.6;43.4;11;10.8;28.5;0.0;
16/02/2025 02:33:03;100;0;269.30;-4;-19.07;-6.08;171.4;18.40;76851;2837.234;-1758.677;1;278;-110;-112.9;43.6;43.3;11;10.8;28.5;0.0;
16/02/2025 02:33:23;100;0;271.27;-4;-19.19;-6.13;174.2;18.30;76841;2837.234;-1758.682;1;278;-110;-114.5;43.6;43.3;11;10.8;28.5;0.0;
16/02/2025 02:33:43;100;0;271.05;-4;-19.00;-6.08;176.9;18.30;76843;2837.235;-1758.686;1;278;-110;-112.9;43.6;43.3;11;10.8;28.5;0.0;
16/02/2025 02:34:03;100;0;272.32;-4;-19.07;-6.11;179.8;18.30;76831;2837.235;-1758.691;1;278;-110;-112.9;43.6;43.4;11;10.8;28.5;0.0;
16/02/2025 02:34:23;100;0;273.54;-4;-19.23;-6.10;182.7;18.20;76822;2837.236;-1758.696;1;278;-110;-114.5;43.6;43.3;11;10.8;28.5;0.0;
16/02/2025 02:34:43;100;0;273.93;-4;-19.20;-6.06;185.7;18.20;76812;2837.236;-1758.700;1;278;-110;-114.5;43.6;43.3;11;10.8;28.5;0.0;
16/02/2025 02:35:03;100;0;275.61;-4;-19.02;-6.16;188.5;18.10;76800;2837.237;-1758.705;1;278;-110;-112.9;43.6;43.3;11;10.8;28.5;0.0;
16/02/2025 02:35:23;100;0;277.49;-4;-18.96;-6.06;191.4;18.10;76799;2837.238;-1758.709;1;278;-110;-114.5;44.0;43.9;13;13.1;28.5;0.0;
16/02/2025 02:35:43;100;0;278.35;-4;-19.86;-4.97;194.4;18.00;76795;2837.239;-1758.714;1;278;-110;-112.9;44.0;44.2;13;13.1;28.5;0.0;
16/02/2025 02:36:03;100;0;277.76;-4;-20.66;-4.82;197.5;18.00;76782;2837.240;-1758.719;1;278;-110;-114.5;44.0;44.3;13;13.5;28.5;0.0;
16/02/2025 02:36:23;100;0;277.51;-4;-20.74;-4.86;200.7;18.00;76781;2837.241;-1758.723;1;278;-110;-114.5;44.0;44.2;13;13.5;28.5;0.0;
16/02/2025 02:36:43;100;0;277.50;-4;-21.01;-4.63;203.9;17.90;76766;2837.242;-1758.728;1;278;-110;-111.3;44.0;44.3;13;13.1;28.5;0.0;
16/02/2025 02:37:03;100;0;277.54;-4;-21.49;-4.81;207.2;17.90;76760;2837.243;-1758.733;1;278;-110;-112.9;44.0;44.2;13;13.1;28.4;0.0;
16/02/2025 02:37:23;100;0;274.79;-4;-21.38;-4.83;210.7;17.90;76758;2837.243;-1758.738;1;278;-110;-114.5;44.0;44.2;13;13.1;28.5;0.0;
16/02/2025 02:37:43;100;0;272.26;-4;-20.99;-4.79;214.1;17.80;76745;2837.244;-1758.743;1;278;-110;-114.5;44.0;44.2;13;13.5;28.5;0.0;
16/02/2025 02:38:03;100;0;272.68;-4;-20.32;-4.80;217.5;17.80;76735;2837.245;-1758.748;1;278;-110;-112.9;44.0;44.2;13;13.1;28.4;0.0;
16/02/2025 02:38:24;100;0;273.56;-4;-20.14;-5.04;220.7;17.80;76723;2837.245;-1758.754;1;278;-110;-112.9;44.0;44.2;13;13.5;28.5;0.0;
16/02/2025 02:38:44;100;0;273.80;-4;-20.74;-4.79;224.0;17.70;76714;2837.246;-1758.758;1;278;-110;-112.9;44.0;44.2;13;13.5;28.5;0.0;
16/02/2025 02:39:04;100;0;269.43;-4;-20.59;-5.08;227.2;17.70;76702;2837.246;-1758.763;1;278;-110;-114.5;44.0;44.2;13;13.1;28.5;0.0;
16/02/2025 02:39:24;100;0;268.35;-4;-20.48;-4.78;230.5;17.60;76698;2837.246;-1758.768;1;278;-110;-114.5;44.0;44.2;13;13.5;28.5;0.0;
16/02/2025 02:39:44;100;0;267.78;-4;-20.59;-4.77;233.9;17.60;76700;2837.247;-1758.773;1;278;-110;-112.9;44.0;44.2;13;13.5;28.5;0.0;
16/02/2025 02:40:04;100;0;265.83;-4;-20.69;-4.81;237.3;17.60;76696;2837.247;-1758.778;1;278;-110;-114.5;44.0;44.2;11;10.8;28.5;0.0;
16/02/2025 02:40:24;100;0;265.45;-4;-19.59;-5.98;240.8;17.50;76680;2837.247;-1758.784;1;278;-110;-112.9;44.0;44.2;11;10.8;28.4;0.0;
16/02/2025 02:40:44;100;0;264.83;-4;-20.39;-6.10;244.0;17.50;76676;2837.247;-1758.789;1;278;-110;-111.3;44.0;44.2;11;10.8;28.5;0.0;
16/02/2025 02:41:04;100;0;265.62;-4;-20.03;-6.04;247.3;17.50;76662;2837.247;-1758.794;1;278;-110;-112.9;44.0;44.2;11;10.8;28.5;0.0;
16/02/2025 02:41:24;100;0;265.54;-4;-19.38;-6.19;250.5;17.40;76653;2837.247;-1758.799;1;278;-110;-112.9;44.0;44.2;11;10.8;28.5;0.0;
16/02/2025 02:41:44;100;0;265.20;-4;-20.19;-6.16;253.7;17.40;76649;2837.247;-1758.804;1;278;-110;-112.9;44.0;44.2;11;10.8;28.5;0.0;
16/02/2025 02:42:04;100;0;264.79;-4;-20.19;-6.10;256.9;17.30;76639;2837.247;-1758.809;1;278;-110;-112.9;44.0;44.2;11;10.8;28.5;0.0;
16/02/2025 02:42:24;100;0;262.20;-4;-20.80;-5.88;260.4;17.30;76635;2837.247;-1758.814;1;278;-110;-112.9;44.0;44.2;8;8.1;28.4;0.0;
16/02/2025 02:42:44;100;0;261.13;-4;-20.51;-7.55;263.8;17.30;76624;2837.247;-1758.819;1;278;-110;-112.9;44.0;44.2;8;8.1;28.5;0.0;
16/02/2025 02:43:04;100;0;260.14;-4;-20.47;-7.57;267.3;17.20;76606;2837.246;-1758.824;1;278;-110;-114.5;44.0;44.2;6;5.9;28.5;0.0;
16/02/2025 02:43:24;100;0;260.54;-4;-20.43;-8.75;270.8;17.20;76602;2837.246;-1758.830;1;278;-110;-112.9;44.0;44.2;6;5.4;28.5;0.0;
16/02/2025 02:43:44;100;0;264.31;-4;-19.59;-8.85;274.2;17.20;76596;2837.246;-1758.835;1;278;-110;-114.5;44.0;44.2;10;10.4;28.5;0.0;
16/02/2025 02:44:04;100;0;264.93;-4;-19.89;-6.11;277.4;17.10;76585;2837.246;-1758.840;1;278;-110;-112.9;44.0;44.2;10;10.8;28.5;0.0;
16/02/2025 02:44:24;100;0;264.42;-4;-19.94;-6.15;280.6;17.10;76560;2837.246;-1758.845;1;278;-110;-114.5;44.0;44.2;10;10.8;28.5;0.0;
16/02/2025 02:44:44;100;0;262.72;-4;-19.73;-6.18;283.7;17.00;76564;2837.246;-1758.849;1;278;-110;-112.9;44.0;44.2;10;10.8;28.5;0.0;
16/02/2025 02:45:04;100;0;264.62;-4;-19.62;-6.14;286.9;17.00;76552;2837.246;-1758.854;1;278;-110;-112.9;44.0;44.2;10;10.8;28.5;0.0;
16/02/2025 02:45:24;100;0;265.11;-4;-19.72;-6.22;289.9;17.00;76534;2837.246;-1758.859;1;278;-110;-114.5;44.0;44.2;10;10.8;28.5;0.0;
16/02/2025 02:45:44;100;0;268.07;-4;-19.59;-6.06;293.0;16.90;76531;2837.246;-1758.864;1;278;-110;-112.9;44.0;44.2;10;10.8;28.5;0.0;
16/02/2025 02:46:04;100;0;270.71;-4;-19.63;-6.11;296.0;16.90;76520;2837.246;-1758.868;1;278;-110;-114.5;44.0;44.0;12;12.2;28.5;0.0;
16/02/2025 02:46:24;100;0;272.84;-4;-19.44;-5.08;298.9;16.80;76515;2837.247;-1758.873;1;278;-110;-112.9;44.0;44.2;12;13.1;28.5;0.0;
16/02/2025 02:46:44;100;0;274.57;-4;-19.42;-5.20;301.5;16.80;76499;2837.248;-1758.877;1;278;-110;-114.5;44.0;44.2;12;13.1;28.5;0.0;
16/02/2025 02:47:04;100;0;275.74;-4;-19.89;-5.20;304.3;16.70;76487;2837.248;-1758.882;1;278;-110;-112.9;44.0;44.2;12;12.6;28.5;0.0;
16/02/2025 02:47:24;100;0;275.72;-4;-20.25;-5.04;307.2;16.70;76472;2837.249;-1758.886;1;278;-110;-111.3;44.0;44.2;12;12.6;28.5;0.0;
16/02/2025 02:47:44;100;0;276.52;-4;-20.18;-5.09;310.2;16.60;76458;2837.250;-1758.891;1;278;-110;-112.9;44.0;44.2;12;12.6;28.5;0.0;
16/02/2025 02:48:04;100;0;277.56;-4;-20.42;-4.98;313.3;16.60;76462;2837.251;-1758.895;1;278;-110;-114.5;44.0;44.2;12;13.1;28.5;0.0;
16/02/2025 02:48:24;100;0;278.37;-4;-20.43;-4.97;316.3;16.60;76456;2837.252;-1758.900;1;278;-110;-114.5;44.0;44.2;12;13.1;28.5;0.0;
16/02/2025 02:48:44;100;0;274.79;-4;-19.76;-5.16;319.3;16.50;76434;2837.253;-1758.905;1;278;-110;-112.9;44.0;44.2;12;13.1;28.5;0.0;
16/02/2025 02:49:04;100;0;273.55;-4;-19.70;-5.07;322.1;16.50;76421;2837.253;-1758.909;1;278;-110;-114.5;44.0;44.2;12;12.6;28.5;0.0;
16/02/2025 02:49:24;100;0;272.52;-4;-19.63;-5.16;324.9;16.50;76411;2837.254;-1758.913;1;278;-110;-112.9;44.0;44.2;12;12.6;28.5;0.0;
16/02/2025 02:49:44;100;0;270.18;-4;-19.66;-5.13;327.7;16.40;76410;2837.254;-1758.918;1;278;-110;-112.9;44.0;44.2;12;13.1;28.5;0.0;
16/02/2025 02:50:04;100;0;268.48;-4;-19.74;-5.08;330.2;16.40;76398;2837.254;-1758.922;1;278;-110;-112.9;44.0;44.2;12;13.1;28.5;0.0;
16/02/2025 02:50:24;100;0;266.34;-4;-19.49;-5.11;332.9;16.30;76383;2837.255;-1758.926;1;278;-110;-114.5;44.0;44.2;12;13.1;28.5;0.0;
16/02/2025 02:50:44;100;0;265.37;-4;-19.61;-5.14;335.4;16.30;76372;2837.255;-1758.930;1;278;-110;-112.9;44.0;44.2;12;13.1;28.5;0.0;
16/02/2025 02:51:04;100;0;264.30;-4;-19.90;-5.15;338.0;16.20;76369;2837.255;-1758.934;1;278;-110;-112.9;44.0;44.2;10;9.9;28.5;0.0;
16/02/2025 02:51:24;100;0;264.70;-4;-19.71;-6.81;340.7;16.20;76364;2837.255;-1758.938;1;278;-110;-114.5;44.0;44.2;10;9.5;28.5;0.0;
16/02/2025 02:51:44;100;0;264.30;-4;-19.97;-6.87;343.4;16.20;76349;2837.255;-1758.942;1;278;-110;-112.9;44.0;44.2;10;9.5;28.5;0.0;
16/02/2025 02:52:04;100;0;267.24;-4;-19.91;-6.83;346.0;16.10;76333;2837.255;-1758.947;1;278;-110;-114.5;44.0;44.2;10;9.5;28.5;0.0;
16/02/2025 02:52:24;100;0;269.29;-4;-19.79;-6.86;348.8;16.10;76332;2837.256;-1758.951;1;278;-110;-112.9;44.0;44.2;12;12.2;28.5;0.0;
16/02/2025 02:52:44;100;0;271.03;-4;-20.00;-5.16;351.5;16.00;76320;2837.256;-1758.955;1;278;-110;-112.9;44.0;44.3;12;12.6;28.5;0.0;
16/02/2025 02:53:04;100;0;271.73;-4;-19.96;-5.14;354.2;16.00;76321;2837.256;-1758.959;1;278;-110;-112.9;44.0;44.2;12;12.6;28.5;0.0;
16/02/2025 02:53:24;100;0;272.01;-4;-20.22;-5.26;357.0;16.00;76306;2837.257;-1758.964;1;278;-110;-114.5;44.0;44.2;12;12.6;28.5;0.0;
16/02/2025 02:53:44;100;0;271.17;-4;-20.24;-5.26;359.8;15.90;76297;2837.257;-1758.968;1;278;-110;-112.9;44.0;44.2;12;12.6;28.5;0.0;
16/02/2025 02:54:04;100;0;270.38;-4;-20.06;-5.12;362.7;15.90;76306;2837.258;-1758.973;1;278;-110;-112.9;44.0;44.2;12;12.6;28.5;0.0;
16/02/2025 02:54:24;100;0;269.50;-4;-20.09;-5.15;365.5;15.80;76288;2837.258;-1758.977;1;278;-110;-114.5;44.0;44.2;12;12.6;28.5;0.0;
16/02/2025 02:54:44;100;0;268.75;-4;-20.15;-5.12;368.3;15.80;76289;2837.259;-1758.981;1;278;-110;-114.5;44.0;44.2;12;12.6;28.5;0.0;
16/02/2025 02:55:04;100;0;269.18;-4;-20.38;-5.15;371.1;15.80;76277;2837.259;-1758.986;1;278;-110;-114.5;44.0;44.2;12;12.6;28.5;0.0;
16/02/2025 02:55:24;100;0;272.51;-4;-19.87;-5.02;374.0;15.70;76276;2837.259;-1758.990;1;278;-110;-114.5;44.0;44.2;12;12.6;28.5;0.0;
16/02/2025 02:55:44;100;0;275.84;-4;-19.75;-5.07;376.9;15.70;76263;2837.260;-1758.995;1;278;-110;-112.9;44.0;44.2;12;12.6;28.5;0.0;
16/02/2025 02:56:04;100;0;277.74;-4;-19.70;-5.10;379.6;15.60;76265;2837.261;-1758.999;1;278;-110;-112.9;44.0;44.2;12;12.6;28.5;0.0;
16/02/2025 02:56:24;100;0;277.71;-4;-19.60;-5.18;382.5;15.60;76252;2837.262;-1759.003;1;278;-110;-114.5;44.0;44.3;12;12.6;28.5;0.0;
16/02/2025 02:56:44;100;0;276.75;-4;-19.37;-5.23;385.2;15.60;76232;2837.263;-1759.008;1;278;-110;-112.9;44.0;44.2;12;12.6;28.5;0.0;
16/02/2025 02:57:04;100;0;278.03;-4;-19.21;-5.23;387.8;15.50;76226;2837.264;-1759.012;1;278;-110;-114.5;44.0;44.2;12;12.6;28.5;0.0;
16/02/2025 02:57:24;100;0;279.04;-4;-19.45;-5.32;390.3;15.50;76218;2837.265;-1759.016;1;278;-110;-116.1;44.0;44.2;12;12.6;28.5;0.0;
16/02/2025 02:57:44;100;0;279.00;-4;-19.74;-5.11;393.1;15.50;76217;2837.266;-1759.020;1;278;-110;-112.9;44.0;44.2;12;12.6;28.5;0.0;
16/02/2025 02:58:04;100;0;277.33;-4;-19.53;-5.25;395.8;15.40;76210;2837.266;-1759.024;1;278;-110;-114.5;44.0;44.2;12;12.6;28.5;0.0;
16/02/2025 02:58:24;100;0;277.01;-4;-19.58;-5.27;398.5;15.40;76212;2837.267;-1759.029;1;278;-110;-112.9;44.0;44.2;12;12.6;28.5;0.0;
16/02/2025 02:58:44;100;0;276.49;-4;-19.73;-5.28;401.3;15.40;76207;2837.268;-1759.033;1;278;-110;-114.5;44.0;44.2;12;12.6;28.5;0.0;
16/02/2025 02:59:04;100;0;275.10;-4;-19.28;-5.24;404.1;15.30;76196;2837.269;-1759.037;1;278;-110;-114.5;44.0;44.2;12;12.6;28.5;0.0;
16/02/2025 02:59:24;100;0;275.93;-4;-19.89;-5.17;406.9;15.30;76189;2837.269;-1759.042;1;278;-110;-112.9;44.0;44.2;12;12.6;28.5;0.0;
16/02/2025 02:59:44;100;0;275.33;-4;-19.23;-5.21;409.6;15.20;76181;2837.270;-1759.046;1;278;-110;-117.7;44.0;44.3;12;12.6;28.5;0.0;
16/02/2025 03:00:04;100;0;275.97;-4;-19.26;-5.27;412.3;15.20;76186;2837.271;-1759.050;1;278;-110;-114.5;44.0;44.2;12;12.6;28.5;0.0;
16/02/2025 03:00:24;100;0;275.08;-4;-19.80;-5.35;415.0;15.20;76166;2837.272;-1759.055;1;278;-110;-114.5;44.0;44.3;12;12.6;28.5;0.0;
16/02/2025 03:00:44;100;0;275.73;-4;-19.83;-5.05;417.6;15.10;76163;2837.272;-1759.059;1;278;-110;-112.9;44.0;44.2;12;12.6;28.5;0.0;
16/02/2025 03:01:04;100;0;275.72;-4;-19.10;-5.35;420.5;15.10;76164;2837.273;-1759.063;1;278;-110;-114.5;44.0;44.2;12;12.6;28.5;0.0;
16/02/2025 03:01:24;100;0;275.37;-4;-18.97;-5.24;423.2;15.10;76157;2837.274;-1759.068;1;278;-110;-114.5;44.3;44.3;12;12.6;28.5;0.0;
16/02/2025 03:01:44;100;0;276.49;-4;-19.79;-5.22;425.8;15.10;76162;2837.275;-1759.072;1;278;-110;-114.5;44.3;44.6;12;12.6;28.5;0.0;
16/02/2025 03:02:04;100;0;278.97;-4;-19.59;-5.30;428.4;15.00;76158;2837.276;-1759.076;1;278;-110;-112.9;44.3;44.6;12;12.6;28.5;0.0;
16/02/2025 03:02:24;100;0;282.74;-4;-20.09;-5.20;430.9;15.00;76138;2837.277;-1759.080;1;278;-110;-114.5;44.3;44.6;16;15.8;28.4;0.0;
16/02/2025 03:02:44;100;0;282.37;-4;-20.63;-3.49;433.5;15.00;76134;2837.278;-1759.083;1;278;-110;-114.5;44.3;44.6;16;16.2;28.5;0.0;
16/02/2025 03:03:04;100;0;281.74;-4;-20.43;-3.37;436.3;14.90;76121;2837.279;-1759.088;1;278;-110;-112.9;44.3;44.6;16;16.2;28.5;0.0;
16/02/2025 03:03:24;100;0;280.86;-4;-20.40;-3.48;439.0;14.90;76115;2837.280;-1759.092;1;278;-110;-114.5;44.3;44.6;16;16.2;28.5;0.0;
16/02/2025 03:03:44;100;0;279.57;-4;-20.49;-3.39;441.7;14.90;76111;2837.281;-1759.096;1;278;-110;-114.5;44.3;44.6;14;13.5;28.5;0.0;
16/02/2025 03:04:04;100;0;279.82;-4;-20.20;-4.94;444.4;14.80;76115;2837.282;-1759.100;1;278;-110;-114.5;44.3;44.6;14;13.1;28.5;0.0;
16/02/2025 03:04:24;100;0;278.98;-4;-20.00;-4.96;447.2;14.80;76097;2837.283;-1759.104;1;278;-110;-114.5;44.3;44.6;14;13.1;28.5;0.0;
16/02/2025 03:04:44;100;0;279.84;-4;-20.15;-5.03;449.9;14.80;76079;2837.284;-1759.109;1;278;-110;-112.9;44.3;44.6;14;13.1;28.5;0.0;
16/02/2025 03:05:04;100;0;279.26;-4;-20.35;-5.01;452.7;14.70;76073;2837.285;-1759.113;1;278;-110;-112.9;44.3;44.6;14;13.1;28.5;0.0;
16/02/2025 03:05:24;100;0;279.10;-4;-20.43;-4.98;455.6;14.70;76073;2837.286;-1759.117;1;278;-110;-114.5;44.3;44.6;14;13.1;28.5;0.0;
16/02/2025 03:05:44;100;0;279.01;-4;-20.26;-4.93;458.6;14.70;76062;2837.287;-1759.122;1;278;-110;-114.5;44.3;44.6;14;13.5;28.5;0.0;
16/02/2025 03:06:04;100;0;277.44;-4;-20.99;-4.82;461.7;14.60;76055;2837.288;-1759.127;1;278;-110;-114.5;44.3;44.6;14;13.1;28.5;0.0;
16/02/2025 03:06:24;100;0;276.92;-4;-20.69;-4.86;465.0;14.60;76051;2837.288;-1759.131;1;278;-110;-114.5;44.3;44.6;14;13.1;28.5;0.0;
16/02/2025 03:06:44;100;0;276.40;-4;-20.74;-4.76;468.2;14.60;76049;2837.289;-1759.136;1;278;-110;-112.9;44.3;44.6;14;13.5;28.5;0.0;
16/02/2025 03:07:04;100;0;275.51;-4;-20.43;-4.97;471.5;14.50;76037;2837.290;-1759.141;1;278;-110;-112.9;44.3;44.6;14;13.1;28.5;0.0;
16/02/2025 03:07:24;100;0;275.63;-4;-20.74;-4.85;474.7;14.50;76033;2837.291;-1759.146;1;278;-110;-114.5;44.3;44.6;14;13.1;28.5;0.0;
16/02/2025 03:07:44;100;0;274.74;-4;-20.42;-4.88;477.9;14.50;76032;2837.292;-1759.151;1;277;-110;-114.5;44.3;44.6;14;13.1;28.5;0.0;
16/02/2025 03:08:04;100;0;275.31;-4;-20.70;-4.86;481.1;14.40;76031;2837.292;-1759.156;1;277;-110;-114.5;44.3;44.6;14;13.1;28.5;0.0;
16/02/2025 03:08:24;100;0;276.74;-4;-20.39;-4.83;484.3;14.40;76026;2837.293;-1759.161;1;277;-110;-114.5;44.3;44.5;14;13.5;28.5;0.0;
16/02/2025 03:08:44;100;0;276.03;-4;-20.52;-4.88;487.4;14.40;76016;2837.294;-1759.165;1;277;-110;-114.5;44.3;44.6;14;13.1;28.5;0.0;
16/02/2025 03:09:04;100;0;274.42;-4;-20.42;-4.94;490.5;14.40;76012;2837.295;-1759.170;1;277;-110;-114.5;44.3;44.6;14;13.1;28.5;0.0;
16/02/2025 03:09:24;100;0;274.09;-4;-20.19;-4.91;493.6;14.30;76008;2837.295;-1759.175;1;277;-110;-114.5;44.3;44.6;14;13.1;28.5;0.0;
16/02/2025 03:09:44;100;0;275.01;-4;-20.04;-4.93;496.5;14.30;76002;2837.296;-1759.179;1;277;-110;-112.9;44.3;44.6;14;13.1;28.5;0.0;
16/02/2025 03:10:04;100;0;274.08;-4;-20.28;-4.89;499.4;14.30;75988;2837.297;-1759.184;1;277;-110;-112.9;44.3;44.6;14;13.5;28.5;0.0;
16/02/2025 03:10:24;100;0;274.54;-4;-21.03;-4.98;502.6;14.20;75998;2837.297;-1759.189;1;277;-110;-114.5;44.3;44.6;14;13.5;28.5;0.0;
16/02/2025 03:10:44;100;0;279.21;-4;-19.35;-5.02;505.4;14.20;75983;2837.298;-1759.193;1;277;-110;-114.5;44.3;44.6;14;13.5;28.4;0.0;
16/02/2025 03:11:04;100;0;280.36;-4;-20.96;-5.13;508.1;14.20;75977;2837.299;-1759.197;1;277;-110;-112.9;44.3;44.6;14;13.1;28.5;0.0;
16/02/2025 03:11:24;100;0;281.73;-4;-18.63;-5.03;510.9;14.20;75979;2837.301;-1759.202;1;277;-110;-114.5;44.7;44.6;17;17.1;28.5;0.0;
16/02/2025 03:11:44;100;0;282.21;-4;-19.40;-2.62;513.4;14.10;75965;2837.302;-1759.206;1;277;-110;-112.9;44.7;44.6;17;17.6;28.5;0.0;
16/02/2025 03:12:04;100;0;278.48;-4;-19.58;-2.91;516.0;14.10;75965;2837.303;-1759.210;1;277;-110;-114.5;44.7;44.6;14;14.0;28.5;0.0;
16/02/2025 03:12:24;100;0;277.39;-4;-19.82;-4.73;518.5;14.10;75958;2837.303;-1759.214;1;277;-110;-114.5;44.7;44.6;14;14.0;28.5;0.0;
16/02/2025 03:12:44;100;0;276.80;-4;-19.96;-4.63;521.1;14.00;75958;2837.304;-1759.218;1;277;-110;-114.5;44.7;44.6;14;14.0;28.5;0.0;
16/02/2025 03:13:04;100;0;275.82;-4;-19.84;-4.59;523.6;14.00;75953;2837.305;-1759.222;1;277;-110;-112.9;44.7;44.6;14;14.0;28.5;0.0;
16/02/2025 03:13:24;100;0;275.78;-4;-19.84;-4.57;526.2;14.00;75946;2837.306;-1759.226;1;277;-110;-114.5;44.7;44.6;14;14.0;28.5;0.0;
16/02/2025 03:13:44;100;0;276.72;-4;-19.46;-4.56;528.6;14.00;75939;2837.306;-1759.229;1;277;-110;-114.5;44.7;44.6;14;14.0;28.5;0.0;
16/02/2025 03:14:04;100;0;277.92;-4;-19.86;-4.60;531.0;13.90;75941;2837.307;-1759.233;1;277;-110;-112.9;44.7;44.8;14;14.0;28.5;0.0;
16/02/2025 03:14:25;100;0;278.43;-4;-19.60;-4.61;533.5;13.90;75930;2837.308;-1759.237;1;277;-110;-112.9;44.7;44.6;14;14.0;28.5;0.0;
16/02/2025 03:14:45;100;0;285.11;-4;-19.65;-4.60;535.8;13.90;75926;2837.309;-1759.241;1;277;-110;-114.5;44.7;44.6;22;22.1;28.5;0.0;
16/02/2025 03:15:05;100;0;284.17;-4;-20.22;-0.37;538.2;13.90;75919;2837.310;-1759.244;1;277;-110;-112.9;44.7;44.6;22;22.6;28.5;0.0;
16/02/2025 03:15:25;100;0;283.17;-4;-20.79;-0.40;540.6;13.80;75923;2837.311;-1759.248;1;277;-110;-114.5;44.7;44.6;20;19.9;28.5;0.0;
16/02/2025 03:15:45;100;0;284.99;-4;-20.67;-1.79;543.2;13.80;75909;2837.313;-1759.252;1;277;-110;-114.5;44.7;44.6;20;19.4;28.5;0.0;
16/02/2025 03:16:05;100;0;278.60;-4;-20.06;-1.99;545.8;13.80;75889;2837.313;-1759.256;1;277;-110;-114.5;44.7;44.6;15;14.9;28.5;0.0;
16/02/2025 03:16:25;100;0;274.35;-4;-20.38;-4.54;548.2;13.70;75872;2837.314;-1759.259;1;277;-110;-114.5;44.7;44.6;15;14.4;28.5;0.0;
16/02/2025 03:16:45;100;0;273.21;-4;-20.48;-4.55;550.8;13.70;75874;2837.315;-1759.264;1;277;-110;-114.5;44.7;44.6;13;13.1;28.4;0.0;
16/02/2025 03:17:05;100;0;272.31;-4;-20.41;-4.69;553.7;13.70;75870;2837.315;-1759.268;1;277;-110;-114.5;44.7;44.6;13;13.5;28.5;0.0;
16/02/2025 03:17:25;100;0;270.89;-4;-20.32;-5.05;556.4;13.70;75865;2837.316;-1759.272;1;277;-110;-114.5;44.7;44.6;13;13.5;28.5;0.0;
16/02/2025 03:17:45;100;0;269.50;-4;-19.90;-4.95;559.1;13.60;75851;2837.316;-1759.276;1;277;-110;-114.5;44.7;44.6;13;13.5;28.5;0.0;
16/02/2025 03:18:05;100;0;267.94;-4;-20.05;-5.01;562.0;13.60;75848;2837.316;-1759.281;1;277;-110;-112.9;44.7;44.6;13;13.5;28.5;0.0;
16/02/2025 03:18:25;100;0;265.80;-4;-20.05;-4.78;564.8;13.60;75836;2837.316;-1759.285;1;277;-110;-114.5;44.7;44.5;13;13.5;28.4;0.0;
16/02/2025 03:18:45;100;0;266.34;-4;-20.30;-4.97;567.6;13.50;75846;2837.317;-1759.290;1;277;-110;-112.9;44.7;44.6;13;13.5;28.5;0.0;
16/02/2025 03:19:05;100;0;266.01;-4;-20.46;-5.03;570.6;13.50;75835;2837.317;-1759.294;1;277;-110;-114.5;44.7;44.6;13;13.5;28.5;0.0;
16/02/2025 03:19:25;100;0;264.44;-4;-20.60;-4.86;573.4;13.50;75832;2837.317;-1759.299;1;277;-110;-112.9;44.7;44.6;13;13.5;28.5;0.0;
16/02/2025 03:19:45;100;0;264.47;-4;-19.92;-5.03;576.5;13.50;75832;2837.317;-1759.303;1;277;-110;-112.9;44.7;44.6;13;13.5;28.5;0.0;
16/02/2025 03:20:05;100;0;264.99;-4;-19.39;-5.01;579.3;13.40;75820;2837.317;-1759.308;1;277;-110;-112.9;44.7;44.6;13;13.5;28.4;0.0;
16/02/2025 03:20:25;100;0;266.64;-4;-18.92;-4.99;581.9;13.40;75818;2837.317;-1759.312;1;277;-110;-114.5;45.0;45.1;13;13.5;28.5;0.0;
16/02/2025 03:20:45;100;0;268.69;-4;-20.31;-4.92;584.3;13.40;75811;2837.317;-1759.316;1;277;-110;-112.9;45.0;45.4;13;13.5;28.5;0.0;
16/02/2025 03:21:05;100;0;267.84;-4;-21.35;-4.99;586.7;13.40;75804;2837.318;-1759.319;1;277;-110;-114.5;45.0;45.4;13;13.5;28.5;0.0;
16/02/2025 03:21:25;100;0;267.61;-4;-21.49;-4.97;589.2;13.30;75805;2837.318;-1759.323;1;277;-110;-114.5;45.0;45.5;13;13.5;28.5;0.0;
16/02/2025 03:21:45;100;0;267.24;-4;-20.91;-4.73;591.8;13.30;75793;2837.318;-1759.327;1;277;-110;-114.5;45.0;45.4;13;13.5;28.5;0.0;
16/02/2025 03:22:05;100;0;266.48;-4;-20.97;-5.04;594.3;13.30;75791;2837.318;-1759.331;1;277;-110;-112.9;45.0;45.5;13;13.5;28.5;0.0;
16/02/2025 03:22:25;100;0;264.30;-4;-20.74;-5.01;596.8;13.30;75793;2837.318;-1759.335;1;277;-110;-112.9;45.0;45.4;13;13.5;28.4;0.0;
16/02/2025 03:22:45;100;0;262.10;-4;-22.30;-4.69;599.1;13.20;75789;2837.318;-1759.338;1;277;-110;-114.5;44.3;44.3;11;10.4;28.4;0.0;
16/02/2025 03:23:05;100;0;258.87;-4;-19.51;-6.46;601.8;13.20;75775;2837.318;-1759.342;1;277;-110;-114.5;44.3;44.2;8;8.1;28.5;0.0;
16/02/2025 03:23:25;100;0;261.31;-4;-18.83;-6.79;604.2;13.20;75766;2837.318;-1759.346;1;277;-110;-114.5;44.7;44.6;10;10.8;28.5;0.0;
16/02/2025 03:23:45;100;0;260.98;-4;-19.72;-6.38;606.7;13.20;75761;2837.318;-1759.350;1;277;-110;-114.5;44.7;44.9;10;10.8;28.5;0.0;
16/02/2025 03:24:05;100;0;258.05;-4;-20.45;-6.29;609.5;13.10;75755;2837.318;-1759.354;1;277;-110;-114.5;44.7;44.9;7;7.2;28.5;0.0;
16/02/2025 03:24:25;100;0;258.56;-4;-20.20;-7.90;612.4;13.10;75746;2837.317;-1759.359;1;277;-110;-114.5;44.7;44.9;7;7.7;28.5;0.0;
16/02/2025 03:24:45;100;0;262.47;-4;-19.44;-7.79;615.6;13.10;75744;2837.317;-1759.364;1;277;-110;-114.5;44.7;44.9;10;9.9;28.4;0.0;
16/02/2025 03:25:05;100;0;265.01;-4;-19.31;-6.33;618.5;13.10;75737;2837.317;-1759.368;1;277;-110;-114.5;44.7;44.9;12;12.2;28.5;0.0;
16/02/2025 03:25:25;100;0;267.33;-4;-19.94;-5.44;621.3;13.00;75738;2837.317;-1759.373;1;277;-110;-114.5;44.7;44.9;12;12.6;28.5;0.0;
16/02/2025 03:25:45;100;0;268.05;-4;-19.87;-5.48;624.1;13.00;75739;2837.318;-1759.377;1;278;-110;-114.5;44.7;44.9;12;12.6;28.5;0.0;
16/02/2025 03:26:05;100;0;270.34;-4;-19.52;-5.32;626.8;13.00;75728;2837.318;-1759.381;1;278;-110;-114.5;44.7;44.9;12;12.6;28.5;0.0;
16/02/2025 03:26:25;100;0;272.96;-4;-19.73;-5.35;629.3;13.00;75720;2837.319;-1759.385;1;277;-110;-112.9;44.7;44.9;12;12.6;28.5;0.0;
16/02/2025 03:26:45;100;0;275.12;-4;-19.69;-5.37;631.8;12.90;75722;2837.319;-1759.389;1;277;-110;-114.5;44.7;44.9;12;12.6;28.5;0.0;
16/02/2025 03:27:05;100;0;275.31;-4;-21.12;-5.38;634.3;12.90;75720;2837.320;-1759.393;1;277;-110;-114.5;44.7;44.9;12;12.6;28.5;0.0;
16/02/2025 03:27:25;100;0;275.37;-4;-19.59;-4.84;637.3;12.90;75707;2837.321;-1759.398;1;277;-110;-114.5;44.7;44.9;12;12.6;28.5;0.0;
16/02/2025 03:27:45;100;0;273.76;-4;-20.07;-5.20;640.3;12.90;75708;2837.321;-1759.402;1;277;-110;-112.9;44.7;44.9;12;12.2;28.5;0.0;
16/02/2025 03:28:05;100;0;276.77;-4;-19.50;-5.13;643.2;12.80;75693;2837.322;-1759.407;1;277;-110;-114.5;44.7;44.9;12;12.2;28.4;0.0;
16/02/2025 03:28:25;100;0;278.47;-4;-17.98;-5.52;645.8;12.80;75697;2837.323;-1759.411;1;277;-110;-112.9;45.3;45.5;14;14.0;28.5;0.0;
16/02/2025 03:28:45;100;0;278.33;-4;-21.44;-4.52;648.1;12.80;75697;2837.324;-1759.415;1;277;-110;-114.5;45.3;45.5;14;14.4;28.5;0.0;
16/02/2025 03:29:05;100;0;279.00;-4;-21.62;-4.35;650.8;12.80;75685;2837.325;-1759.419;1;277;-110;-114.5;45.3;45.5;14;14.4;28.5;0.0;
16/02/2025 03:29:25;100;0;278.59;-4;-21.47;-4.55;653.9;12.70;75686;2837.326;-1759.423;1;277;-110;-114.5;45.3;45.5;14;14.4;28.5;0.0;
16/02/2025 03:29:45;100;0;277.69;-4;-20.37;-4.47;656.9;12.70;75684;2837.327;-1759.428;1;277;-110;-114.5;45.3;45.5;14;14.4;28.5;0.0;
16/02/2025 03:30:05;100;0;279.64;-4;-21.81;-4.40;659.8;12.70;75683;2837.328;-1759.432;1;277;-110;-112.9;45.3;45.5;14;14.4;28.5;0.0;
16/02/2025 03:30:25;100;0;277.09;-4;-21.88;-4.75;663.3;12.70;75681;2837.329;-1759.437;1;277;-110;-114.5;45.3;45.5;14;14.4;28.5;0.0;
16/02/2025 03:30:45;100;0;276.99;-4;-25.50;-3.70;667.6;12.70;75680;2837.329;-1759.442;1;277;-110;-112.9;43.6;43.6;14;14.4;28.4;0.0;
16/02/2025 03:31:05;100;0;277.96;-4;-17.65;-4.42;671.9;12.60;75664;2837.331;-1759.449;1;277;-110;-114.5;44.3;44.3;14;14.4;28.5;0.0;
16/02/2025 03:31:25;100;0;271.42;-4;-20.68;-4.45;675.7;12.60;75664;2837.331;-1759.455;1;277;-110;-114.5;44.3;44.5;14;14.4;28.5;0.0;
16/02/2025 03:31:45;100;0;269.90;-4;-19.59;-3.74;679.7;12.60;75661;2837.332;-1759.461;1;277;-110;-114.5;44.3;44.6;14;14.4;28.5;0.0;
16/02/2025 03:32:05;100;0;269.86;-4;-18.52;-4.36;683.7;12.60;75669;2837.332;-1759.467;1;277;-110;-112.9;44.8;44.8;14;14.4;28.4;0.0;
16/02/2025 03:32:25;100;0;269.01;-4;-19.21;-4.37;687.3;12.60;75657;2837.332;-1759.473;1;277;-110;-114.5;44.8;44.9;14;14.4;28.5;0.0;
16/02/2025 03:32:45;100;0;268.98;-4;-19.65;-4.39;690.8;12.50;75649;2837.333;-1759.478;1;277;-110;-112.9;44.8;45.1;14;14.4;28.5;0.0;
16/02/2025 03:33:05;100;0;268.65;-4;-19.75;-4.46;694.1;12.50;75655;2837.333;-1759.483;1;277;-110;-114.5;44.8;45.1;14;14.4;28.5;0.0;
16/02/2025 03:33:25;100;0;264.65;-4;-20.17;-4.47;697.3;12.50;75660;2837.333;-1759.488;1;277;-110;-114.5;44.8;44.9;12;12.2;28.5;0.0;
16/02/2025 03:33:45;100;0;261.97;-4;-20.60;-5.56;700.3;12.50;75652;2837.333;-1759.493;1;277;-110;-114.5;44.8;44.9;12;12.2;28.5;0.0;
16/02/2025 03:34:05;100;0;260.86;-4;-20.23;-5.56;703.4;12.40;75639;2837.332;-1759.497;1;277;-110;-114.5;44.8;45.1;9;8.6;28.5;0.0;
16/02/2025 03:34:25;100;0;262.15;-4;-20.43;-7.25;706.3;12.40;75637;2837.332;-1759.502;1;277;-110;-114.5;44.8;44.9;9;9.0;28.4;0.0;
16/02/2025 03:34:45;100;0;264.39;-4;-20.22;-7.07;709.6;12.40;75643;2837.332;-1759.507;1;278;-110;-114.5;44.8;44.9;11;11.3;28.5;0.0;
16/02/2025 03:35:05;100;0;265.98;-4;-20.69;-5.73;712.8;12.40;75634;2837.332;-1759.512;1;278;-110;-114.5;44.8;44.9;11;11.7;28.5;0.0;
16/02/2025 03:35:25;100;0;265.40;-4;-20.41;-6.00;716.1;12.40;75629;2837.333;-1759.517;1;278;-110;-114.5;44.8;44.9;11;11.7;28.4;0.0;
16/02/2025 03:35:45;100;0;264.14;-4;-20.95;-5.80;719.5;12.30;75630;2837.332;-1759.522;1;278;-110;-114.5;44.8;45.1;11;11.3;28.5;0.0;
16/02/2025 03:36:05;100;0;262.00;-4;-21.14;-5.91;722.9;12.30;75629;2837.332;-1759.527;1;278;-110;-114.5;44.8;45.1;9;8.6;28.5;0.0;
16/02/2025 03:36:25;100;0;263.55;-4;-19.71;-7.23;726.5;12.30;75612;2837.332;-1759.532;1;278;-110;-114.5;44.8;44.9;9;9.0;28.5;0.0;
16/02/2025 03:36:45;100;0;263.93;-4;-19.69;-7.01;729.8;12.30;75610;2837.332;-1759.537;1;278;-110;-114.5;44.8;45.1;9;9.0;28.5;0.0;
16/02/2025 03:37:05;100;0;264.80;-4;-20.55;-7.29;733.1;12.30;75603;2837.332;-1759.542;1;278;-110;-112.9;44.8;45.1;11;10.8;28.5;0.0;
16/02/2025 03:37:25;100;0;265.26;-4;-19.20;-6.40;736.4;12.30;75603;2837.332;-1759.548;1;278;-110;-112.9;44.8;44.9;11;10.8;28.5;0.0;
16/02/2025 03:37:45;100;0;267.35;-4;-19.62;-6.22;739.7;12.20;75602;2837.332;-1759.553;1;278;-110;-114.5;44.8;45.1;11;10.8;28.5;0.0;
16/02/2025 03:38:05;100;0;268.67;-4;-20.04;-6.17;742.8;12.20;75592;2837.333;-1759.558;1;278;-110;-114.5;44.8;45.1;11;10.8;28.5;0.0;
16/02/2025 03:38:25;100;0;267.92;-4;-19.93;-6.08;746.1;12.20;75596;2837.333;-1759.563;1;278;-110;-112.9;44.8;45.1;11;10.8;28.5;0.0;
16/02/2025 03:38:45;100;0;269.89;-4;-19.39;-5.87;749.2;12.20;75580;2837.333;-1759.568;1;278;-110;-114.5;44.8;45.1;11;10.8;28.4;0.0;
16/02/2025 03:39:05;100;0;274.58;-4;-20.70;-6.15;752.3;12.10;75585;2837.334;-1759.572;1;278;-110;-114.5;44.8;44.9;11;10.8;28.5;0.0;
16/02/2025 03:39:25;100;0;275.46;-4;-19.82;-6.39;755.7;12.10;75582;2837.335;-1759.577;1;278;-110;-114.5;44.8;45.1;11;10.8;28.5;0.0;
16/02/2025 03:39:45;100;0;273.78;-4;-20.28;-6.20;759.0;12.10;75580;2837.335;-1759.583;1;278;-110;-112.9;44.8;44.9;11;10.8;28.4;0.0;
16/02/2025 03:40:05;100;0;271.20;-4;-18.98;-6.03;762.3;12.10;75570;2837.336;-1759.588;1;278;-110;-117.7;45.1;45.1;11;10.8;28.5;0.0;
16/02/2025 03:40:25;100;0;272.28;-4;-19.56;-6.24;765.2;12.10;75577;2837.336;-1759.592;1;278;-110;-114.5;45.1;44.9;11;10.8;28.5;0.0;
16/02/2025 03:40:45;100;0;274.83;-4;-19.96;-5.87;768.3;12.10;75570;2837.337;-1759.597;1;278;-110;-112.9;45.1;45.1;11;10.8;28.5;0.0;
16/02/2025 03:41:05;100;0;276.52;-4;-20.21;-6.29;771.3;12.00;75572;2837.338;-1759.602;1;278;-110;-114.5;45.1;44.9;13;13.1;28.4;0.0;
16/02/2025 03:41:25;100;0;278.06;-4;-19.66;-5.11;774.4;12.00;75568;2837.339;-1759.606;1;278;-110;-112.9;45.1;45.1;13;13.5;28.5;0.0;
16/02/2025 03:41:45;100;0;279.10;-4;-19.39;-4.89;777.2;12.00;75566;2837.340;-1759.611;1;278;-110;-114.5;45.1;45.1;13;13.5;28.5;0.0;
16/02/2025 03:42:05;100;0;281.02;-4;-19.96;-4.93;780.0;12.00;75573;2837.341;-1759.615;1;278;-110;-117.7;45.1;44.9;15;14.9;28.5;0.0;
16/02/2025 03:42:25;100;0;281.81;-4;-20.39;-3.90;783.0;12.00;75565;2837.342;-1759.620;1;278;-110;-114.5;45.1;45.1;15;15.3;28.5;33.0;
16/02/2025 03:42:38;118;0;285.13;-4;-20.56;-3.88;785.0;12.00;75557;2837.343;-1759.623;1;278;290;-111.3;25.9;25.8;8;8.1;28.5;30.4;
16/02/2025 03:42:48;118;0;340.93;-4;-8.13;-8.37;786.4;11.90;75536;2837.346;-1759.624;1;278;290;16.1;25.9;25.5;8;8.1;27.5;-1.0;
16/02/2025 03:42:58;118;0;29.07;-4;12.15;-8.27;786.8;12.00;75273;2837.346;-1759.624;1;277;290;141.9;25.9;25.3;8;8.1;27.4;-1.0;
16/02/2025 03:43:08;118;0;26.10;-4;21.23;-8.61;786.7;11.90;75013;2837.347;-1759.624;1;277;290;266.1;25.9;26.1;8;8.1;27.3;-1.0;
16/02/2025 03:43:18;118;0;29.25;-4;19.62;-8.52;786.2;12.00;74763;2837.347;-1759.623;1;277;290;293.5;25.9;26.2;8;8.1;27.4;-1.0;
16/02/2025 03:43:28;118;0;273.72;-4;18.03;-8.17;785.6;12.00;74718;2837.348;-1759.624;1;277;290;293.5;25.9;26.4;8;8.1;28.4;-1.0;
16/02/2025 03:43:48;117;0;268.46;-4;17.43;-8.34;784.4;12.00;74734;2837.348;-1759.627;1;277;290;291.9;25.9;26.2;8;8.1;28.5;-1.0;
16/02/2025 03:44:08;117;0;262.87;-4;17.81;-8.36;783.2;12.00;74728;2837.348;-1759.629;1;277;290;293.5;25.3;24.9;29;28.9;28.5;-1.0;
16/02/2025 03:44:28;117;0;261.92;-4;21.20;3.20;781.7;12.00;74720;2837.348;-1759.631;1;277;290;291.9;25.3;24.6;29;29.3;28.5;-1.0;
16/02/2025 03:44:48;117;0;256.44;-4;22.11;3.00;779.9;12.00;74712;2837.348;-1759.634;1;277;290;293.5;25.9;25.9;34;33.8;28.4;-1.0;
16/02/2025 03:45:08;117;0;259.10;-4;19.83;5.98;778.0;12.00;74718;2837.348;-1759.637;1;277;290;293.5;25.9;25.9;34;34.3;28.5;-1.0;
16/02/2025 03:45:28;117;0;259.24;-4;20.08;5.77;776.4;11.90;74708;2837.348;-1759.639;1;277;290;293.5;25.9;25.9;31;31.1;28.5;-1.0;
16/02/2025 03:45:48;117;0;257.68;-4;21.80;3.85;774.8;11.90;74705;2837.348;-1759.642;1;278;290;293.5;25.9;26.1;33;33.4;28.4;-1.0;
16/02/2025 03:46:08;117;0;262.35;-4;21.10;5.65;772.7;11.90;74713;2837.348;-1759.645;1;278;290;293.5;25.9;26.1;31;31.1;28.4;-1.0;
16/02/2025 03:46:28;117;0;260.91;-4;18.96;3.82;770.5;11.90;74699;2837.348;-1759.649;1;278;290;293.5;25.6;25.6;33;32.9;28.5;-1.0;
16/02/2025 03:46:48;117;0;259.15;-4;22.26;5.22;768.3;11.90;74696;2837.348;-1759.652;1;278;290;293.5;26.3;26.4;33;33.4;28.4;-1.0;
16/02/2025 03:47:08;117;0;259.99;-4;18.81;5.01;765.8;11.80;74697;2837.348;-1759.656;1;278;290;293.5;25.9;25.9;35;35.6;28.5;-1.0;
16/02/2025 03:47:28;117;0;263.06;-4;20.49;6.33;763.2;11.80;74703;2837.348;-1759.660;1;278;290;293.5;25.9;25.5;32;32.0;28.4;-1.0;
16/02/2025 03:47:48;117;0;260.04;-4;21.21;4.09;760.4;11.80;74694;2837.348;-1759.664;1;278;290;295.2;25.9;25.5;35;35.2;28.5;-1.0;
16/02/2025 03:48:08;117;0;261.39;-4;20.09;6.30;757.4;11.80;74689;2837.347;-1759.669;1;278;290;293.5;25.9;25.5;35;35.2;28.5;-1.0;
16/02/2025 03:48:29;117;0;261.61;-4;21.26;5.95;754.5;11.80;74687;2837.347;-1759.673;1;278;290;293.5;25.9;25.5;35;35.6;28.5;-1.0;
16/02/2025 03:48:49;117;0;263.61;-4;20.03;6.20;751.3;11.80;74680;2837.347;-1759.678;1;278;290;293.5;25.9;25.5;33;32.9;28.5;-1.0;
16/02/2025 03:49:09;117;0;264.14;-4;20.12;4.76;748.5;11.80;74680;2837.347;-1759.682;1;278;290;293.5;25.9;25.5;33;33.4;28.4;-1.0;
16/02/2025 03:49:29;117;0;265.87;-4;20.65;4.81;745.8;11.70;74674;2837.347;-1759.686;1;278;290;293.5;25.9;25.5;31;31.1;28.5;-1.0;
16/02/2025 03:49:49;117;0;266.64;-4;21.38;3.93;742.8;11.70;74668;2837.348;-1759.691;1;278;290;293.5;25.9;25.5;31;30.7;28.5;-1.0;
16/02/2025 03:50:09;117;0;264.29;-4;20.40;3.68;739.4;11.70;74661;2837.347;-1759.696;1;278;290;293.5;25.9;25.5;31;30.7;28.4;-1.0;
16/02/2025 03:50:29;117;0;267.38;-4;20.96;3.53;736.2;11.70;74674;2837.348;-1759.701;1;278;290;293.5;25.9;25.5;31;30.7;28.5;-1.0;
16/02/2025 03:50:49;117;0;269.66;-4;20.41;3.82;732.7;11.70;74667;2837.348;-1759.706;1;278;290;291.9;25.9;25.5;31;31.1;28.4;-1.0;
16/02/2025 03:51:09;117;0;270.88;-4;19.56;3.70;729.3;11.70;74671;2837.348;-1759.711;1;278;290;293.5;25.9;25.5;31;30.7;28.5;-1.0;
16/02/2025 03:51:29;117;0;271.45;-4;19.63;3.72;726.2;11.70;74661;2837.349;-1759.716;1;278;290;293.5;25.9;25.5;31;31.1;28.5;-1.0;
16/02/2025 03:51:49;117;0;270.18;-4;20.04;3.75;723.4;11.70;74656;2837.349;-1759.721;1;278;290;293.5;25.9;25.5;31;30.7;28.5;-1.0;
16/02/2025 03:52:09;117;0;271.01;-4;19.81;3.55;720.6;11.60;74651;2837.350;-1759.725;1;278;290;293.5;25.9;25.5;31;30.7;28.5;-1.0;
16/02/2025 03:52:29;117;0;270.72;-4;20.04;3.45;717.7;11.60;74649;2837.350;-1759.730;1;278;290;293.5;25.9;25.5;31;30.7;28.5;-1.0;
16/02/2025 03:52:49;117;0;272.66;-4;20.72;3.49;715.1;11.60;74652;2837.351;-1759.733;1;278;290;295.2;25.9;25.5;31;30.7;28.5;-1.0;
16/02/2025 03:53:09;117;0;273.75;-4;20.98;3.48;712.4;11.60;74639;2837.351;-1759.737;1;278;290;293.5;25.9;25.5;31;31.1;28.4;-1.0;
16/02/2025 03:53:29;117;0;272.89;-4;20.01;3.47;709.7;11.60;74650;2837.352;-1759.742;1;278;290;293.5;25.9;25.5;31;30.7;28.4;-1.0;
16/02/2025 03:53:49;117;0;270.52;-4;18.14;3.92;707.0;11.60;74635;2837.352;-1759.746;1;278;290;293.5;25.4;25.3;31;30.7;28.5;-1.0;
16/02/2025 03:54:09;117;0;276.77;-4;19.16;3.48;705.2;11.60;74630;2837.353;-1759.749;1;278;310;312.9;25.4;25.0;29;28.9;28.5;-1.0;
16/02/2025 03:54:29;117;0;283.35;-4;20.50;2.44;703.3;11.60;74605;2837.354;-1759.752;1;278;330;332.3;25.4;25.0;23;22.1;28.5;-1.0;
16/02/2025 03:54:49;117;0;285.96;-4;19.38;-0.06;701.1;11.60;74557;2837.355;-1759.756;1;278;330;332.3;25.4;25.0;21;21.2;28.5;-1.0;
16/02/2025 03:55:09;117;0;285.52;-4;19.40;-1.77;699.2;11.60;74551;2837.356;-1759.759;1;278;350;353.2;25.4;25.0;21;20.8;28.5;-1.0;
16/02/2025 03:55:29;117;0;282.04;-4;18.80;-1.46;697.1;11.50;74511;2837.357;-1759.762;1;278;350;353.2;25.0;25.0;26;26.2;28.5;-1.0;
16/02/2025 03:55:49;117;0;279.85;-4;19.34;1.80;695.1;11.50;74511;2837.358;-1759.765;1;278;350;353.2;25.0;25.0;26;26.6;28.4;-1.0;
16/02/2025 03:56:09;117;0;278.47;-4;19.30;1.65;692.8;11.50;74514;2837.359;-1759.769;1;278;350;351.6;25.0;25.0;29;28.9;28.4;-1.0;
16/02/2025 03:56:29;117;0;277.47;-4;19.49;3.05;690.6;11.50;74520;2837.360;-1759.773;1;278;350;353.2;25.0;25.0;29;29.3;28.5;-1.0;
16/02/2025 03:56:49;117;0;276.59;-4;19.36;3.02;688.3;11.50;74517;2837.360;-1759.776;1;278;350;351.6;25.0;25.0;29;29.3;28.5;-1.0;
16/02/2025 03:57:09;117;0;275.90;-4;19.21;2.78;686.1;11.50;74518;2837.361;-1759.780;1;278;350;353.2;25.0;25.0;29;29.3;28.4;-1.0;
16/02/2025 03:57:29;117;0;275.50;-4;19.31;2.96;683.7;11.50;74517;2837.362;-1759.784;1;278;350;353.2;25.0;25.0;29;28.9;28.5;-1.0;
16/02/2025 03:57:49;117;0;275.13;-4;19.58;2.86;681.4;11.50;74520;2837.363;-1759.787;1;278;350;353.2;25.0;25.0;29;28.9;28.4;-1.0;
16/02/2025 03:58:09;117;0;274.75;-4;19.44;2.97;679.1;11.50;74523;2837.363;-1759.791;1;278;350;353.2;25.0;25.0;29;29.3;28.5;-1.0;
16/02/2025 03:58:29;117;0;274.75;-4;19.21;3.03;676.7;11.50;74516;2837.364;-1759.795;1;278;350;353.2;25.0;25.0;29;28.9;28.4;-1.0;
16/02/2025 03:58:49;117;0;274.54;-4;19.44;2.88;674.3;11.50;74506;2837.364;-1759.799;1;278;350;354.8;25.0;25.0;29;29.3;28.5;-1.0;
16/02/2025 03:59:09;117;0;274.65;-4;19.36;2.97;671.7;11.50;74508;2837.365;-1759.803;1;278;350;353.2;25.0;24.9;29;29.3;28.5;-1.0;
16/02/2025 03:59:29;117;0;273.78;-4;19.75;3.00;669.0;11.50;74517;2837.366;-1759.807;1;278;350;351.6;25.0;25.0;29;29.3;28.5;-1.0;
16/02/2025 03:59:49;117;0;273.65;-4;19.54;3.04;666.1;11.50;74507;2837.366;-1759.812;1;278;350;353.2;25.0;25.0;29;29.3;28.5;-1.0;
16/02/2025 04:00:09;117;0;273.09;-4;19.38;3.00;663.1;11.50;74506;2837.367;-1759.817;1;278;350;353.2;25.0;25.0;29;29.3;28.4;-1.0;
16/02/2025 04:00:29;117;0;272.41;-4;19.53;2.99;660.0;11.40;74501;2837.368;-1759.822;1;278;350;353.2;25.0;25.0;29;29.3;28.4;-1.0;
16/02/2025 04:00:49;117;0;271.69;-4;19.56;2.86;656.8;11.50;74514;2837.368;-1759.826;1;278;350;353.2;25.0;25.0;29;28.9;28.5;-1.0;
16/02/2025 04:01:09;117;0;271.41;-4;18.99;2.98;653.6;11.40;74499;2837.369;-1759.832;1;278;350;353.2;24.7;24.7;29;28.9;28.5;-1.0;
16/02/2025 04:01:29;117;0;269.54;-4;21.17;3.16;650.3;11.40;74506;2837.369;-1759.837;1;278;350;354.8;24.7;24.2;29;29.3;28.5;-1.0;
16/02/2025 04:01:49;117;0;269.28;-4;21.05;2.85;646.8;11.40;74509;2837.369;-1759.842;1;278;350;350.0;24.7;24.2;29;29.3;28.5;-1.0;
16/02/2025 04:02:09;117;0;266.27;-4;20.18;2.39;643.6;11.40;74500;2837.369;-1759.847;1;278;350;353.2;24.7;24.7;31;31.1;28.5;-1.0;
16/02/2025 04:02:29;117;0;267.64;-4;20.15;4.73;640.5;11.40;74500;2837.370;-1759.851;1;278;350;353.2;24.7;24.9;31;32.0;28.5;-1.0;
16/02/2025 04:02:49;117;0;268.03;-4;18.90;4.53;637.8;11.40;74509;2837.370;-1759.856;1;278;350;353.2;24.4;24.2;31;32.0;28.5;-1.0;
16/02/2025 04:03:09;117;0;268.89;-4;21.09;4.61;635.2;11.40;74503;2837.370;-1759.860;1;278;350;353.2;24.4;23.6;31;32.0;28.4;-1.0;
16/02/2025 04:03:29;117;0;269.21;-4;21.47;4.48;632.6;11.40;74510;2837.371;-1759.864;1;278;350;353.2;24.4;23.6;31;32.0;28.4;-1.0;
16/02/2025 04:03:49;117;0;268.83;-4;22.71;4.65;630.3;11.40;74499;2837.371;-1759.867;1;278;350;353.2;25.2;25.2;31;32.0;28.4;-1.0;
16/02/2025 04:04:09;117;0;269.26;-4;20.14;4.43;627.9;11.40;74490;2837.371;-1759.871;1;278;350;353.2;25.2;25.2;31;32.0;28.5;-1.0;
16/02/2025 04:04:29;117;0;270.11;-4;19.37;4.58;626.0;11.40;74497;2837.372;-1759.874;1;278;370;369.4;25.2;25.3;31;32.0;28.4;-1.0;
16/02/2025 04:04:49;117;0;265.62;-4;19.17;4.55;624.2;11.40;74444;2837.372;-1759.877;1;278;390;391.9;25.2;25.2;31;32.0;28.4;-1.0;
16/02/2025 04:05:09;117;0;273.46;-4;18.46;4.61;622.4;11.40;74417;2837.372;-1759.880;1;278;410;411.3;24.7;24.7;31;32.0;28.4;-1.0;
16/02/2025 04:05:29;117;0;268.89;-4;17.80;4.56;620.6;11.40;74366;2837.373;-1759.883;1;278;430;435.5;24.1;23.9;31;32.0;28.4;-1.0;
16/02/2025 04:05:49;117;0;276.98;-4;19.30;4.51;618.9;11.40;74318;2837.373;-1759.886;1;278;450;453.2;24.1;24.0;28;27.1;28.5;-1.0;
16/02/2025 04:06:09;117;0;271.16;-4;18.98;2.33;616.9;11.40;74282;2837.374;-1759.889;1;278;470;471.0;23.7;23.7;30;29.8;28.5;-1.0;
16/02/2025 04:06:29;117;0;270.15;-4;18.42;3.94;614.9;11.40;74242;2837.374;-1759.893;1;278;470;472.6;23.3;23.1;30;30.2;28.5;-1.0;
16/02/2025 04:06:49;117;0;270.24;-4;19.16;4.04;612.6;11.40;74249;2837.375;-1759.896;1;278;470;472.6;23.3;22.8;30;30.2;28.5;-1.0;
16/02/2025 04:07:09;117;0;270.41;-4;19.67;3.87;610.1;11.40;74255;2837.375;-1759.900;1;278;470;472.6;23.3;22.8;30;30.2;28.5;-1.0;
16/02/2025 04:07:29;117;0;270.75;-4;19.72;3.71;607.5;11.40;74249;2837.375;-1759.904;1;278;470;472.6;23.3;22.8;30;30.2;28.4;-1.0;
16/02/2025 04:07:49;117;0;270.34;-4;19.47;4.25;604.9;11.40;74249;2837.376;-1759.909;1;278;470;472.6;23.3;22.8;30;30.2;28.5;-1.0;
16/02/2025 04:08:09;117;0;268.95;-4;19.56;3.96;602.2;11.40;74255;2837.376;-1759.913;1;278;470;469.4;23.3;22.8;30;30.2;28.5;-1.0;
16/02/2025 04:08:29;117;0;269.20;-4;19.90;3.96;599.5;11.40;74258;2837.377;-1759.917;1;278;470;472.6;23.3;22.8;30;30.2;28.5;-1.0;
16/02/2025 04:08:49;117;0;271.34;-4;19.49;3.90;596.7;11.50;74266;2837.377;-1759.922;1;278;470;471.0;23.3;22.8;30;30.2;28.4;-1.0;
16/02/2025 04:09:09;117;0;272.36;-4;19.62;4.06;594.0;11.40;74265;2837.378;-1759.926;1;278;470;472.6;23.3;22.8;30;30.2;28.4;-1.0;
16/02/2025 04:09:29;117;0;272.19;-4;19.91;4.00;591.1;11.50;74272;2837.378;-1759.930;1;278;470;472.6;23.3;22.8;30;30.2;28.5;-1.0;
16/02/2025 04:09:49;117;0;274.06;-4;19.51;3.81;588.0;11.50;74265;2837.379;-1759.935;1;278;470;472.6;23.3;22.8;30;30.2;28.5;-1.0;
16/02/2025 04:10:09;117;0;277.56;-4;19.87;3.89;584.8;11.50;74263;2837.380;-1759.940;1;278;470;472.6;23.3;22.8;30;30.2;28.5;-1.0;
16/02/2025 04:10:29;117;0;277.85;-4;20.21;3.89;581.3;11.50;74272;2837.381;-1759.945;1;278;470;474.2;23.3;22.8;30;30.2;28.5;-1.0;
16/02/2025 04:10:49;117;0;278.23;-4;19.75;3.96;577.6;11.50;74272;2837.382;-1759.951;1;278;470;472.6;23.3;22.8;30;30.2;28.5;-1.0;
16/02/2025 04:11:09;117;0;278.97;-4;19.66;3.91;573.8;11.50;74286;2837.383;-1759.957;1;278;470;469.4;23.3;22.8;30;30.2;28.4;-1.0;
16/02/2025 04:11:29;117;0;279.11;-4;19.59;4.06;570.0;11.50;74288;2837.384;-1759.963;1;278;470;471.0;23.3;22.8;30;30.2;28.5;-1.0;
16/02/2025 04:11:49;117;0;279.88;-4;18.93;4.20;566.0;11.50;74285;2837.385;-1759.969;1;278;470;472.6;23.0;23.0;30;30.2;28.4;-1.0;
16/02/2025 04:12:09;117;0;279.83;-4;19.02;3.93;562.5;11.50;74291;2837.387;-1759.974;1;277;470;472.6;23.0;23.1;30;30.2;28.5;-1.0;
16/02/2025 04:12:29;117;0;279.50;-4;19.01;4.02;558.9;11.50;74288;2837.388;-1759.980;1;277;470;472.6;23.0;23.1;30;30.2;28.5;-1.0;
16/02/2025 04:12:49;117;0;279.51;-4;19.08;3.78;555.3;11.50;74293;2837.389;-1759.985;1;277;470;472.6;23.0;23.1;30;30.2;28.5;-1.0;
16/02/2025 04:13:09;117;0;278.86;-4;19.02;3.88;552.0;11.50;74287;2837.390;-1759.991;1;277;470;472.6;23.0;23.1;30;30.2;28.5;-1.0;
16/02/2025 04:13:29;117;0;278.19;-4;19.00;3.99;548.5;11.50;74302;2837.391;-1759.996;1;277;470;472.6;23.0;23.1;30;30.2;28.4;-1.0;
16/02/2025 04:13:49;117;0;278.44;-4;19.01;4.04;545.1;11.50;74302;2837.392;-1800.002;1;277;470;472.6;23.0;23.1;30;30.2;28.4;-1.0;
16/02/2025 04:14:09;117;0;279.15;-4;18.85;3.98;541.8;11.60;74303;2837.393;-1800.007;1;277;470;472.6;22.6;22.7;28;27.5;28.5;-1.0;
16/02/2025 04:14:29;117;0;277.90;-4;20.07;2.49;538.7;11.60;74306;2837.394;-1800.012;1;277;470;472.6;22.6;22.2;28;27.5;28.5;-1.0;
16/02/2025 04:14:49;117;0;277.98;-4;20.27;2.27;535.3;11.60;74303;2837.395;-1800.017;1;277;470;474.2;22.6;22.2;28;27.5;28.5;-1.0;
16/02/2025 04:15:09;117;0;275.19;-4;20.30;2.25;531.9;11.60;74306;2837.396;-1800.022;1;277;470;471.0;22.6;22.2;28;27.1;28.5;-1.0;
16/02/2025 04:15:29;117;0;273.89;-4;20.58;2.58;528.5;11.60;74307;2837.397;-1800.027;1;277;470;472.6;22.6;22.2;28;27.1;28.5;-1.0;
16/02/2025 04:15:49;117;0;273.65;-4;20.66;2.37;525.2;11.60;74307;2837.397;-1800.032;1;277;470;472.6;22.6;22.2;28;27.5;28.5;-1.0;
16/02/2025 04:16:09;117;0;272.37;-4;20.57;2.25;522.0;11.60;74304;2837.398;-1800.037;1;277;470;474.2;22.6;22.2;30;29.8;28.5;-1.0;
16/02/2025 04:16:29;117;0;271.22;-4;20.54;3.95;518.6;11.60;74323;2837.398;-1800.042;1;277;470;472.6;22.6;22.2;30;30.2;28.5;-1.0;
16/02/2025 04:16:49;117;0;271.73;-4;20.76;4.02;515.3;11.60;74330;2837.399;-1800.047;1;277;470;472.6;22.6;22.2;30;30.2;28.5;-1.0;
16/02/2025 04:17:09;117;0;271.64;-4;21.01;4.05;512.0;11.60;74320;2837.399;-1800.052;1;277;470;472.6;22.6;22.2;30;30.2;28.5;-1.0;
16/02/2025 04:17:29;117;0;272.56;-4;20.88;3.87;508.5;11.60;74330;2837.400;-1800.057;1;277;470;474.2;22.6;22.2;30;30.2;28.5;-1.0;
16/02/2025 04:17:49;117;0;273.37;-4;20.85;3.96;505.0;11.60;74338;2837.400;-1800.062;1;277;470;472.6;22.6;22.2;30;30.2;28.4;-1.0;
16/02/2025 04:18:09;117;0;273.02;-4;20.69;4.15;501.6;11.70;74338;2837.401;-1800.067;1;277;470;474.2;22.6;22.2;30;30.2;28.5;-1.0;
16/02/2025 04:18:29;117;0;273.51;-4;20.78;4.05;498.1;11.70;74354;2837.402;-1800.072;1;277;470;472.6;22.6;22.2;30;30.2;28.4;-1.0;
16/02/2025 04:18:49;117;0;274.26;-4;20.85;3.90;494.7;11.70;74352;2837.402;-1800.077;1;277;470;472.6;22.6;22.2;30;30.2;28.5;-1.0;
16/02/2025 04:19:09;117;0;274.44;-4;20.88;3.97;491.2;11.70;74349;2837.403;-1800.083;1;277;470;474.2;22.6;22.2;30;30.2;28.5;-1.0;
16/02/2025 04:19:29;117;0;273.99;-4;20.91;3.94;487.7;11.70;74359;2837.404;-1800.088;1;277;470;472.6;22.6;22.2;30;30.2;28.5;-1.0;
16/02/2025 04:19:49;117;0;275.25;-4;20.80;3.94;484.1;11.70;74369;2837.405;-1800.093;1;277;470;472.6;22.6;22.1;30;30.2;28.5;-1.0;
16/02/2025 04:20:09;117;0;275.97;-4;20.72;3.99;480.6;11.70;74358;2837.406;-1800.098;1;277;470;474.2;22.6;22.2;30;30.2;28.4;-1.0;
16/02/2025 04:20:29;117;0;275.88;-4;20.73;4.01;477.0;11.70;74363;2837.406;-1800.103;1;277;470;472.6;22.6;22.2;30;30.7;28.5;-1.0;
16/02/2025 04:20:49;117;0;276.13;-4;20.75;4.10;473.5;11.80;74362;2837.407;-1800.109;1;277;470;472.6;22.6;22.1;30;30.2;28.5;-1.0;
16/02/2025 04:21:09;117;0;276.51;-4;20.68;4.02;469.9;11.80;74362;2837.408;-1800.114;1;277;470;472.6;22.6;22.1;30;30.2;28.4;-1.0;
16/02/2025 04:21:29;117;0;277.47;-4;20.61;3.89;466.3;11.80;74369;2837.409;-1800.119;1;277;470;474.2;22.6;22.2;30;30.2;28.5;-1.0;
16/02/2025 04:21:49;117;0;278.32;-4;20.73;3.93;462.8;11.80;74365;2837.410;-1800.125;1;277;470;472.6;22.6;22.2;28;27.5;28.5;-1.0;
16/02/2025 04:22:09;117;0;276.97;-4;20.38;2.65;459.2;11.80;74372;2837.411;-1800.130;1;277;470;472.6;22.6;22.1;28;27.1;28.5;-1.0;
16/02/2025 04:22:29;117;0;275.77;-4;20.61;2.47;455.6;11.80;74368;2837.412;-1800.135;1;277;470;472.6;22.6;22.1;28;27.1;28.5;-1.0;
16/02/2025 04:22:50;117;0;273.82;-4;20.36;2.46;451.9;11.80;74375;2837.413;-1800.141;1;277;470;474.2;22.6;22.1;28;27.1;28.5;-1.0;
16/02/2025 04:23:10;117;0;271.85;-4;20.19;2.33;448.4;11.80;74375;2837.413;-1800.146;1;277;470;472.6;22.6;22.2;28;27.1;28.5;-1.0;
16/02/2025 04:23:30;117;0;271.05;-4;20.56;2.36;445.0;11.80;74372;2837.414;-1800.151;1;277;470;474.2;22.6;22.2;28;27.5;28.5;-1.0;
16/02/2025 04:23:50;117;0;270.50;-4;20.35;2.37;441.4;11.90;74373;2837.414;-1800.157;1;277;470;472.6;22.6;22.2;28;27.1;28.5;-1.0;
16/02/2025 04:24:10;117;0;270.28;-4;20.41;2.30;438.0;11.90;74376;2837.414;-1800.162;1;277;470;474.2;22.6;22.2;28;27.1;28.5;-1.0;
16/02/2025 04:24:30;117;0;269.28;-4;20.43;2.34;434.5;11.90;74375;2837.415;-1800.168;1;277;470;474.2;22.6;22.2;28;27.1;28.5;-1.0;
16/02/2025 04:24:50;117;0;268.69;-4;20.40;2.32;431.1;11.90;74389;2837.415;-1800.173;1;277;470;474.2;22.6;22.2;28;27.1;28.4;-1.0;
16/02/2025 04:25:10;117;0;267.58;-4;20.36;2.46;427.6;11.90;74391;2837.415;-1800.178;1;277;470;472.6;22.6;22.2;30;29.8;28.4;-1.0;
16/02/2025 04:25:30;117;0;267.70;-4;20.64;4.00;424.2;11.90;74391;2837.415;-1800.183;1;277;470;474.2;22.6;22.2;30;30.2;28.4;-1.0;
16/02/2025 04:25:50;117;0;266.62;-4;20.55;4.10;420.7;11.90;74384;2837.416;-1800.188;1;277;470;474.2;22.6;22.1;30;30.2;28.4;-1.0;
16/02/2025 04:26:10;117;0;267.07;-4;20.44;4.03;417.3;11.90;74392;2837.416;-1800.194;1;277;470;472.6;22.6;22.2;30;30.2;28.5;-1.0;
16/02/2025 04:26:30;117;0;266.76;-4;20.32;4.04;413.9;11.90;74394;2837.416;-1800.199;1;277;470;472.6;22.6;22.2;30;30.2;28.4;-1.0;
16/02/2025 04:26:50;117;0;266.84;-4;20.52;3.99;410.6;12.00;74396;2837.416;-1800.204;1;277;470;474.2;22.6;22.2;30;30.7;28.5;-1.0;
16/02/2025 04:27:10;117;0;266.49;-4;20.49;3.98;407.4;12.00;74403;2837.416;-1800.209;1;277;470;472.6;22.6;22.1;30;30.2;28.5;-1.0;
16/02/2025 04:27:30;117;0;266.00;-4;20.63;3.90;404.2;12.00;74401;2837.416;-1800.214;1;277;470;472.6;22.6;22.1;30;30.7;28.5;-1.0;
16/02/2025 04:27:50;117;0;266.66;-4;20.65;4.11;400.9;12.00;74417;2837.416;-1800.218;1;277;470;474.2;22.6;22.2;30;30.7;28.5;-1.0;
16/02/2025 04:28:10;117;0;266.76;-4;21.08;3.91;397.6;12.00;74415;2837.417;-1800.223;1;277;470;472.6;22.6;22.1;30;30.2;28.5;-1.0;
16/02/2025 04:28:30;117;0;266.15;-4;20.08;4.06;394.2;12.00;74415;2837.417;-1800.229;1;277;470;474.2;22.6;22.1;30;30.7;28.5;-1.0;
16/02/2025 04:28:50;117;0;266.56;-4;20.81;4.20;391.0;12.00;74424;2837.417;-1800.233;1;277;470;472.6;22.6;22.2;30;30.2;28.5;-1.0;
16/02/2025 04:29:10;117;0;266.65;-4;20.41;4.11;387.6;12.10;74413;2837.417;-1800.239;1;277;470;472.6;22.6;22.1;30;30.7;28.5;-1.0;
16/02/2025 04:29:30;117;0;263.89;-4;20.35;4.30;384.4;12.10;74421;2837.417;-1800.244;1;278;470;474.2;22.6;22.2;32;32.0;28.5;-1.0;
16/02/2025 04:29:50;117;0;264.02;-4;20.53;5.37;381.3;12.10;74426;2837.417;-1800.248;1;278;470;472.6;22.6;22.2;32;32.9;28.4;-1.0;
16/02/2025 04:30:10;117;0;265.15;-4;20.71;5.25;378.1;12.10;74429;2837.417;-1800.253;1;278;470;471.0;22.6;22.1;32;32.5;28.4;-1.0;
16/02/2025 04:30:30;117;0;266.60;-4;20.67;5.38;374.9;12.10;74433;2837.417;-1800.258;1;278;470;472.6;22.6;22.2;32;32.9;28.4;-1.0;
16/02/2025 04:30:50;117;0;267.79;-4;20.62;5.47;371.8;12.10;74437;2837.417;-1800.262;1;278;470;474.2;22.6;22.1;30;29.8;28.5;-1.0;
16/02/2025 04:31:10;117;0;267.79;-4;20.53;3.99;368.7;12.10;74442;2837.418;-1800.267;1;278;470;472.6;22.6;22.1;30;30.7;28.5;-1.0;
16/02/2025 04:31:30;117;0;267.57;-4;20.34;3.87;365.5;12.10;74452;2837.418;-1800.272;1;278;470;472.6;22.6;22.1;30;30.7;28.4;-1.0;
16/02/2025 04:31:50;117;0;267.03;-4;20.88;3.90;362.4;12.20;74471;2837.418;-1800.277;1;278;470;474.2;22.6;22.1;30;30.7;28.5;-1.0;
16/02/2025 04:32:10;117;0;267.66;-4;20.65;3.92;359.1;12.20;74477;2837.418;-1800.281;1;278;470;472.6;22.6;22.1;30;30.7;28.4;-1.0;
16/02/2025 04:32:30;117;0;268.18;-4;20.63;3.93;355.9;12.20;74471;2837.419;-1800.286;1;278;470;472.6;22.6;22.1;30;30.7;28.5;-1.0;
16/02/2025 04:32:50;117;0;268.44;-4;20.71;3.86;352.7;12.20;74479;2837.419;-1800.291;1;278;470;474.2;22.6;22.2;30;30.7;28.5;-1.0;
16/02/2025 04:33:10;117;0;268.73;-4;20.61;3.97;349.4;12.30;74484;2837.419;-1800.296;1;278;470;472.6;22.6;22.1;30;30.7;28.5;-1.0;
16/02/2025 04:33:30;117;0;268.37;-4;20.54;3.95;346.1;12.30;74489;2837.419;-1800.301;1;278;470;474.2;22.6;22.1;30;30.7;28.4;-1.0;
16/02/2025 04:33:50;117;0;268.85;-4;20.60;3.99;342.9;12.30;74497;2837.420;-1800.306;1;278;470;474.2;22.6;22.2;30;30.7;28.5;-1.0;
16/02/2025 04:34:10;117;0;269.13;-4;20.45;3.94;339.5;12.30;74499;2837.420;-1800.311;1;278;470;474.2;22.6;22.1;30;30.7;28.5;-1.0;
16/02/2025 04:34:30;117;0;268.84;-4;20.44;4.01;336.1;12.30;74512;2837.420;-1800.316;1;278;470;474.2;22.6;22.1;30;30.2;28.5;-1.0;
16/02/2025 04:34:50;117;0;269.58;-4;20.49;4.00;332.7;12.30;74510;2837.421;-1800.321;1;278;470;472.6;22.6;22.1;30;30.7;28.5;-1.0;
16/02/2025 04:35:10;117;0;270.42;-4;20.46;4.01;329.3;12.40;74513;2837.421;-1800.327;1;278;470;474.2;22.6;22.1;30;30.7;28.5;-1.0;
16/02/2025 04:35:30;117;0;271.44;-4;20.41;3.99;325.9;12.40;74512;2837.422;-1800.332;1;278;470;474.2;22.6;22.1;30;30.7;28.5;-1.0;
16/02/2025 04:35:50;117;0;272.73;-4;20.54;3.93;322.5;12.40;74519;2837.422;-1800.337;1;278;470;474.2;22.6;22.1;30;30.7;28.5;-1.0;
