Timestamp;NavState;SecurityLevel;Heading;Declination;Pitch;Roll;Depth;Temperature;Pa;Lat;Lon;DeadReckoning;DesiredH;BallastCmd;BallastPos;LinCmd;LinPos;AngCmd;AngPos;Voltage;Altitude;
26/02/2025 13:22:56;119;0;216.67;-4;-43.83;-10.91;0.0;16.60;75556;2838.386;-1802.508;0;313;500;504.8;100.0;100.4;0;-0.5;26.0;-1.0;
26/02/2025 13:23:06;116;0;217.34;-4;-54.08;-12.72;0.2;16.70;75562;2838.389;-1802.517;0;313;500;504.8;100.0;100.4;0;-0.5;26.0;-1.0;
26/02/2025 13:23:31;116;0;228.14;-4;-57.66;-12.63;-0.0;16.80;75585;2838.394;-1802.523;0;313;500;504.8;100.0;100.6;0;-0.5;26.0;-1.0;
26/02/2025 13:24:03;116;0;234.32;-4;-53.13;-12.53;0.1;16.90;75601;2838.394;-1802.524;0;135;500;504.8;100.0;100.4;0;0.0;26.0;-1.0;
26/02/2025 13:24:24;116;0;220.48;-4;-51.68;-16.27;0.2;17.00;75608;2838.396;-1802.528;0;135;500;504.8;100.0;100.4;0;-0.5;25.9;-1.0;
26/02/2025 13:25:27;116;0;224.63;-4;-51.61;-3.94;-0.1;17.30;75658;2838.404;-1802.540;0;135;500;504.8;100.0;100.4;0;-0.5;26.0;-1.0;
26/02/2025 13:26:03;116;0;231.58;-4;-53.21;-10.68;-0.0;17.40;75667;2838.406;-1802.547;0;135;500;504.8;100.0;100.4;0;0.0;26.0;-1.0;
26/02/2025 13:27:06;116;0;239.67;-4;-58.96;-10.39;0.1;17.80;75701;2838.413;-1802.560;0;135;500;504.8;100.0;100.6;0;0.0;26.0;-1.0;
26/02/2025 13:28:43;116;0;253.02;-4;-51.24;-15.13;0.2;18.30;75792;2838.423;-1802.580;0;135;500;504.8;100.0;100.4;0;-0.5;26.0;-1.0;
26/02/2025 13:29:03;110;0;240.62;-4;-47.66;-8.56;0.1;18.40;75792;2838.423;-1802.580;0;135;-90;383.9;100.0;100.4;-7;-7.7;26.0;-1.0;
26/02/2025 13:29:13;110;0;243.82;-4;-55.10;-23.38;0.1;18.50;76152;2838.424;-1802.581;1;135;-90;235.5;100.0;100.4;-7;-7.7;26.0;-1.0;
26/02/2025 13:29:23;110;0;257.46;-4;-53.66;-17.45;0.6;18.50;76402;2838.424;-1802.581;1;135;-90;75.8;100.0;100.4;-7;-7.7;26.0;-1.0;
26/02/2025 13:29:33;110;0;240.05;-4;-66.05;-12.47;1.0;18.60;76725;2838.424;-1802.582;1;135;-90;-83.9;100.0;100.6;-7;-7.7;26.0;-1.0;
26/02/2025 13:29:43;110;0;231.21;-4;-69.59;-10.72;1.1;18.60;77064;2838.425;-1802.582;1;135;-90;-91.9;41.4;41.4;-7;-7.7;26.0;-1.0;
26/02/2025 13:30:03;100;0;228.58;-4;-34.39;-15.31;4.0;18.70;76999;2838.424;-1802.585;1;135;-90;-85.5;41.4;41.2;-7;-7.7;26.0;-1.0;
26/02/2025 13:30:23;100;0;231.32;-4;-19.26;-15.20;7.2;18.80;76993;2838.422;-1802.589;1;135;-90;-83.9;41.4;41.1;70;70.4;26.0;-1.0;
26/02/2025 13:30:43;100;0;220.58;-4;-21.22;23.86;9.7;18.80;77005;2838.421;-1802.592;1;135;-90;-82.3;41.4;41.1;70;70.4;26.0;-1.0;
26/02/2025 13:31:03;100;0;209.63;-4;-20.18;24.13;12.0;18.80;76988;2838.419;-1802.595;1;135;-90;-82.3;41.4;41.1;70;70.4;26.0;-1.0;
26/02/2025 13:31:23;100;0;198.94;-4;-20.06;24.00;14.5;18.80;76994;2838.417;-1802.596;1;135;-90;-82.3;41.4;41.1;70;70.4;26.0;0.0;
26/02/2025 13:31:43;100;0;189.27;-4;-20.21;23.96;16.7;18.80;76991;2838.415;-1802.598;1;135;-90;-82.3;41.4;40.9;70;70.4;26.0;0.0;
26/02/2025 13:32:03;100;0;173.69;-4;-20.12;23.74;18.9;18.80;76991;2838.413;-1802.598;1;135;-90;-82.3;41.4;41.1;57;56.9;26.0;0.0;
26/02/2025 13:32:23;100;0;162.70;-4;-19.11;16.38;21.4;18.80;76988;2838.411;-1802.598;1;135;-90;-82.3;41.4;41.2;40;40.2;26.0;0.0;
26/02/2025 13:32:43;100;0;154.88;-4;-18.71;7.87;23.4;18.80;76995;2838.409;-1802.597;1;135;-90;-82.3;41.8;42.3;27;27.1;26.0;0.0;
26/02/2025 13:33:03;100;0;148.94;-4;-19.70;1.56;25.6;18.80;76989;2838.407;-1802.596;1;135;-90;-83.9;41.8;42.3;19;19.0;26.0;0.0;
26/02/2025 13:33:23;100;0;147.66;-4;-19.05;-2.49;27.9;18.80;76989;2838.406;-1802.595;1;135;-90;-82.3;41.8;42.3;19;18.5;26.0;0.0;
26/02/2025 13:33:43;100;0;149.00;-4;-19.69;-2.52;30.1;18.90;76996;2838.404;-1802.594;1;135;-90;-83.9;41.8;42.3;19;18.5;26.0;0.0;
26/02/2025 13:34:03;100;0;148.91;-4;-19.04;-2.57;32.5;18.90;76995;2838.402;-1802.593;1;135;-90;-82.3;41.8;42.3;19;18.5;26.0;0.0;
26/02/2025 13:34:23;100;0;147.96;-4;-19.46;-2.59;34.8;18.90;77001;2838.400;-1802.592;1;135;-90;-82.3;41.8;42.3;19;18.5;26.0;0.0;
26/02/2025 13:34:43;100;0;147.16;-4;-19.14;-2.57;36.9;18.90;77000;2838.399;-1802.590;1;135;-90;-82.3;41.8;42.3;19;18.1;26.0;0.0;
26/02/2025 13:35:03;100;0;146.11;-4;-19.25;-2.53;39.2;18.90;77008;2838.397;-1802.589;1;135;-90;-82.3;41.8;42.3;17;17.1;26.0;0.0;
26/02/2025 13:35:23;100;0;145.46;-4;-19.20;-3.38;41.5;18.90;77010;2838.396;-1802.588;1;135;-90;-85.5;41.8;42.3;17;16.7;26.0;0.0;
26/02/2025 13:35:43;100;0;145.77;-4;-19.04;-3.37;43.6;18.90;77017;2838.394;-1802.587;1;135;-90;-85.5;41.8;42.3;17;16.7;26.0;0.0;
26/02/2025 13:36:03;100;0;146.28;-4;-19.26;-3.40;46.1;18.90;77017;2838.392;-1802.585;1;135;-90;-82.3;41.8;42.3;17;16.7;26.0;0.0;
26/02/2025 13:36:23;100;0;147.09;-4;-19.08;-3.37;48.2;19.00;77016;2838.391;-1802.584;1;135;-90;-82.3;41.8;42.3;17;16.7;26.0;0.0;
26/02/2025 13:36:43;100;0;147.14;-4;-19.25;-3.43;50.4;19.00;77022;2838.389;-1802.583;1;135;-90;-82.3;41.8;42.3;17;16.7;26.0;0.0;
26/02/2025 13:37:03;100;0;147.53;-4;-19.09;-3.31;52.8;19.00;77027;2838.387;-1802.582;1;135;-90;-82.3;41.8;42.3;17;16.7;26.0;0.0;
26/02/2025 13:37:23;100;0;145.59;-4;-19.31;-3.46;55.0;19.00;77024;2838.386;-1802.581;1;135;-90;-82.3;41.8;42.3;17;16.7;26.0;0.0;
26/02/2025 13:37:43;100;0;142.83;-4;-19.33;-3.36;57.3;19.00;77027;2838.384;-1802.579;1;135;-90;-82.3;41.8;42.3;17;16.7;26.0;0.0;
26/02/2025 13:38:03;100;0;139.33;-4;-18.99;-3.40;59.8;19.00;77027;2838.382;-1802.578;1;135;-90;-85.5;42.1;42.1;17;16.7;26.0;0.0;
26/02/2025 13:38:23;100;0;140.51;-4;-18.75;-3.44;62.1;19.00;77020;2838.381;-1802.576;1;135;-90;-82.3;42.5;42.4;17;16.7;26.0;0.0;
26/02/2025 13:38:43;100;0;137.79;-4;-19.76;-3.40;64.4;19.00;77008;2838.379;-1802.575;1;135;-90;-82.3;42.5;42.7;17;16.7;26.0;0.0;
26/02/2025 13:39:03;100;0;138.24;-4;-19.82;-3.40;66.8;19.00;76983;2838.378;-1802.573;1;135;-90;-83.9;42.5;42.7;17;16.7;26.0;0.0;
26/02/2025 13:39:23;100;0;138.19;-4;-19.57;-3.53;69.2;19.00;76980;2838.377;-1802.571;1;135;-90;-82.3;42.5;42.7;17;16.7;26.0;0.0;
26/02/2025 13:39:43;100;0;137.71;-4;-19.84;-3.37;71.5;18.90;76969;2838.375;-1802.570;1;135;-90;-82.3;42.5;42.7;17;16.7;26.0;0.0;
26/02/2025 13:40:03;100;0;137.07;-4;-19.81;-3.41;73.8;18.90;76967;2838.374;-1802.568;1;135;-90;-82.3;42.5;42.7;17;16.7;26.0;0.0;
26/02/2025 13:40:23;100;0;137.66;-4;-19.99;-3.34;76.3;18.90;76947;2838.372;-1802.566;1;135;-90;-82.3;42.5;42.7;17;16.7;26.0;0.0;
26/02/2025 13:40:43;100;0;136.78;-4;-19.16;-3.42;78.5;18.90;76940;2838.371;-1802.565;1;135;-90;-82.3;42.5;42.7;17;17.1;26.0;0.0;
26/02/2025 13:41:03;100;0;135.85;-4;-19.56;-3.40;80.8;18.90;76943;2838.370;-1802.563;1;135;-90;-82.3;42.5;42.9;17;16.7;26.0;0.0;
26/02/2025 13:41:23;100;0;137.27;-4;-19.55;-3.45;83.3;18.90;76936;2838.368;-1802.561;1;135;-90;-82.3;42.5;42.9;17;17.1;26.0;0.0;
26/02/2025 13:41:43;100;0;138.79;-4;-19.56;-3.51;85.5;18.90;76944;2838.367;-1802.560;1;135;-90;-82.3;42.5;42.7;17;16.7;26.0;0.0;
26/02/2025 13:42:03;100;0;142.56;-4;-19.23;-3.44;87.7;18.80;76923;2838.365;-1802.559;1;135;-90;-83.9;42.5;42.7;17;16.7;26.0;0.0;
26/02/2025 13:42:23;100;0;144.65;-4;-19.30;-3.48;89.9;18.80;76928;2838.364;-1802.557;1;135;-90;-82.3;42.5;42.7;17;16.7;26.0;0.0;
26/02/2025 13:42:43;100;0;146.05;-4;-19.41;-3.48;91.9;18.80;76907;2838.363;-1802.556;1;135;-110;-109.7;42.5;42.7;17;16.7;26.0;0.0;
26/02/2025 13:43:03;100;0;145.15;-4;-18.94;-3.36;94.2;18.80;76973;2838.361;-1802.555;1;135;-110;-112.9;42.8;42.9;17;17.1;26.0;0.0;
26/02/2025 13:43:23;100;0;144.37;-4;-19.29;-3.27;96.7;18.80;76955;2838.359;-1802.553;1;135;-110;-112.9;42.8;42.9;17;16.7;26.0;0.0;
26/02/2025 13:43:43;100;0;142.35;-4;-19.54;-3.19;99.2;18.80;76945;2838.357;-1802.552;1;135;-110;-111.3;42.8;42.9;17;16.7;26.0;0.0;
26/02/2025 13:44:03;100;0;139.28;-4;-19.27;-3.26;101.8;18.70;76946;2838.355;-1802.550;1;135;-110;-111.3;42.8;42.9;17;17.1;26.0;0.0;
26/02/2025 13:44:23;100;0;135.97;-4;-19.04;-3.33;104.3;18.70;76933;2838.354;-1802.548;1;135;-110;-112.9;42.8;42.9;17;16.7;26.0;0.0;
26/02/2025 13:44:43;100;0;134.48;-4;-19.10;-3.32;106.8;18.70;76915;2838.352;-1802.546;1;135;-110;-112.9;42.8;42.9;17;16.7;26.0;0.0;
26/02/2025 13:45:03;100;0;137.11;-4;-19.18;-3.33;109.2;18.60;76908;2838.351;-1802.544;1;135;-110;-112.9;42.8;42.9;17;16.7;26.0;0.0;
26/02/2025 13:45:23;100;0;140.86;-4;-19.12;-3.27;111.7;18.60;76897;2838.349;-1802.543;1;135;-110;-111.3;42.8;42.9;17;16.7;26.0;0.0;
26/02/2025 13:45:43;100;0;143.43;-4;-19.41;-3.31;114.3;18.60;76884;2838.347;-1802.541;1;135;-110;-112.9;42.8;42.9;17;16.7;26.0;0.0;
26/02/2025 13:46:03;100;0;144.03;-4;-19.43;-3.26;117.0;18.50;76875;2838.345;-1802.539;1;135;-110;-114.5;42.8;42.9;17;16.7;26.0;0.0;
26/02/2025 13:46:23;100;0;142.04;-4;-19.66;-3.22;119.6;18.50;76870;2838.343;-1802.538;1;135;-110;-111.3;42.8;42.9;17;16.7;26.0;0.0;
26/02/2025 13:46:43;100;0;138.83;-4;-19.55;-3.27;122.3;18.50;76866;2838.342;-1802.536;1;135;-110;-112.9;42.8;42.9;17;16.7;26.0;0.0;
26/02/2025 13:47:03;100;0;138.16;-4;-19.52;-3.20;125.2;18.50;76857;2838.340;-1802.534;1;135;-110;-112.9;42.8;42.9;17;16.7;26.0;0.0;
26/02/2025 13:47:23;100;0;137.89;-4;-19.72;-3.20;127.8;18.40;76850;2838.338;-1802.532;1;135;-110;-111.3;42.8;42.9;17;16.7;26.0;0.0;
26/02/2025 13:47:43;100;0;138.44;-4;-19.18;-3.26;130.6;18.40;76835;2838.336;-1802.530;1;135;-110;-112.9;42.8;42.9;17;16.7;26.0;0.0;
26/02/2025 13:48:03;100;0;140.64;-4;-19.52;-3.23;133.1;18.40;76817;2838.335;-1802.528;1;135;-110;-111.3;42.8;42.9;17;16.7;26.0;0.0;
26/02/2025 13:48:23;100;0;141.51;-4;-19.58;-3.24;135.8;18.40;76822;2838.333;-1802.526;1;135;-110;-112.9;42.8;42.9;17;16.7;26.0;0.0;
26/02/2025 13:48:43;100;0;136.60;-4;-19.38;-3.33;138.5;18.30;76807;2838.331;-1802.524;1;135;-110;-111.3;42.8;42.9;17;16.7;26.0;0.0;
26/02/2025 13:49:03;100;0;136.74;-4;-19.61;-3.26;141.2;18.30;76786;2838.329;-1802.522;1;135;-110;-112.9;42.8;42.9;17;16.7;26.0;0.0;
26/02/2025 13:49:23;100;0;137.25;-4;-19.18;-3.23;143.9;18.30;76775;2838.327;-1802.520;1;135;-110;-112.9;42.8;42.9;17;16.7;26.0;0.0;
26/02/2025 13:49:43;100;0;136.68;-4;-19.12;-3.22;146.7;18.20;76772;2838.326;-1802.518;1;135;-110;-112.9;42.8;42.9;17;16.7;26.0;0.0;
26/02/2025 13:50:03;100;0;137.16;-4;-19.28;-3.31;149.0;18.20;76753;2838.324;-1802.516;1;135;-110;-112.9;42.8;42.9;17;17.1;26.0;0.0;
26/02/2025 13:50:23;100;0;136.08;-4;-19.47;-3.27;151.7;18.10;76752;2838.322;-1802.514;1;135;-110;-112.9;42.8;42.9;17;16.7;26.0;0.0;
26/02/2025 13:50:43;100;0;133.80;-4;-18.97;-3.28;154.3;18.10;76742;2838.321;-1802.512;1;135;-110;-111.3;43.1;43.3;17;16.7;26.0;0.0;
26/02/2025 13:51:03;100;0;131.26;-4;-20.20;-3.31;156.9;18.10;76747;2838.319;-1802.510;1;135;-110;-112.9;43.1;43.4;15;14.9;26.0;0.0;
26/02/2025 13:51:23;100;0;131.32;-4;-20.25;-4.32;159.8;18.00;76723;2838.318;-1802.507;1;135;-110;-112.9;43.1;43.4;15;14.9;26.0;0.0;
26/02/2025 13:51:43;100;0;131.32;-4;-20.33;-4.27;162.5;18.00;76730;2838.316;-1802.505;1;135;-110;-112.9;43.1;43.4;15;14.9;26.0;0.0;
26/02/2025 13:52:03;100;0;128.50;-4;-20.42;-4.24;165.4;18.00;76723;2838.315;-1802.502;1;135;-110;-112.9;43.1;43.4;15;14.9;26.0;0.0;
26/02/2025 13:52:23;100;0;126.54;-4;-20.28;-4.39;168.2;17.90;76709;2838.314;-1802.500;1;135;-110;-111.3;43.1;43.6;11;10.8;26.0;0.0;
26/02/2025 13:52:43;100;0;124.60;-4;-20.32;-6.37;171.2;17.90;76704;2838.312;-1802.497;1;135;-110;-111.3;43.1;43.4;11;10.4;26.0;0.0;
26/02/2025 13:53:03;100;0;122.31;-4;-20.33;-6.31;173.8;17.90;76703;2838.311;-1802.494;1;135;-110;-112.9;43.1;43.4;6;5.9;26.0;0.0;
26/02/2025 13:53:23;100;0;123.70;-4;-19.84;-8.93;176.8;17.80;76688;2838.310;-1802.491;1;135;-110;-112.9;43.1;43.4;9;9.0;26.0;0.0;
26/02/2025 13:53:43;100;0;126.00;-4;-19.90;-6.82;179.5;17.80;76681;2838.309;-1802.489;1;135;-110;-112.9;43.1;43.4;11;10.8;26.0;0.0;
26/02/2025 13:54:03;100;0;129.15;-4;-19.81;-5.96;182.3;17.80;76663;2838.307;-1802.486;1;135;-110;-112.9;43.1;43.6;13;13.1;26.0;0.0;
26/02/2025 13:54:23;100;0;132.14;-4;-19.95;-4.91;185.0;17.70;76652;2838.306;-1802.484;1;135;-110;-112.9;43.1;43.6;15;14.9;26.0;0.0;
26/02/2025 13:54:43;100;0;134.15;-4;-20.19;-3.93;187.6;17.70;76639;2838.304;-1802.482;1;135;-110;-111.3;43.1;43.4;15;15.3;26.0;0.0;
26/02/2025 13:55:03;100;0;136.26;-4;-20.21;-3.92;190.3;17.60;76641;2838.303;-1802.480;1;135;-110;-112.9;43.1;43.6;15;15.3;26.0;0.0;
26/02/2025 13:55:23;100;0;139.58;-4;-19.99;-3.90;193.2;17.60;76636;2838.301;-1802.478;1;135;-110;-112.9;43.1;43.4;15;15.3;26.0;0.0;
26/02/2025 13:55:43;100;0;139.69;-4;-20.12;-3.91;195.8;17.60;76620;2838.299;-1802.476;1;135;-110;-112.9;43.1;43.4;15;15.3;26.0;0.0;
26/02/2025 13:56:03;100;0;138.72;-4;-20.35;-3.90;198.6;17.50;76618;2838.297;-1802.474;1;135;-110;-112.9;43.1;43.6;15;15.3;26.0;0.0;
26/02/2025 13:56:23;100;0;139.63;-4;-20.23;-3.86;201.4;17.50;76609;2838.295;-1802.472;1;135;-110;-111.3;43.1;43.4;15;15.3;26.0;0.0;
26/02/2025 13:56:43;100;0;139.54;-4;-20.29;-3.80;204.2;17.50;76605;2838.293;-1802.470;1;135;-110;-111.3;43.1;43.4;15;15.3;26.0;0.0;
26/02/2025 13:57:04;100;0;137.10;-4;-19.98;-3.90;206.9;17.40;76596;2838.292;-1802.468;1;135;-110;-112.9;43.1;43.6;15;15.3;26.0;0.0;
26/02/2025 13:57:24;100;0;134.93;-4;-20.25;-3.92;209.6;17.40;76583;2838.290;-1802.466;1;135;-110;-112.9;43.1;43.6;15;15.3;26.0;0.0;
26/02/2025 13:57:44;100;0;137.53;-4;-20.05;-3.89;212.3;17.40;76593;2838.288;-1802.464;1;135;-110;-112.9;43.1;43.4;15;15.3;26.0;0.0;
26/02/2025 13:58:04;100;0;139.66;-4;-20.00;-3.90;215.2;17.30;76573;2838.286;-1802.462;1;135;-110;-111.3;43.1;43.6;15;15.3;26.0;0.0;
26/02/2025 13:58:24;100;0;138.51;-4;-20.23;-3.91;217.9;17.30;76565;2838.285;-1802.460;1;135;-110;-111.3;43.1;43.4;15;15.3;26.0;0.0;
26/02/2025 13:58:44;100;0;136.35;-4;-20.31;-3.92;220.7;17.20;76556;2838.283;-1802.458;1;135;-110;-111.3;43.1;43.4;15;15.3;26.0;0.0;
26/02/2025 13:59:04;100;0;135.19;-4;-20.30;-3.90;223.6;17.20;76561;2838.281;-1802.456;1;135;-110;-112.9;43.1;43.4;15;15.3;26.0;0.0;
26/02/2025 13:59:24;100;0;134.02;-4;-20.14;-3.85;226.5;17.20;76551;2838.279;-1802.454;1;135;-110;-112.9;43.1;43.4;15;15.3;26.0;0.0;
26/02/2025 13:59:44;100;0;135.96;-4;-20.31;-3.87;229.3;17.10;76539;2838.278;-1802.451;1;135;-110;-111.3;43.1;43.6;15;15.3;26.0;0.0;
26/02/2025 14:00:04;100;0;138.32;-4;-20.27;-3.91;232.3;17.10;76541;2838.276;-1802.449;1;135;-110;-111.3;43.1;43.4;15;15.3;26.0;0.0;
26/02/2025 14:00:24;100;0;137.32;-4;-20.31;-3.88;235.1;17.10;76542;2838.274;-1802.447;1;135;-110;-114.5;43.1;43.6;15;15.3;26.0;0.0;
26/02/2025 14:00:44;100;0;137.92;-4;-20.22;-3.86;238.2;17.00;76535;2838.272;-1802.445;1;135;-110;-111.3;43.1;43.4;15;15.3;26.0;0.0;
26/02/2025 14:01:04;100;0;137.19;-4;-20.20;-3.90;241.1;17.00;76526;2838.270;-1802.443;1;135;-110;-111.3;43.1;43.4;15;15.3;26.0;0.0;
26/02/2025 14:01:24;100;0;138.86;-4;-20.16;-3.73;244.0;17.00;76524;2838.268;-1802.440;1;135;-110;-112.9;43.1;43.4;15;15.3;26.0;0.0;
26/02/2025 14:01:44;100;0;136.49;-4;-21.13;-3.64;246.9;16.90;76511;2838.266;-1802.438;1;135;-110;-112.9;43.1;43.6;15;15.3;26.0;0.0;
26/02/2025 14:02:04;100;0;135.12;-4;-19.97;-4.02;249.9;16.90;76511;2838.264;-1802.436;1;135;-110;-111.3;43.1;43.6;15;15.3;26.0;0.0;
26/02/2025 14:02:24;100;0;134.28;-4;-20.34;-3.90;252.9;16.90;76505;2838.262;-1802.434;1;135;-110;-114.5;43.1;43.6;15;15.3;26.0;0.0;
26/02/2025 14:02:44;100;0;132.22;-4;-20.05;-3.88;255.9;16.80;76503;2838.261;-1802.431;1;135;-110;-111.3;43.1;43.4;15;15.3;26.0;0.0;
26/02/2025 14:03:04;100;0;128.97;-4;-19.62;-3.86;258.7;16.80;76489;2838.259;-1802.428;1;135;-110;-112.9;43.1;43.4;13;13.1;26.0;0.0;
26/02/2025 14:03:24;100;0;128.51;-4;-19.53;-5.29;261.5;16.80;76479;2838.258;-1802.426;1;135;-110;-112.9;43.1;43.6;13;12.6;26.0;0.0;
26/02/2025 14:03:44;100;0;130.30;-4;-19.71;-5.34;264.2;16.70;76478;2838.256;-1802.424;1;135;-110;-112.9;43.1;43.4;13;12.6;26.0;0.0;
26/02/2025 14:04:04;100;0;126.70;-4;-20.07;-5.33;267.1;16.70;76468;2838.255;-1802.421;1;135;-110;-112.9;43.1;43.4;13;12.6;26.0;0.0;
26/02/2025 14:04:24;100;0;128.85;-4;-19.91;-5.23;270.1;16.70;76453;2838.253;-1802.418;1;135;-110;-111.3;43.1;43.4;13;12.6;26.0;0.0;
26/02/2025 14:04:44;100;0;130.58;-4;-19.97;-5.28;272.7;16.60;76455;2838.252;-1802.416;1;135;-110;-111.3;43.1;43.6;13;12.6;26.0;0.0;
26/02/2025 14:05:04;100;0;131.90;-4;-19.98;-5.27;275.6;16.60;76446;2838.250;-1802.414;1;135;-110;-112.9;43.1;43.6;15;14.9;26.0;0.0;
26/02/2025 14:05:24;100;0;132.94;-4;-19.72;-4.00;278.4;16.60;76431;2838.249;-1802.411;1;135;-110;-112.9;43.1;43.6;15;14.9;26.0;0.0;
26/02/2025 14:05:44;100;0;135.00;-4;-19.71;-3.98;281.2;16.50;76426;2838.247;-1802.409;1;135;-110;-112.9;43.1;43.4;15;14.9;26.0;0.0;
26/02/2025 14:06:04;100;0;138.43;-4;-20.38;-4.01;284.0;16.50;76422;2838.245;-1802.407;1;135;-110;-111.3;43.1;43.6;15;15.3;26.0;0.0;
26/02/2025 14:06:24;100;0;137.98;-4;-20.13;-4.00;286.8;16.50;76425;2838.243;-1802.405;1;135;-110;-111.3;43.1;43.4;15;14.9;26.0;0.0;
26/02/2025 14:06:44;100;0;137.94;-4;-20.10;-3.95;289.6;16.40;76411;2838.242;-1802.403;1;135;-110;-111.3;43.1;43.4;15;14.9;26.0;0.0;
26/02/2025 14:07:04;100;0;139.38;-4;-20.07;-3.98;292.4;16.40;76414;2838.240;-1802.401;1;135;-110;-112.9;43.1;43.6;15;15.3;26.0;0.0;
26/02/2025 14:07:24;100;0;141.15;-4;-20.32;-3.95;295.2;16.40;76409;2838.238;-1802.399;1;135;-110;-112.9;43.1;43.4;15;14.9;26.0;0.0;
26/02/2025 14:07:44;100;0;141.61;-4;-20.36;-4.01;298.0;16.30;76389;2838.236;-1802.397;1;135;-110;-111.3;43.1;43.4;15;15.3;26.0;0.0;
26/02/2025 14:08:04;100;0;141.36;-4;-20.03;-3.99;300.9;16.30;76397;2838.234;-1802.395;1;135;-110;-112.9;43.1;43.4;15;15.3;26.0;0.0;
26/02/2025 14:08:24;100;0;140.91;-4;-20.16;-4.04;303.6;16.30;76391;2838.232;-1802.394;1;135;-110;-111.3;43.1;43.4;15;14.9;26.0;0.0;
26/02/2025 14:08:44;100;0;141.22;-4;-20.15;-3.98;306.1;16.30;76387;2838.230;-1802.392;1;135;-110;-111.3;43.1;43.4;15;14.9;26.0;0.0;
26/02/2025 14:09:04;100;0;143.33;-4;-20.02;-3.93;309.0;16.20;76383;2838.228;-1802.390;1;135;-110;-112.9;43.1;43.6;15;14.9;26.0;0.0;
26/02/2025 14:09:24;100;0;145.81;-4;-20.29;-4.00;311.6;16.20;76385;2838.226;-1802.389;1;135;-110;-111.3;43.1;43.4;17;17.1;26.0;0.0;
26/02/2025 14:09:44;100;0;148.07;-4;-20.33;-2.91;314.5;16.10;76370;2838.224;-1802.387;1;135;-110;-111.3;43.1;43.6;20;19.9;26.0;0.0;
26/02/2025 14:10:04;100;0;147.06;-4;-20.68;-1.41;317.3;16.10;76358;2838.222;-1802.386;1;135;-110;-112.9;43.1;43.4;18;18.1;26.0;0.0;
26/02/2025 14:10:24;100;0;145.31;-4;-20.14;-2.76;319.9;16.10;76359;2838.220;-1802.384;1;135;-110;-111.3;43.1;43.4;18;17.6;26.0;0.0;
26/02/2025 14:10:44;100;0;143.30;-4;-20.13;-2.84;322.8;16.10;76355;2838.218;-1802.382;1;135;-110;-111.3;43.1;43.6;16;15.8;26.0;0.0;
26/02/2025 14:11:04;100;0;139.84;-4;-19.68;-3.87;325.4;16.00;76340;2838.216;-1802.381;1;135;-110;-111.3;43.1;43.4;16;15.3;26.0;0.0;
26/02/2025 14:11:24;100;0;139.07;-4;-19.60;-3.92;328.0;16.00;76322;2838.214;-1802.379;1;135;-110;-111.3;43.1;43.4;16;15.3;26.0;0.0;
26/02/2025 14:11:44;100;0;136.38;-4;-19.66;-3.87;330.4;16.00;76317;2838.213;-1802.377;1;135;-110;-112.9;43.1;43.4;16;15.3;26.0;0.0;
26/02/2025 14:12:04;100;0;135.65;-4;-19.55;-3.93;333.0;15.90;76311;2838.211;-1802.375;1;135;-110;-111.3;43.1;43.4;16;15.3;26.0;0.0;
26/02/2025 14:12:24;100;0;134.97;-4;-19.67;-3.87;335.6;15.90;76299;2838.210;-1802.373;1;135;-110;-111.3;43.1;43.6;16;15.3;26.0;0.0;
26/02/2025 14:12:44;100;0;131.71;-4;-19.63;-3.90;337.9;15.90;76300;2838.209;-1802.371;1;135;-110;-112.9;43.1;43.4;16;15.3;26.0;0.0;
26/02/2025 14:13:04;100;0;133.16;-4;-19.58;-3.95;340.5;15.80;76279;2838.207;-1802.369;1;135;-110;-112.9;43.1;43.4;16;15.3;26.0;0.0;
26/02/2025 14:13:24;100;0;135.36;-4;-19.64;-4.05;342.9;15.80;76278;2838.206;-1802.367;1;135;-110;-112.9;43.1;43.4;16;15.3;26.0;0.0;
26/02/2025 14:13:44;100;0;136.43;-4;-19.61;-4.00;345.5;15.80;76266;2838.204;-1802.366;1;135;-110;-112.9;43.1;43.4;16;15.3;26.0;0.0;
26/02/2025 14:14:04;100;0;136.04;-4;-19.37;-3.88;348.0;15.70;76261;2838.203;-1802.364;1;135;-110;-111.3;43.1;43.4;16;15.3;26.0;0.0;
26/02/2025 14:14:24;100;0;135.30;-4;-19.37;-4.01;350.6;15.70;76254;2838.201;-1802.362;1;135;-110;-112.9;43.1;43.6;16;15.3;26.0;0.0;
26/02/2025 14:14:44;100;0;136.59;-4;-19.45;-3.92;353.2;15.70;76250;2838.199;-1802.360;1;135;-110;-111.3;43.1;43.6;16;15.3;26.0;0.0;
26/02/2025 14:15:04;100;0;136.98;-4;-19.57;-3.89;355.7;15.60;76246;2838.198;-1802.358;1;135;-110;-111.3;43.1;43.4;16;15.3;26.0;0.0;
26/02/2025 14:15:24;100;0;137.50;-4;-19.77;-3.81;358.3;15.60;76234;2838.196;-1802.356;1;135;-110;-111.3;43.1;43.6;16;15.3;26.0;0.0;
26/02/2025 14:15:44;100;0;138.16;-4;-19.85;-3.92;361.0;15.60;76229;2838.195;-1802.354;1;135;-110;-111.3;43.1;43.6;16;15.3;26.0;0.0;
26/02/2025 14:16:04;100;0;138.67;-4;-19.93;-3.87;363.7;15.50;76231;2838.193;-1802.352;1;135;-110;-111.3;43.1;43.6;16;15.3;26.0;0.0;
26/02/2025 14:16:24;100;0;137.29;-4;-19.72;-3.90;366.5;15.50;76219;2838.191;-1802.350;1;135;-110;-111.3;43.1;43.4;16;15.3;26.0;0.0;
26/02/2025 14:16:44;100;0;137.45;-4;-19.73;-3.88;369.3;15.50;76225;2838.189;-1802.348;1;135;-110;-112.9;43.1;43.6;16;15.3;26.0;0.0;
26/02/2025 14:17:04;100;0;137.15;-4;-19.93;-3.85;372.0;15.40;76210;2838.188;-1802.346;1;135;-110;-112.9;43.1;43.6;16;15.3;26.0;0.0;
26/02/2025 14:17:24;100;0;136.44;-4;-19.61;-3.89;374.7;15.40;76205;2838.186;-1802.344;1;135;-110;-111.3;43.1;43.6;16;15.8;26.0;0.0;
26/02/2025 14:17:44;100;0;138.21;-4;-19.55;-3.89;377.4;15.40;76203;2838.184;-1802.342;1;135;-110;-112.9;43.1;43.4;16;15.3;26.0;0.0;
26/02/2025 14:18:04;100;0;135.92;-4;-19.50;-3.93;380.1;15.30;76189;2838.182;-1802.340;1;135;-110;-112.9;43.1;43.4;16;15.3;26.0;0.0;
26/02/2025 14:18:24;100;0;134.37;-4;-19.53;-3.89;382.8;15.30;76188;2838.181;-1802.338;1;135;-110;-112.9;43.1;43.4;16;15.3;26.0;0.0;
26/02/2025 14:18:44;100;0;131.69;-4;-19.50;-3.91;385.6;15.30;76176;2838.179;-1802.335;1;135;-110;-111.3;43.1;43.6;16;15.3;26.0;0.0;
26/02/2025 14:19:04;100;0;130.87;-4;-19.47;-3.83;388.2;15.30;76179;2838.178;-1802.333;1;135;-110;-111.3;43.1;43.4;14;14.0;26.0;0.0;
26/02/2025 14:19:24;100;0;131.96;-4;-19.37;-4.81;390.9;15.20;76169;2838.176;-1802.331;1;135;-110;-112.9;43.1;43.6;14;13.5;26.0;0.0;
26/02/2025 14:19:44;100;0;133.50;-4;-19.42;-4.80;393.8;15.20;76157;2838.174;-1802.328;1;135;-110;-112.9;43.1;43.4;14;13.5;26.0;0.0;
26/02/2025 14:20:04;100;0;135.11;-4;-19.26;-4.78;396.6;15.20;76167;2838.173;-1802.326;1;135;-110;-112.9;43.1;43.4;14;13.5;26.0;0.0;
26/02/2025 14:20:24;100;0;136.44;-4;-19.82;-4.78;399.3;15.10;76144;2838.171;-1802.324;1;135;-110;-112.9;43.1;43.4;14;13.5;26.0;0.0;
26/02/2025 14:20:44;100;0;137.47;-4;-20.02;-4.78;402.0;15.10;76139;2838.169;-1802.322;1;135;-110;-112.9;43.1;43.4;14;13.5;26.0;0.0;
26/02/2025 14:21:04;100;0;136.74;-4;-19.49;-4.79;404.9;15.10;76140;2838.167;-1802.320;1;135;-110;-111.3;43.1;43.4;14;13.5;26.0;0.0;
26/02/2025 14:21:24;100;0;135.00;-4;-19.41;-4.79;407.6;15.00;76135;2838.166;-1802.317;1;135;-110;-111.3;43.1;43.4;14;13.5;26.0;0.0;
26/02/2025 14:21:44;100;0;134.02;-4;-19.33;-4.81;410.3;15.00;76134;2838.164;-1802.315;1;135;-110;-112.9;43.1;43.6;14;13.5;26.0;0.0;
26/02/2025 14:22:04;100;0;133.72;-4;-19.48;-4.78;412.9;15.00;76132;2838.162;-1802.313;1;135;-110;-112.9;43.1;43.4;14;13.5;26.0;0.0;
26/02/2025 14:22:24;100;0;134.00;-4;-19.62;-4.81;415.7;15.00;76122;2838.161;-1802.311;1;135;-110;-112.9;43.1;43.6;14;13.5;26.0;0.0;
26/02/2025 14:22:44;100;0;134.65;-4;-19.52;-4.77;418.3;14.90;76115;2838.159;-1802.309;1;135;-110;-111.3;43.1;43.4;14;13.5;26.0;0.0;
26/02/2025 14:23:04;100;0;133.39;-4;-19.54;-4.77;420.9;14.90;76116;2838.158;-1802.307;1;135;-110;-111.3;43.1;43.6;14;13.5;26.0;0.0;
26/02/2025 14:23:24;100;0;133.22;-4;-19.25;-4.80;423.8;14.90;76098;2838.156;-1802.304;1;135;-110;-112.9;43.1;43.4;14;13.5;26.0;0.0;
26/02/2025 14:23:44;100;0;135.52;-4;-19.15;-4.79;426.3;14.80;76094;2838.154;-1802.302;1;135;-110;-111.3;43.1;43.4;14;13.5;26.0;0.0;
26/02/2025 14:24:04;100;0;136.73;-4;-19.43;-4.83;428.9;14.80;76089;2838.153;-1802.300;1;135;-110;-112.9;43.1;43.6;14;13.5;26.0;0.0;
26/02/2025 14:24:24;100;0;135.83;-4;-19.27;-4.80;431.4;14.80;76066;2838.151;-1802.298;1;135;-110;-111.3;43.1;43.6;14;13.5;26.0;0.0;
26/02/2025 14:24:44;100;0;136.81;-4;-19.26;-4.82;434.0;14.80;76073;2838.150;-1802.296;1;135;-110;-111.3;43.1;43.4;14;13.5;26.0;0.0;
26/02/2025 14:25:04;100;0;137.07;-4;-19.00;-4.75;436.5;14.70;76053;2838.148;-1802.294;1;135;-110;-111.3;43.4;43.4;14;13.5;26.0;0.0;
26/02/2025 14:25:24;100;0;136.68;-4;-19.17;-4.85;439.1;14.70;76057;2838.146;-1802.292;1;135;-110;-112.9;43.4;43.4;14;13.5;26.0;0.0;
26/02/2025 14:25:44;100;0;137.34;-4;-19.02;-4.81;441.5;14.70;76047;2838.145;-1802.291;1;135;-110;-111.3;43.4;43.4;14;13.5;26.0;0.0;
26/02/2025 14:26:04;100;0;136.37;-4;-19.38;-4.88;443.9;14.60;76062;2838.143;-1802.289;1;135;-110;-112.9;43.4;43.4;14;13.5;26.0;0.0;
26/02/2025 14:26:24;100;0;138.85;-4;-19.20;-4.80;446.5;14.60;76049;2838.142;-1802.287;1;135;-110;-112.9;43.4;43.4;14;13.5;26.0;0.0;
26/02/2025 14:26:44;100;0;141.20;-4;-19.09;-4.86;449.0;14.60;76045;2838.140;-1802.285;1;135;-110;-112.9;43.4;43.4;14;13.5;26.0;0.0;
26/02/2025 14:27:04;100;0;142.64;-4;-18.74;-4.85;451.3;14.60;76035;2838.138;-1802.284;1;135;-110;-112.9;43.8;43.9;14;13.5;26.0;0.0;
26/02/2025 14:27:24;100;0;144.36;-4;-19.99;-4.88;454.0;14.50;76028;2838.136;-1802.282;1;135;-110;-112.9;43.8;44.0;16;15.8;26.0;0.0;
26/02/2025 14:27:44;100;0;146.48;-4;-20.41;-3.55;456.4;14.50;76025;2838.134;-1802.281;1;135;-110;-112.9;43.8;44.0;16;16.2;26.0;0.0;
26/02/2025 14:28:04;100;0;147.10;-4;-20.29;-3.55;459.1;14.50;76020;2838.132;-1802.279;1;135;-110;-112.9;43.8;44.0;18;18.1;26.0;0.0;
26/02/2025 14:28:24;100;0;147.83;-4;-20.28;-2.44;461.6;14.40;76013;2838.131;-1802.278;1;135;-110;-112.9;43.8;44.0;18;18.5;26.0;0.0;
26/02/2025 14:28:44;100;0;149.19;-4;-20.67;-2.41;464.2;14.40;76009;2838.129;-1802.277;1;135;-110;-111.3;43.8;44.0;18;18.5;26.0;0.0;
26/02/2025 14:29:04;100;0;147.83;-4;-20.62;-2.36;466.8;14.40;75995;2838.127;-1802.276;1;135;-110;-111.3;43.8;44.0;18;18.5;26.0;0.0;
26/02/2025 14:29:24;100;0;147.21;-4;-20.71;-2.41;469.5;14.40;76004;2838.125;-1802.274;1;135;-110;-111.3;43.8;44.2;18;18.5;26.0;0.0;
26/02/2025 14:29:44;100;0;149.07;-4;-20.37;-2.32;472.1;14.30;75987;2838.123;-1802.273;1;135;-110;-112.9;43.8;44.0;21;21.2;26.0;0.0;
26/02/2025 14:30:04;100;0;150.95;-4;-20.57;-0.70;474.7;14.30;75995;2838.121;-1802.272;1;135;-110;-112.9;43.8;44.0;21;21.7;26.0;0.0;
26/02/2025 14:30:24;100;0;151.81;-4;-20.74;-0.71;477.1;14.30;75987;2838.119;-1802.271;1;135;-110;-112.9;43.8;44.0;23;23.0;26.0;0.0;
26/02/2025 14:30:44;100;0;148.65;-4;-20.80;0.17;479.8;14.30;75968;2838.117;-1802.270;1;135;-110;-112.9;43.8;44.0;19;19.0;26.0;0.0;
26/02/2025 14:31:04;100;0;142.92;-4;-20.22;-2.29;482.3;14.20;75970;2838.115;-1802.268;1;135;-110;-112.9;43.8;44.0;16;15.3;26.0;0.0;
26/02/2025 14:31:24;100;0;142.29;-4;-20.33;-4.08;484.7;14.20;75963;2838.114;-1802.267;1;135;-110;-111.3;43.8;44.0;16;15.3;26.0;0.0;
26/02/2025 14:31:44;100;0;143.91;-4;-20.16;-3.99;487.2;14.20;75958;2838.112;-1802.265;1;135;-110;-111.3;43.8;44.0;16;15.3;26.0;0.0;
26/02/2025 14:32:04;100;0;143.40;-4;-20.11;-3.97;489.6;14.20;75951;2838.110;-1802.264;1;135;-110;-111.3;43.8;44.0;16;15.3;26.0;0.0;
26/02/2025 14:32:25;100;0;143.51;-4;-20.22;-4.05;491.9;14.10;75947;2838.109;-1802.263;1;135;-110;-111.3;43.8;44.2;16;15.3;26.0;0.0;
26/02/2025 14:32:45;100;0;142.61;-4;-20.24;-4.06;494.4;14.10;75943;2838.107;-1802.261;1;135;-110;-112.9;43.8;44.2;16;15.3;26.0;0.0;
26/02/2025 14:33:05;100;0;141.13;-4;-20.13;-4.03;496.9;14.10;75935;2838.105;-1802.260;1;135;-110;-112.9;43.8;44.2;16;15.3;26.0;0.0;
26/02/2025 14:33:25;100;0;140.33;-4;-20.02;-4.08;499.5;14.00;75940;2838.104;-1802.258;1;135;-110;-112.9;43.8;44.0;16;15.3;26.0;0.0;
26/02/2025 14:33:45;100;0;139.07;-4;-20.11;-4.05;501.9;14.00;75931;2838.102;-1802.256;1;135;-110;-111.3;43.8;44.0;16;14.9;26.0;0.0;
26/02/2025 14:34:05;100;0;140.00;-4;-19.68;-4.10;504.3;14.00;75918;2838.101;-1802.255;1;135;-110;-111.3;43.8;44.0;16;15.3;26.0;0.0;
26/02/2025 14:34:25;100;0;140.81;-4;-20.31;-4.08;506.7;14.00;75927;2838.099;-1802.253;1;135;-110;-114.5;43.8;44.2;16;14.9;26.0;0.0;
26/02/2025 14:34:45;100;0;140.56;-4;-20.41;-4.04;509.3;13.90;75910;2838.097;-1802.251;1;135;-110;-114.5;43.8;44.2;16;15.3;26.0;0.0;
26/02/2025 14:35:05;100;0;139.34;-4;-20.41;-4.05;511.8;13.90;75904;2838.096;-1802.250;1;135;-110;-112.9;43.8;44.0;16;15.3;26.0;0.0;
26/02/2025 14:35:25;100;0;138.34;-4;-20.35;-4.07;514.4;13.90;75911;2838.094;-1802.248;1;135;-110;-114.5;43.8;44.0;16;15.3;26.0;0.0;
26/02/2025 14:35:45;100;0;138.45;-4;-20.25;-4.06;517.1;13.90;75896;2838.092;-1802.246;1;135;-110;-112.9;43.8;44.2;16;15.3;26.0;0.0;
26/02/2025 14:36:05;100;0;139.73;-4;-20.17;-4.03;519.6;13.90;75905;2838.091;-1802.244;1;135;-110;-112.9;43.8;44.0;16;15.3;26.0;0.0;
26/02/2025 14:36:25;100;0;138.03;-4;-20.26;-4.05;522.2;13.80;75892;2838.089;-1802.243;1;135;-110;-111.3;43.8;44.2;16;15.3;26.0;0.0;
26/02/2025 14:36:45;100;0;138.42;-4;-20.23;-3.98;524.8;13.80;75888;2838.087;-1802.241;1;135;-110;-112.9;43.8;44.0;16;15.3;26.0;0.0;
26/02/2025 14:37:05;100;0;139.58;-4;-20.19;-4.00;527.4;13.80;75892;2838.086;-1802.239;1;135;-110;-112.9;43.8;44.2;16;15.3;26.0;0.0;
26/02/2025 14:37:25;100;0;141.58;-4;-20.29;-4.07;530.1;13.70;75878;2838.084;-1802.237;1;135;-110;-111.3;43.8;44.0;16;15.3;26.0;0.0;
26/02/2025 14:37:45;100;0;141.45;-4;-20.21;-4.11;532.8;13.70;75871;2838.082;-1802.235;1;135;-110;-112.9;43.8;44.0;16;15.3;26.0;0.0;
26/02/2025 14:38:05;100;0;140.93;-4;-20.18;-4.00;535.4;13.70;75883;2838.080;-1802.234;1;135;-110;-112.9;43.8;44.0;16;15.3;26.0;0.0;
26/02/2025 14:38:25;100;0;139.79;-4;-20.66;-4.00;538.1;13.70;75862;2838.079;-1802.232;1;135;-110;-111.3;43.8;44.0;16;15.3;26.0;0.0;
26/02/2025 14:38:45;100;0;139.10;-4;-20.56;-3.96;540.7;13.70;75873;2838.077;-1802.230;1;135;-110;-112.9;43.8;44.0;16;15.3;26.0;0.0;
26/02/2025 14:39:05;100;0;138.20;-4;-20.94;-4.01;543.5;13.60;75853;2838.075;-1802.228;1;135;-110;-112.9;43.8;44.2;16;15.3;26.0;0.0;
26/02/2025 14:39:25;100;0;140.04;-4;-20.51;-3.85;546.5;13.60;75859;2838.073;-1802.226;1;135;-110;-112.9;43.8;44.2;16;15.3;26.0;0.0;
26/02/2025 14:39:45;100;0;139.41;-4;-20.50;-4.02;549.2;13.60;75847;2838.071;-1802.224;1;135;-110;-112.9;43.8;44.0;16;14.9;26.0;0.0;
26/02/2025 14:40:05;100;0;140.57;-4;-20.79;-4.03;552.0;13.60;75850;2838.070;-1802.223;1;135;-110;-112.9;43.8;44.2;16;15.3;26.0;0.0;
26/02/2025 14:40:25;100;0;142.24;-4;-20.15;-4.03;554.8;13.50;75845;2838.068;-1802.221;1;135;-110;-111.3;43.8;44.0;16;15.3;26.0;0.0;
26/02/2025 14:40:45;100;0;142.03;-4;-20.03;-4.04;557.6;13.50;75828;2838.066;-1802.219;1;135;-110;-111.3;43.8;44.2;16;15.3;26.0;0.0;
26/02/2025 14:41:05;100;0;141.44;-4;-20.11;-4.12;560.2;13.50;75821;2838.064;-1802.217;1;135;-110;-111.3;43.8;44.0;16;14.9;26.0;0.0;
26/02/2025 14:41:25;100;0;141.96;-4;-20.27;-4.03;562.7;13.50;75828;2838.062;-1802.216;1;135;-110;-111.3;43.8;44.2;16;15.3;26.0;0.0;
26/02/2025 14:41:45;100;0;142.38;-4;-19.65;-4.12;565.3;13.50;75828;2838.060;-1802.214;1;135;-110;-111.3;43.8;44.0;16;15.3;26.0;0.0;
26/02/2025 14:42:05;100;0;143.29;-4;-19.83;-4.06;567.9;13.40;75824;2838.059;-1802.213;1;135;-110;-111.3;43.8;44.2;16;15.3;26.0;0.0;
26/02/2025 14:42:25;100;0;144.44;-4;-19.70;-4.06;570.3;13.40;75819;2838.057;-1802.211;1;135;-110;-112.9;43.8;44.0;16;15.3;26.0;0.0;
26/02/2025 14:42:45;100;0;145.32;-4;-19.83;-4.13;572.8;13.40;75820;2838.055;-1802.210;1;135;-110;-112.9;43.8;44.0;16;15.3;26.0;0.0;
26/02/2025 14:43:05;100;0;147.29;-4;-19.75;-4.04;575.2;13.40;75810;2838.053;-1802.209;1;135;-110;-111.3;43.8;44.0;19;19.0;26.0;0.0;
26/02/2025 14:43:25;100;0;146.03;-4;-19.93;-1.95;577.8;13.30;75811;2838.051;-1802.207;1;135;-110;-112.9;43.8;44.2;19;19.4;26.0;0.0;
26/02/2025 14:43:45;100;0;143.82;-4;-19.76;-1.95;580.2;13.30;75806;2838.050;-1802.206;1;135;-110;-111.3;43.8;44.2;17;17.1;26.0;0.0;
26/02/2025 14:44:05;100;0;141.44;-4;-19.69;-3.33;582.5;13.30;75800;2838.048;-1802.204;1;135;-110;-111.3;43.8;44.0;17;16.7;26.0;0.0;
26/02/2025 14:44:25;100;0;139.99;-4;-19.88;-3.36;584.9;13.30;75798;2838.047;-1802.203;1;135;-110;-112.9;43.8;44.0;17;16.7;26.0;0.0;
26/02/2025 14:44:45;100;0;138.10;-4;-19.86;-3.31;587.4;13.30;75793;2838.045;-1802.201;1;135;-110;-112.9;43.8;44.0;17;16.7;26.0;0.0;
26/02/2025 14:45:05;100;0;137.74;-4;-19.71;-3.28;589.6;13.20;75783;2838.044;-1802.200;1;135;-110;-111.3;43.8;44.0;17;16.7;26.0;0.0;
26/02/2025 14:45:25;100;0;137.16;-4;-19.76;-3.31;592.1;13.20;75785;2838.042;-1802.198;1;135;-110;-111.3;43.8;44.0;17;17.1;26.0;0.0;
26/02/2025 14:45:45;100;0;135.81;-4;-19.67;-3.35;594.4;13.20;75783;2838.041;-1802.196;1;135;-110;-112.9;43.8;44.0;17;16.7;26.0;0.0;
26/02/2025 14:46:05;100;0;135.13;-4;-19.65;-3.30;596.7;13.20;75778;2838.040;-1802.195;1;135;-110;-111.3;43.8;44.0;17;17.1;26.0;0.0;
26/02/2025 14:46:25;100;0;138.19;-4;-19.77;-3.14;599.0;13.10;75773;2838.039;-1802.193;1;135;-110;-112.9;43.8;44.0;17;16.7;26.0;0.0;
26/02/2025 14:46:45;100;0;142.53;-4;-19.74;-3.31;601.4;13.10;75766;2838.037;-1802.191;1;135;-110;-111.3;43.8;44.0;17;16.7;26.0;0.0;
26/02/2025 14:47:05;100;0;144.17;-4;-19.65;-3.33;603.7;13.10;75751;2838.035;-1802.190;1;135;-110;-111.3;43.8;44.2;17;16.7;26.0;0.0;
26/02/2025 14:47:25;100;0;146.07;-4;-19.93;-3.32;606.1;13.10;75748;2838.034;-1802.189;1;135;-110;-111.3;43.8;44.0;17;16.7;26.0;0.0;
26/02/2025 14:47:45;100;0;145.43;-4;-20.13;-3.28;608.6;13.10;75744;2838.032;-1802.188;1;135;-110;-112.9;43.8;44.0;17;16.7;26.0;0.0;
26/02/2025 14:48:05;100;0;144.80;-4;-19.99;-3.32;611.1;13.00;75738;2838.030;-1802.186;1;135;-110;-112.9;43.8;44.0;17;16.7;26.0;0.0;
26/02/2025 14:48:25;100;0;145.62;-4;-19.82;-3.26;613.6;13.00;75736;2838.028;-1802.185;1;135;-110;-111.3;43.8;44.0;17;16.7;26.0;0.0;
26/02/2025 14:48:45;100;0;145.85;-4;-19.70;-3.30;616.2;13.00;75735;2838.026;-1802.183;1;135;-110;-111.3;43.8;44.0;17;16.7;26.0;0.0;
26/02/2025 14:49:05;100;0;146.98;-4;-19.76;-3.34;618.6;13.00;75728;2838.025;-1802.182;1;135;-110;-112.9;43.8;44.2;19;19.0;26.0;0.0;
26/02/2025 14:49:25;100;0;148.70;-4;-19.86;-1.90;621.1;13.00;75727;2838.023;-1802.181;1;135;-110;-112.9;43.8;44.0;19;19.4;26.0;0.0;
26/02/2025 14:49:45;100;0;147.13;-4;-20.12;-1.85;623.6;12.90;75722;2838.021;-1802.180;1;135;-110;-111.3;43.8;44.2;19;19.4;26.0;0.0;
26/02/2025 14:50:05;100;0;144.52;-4;-19.83;-1.90;626.2;12.90;75709;2838.019;-1802.178;1;135;-110;-111.3;43.8;44.0;17;17.1;26.0;0.0;
26/02/2025 14:50:25;100;0;143.24;-4;-19.32;-3.30;628.5;12.90;75696;2838.017;-1802.177;1;135;-110;-111.3;43.8;44.2;17;17.1;26.0;0.0;
26/02/2025 14:50:45;100;0;141.12;-4;-19.91;-3.23;631.0;12.90;75700;2838.016;-1802.175;1;135;-110;-112.9;43.8;44.2;17;17.1;26.0;0.0;
26/02/2025 14:51:05;100;0;138.28;-4;-19.89;-3.31;633.5;12.80;75690;2838.014;-1802.173;1;135;-110;-111.3;43.8;44.0;17;17.1;26.0;0.0;
26/02/2025 14:51:25;100;0;136.94;-4;-20.22;-3.21;636.3;12.80;75672;2838.012;-1802.171;1;135;-110;-111.3;43.8;44.0;17;17.1;26.0;0.0;
26/02/2025 14:51:45;100;0;135.22;-4;-20.01;-3.20;638.9;12.80;75669;2838.011;-1802.169;1;135;-110;-112.9;43.8;44.0;17;17.1;26.0;0.0;
26/02/2025 14:52:05;100;0;134.88;-4;-19.96;-3.09;641.6;12.80;75654;2838.009;-1802.167;1;135;-110;-112.9;43.8;44.2;17;17.1;26.0;0.0;
26/02/2025 14:52:25;100;0;134.77;-4;-19.63;-3.20;644.2;12.70;75659;2838.008;-1802.165;1;135;-110;-112.9;43.8;44.2;17;17.1;26.0;0.0;
26/02/2025 14:52:45;100;0;133.92;-4;-20.17;-3.24;647.0;12.70;75647;2838.006;-1802.163;1;135;-110;-112.9;43.8;44.0;17;17.1;26.0;0.0;
26/02/2025 14:53:05;100;0;133.86;-4;-19.71;-3.27;649.8;12.70;75643;2838.004;-1802.161;1;135;-110;-111.3;43.8;44.0;17;17.1;26.0;0.0;
26/02/2025 14:53:25;100;0;133.96;-4;-19.69;-3.21;652.4;12.70;75630;2838.003;-1802.159;1;135;-110;-114.5;43.8;44.2;17;17.1;26.0;0.0;
26/02/2025 14:53:45;100;0;133.78;-4;-19.50;-3.20;655.1;12.60;75637;2838.001;-1802.157;1;135;-110;-111.3;43.8;44.0;17;17.1;26.0;0.0;
26/02/2025 14:54:05;100;0;133.76;-4;-19.28;-3.29;657.8;12.60;75629;2838.000;-1802.154;1;135;-110;-111.3;43.8;44.2;17;16.7;26.0;0.0;
26/02/2025 14:54:25;100;0;133.26;-4;-19.53;-3.24;660.4;12.60;75628;2837.998;-1802.152;1;135;-110;-111.3;43.8;44.0;17;17.1;26.0;0.0;
26/02/2025 14:54:45;100;0;132.21;-4;-19.41;-3.30;663.1;12.60;75618;2837.997;-1802.150;1;135;-110;-112.9;43.8;44.2;17;17.1;26.0;0.0;
26/02/2025 14:55:05;100;0;131.55;-4;-20.09;-3.31;665.9;12.60;75610;2837.995;-1802.147;1;135;-110;-112.9;43.8;44.0;17;16.7;26.0;0.0;
26/02/2025 14:55:25;100;0;131.07;-4;-19.75;-3.43;668.7;12.50;75620;2837.994;-1802.145;1;135;-110;-112.9;43.8;44.0;15;14.9;26.0;0.0;
26/02/2025 14:55:45;100;0;132.01;-4;-19.47;-4.13;671.4;12.50;75613;2837.992;-1802.143;1;135;-110;-112.9;43.8;44.2;15;14.9;26.0;0.0;
26/02/2025 14:56:05;100;0;132.74;-4;-19.10;-4.22;674.1;12.50;75604;2837.990;-1802.140;1;135;-110;-112.9;43.8;44.2;15;14.9;26.0;0.0;
26/02/2025 14:56:25;100;0;133.20;-4;-19.16;-4.26;676.8;12.40;75610;2837.989;-1802.138;1;135;-110;-112.9;43.8;44.2;15;14.9;26.0;0.0;
26/02/2025 14:56:45;100;0;135.12;-4;-19.32;-4.19;679.4;12.40;75592;2837.987;-1802.136;1;135;-110;-111.3;43.8;44.2;15;14.9;26.0;0.0;
26/02/2025 14:57:05;100;0;135.95;-4;-19.76;-4.21;682.1;12.40;75595;2837.986;-1802.134;1;135;-110;-112.9;43.8;44.0;15;14.9;26.0;0.0;
26/02/2025 14:57:25;100;0;135.27;-4;-19.92;-4.16;685.0;12.40;75583;2837.984;-1802.132;1;135;-110;-112.9;43.8;44.0;15;14.9;26.0;0.0;
26/02/2025 14:57:45;100;0;136.07;-4;-19.70;-4.14;687.8;12.40;75567;2837.982;-1802.130;1;135;-110;-112.9;43.8;44.2;15;14.9;26.0;0.0;
26/02/2025 14:58:05;100;0;137.69;-4;-19.86;-4.12;690.7;12.30;75565;2837.980;-1802.127;1;135;-110;-111.3;43.8;44.0;15;14.9;26.0;0.0;
26/02/2025 14:58:25;100;0;137.82;-4;-19.65;-4.16;693.5;12.30;75565;2837.978;-1802.125;1;135;-110;-111.3;43.8;44.0;15;14.9;26.0;0.0;
26/02/2025 14:58:45;100;0;138.76;-4;-19.62;-4.08;696.3;12.30;75549;2837.976;-1802.123;1;135;-110;-112.9;43.8;44.0;15;14.9;26.0;0.0;
26/02/2025 14:59:05;100;0;138.74;-4;-19.63;-4.21;699.2;12.30;75568;2837.975;-1802.121;1;135;-110;-112.9;43.8;44.0;15;14.9;26.0;0.0;
26/02/2025 14:59:25;100;0;139.94;-4;-19.68;-4.16;702.0;12.30;75547;2837.973;-1802.119;1;135;-110;-111.3;43.8;44.0;15;14.9;26.0;0.0;
26/02/2025 14:59:45;100;0;142.10;-4;-19.42;-4.07;705.0;12.20;75554;2837.970;-1802.117;1;135;-110;-112.9;43.8;44.2;17;17.1;26.0;0.0;
26/02/2025 15:00:05;100;0;144.03;-4;-19.91;-2.89;707.8;12.20;75542;2837.968;-1802.116;1;135;-110;-112.9;43.8;44.0;17;17.6;26.0;0.0;
26/02/2025 15:00:25;100;0;143.86;-4;-19.75;-2.88;710.7;12.20;75535;2837.966;-1802.114;1;135;-110;-111.3;43.8;44.2;17;17.6;26.0;0.0;
26/02/2025 15:00:45;100;0;145.36;-4;-19.61;-2.88;713.7;12.20;75530;2837.964;-1802.112;1;135;-110;-112.9;43.8;44.2;17;17.6;26.0;0.0;
26/02/2025 15:01:05;100;0;146.77;-4;-19.73;-2.86;716.5;12.10;75532;2837.962;-1802.110;1;135;-110;-111.3;43.8;44.0;17;17.6;26.0;0.0;
26/02/2025 15:01:25;100;0;148.94;-4;-19.92;-2.91;719.6;12.10;75535;2837.959;-1802.109;1;135;-110;-112.9;43.8;44.2;21;21.7;26.0;0.0;
26/02/2025 15:01:45;100;0;148.40;-4;-19.67;-0.68;722.6;12.10;75520;2837.957;-1802.107;1;135;-110;-112.9;43.8;44.0;21;21.7;26.0;0.0;
26/02/2025 15:02:05;100;0;144.65;-4;-19.60;-0.69;725.7;12.10;75503;2837.954;-1802.105;1;135;-110;-111.3;43.8;44.0;18;18.1;26.0;0.0;
26/02/2025 15:02:25;100;0;139.43;-4;-19.48;-2.79;728.6;12.00;75508;2837.952;-1802.103;1;135;-110;-112.9;43.8;44.0;16;15.8;26.0;0.0;
26/02/2025 15:02:45;100;0;135.83;-4;-19.55;-4.00;731.4;12.00;75499;2837.950;-1802.101;1;135;-110;-112.9;43.8;44.0;16;15.3;26.0;0.0;
26/02/2025 15:03:05;100;0;131.42;-4;-18.92;-4.00;734.4;12.00;75494;2837.949;-1802.098;1;135;-110;-112.9;44.1;44.2;16;15.3;26.0;0.0;
26/02/2025 15:03:25;100;0;130.22;-4;-19.27;-3.97;737.2;12.00;75475;2837.947;-1802.096;1;135;-110;-112.9;44.1;44.3;16;15.3;26.0;0.0;
26/02/2025 15:03:45;100;0;129.96;-4;-19.19;-3.99;739.9;11.90;75473;2837.945;-1802.093;1;135;-110;-112.9;44.1;44.3;16;15.3;26.0;0.0;
26/02/2025 15:04:05;100;0;130.51;-4;-19.24;-4.01;742.8;11.90;75466;2837.944;-1802.091;1;135;-110;-112.9;44.1;44.2;16;15.8;26.0;0.0;
26/02/2025 15:04:25;100;0;130.97;-4;-19.25;-3.99;745.5;11.90;75462;2837.942;-1802.088;1;135;-110;-112.9;44.1;44.2;16;15.3;26.0;0.0;
26/02/2025 15:04:45;100;0;130.26;-4;-19.26;-3.96;748.3;11.90;75460;2837.941;-1802.086;1;135;-110;-112.9;44.1;44.2;16;15.8;26.0;0.0;
26/02/2025 15:05:05;100;0;131.14;-4;-19.29;-3.97;751.2;11.80;75448;2837.939;-1802.083;1;135;-110;-112.9;44.1;44.3;16;15.8;26.0;0.0;
26/02/2025 15:05:25;100;0;130.59;-4;-19.31;-4.02;754.0;11.80;75446;2837.937;-1802.080;1;135;-110;-111.3;44.1;44.2;16;15.3;26.0;0.0;
26/02/2025 15:05:45;100;0;130.65;-4;-19.21;-3.98;757.0;11.80;75438;2837.936;-1802.078;1;135;-110;-111.3;44.1;44.2;16;15.8;26.0;0.0;
26/02/2025 15:06:05;100;0;131.45;-4;-19.29;-4.00;759.8;11.80;75434;2837.934;-1802.075;1;135;-110;-111.3;44.1;44.2;16;15.3;26.0;0.0;
26/02/2025 15:06:25;100;0;132.44;-4;-19.16;-3.95;762.5;11.80;75432;2837.932;-1802.073;1;135;-110;-112.9;44.1;44.2;16;15.3;26.0;0.0;
26/02/2025 15:06:46;100;0;133.76;-4;-19.28;-4.02;765.3;11.70;75425;2837.931;-1802.071;1;135;-110;-109.7;44.1;44.2;16;15.3;26.0;0.0;
26/02/2025 15:07:06;100;0;136.59;-4;-19.12;-3.94;768.1;11.70;75424;2837.929;-1802.068;1;135;-110;-111.3;44.1;44.2;16;15.3;26.0;0.0;
26/02/2025 15:07:26;100;0;138.00;-4;-19.18;-3.98;770.8;11.70;75419;2837.927;-1802.066;1;135;-110;-112.9;44.1;44.2;16;15.3;26.0;0.0;
26/02/2025 15:07:46;100;0;136.35;-4;-18.79;-4.10;773.7;11.70;75412;2837.925;-1802.064;1;135;-110;-112.9;44.5;44.5;16;15.3;26.0;0.0;
26/02/2025 15:08:06;100;0;136.50;-4;-19.98;-4.04;776.3;11.60;75411;2837.923;-1802.062;1;135;-110;-112.9;44.5;44.6;16;15.3;26.0;0.0;
26/02/2025 15:08:26;100;0;135.65;-4;-19.32;-4.03;779.0;11.60;75396;2837.922;-1802.060;1;135;-110;-112.9;44.5;44.6;16;15.3;26.0;0.0;
26/02/2025 15:08:46;100;0;134.94;-4;-20.34;-4.24;781.6;11.60;75383;2837.920;-1802.058;1;135;-110;-112.9;44.5;44.6;16;15.3;26.0;0.0;
26/02/2025 15:09:06;100;0;133.87;-4;-19.96;-3.97;784.5;11.60;75384;2837.919;-1802.056;1;135;-110;-112.9;44.5;44.6;16;15.3;26.0;0.0;
26/02/2025 15:09:26;100;0;134.37;-4;-19.88;-4.24;787.1;11.50;75374;2837.917;-1802.054;1;135;-110;-111.3;44.5;44.6;16;15.3;26.0;0.0;
26/02/2025 15:09:46;100;0;133.38;-4;-19.93;-3.87;790.1;11.50;75373;2837.915;-1802.051;1;135;-110;-112.9;44.5;44.6;16;15.8;26.0;0.0;
26/02/2025 15:10:06;100;0;134.38;-4;-20.26;-3.80;792.9;11.50;75366;2837.914;-1802.049;1;135;-110;-112.9;44.5;44.6;16;15.8;26.0;0.0;
26/02/2025 15:10:26;100;0;134.34;-4;-20.31;-3.99;795.8;11.50;75367;2837.912;-1802.046;1;135;-110;-112.9;44.5;44.6;16;15.3;26.0;0.0;
26/02/2025 15:10:46;100;0;134.46;-4;-20.16;-3.99;798.9;11.50;75361;2837.910;-1802.044;1;135;-110;-111.3;44.5;44.6;16;15.3;26.0;0.0;
26/02/2025 15:11:06;100;0;133.10;-4;-19.51;-4.06;801.8;11.40;75345;2837.908;-1802.042;1;135;-110;-112.9;44.5;44.8;16;15.3;26.0;0.0;
26/02/2025 15:11:26;100;0;135.29;-4;-20.37;-4.05;804.6;11.40;75357;2837.906;-1802.039;1;135;-110;-112.9;44.5;44.6;16;15.3;26.0;0.0;
26/02/2025 15:11:46;100;0;136.47;-4;-18.84;-4.01;807.4;11.40;75348;2837.905;-1802.037;1;135;-110;-111.3;44.8;44.8;16;15.3;26.0;0.0;
26/02/2025 15:12:06;100;0;138.40;-4;-21.77;-4.34;810.1;11.40;75345;2837.903;-1802.035;1;135;-110;-111.3;44.8;45.1;16;15.3;26.0;0.0;
26/02/2025 15:12:26;100;0;135.06;-4;-21.06;-4.10;812.8;11.30;75338;2837.901;-1802.033;1;135;-110;-114.5;44.8;45.1;16;15.8;26.0;0.0;
26/02/2025 15:12:46;100;0;131.84;-4;-21.16;-3.97;815.6;11.30;75329;2837.900;-1802.031;1;135;-110;-112.9;44.8;45.1;16;15.8;26.0;0.0;
26/02/2025 15:13:06;100;0;128.20;-4;-21.46;-4.03;818.8;11.30;75324;2837.898;-1802.028;1;135;-110;-112.9;44.8;45.1;14;14.0;26.0;0.0;
26/02/2025 15:13:26;100;0;127.47;-4;-20.91;-4.69;821.6;11.30;75317;2837.897;-1802.026;1;135;-110;-112.9;44.8;45.1;12;12.2;26.0;0.0;
26/02/2025 15:13:46;100;0;127.70;-4;-20.77;-5.49;824.7;11.20;75320;2837.896;-1802.023;1;135;-110;-112.9;44.8;45.1;12;12.2;26.0;0.0;
26/02/2025 15:14:06;100;0;127.99;-4;-21.79;-5.71;827.4;11.20;75314;2837.894;-1802.021;1;135;-110;-114.5;44.8;45.1;12;12.2;26.0;0.0;
26/02/2025 15:14:26;100;0;127.72;-4;-21.01;-5.65;830.5;11.20;75314;2837.893;-1802.018;1;135;-110;-112.9;44.8;45.1;12;12.2;26.0;0.0;
26/02/2025 15:14:46;100;0;129.64;-4;-20.84;-5.48;833.6;11.20;75316;2837.891;-1802.015;1;135;-110;-112.9;44.8;45.1;14;14.0;26.0;0.0;
26/02/2025 15:15:06;100;0;128.39;-4;-21.19;-4.42;836.6;11.20;75311;2837.890;-1802.013;1;135;-110;-112.9;44.8;45.1;14;14.4;26.0;0.0;
26/02/2025 15:15:26;100;0;127.40;-4;-21.47;-4.55;839.4;11.10;75310;2837.889;-1802.010;1;135;-110;-112.9;44.8;45.2;12;12.2;26.0;0.0;
26/02/2025 15:15:46;100;0;130.13;-4;-21.19;-5.55;842.4;11.10;75314;2837.887;-1802.008;1;135;-110;-112.9;44.8;44.9;14;14.0;26.0;0.0;
26/02/2025 15:16:06;100;0;130.25;-4;-21.14;-4.58;845.3;11.10;75304;2837.886;-1802.005;1;135;-110;-112.9;44.8;45.1;14;14.0;26.0;0.0;
26/02/2025 15:16:26;100;0;129.29;-4;-21.14;-4.48;848.2;11.10;75302;2837.884;-1802.003;1;135;-110;-111.3;44.8;45.1;14;14.0;26.0;0.0;
26/02/2025 15:16:46;100;0;128.65;-4;-21.25;-4.42;851.1;11.10;75314;2837.883;-1802.000;1;135;-110;-111.3;44.8;45.1;14;14.4;26.0;0.0;
26/02/2025 15:17:06;100;0;125.52;-4;-21.02;-4.57;853.8;11.00;75298;2837.882;-1801.998;1;135;-110;-112.9;44.8;45.1;10;9.9;26.0;0.0;
26/02/2025 15:17:26;100;0;125.52;-4;-20.76;-6.72;856.6;11.00;75304;2837.880;-1801.996;1;135;-110;-112.9;44.8;45.1;10;9.9;26.0;0.0;
26/02/2025 15:17:46;100;0;126.73;-4;-20.70;-6.71;859.4;11.00;75302;2837.879;-1801.993;1;135;-110;-112.9;44.8;45.1;10;9.9;26.0;0.0;
26/02/2025 15:18:06;100;0;127.81;-4;-20.82;-6.78;862.2;11.00;75306;2837.878;-1801.991;1;135;-110;-111.3;44.8;45.1;12;12.2;26.0;0.0;
26/02/2025 15:18:26;100;0;126.72;-4;-20.72;-5.52;864.9;11.00;75293;2837.877;-1801.988;1;135;-110;-112.9;44.8;45.1;12;12.2;26.0;0.0;
26/02/2025 15:18:46;100;0;127.08;-4;-20.77;-5.46;867.6;11.00;75307;2837.876;-1801.986;1;135;-110;-112.9;44.8;45.1;12;12.2;26.0;0.0;
26/02/2025 15:19:06;100;0;127.19;-4;-20.75;-5.49;870.3;10.90;75303;2837.874;-1801.984;1;135;-110;-112.9;44.8;45.1;12;12.6;26.0;0.0;
26/02/2025 15:19:26;100;0;126.67;-4;-20.51;-5.50;873.0;10.90;75282;2837.873;-1801.981;1;135;-110;-111.3;44.8;45.1;12;12.2;26.0;0.0;
26/02/2025 15:19:46;100;0;126.00;-4;-20.67;-5.48;875.7;10.90;75275;2837.872;-1801.979;1;135;-110;-111.3;44.8;45.1;10;9.5;26.0;0.0;
26/02/2025 15:20:06;100;0;128.50;-4;-20.27;-6.93;878.5;10.90;75278;2837.871;-1801.976;1;135;-110;-112.9;44.8;44.9;13;13.1;26.0;0.0;
26/02/2025 15:20:26;100;0;133.03;-4;-20.90;-4.91;881.0;10.90;75263;2837.870;-1801.975;1;135;-110;-111.3;44.8;45.1;15;14.9;26.0;0.0;
26/02/2025 15:20:46;100;0;134.88;-4;-20.74;-4.04;883.6;10.80;75264;2837.868;-1801.973;1;135;-110;-112.9;44.8;45.1;15;15.3;26.0;0.0;
26/02/2025 15:21:06;100;0;134.92;-4;-20.92;-4.08;886.4;10.80;75246;2837.866;-1801.971;1;135;-110;-111.3;44.8;45.1;15;15.3;26.0;0.0;
26/02/2025 15:21:26;100;0;135.75;-4;-20.90;-3.99;889.2;10.80;75239;2837.865;-1801.968;1;135;-110;-112.9;44.8;45.1;15;15.3;26.0;0.0;
26/02/2025 15:21:46;100;0;139.00;-4;-20.81;-4.25;891.9;10.80;75236;2837.863;-1801.967;1;135;-110;-112.9;44.8;45.1;15;15.3;26.0;0.0;
26/02/2025 15:22:06;100;0;140.19;-4;-21.02;-4.01;894.4;10.80;75238;2837.862;-1801.965;1;135;-110;-111.3;44.8;45.1;15;15.3;26.0;0.0;
26/02/2025 15:22:26;100;0;140.42;-4;-20.80;-4.08;897.2;10.70;75228;2837.860;-1801.963;1;135;-110;-112.9;44.8;45.2;15;15.3;26.0;0.0;
26/02/2025 15:22:46;100;0;139.65;-4;-20.60;-4.09;899.8;10.70;75213;2837.858;-1801.962;1;135;-110;-112.9;44.8;45.1;15;15.3;26.0;0.0;
26/02/2025 15:23:06;100;0;138.54;-4;-20.50;-4.16;902.5;10.70;75226;2837.856;-1801.960;1;135;-110;-111.3;44.8;45.1;15;15.3;26.0;0.0;
26/02/2025 15:23:26;100;0;138.33;-4;-20.40;-4.10;905.1;10.70;75210;2837.855;-1801.958;1;135;-110;-112.9;44.8;45.1;15;15.3;26.0;0.0;
26/02/2025 15:23:46;100;0;138.36;-4;-20.42;-4.17;907.7;10.60;75210;2837.853;-1801.956;1;135;-110;-112.9;44.8;45.1;15;15.3;26.0;0.0;
26/02/2025 15:24:06;100;0;139.69;-4;-20.53;-4.10;910.2;10.60;75210;2837.852;-1801.954;1;135;-110;-111.3;44.8;45.1;15;15.3;26.0;0.0;
26/02/2025 15:24:26;100;0;139.86;-4;-20.41;-4.09;912.7;10.60;75207;2837.850;-1801.953;1;135;-110;-112.9;44.8;45.1;15;14.9;26.0;0.0;
26/02/2025 15:24:46;100;0;137.81;-4;-20.21;-4.12;915.1;10.60;75211;2837.848;-1801.951;1;135;-110;-111.3;44.8;45.1;15;15.3;26.0;0.0;
26/02/2025 15:25:06;100;0;138.58;-4;-20.59;-4.06;917.6;10.60;75195;2837.847;-1801.949;1;135;-110;-112.9;44.8;45.1;15;15.3;26.0;0.0;
26/02/2025 15:25:26;100;0;139.28;-4;-20.67;-4.06;920.2;10.60;75193;2837.845;-1801.948;1;135;-110;-111.3;44.8;45.1;15;15.3;26.0;0.0;
26/02/2025 15:25:46;100;0;141.04;-4;-20.61;-4.06;922.8;10.50;75194;2837.844;-1801.946;1;135;-110;-111.3;44.8;45.1;15;15.3;26.0;0.0;
26/02/2025 15:26:06;100;0;142.85;-4;-20.65;-4.09;925.3;10.50;75188;2837.842;-1801.945;1;135;-110;-112.9;44.8;45.1;15;15.3;26.0;0.0;
26/02/2025 15:26:26;100;0;144.09;-4;-20.59;-4.06;927.9;10.50;75193;2837.840;-1801.943;1;135;-110;-111.3;44.8;45.1;15;15.3;26.0;0.0;
26/02/2025 15:26:46;100;0;143.95;-4;-20.52;-4.09;930.5;10.50;75179;2837.839;-1801.942;1;135;-110;-112.9;44.8;45.1;15;15.3;26.0;0.0;
26/02/2025 15:27:06;100;0;143.81;-4;-20.45;-4.13;932.9;10.50;75181;2837.837;-1801.940;1;135;-110;-111.3;44.8;45.1;15;15.3;26.0;0.0;
26/02/2025 15:27:26;100;0;143.23;-4;-20.66;-4.01;935.4;10.50;75174;2837.835;-1801.939;1;135;-110;-111.3;44.8;45.1;15;15.3;26.0;0.0;
26/02/2025 15:27:46;100;0;141.28;-4;-20.54;-4.21;937.8;10.40;75169;2837.834;-1801.938;1;135;-110;-111.3;44.8;45.1;15;15.3;26.0;0.0;
26/02/2025 15:28:06;100;0;140.37;-4;-20.04;-4.02;940.2;10.40;75179;2837.832;-1801.936;1;135;-110;-111.3;44.8;45.1;15;15.3;26.0;0.0;
26/02/2025 15:28:26;100;0;140.24;-4;-20.39;-4.09;942.5;10.40;75172;2837.831;-1801.935;1;135;-110;-111.3;44.8;45.1;15;15.3;26.0;0.0;
26/02/2025 15:28:46;100;0;140.48;-4;-20.60;-4.07;944.9;10.40;75162;2837.829;-1801.933;1;135;-110;-111.3;44.8;45.1;15;15.3;26.0;0.0;
26/02/2025 15:29:06;100;0;140.52;-4;-20.68;-4.12;947.4;10.40;75168;2837.828;-1801.932;1;135;-110;-112.9;44.8;45.1;15;15.3;26.0;0.0;
26/02/2025 15:29:26;100;0;139.63;-4;-20.84;-4.13;949.9;10.30;75159;2837.826;-1801.930;1;135;-110;-111.3;44.8;45.2;15;15.3;26.0;0.0;
26/02/2025 15:29:46;100;0;139.82;-4;-20.73;-4.05;952.3;10.30;75167;2837.825;-1801.929;1;135;-110;-112.9;44.8;45.1;15;15.3;26.0;0.0;
26/02/2025 15:30:06;100;0;140.68;-4;-20.77;-4.09;954.6;10.30;75155;2837.824;-1801.927;1;135;-110;-111.3;44.8;45.1;15;15.3;26.0;0.0;
26/02/2025 15:30:26;100;0;140.49;-4;-20.27;-4.07;957.1;10.30;75153;2837.822;-1801.926;1;135;-110;-111.3;44.8;45.1;15;15.3;26.0;0.0;
26/02/2025 15:30:46;100;0;141.41;-4;-20.32;-4.09;959.4;10.30;75159;2837.821;-1801.924;1;135;-110;-111.3;44.8;45.1;15;15.3;26.0;0.0;
26/02/2025 15:31:06;100;0;141.82;-4;-20.71;-4.18;961.7;10.30;75146;2837.819;-1801.923;1;135;-110;-112.9;44.8;45.1;15;15.3;26.0;0.0;
26/02/2025 15:31:26;100;0;142.38;-4;-20.41;-4.06;964.0;10.20;75145;2837.818;-1801.921;1;135;-110;-111.3;44.8;45.1;15;15.3;26.0;0.0;
26/02/2025 15:31:46;100;0;144.71;-4;-20.56;-4.08;966.4;10.20;75151;2837.816;-1801.920;1;135;-110;-112.9;44.8;45.1;15;15.3;26.0;0.0;
26/02/2025 15:32:06;100;0;145.76;-4;-20.89;-4.09;968.9;10.20;75151;2837.814;-1801.919;1;135;-110;-111.3;44.8;45.2;17;17.1;26.0;0.0;
26/02/2025 15:32:26;100;0;149.22;-4;-20.73;-2.96;971.2;10.20;75141;2837.813;-1801.918;1;135;-110;-111.3;44.8;45.1;20;19.9;26.0;0.0;
26/02/2025 15:32:46;100;0;148.02;-4;-21.26;-1.49;973.6;10.20;75128;2837.811;-1801.917;1;135;-110;-112.9;44.8;45.1;20;20.3;26.0;0.0;
26/02/2025 15:33:06;100;0;147.45;-4;-20.46;-1.65;975.9;10.20;75139;2837.809;-1801.916;1;135;-110;-111.3;44.8;45.1;18;18.1;26.0;0.0;
26/02/2025 15:33:26;100;0;148.61;-4;-20.39;-2.91;978.3;10.10;75131;2837.808;-1801.915;1;135;-110;-109.7;44.8;45.1;18;17.6;26.0;0.0;
26/02/2025 15:33:46;100;0;147.31;-4;-20.46;-2.70;980.6;10.10;75125;2837.806;-1801.914;1;135;-110;-111.3;44.8;45.1;18;17.6;26.0;0.0;
26/02/2025 15:34:06;100;0;145.33;-4;-20.51;-2.83;982.8;10.10;75121;2837.805;-1801.912;1;135;-110;-112.9;44.8;45.1;18;17.6;26.0;0.0;
26/02/2025 15:34:26;100;0;144.35;-4;-20.43;-2.84;985.3;10.10;75125;2837.803;-1801.911;1;135;-110;-112.9;44.8;45.1;18;17.6;26.0;0.0;
26/02/2025 15:34:46;100;0;141.67;-4;-19.83;-2.88;987.5;10.10;75120;2837.801;-1801.910;1;135;-110;-111.3;44.8;45.1;16;15.8;26.0;0.0;
26/02/2025 15:35:06;100;0;140.48;-4;-20.43;-3.97;989.6;10.10;75115;2837.800;-1801.908;1;135;-110;-112.9;44.8;45.1;16;15.8;26.0;0.0;
26/02/2025 15:35:26;100;0;139.31;-4;-20.53;-4.00;992.0;10.10;75115;2837.799;-1801.907;1;135;-110;-111.3;44.8;45.1;16;15.8;26.0;0.0;
26/02/2025 15:35:46;100;0;138.35;-4;-20.32;-3.94;994.2;10.00;75108;2837.797;-1801.905;1;135;-110;-111.3;44.8;45.1;16;15.8;26.0;0.0;
26/02/2025 15:36:06;100;0;137.06;-4;-20.04;-3.83;996.6;10.00;75114;2837.796;-1801.904;1;135;-110;-112.9;44.8;45.2;16;15.8;26.0;0.0;
26/02/2025 15:36:26;100;0;137.49;-4;-20.83;-3.92;998.8;10.00;75115;2837.795;-1801.902;1;135;-110;-111.3;44.8;45.1;16;15.8;26.0;0.0;
26/02/2025 15:36:29;118;0;137.34;-4;-20.62;-3.75;999.1;10.00;75112;2837.795;-1801.902;1;135;450;-108.1;21.6;21.6;6;5.4;26.0;0.0;
26/02/2025 15:36:39;118;0;114.15;-4;-5.47;-9.87;1000.1;10.00;75094;2837.795;-1801.901;1;135;450;21.0;21.6;21.5;6;5.4;24.6;-1.0;
26/02/2025 15:36:49;118;0;95.68;-4;22.39;-9.91;1000.0;10.00;74827;2837.795;-1801.901;1;135;450;143.5;21.6;21.6;6;5.4;24.4;-1.0;
26/02/2025 15:36:59;118;0;91.89;-4;29.95;-9.89;999.0;10.00;74584;2837.795;-1801.901;1;135;450;266.1;21.6;21.8;6;5.4;24.5;-1.0;
26/02/2025 15:37:09;118;0;92.23;-4;28.69;-9.67;997.8;10.00;74334;2837.796;-1801.900;1;135;450;388.7;21.6;21.8;6;5.4;24.4;-1.0;
26/02/2025 15:37:19;118;0;92.37;-4;26.53;-9.00;996.1;10.00;74079;2837.796;-1801.898;1;135;450;453.2;21.6;21.8;6;5.4;24.6;-1.0;
26/02/2025 15:37:29;118;0;136.32;-4;23.53;-8.70;994.3;10.00;73955;2837.795;-1801.897;1;135;450;453.2;21.6;21.6;6;5.4;25.9;-1.0;
26/02/2025 15:37:49;117;0;128.37;-4;20.72;-8.84;990.7;10.10;73957;2837.793;-1801.894;1;135;450;453.2;21.6;21.8;6;5.4;26.0;-1.0;
26/02/2025 15:38:09;117;0;120.26;-4;19.44;-8.75;986.9;10.10;73958;2837.791;-1801.890;1;135;450;454.8;21.6;21.8;40;40.2;25.9;-1.0;
26/02/2025 15:38:29;117;0;124.08;-4;21.58;9.35;983.6;10.20;73954;2837.790;-1801.887;1;135;450;451.6;21.6;21.6;34;33.8;26.0;-1.0;
26/02/2025 15:38:49;117;0;127.57;-4;22.54;6.45;979.8;10.20;73950;2837.788;-1801.883;1;135;450;453.2;22.4;22.5;31;31.1;26.0;-1.0;
26/02/2025 15:39:09;117;0;128.77;-4;21.51;4.48;976.2;10.20;73960;2837.786;-1801.880;1;135;450;453.2;22.4;22.5;31;30.7;26.0;-1.0;
26/02/2025 15:39:29;117;0;128.73;-4;20.62;4.39;972.6;10.20;73944;2837.784;-1801.877;1;135;450;451.6;22.4;22.5;31;30.7;26.0;-1.0;
26/02/2025 15:39:49;117;0;129.09;-4;20.56;4.68;969.2;10.20;73949;2837.783;-1801.874;1;135;450;453.2;22.4;22.5;31;30.7;26.0;-1.0;
26/02/2025 15:40:09;117;0;129.90;-4;20.92;4.41;965.9;10.20;73944;2837.781;-1801.871;1;135;450;453.2;22.4;22.5;31;30.7;26.0;-1.0;
26/02/2025 15:40:29;117;0;131.56;-4;21.42;4.43;962.6;10.20;73936;2837.779;-1801.868;1;135;450;451.6;22.4;22.5;29;28.9;26.0;-1.0;
26/02/2025 15:40:49;117;0;131.58;-4;21.10;3.42;959.1;10.10;73934;2837.777;-1801.865;1;135;450;453.2;22.4;22.5;29;28.9;26.0;-1.0;
26/02/2025 15:41:09;117;0;132.21;-4;20.95;3.27;955.7;10.10;73926;2837.775;-1801.863;1;135;450;451.6;22.4;22.7;29;28.9;26.0;-1.0;
26/02/2025 15:41:29;117;0;133.31;-4;20.80;3.40;952.1;10.10;73930;2837.773;-1801.860;1;135;450;451.6;22.4;22.5;29;28.9;26.0;-1.0;
26/02/2025 15:41:49;117;0;134.19;-4;20.56;3.28;948.5;10.10;73929;2837.771;-1801.857;1;135;450;451.6;22.4;22.5;29;28.9;26.0;-1.0;
26/02/2025 15:42:09;117;0;134.79;-4;20.70;3.40;945.3;10.10;73931;2837.769;-1801.854;1;135;450;453.2;22.4;22.5;29;28.9;26.0;-1.0;
26/02/2025 15:42:29;117;0;135.53;-4;20.77;3.41;941.8;10.10;73927;2837.766;-1801.851;1;135;450;453.2;22.4;22.5;29;28.9;26.0;-1.0;
26/02/2025 15:42:49;117;0;136.49;-4;20.83;3.43;938.3;10.10;73938;2837.764;-1801.849;1;135;450;453.2;22.4;22.5;29;28.9;26.0;-1.0;
26/02/2025 15:43:09;117;0;137.63;-4;20.83;3.41;934.7;10.00;73911;2837.762;-1801.846;1;135;450;451.6;22.4;22.5;29;28.9;26.0;-1.0;
26/02/2025 15:43:29;117;0;138.45;-4;20.74;3.45;931.3;10.00;73909;2837.759;-1801.843;1;135;450;453.2;22.4;22.5;29;28.9;26.0;-1.0;
26/02/2025 15:43:49;117;0;138.69;-4;20.86;3.43;927.7;10.00;73909;2837.757;-1801.841;1;135;450;453.2;22.4;22.5;29;28.9;26.0;-1.0;
26/02/2025 15:44:09;117;0;138.02;-4;20.66;3.45;924.1;10.00;73909;2837.754;-1801.838;1;135;450;453.2;22.4;22.7;29;28.4;26.0;-1.0;
26/02/2025 15:44:29;117;0;138.10;-4;20.28;3.36;920.6;10.00;73906;2837.752;-1801.835;1;135;450;453.2;22.4;22.5;29;28.9;26.0;-1.0;
26/02/2025 15:44:49;117;0;138.42;-4;20.72;3.51;917.4;10.00;73896;2837.750;-1801.833;1;135;450;451.6;22.4;22.5;29;28.9;26.0;-1.0;
26/02/2025 15:45:10;117;0;138.72;-4;20.92;3.32;913.7;10.00;73899;2837.747;-1801.830;1;135;450;453.2;22.4;22.5;29;28.9;26.0;-1.0;
26/02/2025 15:45:30;117;0;138.58;-4;20.78;3.41;910.2;10.00;73907;2837.745;-1801.828;1;135;450;450.0;22.4;22.5;29;28.9;26.0;-1.0;
26/02/2025 15:45:50;117;0;138.87;-4;20.65;3.45;906.6;9.90;73891;2837.742;-1801.825;1;135;450;453.2;22.4;22.5;29;28.9;26.0;-1.0;
26/02/2025 15:46:10;117;0;138.50;-4;20.56;3.43;903.0;9.90;73880;2837.740;-1801.822;1;135;450;453.2;22.4;22.5;29;28.9;26.0;-1.0;
26/02/2025 15:46:30;117;0;140.63;-4;20.80;3.46;899.3;9.90;73877;2837.737;-1801.820;1;135;450;453.2;22.4;22.5;29;28.9;26.0;-1.0;
26/02/2025 15:46:50;117;0;141.34;-4;20.72;3.50;895.8;9.90;73885;2837.734;-1801.817;1;135;450;453.2;22.4;22.5;29;28.4;26.0;-1.0;
26/02/2025 15:47:10;117;0;142.43;-4;20.64;3.50;892.1;9.90;73894;2837.732;-1801.815;1;135;450;453.2;22.4;22.5;29;28.9;26.0;-1.0;
26/02/2025 15:47:30;117;0;140.80;-4;20.50;3.48;888.5;9.90;73894;2837.729;-1801.812;1;135;450;451.6;22.4;22.7;29;28.9;26.0;-1.0;
26/02/2025 15:47:50;117;0;139.86;-4;20.38;3.40;884.9;9.90;73891;2837.726;-1801.810;1;135;450;453.2;22.4;22.5;29;28.9;26.0;-1.0;
26/02/2025 15:48:10;117;0;141.36;-4;20.43;3.25;881.3;9.90;73885;2837.724;-1801.807;1;135;450;453.2;22.4;22.5;29;28.9;26.0;-1.0;
26/02/2025 15:48:30;117;0;142.65;-4;20.72;3.40;877.8;9.90;73896;2837.721;-1801.805;1;135;450;450.0;22.4;22.5;29;28.9;26.0;-1.0;
26/02/2025 15:48:50;117;0;143.53;-4;20.71;3.44;874.3;9.90;73889;2837.718;-1801.803;1;135;450;451.6;22.4;22.5;27;27.1;26.0;-1.0;
26/02/2025 15:49:10;117;0;144.54;-4;20.65;2.39;870.6;9.80;73898;2837.715;-1801.800;1;135;450;453.2;22.4;22.5;27;26.6;26.0;-1.0;
26/02/2025 15:49:30;117;0;145.11;-4;20.51;2.40;867.0;9.80;73890;2837.713;-1801.798;1;135;450;451.6;22.4;22.5;27;27.1;26.0;-1.0;
26/02/2025 15:49:50;117;0;146.07;-4;20.52;2.40;863.4;9.90;73897;2837.710;-1801.796;1;135;450;453.2;22.4;22.5;27;27.1;26.0;-1.0;
26/02/2025 15:50:10;117;0;147.06;-4;20.46;2.32;859.7;9.80;73901;2837.707;-1801.794;1;135;450;453.2;22.4;22.5;25;24.8;26.0;-1.0;
26/02/2025 15:50:30;117;0;146.89;-4;20.32;1.09;856.1;9.90;73908;2837.704;-1801.792;1;135;450;453.2;22.4;22.5;25;24.4;26.0;-1.0;
26/02/2025 15:50:50;117;0;145.84;-4;20.40;1.15;852.7;9.80;73903;2837.701;-1801.789;1;135;450;453.2;22.4;22.5;25;24.4;26.0;-1.0;
26/02/2025 15:51:10;117;0;144.34;-4;20.37;1.09;849.1;9.80;73915;2837.698;-1801.787;1;135;450;453.2;22.4;22.7;27;27.1;26.0;-1.0;
26/02/2025 15:51:30;117;0;144.65;-4;20.33;2.71;845.6;9.80;73907;2837.695;-1801.785;1;135;450;453.2;22.4;22.5;27;27.1;26.0;-1.0;
26/02/2025 15:51:50;117;0;144.65;-4;20.22;2.50;842.1;9.80;73896;2837.692;-1801.783;1;135;450;453.2;22.4;22.7;27;27.1;26.0;-1.0;
26/02/2025 15:52:10;117;0;145.36;-4;20.70;2.66;838.7;9.80;73904;2837.690;-1801.781;1;135;450;450.0;22.4;22.5;27;27.1;26.0;-1.0;
26/02/2025 15:52:30;117;0;145.09;-4;20.12;2.59;835.1;9.80;73897;2837.687;-1801.778;1;135;450;453.2;22.4;22.5;27;27.1;26.0;-1.0;
26/02/2025 15:52:50;117;0;145.35;-4;20.51;2.64;831.7;9.80;73893;2837.684;-1801.776;1;135;450;453.2;22.4;22.5;27;27.1;26.0;-1.0;
26/02/2025 15:53:10;117;0;145.91;-4;20.35;2.91;828.1;9.80;73897;2837.681;-1801.774;1;135;450;453.2;22.4;22.5;27;27.1;26.0;-1.0;
26/02/2025 15:53:30;117;0;146.40;-4;20.16;2.54;824.7;9.80;73897;2837.678;-1801.772;1;135;450;453.2;22.4;22.7;25;24.8;26.0;-1.0;
26/02/2025 15:53:50;117;0;148.29;-4;20.53;1.05;821.4;9.80;73881;2837.676;-1801.770;1;135;450;451.6;22.4;22.7;25;24.4;26.0;-1.0;
26/02/2025 15:54:10;117;0;147.34;-4;20.05;1.37;818.1;9.80;73890;2837.673;-1801.768;1;135;450;453.2;22.4;22.5;25;24.4;26.0;-1.0;
26/02/2025 15:54:30;117;0;146.42;-4;19.74;1.18;814.8;9.80;73884;2837.670;-1801.766;1;135;450;453.2;22.4;22.5;25;24.4;26.0;-1.0;
26/02/2025 15:54:50;117;0;146.93;-4;20.04;1.07;811.7;9.80;73887;2837.668;-1801.764;1;135;450;453.2;22.4;22.5;25;24.4;26.0;-1.0;
26/02/2025 15:55:10;117;0;146.80;-4;19.96;1.06;808.2;9.80;73890;2837.665;-1801.762;1;135;450;454.8;22.4;22.5;25;24.4;26.0;-1.0;
26/02/2025 15:55:30;117;0;145.97;-4;19.86;1.00;805.0;9.80;73890;2837.662;-1801.760;1;135;450;453.2;22.4;22.5;25;23.9;26.0;-1.0;
