Timestamp;NavState;SecurityLevel;Heading;Declination;Pitch;Roll;Depth;Temperature;Pa;Lat;Lon;DeadReckoning;DesiredH;BallastCmd;BallastPos;LinCmd;LinPos;AngCmd;AngPos;Voltage;Altitude;
28/02/2025 21:25:51;119;0;345.65;-4;-39.99;-3.11;0.1;16.60;75550;2836.389;-1800.674;0;321;500;506.5;100.0;100.4;0;-0.5;25.6;-1.0;
28/02/2025 21:26:01;116;0;355.26;-4;-50.24;-9.06;0.1;16.70;75548;2836.396;-1800.676;0;321;500;506.5;100.0;100.4;0;-0.5;25.5;-1.0;
28/02/2025 21:26:30;116;0;346.36;-4;-40.06;-8.54;0.3;16.80;75563;2836.397;-1800.680;0;321;500;508.1;100.0;100.6;0;-0.5;25.5;-1.0;
28/02/2025 21:26:48;116;0;334.67;-4;-47.36;-8.73;0.3;16.80;75568;2836.396;-1800.681;0;321;500;506.5;100.0;100.4;0;-0.5;25.5;-1.0;
28/02/2025 21:27:08;116;0;341.45;-4;-46.24;-16.93;0.3;16.90;75568;2836.392;-1800.689;0;324;500;508.1;100.0;100.4;0;-0.5;25.5;-1.0;
28/02/2025 21:27:20;116;0;344.79;-4;-39.24;-20.74;0.2;16.90;75580;2836.395;-1800.690;0;324;500;506.5;100.0;100.6;0;-0.5;25.5;-1.0;
28/02/2025 21:28:22;116;0;21.11;-4;-69.34;-46.20;0.3;17.10;75601;2836.410;-1800.697;0;324;500;508.1;100.0;100.4;0;-0.5;25.5;-1.0;
28/02/2025 21:28:57;116;0;339.08;-4;-43.98;-13.42;-0.0;17.30;75627;2836.410;-1800.705;0;324;500;508.1;100.0;100.4;0;-0.5;25.5;-1.0;
28/02/2025 21:29:47;116;0;330.62;-4;-48.81;-15.80;0.2;17.50;75630;2836.421;-1800.712;0;324;500;506.5;100.0;100.6;0;-0.5;25.5;-1.0;
28/02/2025 21:30:00;116;0;343.84;-4;-40.02;-21.31;0.2;17.50;75639;2836.424;-1800.714;0;324;500;506.5;100.0;100.6;0;-0.5;25.5;-1.0;
28/02/2025 21:30:13;116;0;356.21;-4;-50.19;-8.07;0.2;17.60;75648;2836.427;-1800.716;0;324;500;506.5;100.0;100.4;0;-0.5;25.5;-1.0;
28/02/2025 21:30:33;116;0;356.35;-4;-39.53;-19.28;0.1;17.70;75646;2836.431;-1800.720;0;324;500;508.1;100.0;100.6;0;-0.5;25.5;-1.0;
28/02/2025 21:30:53;116;0;331.29;-4;-42.91;-8.02;-0.1;17.80;75663;2836.435;-1800.722;0;324;500;508.1;100.0;100.4;0;-0.5;25.5;-1.0;
28/02/2025 21:31:04;116;0;318.17;-4;-64.01;-9.97;0.1;17.80;75664;2836.436;-1800.724;0;324;500;504.8;100.0;100.6;0;-0.5;25.5;-1.0;
28/02/2025 21:31:24;116;0;329.04;-4;-54.27;-16.03;0.2;17.90;75664;2836.440;-1800.729;0;324;500;508.1;100.0;100.6;0;-0.5;25.5;-1.0;
28/02/2025 21:31:44;116;0;332.19;-4;-51.54;-12.23;-0.0;18.00;75670;2836.442;-1800.732;0;324;500;508.1;100.0;100.4;0;-0.5;25.5;-1.0;
28/02/2025 21:32:04;116;0;342.55;-4;-48.56;-17.91;0.1;18.00;75681;2836.446;-1800.736;0;324;500;508.1;100.0;100.6;0;-0.5;25.5;-1.0;
28/02/2025 21:32:15;116;0;320.39;-4;-55.23;-19.61;0.3;18.10;75676;2836.448;-1800.738;0;324;500;508.1;100.0;100.4;0;-0.5;25.5;-1.0;
28/02/2025 21:32:35;116;0;339.93;-4;-55.42;-22.03;0.0;18.20;75685;2836.454;-1800.742;0;324;500;508.1;100.0;100.6;0;-0.5;25.5;-1.0;
28/02/2025 21:32:47;116;0;341.59;-4;-57.62;-10.80;0.1;18.20;75690;2836.455;-1800.743;0;324;500;508.1;100.0;100.6;0;-0.5;25.5;-1.0;
28/02/2025 21:33:07;116;0;331.93;-4;-53.42;-5.71;0.1;18.30;75710;2836.459;-1800.747;0;324;500;508.1;100.0;100.6;0;-0.5;25.5;-1.0;
28/02/2025 21:33:27;116;0;326.75;-4;-61.57;10.21;0.1;18.30;75702;2836.463;-1800.748;0;324;500;508.1;100.0;100.4;0;-0.5;25.5;-1.0;
28/02/2025 21:33:47;116;0;327.84;-4;-49.43;-14.25;0.2;18.40;75707;2836.467;-1800.751;0;324;500;508.1;100.0;100.6;0;-0.5;25.5;-1.0;
28/02/2025 21:34:07;116;0;344.05;-4;-46.03;-15.93;0.1;18.50;75715;2836.469;-1800.757;0;324;500;506.5;100.0;100.6;0;-0.5;25.5;-1.0;
28/02/2025 21:34:27;116;0;335.68;-4;-58.74;1.45;0.1;18.50;75720;2836.472;-1800.760;0;324;500;504.8;100.0;100.6;0;-0.5;25.5;-1.0;
28/02/2025 21:34:47;116;0;337.49;-4;-49.96;-15.25;0.2;18.60;75726;2836.479;-1800.765;0;324;500;508.1;100.0;100.7;0;-0.5;25.5;-1.0;
28/02/2025 21:35:07;116;0;0.05;-4;-50.36;-13.10;0.2;18.60;75717;2836.481;-1800.767;0;324;500;508.1;100.0;100.6;0;-0.5;25.5;-1.0;
28/02/2025 21:35:18;116;0;5.26;-4;-56.09;-11.69;0.1;18.70;75724;2836.484;-1800.768;0;324;500;508.1;100.0;100.6;0;-0.5;25.5;-1.0;
28/02/2025 21:35:38;116;0;344.38;-4;-41.82;-19.64;0.3;18.70;75740;2836.488;-1800.770;0;324;500;508.1;100.0;100.6;0;-0.5;25.3;-1.0;
28/02/2025 21:35:58;116;0;332.13;-4;-51.70;-5.80;-0.0;18.80;75752;2836.490;-1800.774;0;324;500;508.1;100.0;100.6;0;-0.5;25.5;-1.0;
28/02/2025 21:36:09;116;0;358.68;-4;-54.04;-22.10;0.0;18.80;75746;2836.491;-1800.776;0;324;500;508.1;100.0;100.6;0;-0.5;25.5;-1.0;
28/02/2025 21:36:29;116;0;334.12;-4;-45.71;-16.15;0.1;18.90;75751;2836.494;-1800.779;0;324;500;508.1;100.0;100.6;0;-0.5;25.5;-1.0;
28/02/2025 21:36:49;116;0;330.01;-4;-45.54;-11.78;0.1;19.00;75750;2836.498;-1800.782;0;324;500;508.1;100.0;100.6;0;-0.5;25.5;-1.0;
28/02/2025 21:37:00;116;0;335.23;-4;-60.66;-27.56;0.2;19.00;75757;2836.500;-1800.784;0;324;500;506.5;100.0;100.4;0;-0.5;25.5;-1.0;
28/02/2025 21:37:20;116;0;332.31;-4;-39.02;-10.79;-0.0;19.00;75760;2836.503;-1800.787;0;324;500;506.5;100.0;100.6;0;-0.5;25.5;-1.0;
28/02/2025 21:37:40;116;0;324.13;-4;-55.05;-10.76;0.1;19.10;75763;2836.508;-1800.789;0;324;500;508.1;100.0;100.6;0;-0.5;25.5;-1.0;
28/02/2025 21:38:00;116;0;301.25;-4;-52.98;-11.52;0.1;19.10;75780;2836.511;-1800.791;0;324;500;506.5;100.0;100.6;0;-0.5;25.6;-1.0;
28/02/2025 21:38:11;116;0;281.35;-4;-54.30;-16.27;0.3;19.10;75771;2836.513;-1800.793;0;324;500;508.1;100.0;100.6;0;-0.5;25.5;-1.0;
28/02/2025 21:38:31;116;0;307.41;-4;-52.87;-16.46;0.1;19.20;75771;2836.517;-1800.795;0;324;500;506.5;100.0;100.6;0;-0.5;25.5;-1.0;
28/02/2025 21:38:42;116;0;300.40;-4;-57.28;-1.42;0.1;19.20;75784;2836.519;-1800.798;0;324;500;508.1;100.0;100.6;0;-0.5;25.5;-1.0;
28/02/2025 21:39:02;116;0;320.50;-4;-62.27;2.13;0.1;19.30;75785;2836.523;-1800.802;0;324;500;508.1;100.0;100.6;0;-0.5;25.5;-1.0;
28/02/2025 21:39:22;116;0;332.87;-4;-43.76;-9.81;0.4;19.30;75795;2836.526;-1800.805;0;324;500;506.5;100.0;100.6;0;-0.5;25.5;-1.0;
28/02/2025 21:39:42;116;0;330.68;-4;-54.03;-0.60;0.1;19.40;75805;2836.529;-1800.808;0;324;500;508.1;100.0;100.6;0;-0.5;25.5;-1.0;
28/02/2025 21:40:02;116;0;337.63;-4;-46.33;-21.09;0.2;19.40;75805;2836.532;-1800.811;0;324;500;508.1;100.0;100.6;0;-0.5;25.5;-1.0;
28/02/2025 21:40:22;116;0;318.84;-4;-42.86;-16.40;0.1;19.50;75804;2836.536;-1800.813;0;324;500;508.1;100.0;100.6;0;-0.5;25.5;-1.0;
28/02/2025 21:40:42;116;0;344.16;-4;-43.46;-27.02;0.3;19.50;75805;2836.541;-1800.820;0;324;500;506.5;100.0;100.6;0;-0.5;25.5;-1.0;
28/02/2025 21:41:02;116;0;325.40;-4;-51.84;-7.92;0.1;19.50;75819;2836.543;-1800.822;0;324;500;508.1;100.0;100.6;0;0.0;25.5;-1.0;
28/02/2025 21:41:13;116;0;292.06;-4;-47.18;-13.10;-0.0;19.60;75818;2836.547;-1800.822;0;324;500;508.1;100.0;100.6;0;-0.5;25.5;-1.0;
28/02/2025 21:41:33;116;0;269.53;-4;-58.34;-39.72;0.0;19.60;75821;2836.551;-1800.825;0;324;500;508.1;100.0;100.6;0;-0.5;25.5;-1.0;
28/02/2025 21:41:53;116;0;322.85;-4;-45.03;-3.44;0.2;19.60;75823;2836.555;-1800.829;0;324;500;508.1;100.0;100.6;0;-0.5;25.5;-1.0;
28/02/2025 21:42:13;116;0;324.19;-4;-57.43;-6.10;0.1;19.70;75829;2836.560;-1800.832;0;324;500;508.1;100.0;100.6;0;-0.5;25.6;-1.0;
28/02/2025 21:42:24;116;0;352.13;-4;-45.41;-16.31;-0.0;19.70;75834;2836.560;-1800.834;0;324;500;508.1;100.0;100.6;0;-0.5;25.5;-1.0;
28/02/2025 21:42:44;116;0;358.54;-4;-54.74;-16.38;-0.1;19.70;75837;2836.565;-1800.837;0;324;500;506.5;100.0;100.6;0;-0.5;25.5;-1.0;
28/02/2025 21:43:04;116;0;349.68;-4;-54.16;-21.73;0.1;19.80;75843;2836.569;-1800.839;0;324;500;506.5;100.0;100.4;0;-0.5;25.5;-1.0;
28/02/2025 21:43:24;116;0;347.55;-4;-51.30;-13.74;-0.0;19.80;75845;2836.573;-1800.843;0;324;500;508.1;100.0;100.6;0;-0.5;25.5;-1.0;
28/02/2025 21:43:44;116;0;353.03;-4;-46.16;-9.25;-0.1;19.80;75849;2836.578;-1800.847;0;324;500;508.1;100.0;100.6;0;-0.5;25.5;-1.0;
28/02/2025 21:44:05;116;0;325.60;-4;-54.61;-4.92;0.1;19.90;75844;2836.581;-1800.849;0;324;500;508.1;100.0;100.6;0;-0.5;25.5;-1.0;
28/02/2025 21:44:25;116;0;342.02;-4;-48.46;-10.34;0.2;19.90;75854;2836.584;-1800.854;0;324;500;508.1;100.0;100.6;0;-0.5;25.5;-1.0;
28/02/2025 21:44:45;116;0;349.20;-4;-43.88;-7.99;-0.1;19.90;75856;2836.588;-1800.856;0;324;500;508.1;100.0;100.6;0;-0.5;25.5;-1.0;
28/02/2025 21:45:05;116;0;12.81;-4;-48.09;-16.94;-0.0;20.00;75859;2836.593;-1800.858;0;324;500;509.7;100.0;100.6;0;-0.5;25.5;-1.0;
28/02/2025 21:45:25;116;0;327.02;-4;-50.72;-16.04;0.1;20.00;75865;2836.596;-1800.862;0;324;500;508.1;100.0;100.6;0;-0.5;25.5;-1.0;
28/02/2025 21:45:45;116;0;20.30;-4;-56.99;-17.15;-0.0;20.00;75865;2836.601;-1800.865;0;324;500;508.1;100.0;100.6;0;-0.5;25.5;-1.0;
28/02/2025 21:46:05;116;0;10.68;-4;-51.07;-9.46;0.2;20.10;75861;2836.604;-1800.867;0;324;500;508.1;100.0;100.6;0;-0.5;25.5;-1.0;
28/02/2025 21:46:25;116;0;341.52;-4;-54.86;-8.53;0.1;20.10;75876;2836.608;-1800.870;0;324;500;504.8;100.0;100.6;0;-0.5;25.5;-1.0;
28/02/2025 21:46:45;116;0;355.79;-4;-56.23;-26.61;-0.0;20.10;75887;2836.611;-1800.875;0;324;500;508.1;100.0;100.6;0;-0.5;25.5;-1.0;
28/02/2025 21:47:05;116;0;352.66;-4;-49.24;-16.03;-0.0;20.20;75878;2836.615;-1800.876;0;324;500;508.1;100.0;100.6;0;-0.5;25.5;-1.0;
28/02/2025 21:47:25;116;0;350.46;-4;-53.17;-13.43;-0.0;20.20;75880;2836.619;-1800.881;0;324;500;508.1;100.0;100.6;0;-0.5;25.6;-1.0;
28/02/2025 21:47:45;116;0;331.60;-4;-56.29;-35.22;0.2;20.20;75881;2836.623;-1800.883;0;324;500;508.1;100.0;100.6;0;-0.5;25.5;-1.0;
28/02/2025 21:48:05;116;0;336.83;-4;-43.34;-7.38;-0.0;20.20;75893;2836.627;-1800.886;0;324;500;508.1;100.0;100.6;0;-0.5;25.5;-1.0;
28/02/2025 21:48:25;116;0;353.44;-4;-44.28;-13.47;0.0;20.30;75895;2836.632;-1800.889;0;324;500;508.1;100.0;100.6;0;-0.5;25.5;-1.0;
28/02/2025 21:48:45;116;0;354.55;-4;-49.81;-10.12;-0.0;20.30;75896;2836.635;-1800.893;0;324;500;506.5;100.0;100.6;0;-0.5;25.5;-1.0;
28/02/2025 21:49:05;116;0;11.06;-4;-49.54;-6.88;0.2;20.30;75901;2836.642;-1800.897;0;324;500;506.5;100.0;100.6;0;-0.5;25.5;-1.0;
28/02/2025 21:49:25;116;0;333.20;-4;-54.03;-6.03;0.2;20.30;75909;2836.645;-1800.898;0;324;500;508.1;100.0;100.6;0;-0.5;25.5;-1.0;
28/02/2025 21:49:45;116;0;3.46;-4;-43.49;1.73;0.2;20.40;75913;2836.647;-1800.902;0;324;500;508.1;100.0;100.6;0;-0.5;25.5;-1.0;
28/02/2025 21:50:05;116;0;352.32;-4;-56.81;-22.58;-0.0;20.40;75912;2836.653;-1800.904;0;324;500;508.1;100.0;100.6;0;-0.5;25.5;-1.0;
28/02/2025 21:50:25;116;0;349.02;-4;-49.67;-3.56;-0.0;20.40;75919;2836.655;-1800.907;0;324;500;506.5;100.0;100.6;0;-0.5;25.5;-1.0;
28/02/2025 21:50:45;116;0;0.87;-4;-46.38;-14.37;-0.1;20.40;75923;2836.660;-1800.909;0;324;500;508.1;100.0;100.6;0;-0.5;25.5;-1.0;
28/02/2025 21:51:05;116;0;330.79;-4;-45.85;-18.52;-0.0;20.50;75925;2836.664;-1800.913;0;324;500;508.1;100.0;100.6;0;-0.5;25.5;-1.0;
28/02/2025 21:51:25;116;0;327.99;-4;-40.85;-9.90;0.2;20.50;75924;2836.669;-1800.917;0;324;500;508.1;100.0;100.6;0;-0.5;25.5;-1.0;
28/02/2025 21:51:45;116;0;341.82;-4;-43.48;-2.66;0.2;20.50;75927;2836.672;-1800.920;0;324;500;506.5;100.0;100.6;0;-0.5;25.5;-1.0;
28/02/2025 21:52:05;116;0;354.14;-4;-42.42;-25.86;0.1;20.50;75931;2836.675;-1800.923;0;324;500;508.1;100.0;100.6;0;-0.5;25.5;-1.0;
28/02/2025 21:52:16;116;0;336.90;-4;-49.21;-3.71;0.1;20.50;75933;2836.679;-1800.925;0;324;500;508.1;100.0;100.6;0;-0.5;25.5;-1.0;
28/02/2025 21:52:36;116;0;332.91;-4;-49.12;-0.92;0.1;20.50;75938;2836.681;-1800.928;0;324;500;508.1;100.0;100.6;0;-0.5;25.5;-1.0;
28/02/2025 21:52:56;116;0;317.28;-4;-45.89;-13.96;0.1;20.60;75931;2836.687;-1800.930;0;324;500;506.5;100.0;100.6;0;-0.5;25.5;-1.0;
28/02/2025 21:53:10;116;0;316.83;-4;-57.55;-25.48;0.2;20.60;75936;2836.690;-1800.933;0;324;500;508.1;100.0;100.6;0;-0.5;25.5;-1.0;
28/02/2025 21:53:30;116;0;340.80;-4;-56.41;-13.84;0.2;20.60;75949;2836.695;-1800.936;0;324;500;506.5;100.0;100.6;0;-0.5;25.5;-1.0;
28/02/2025 21:53:50;116;0;335.25;-4;-50.85;-13.94;0.0;20.60;75945;2836.698;-1800.939;0;324;500;508.1;100.0;100.6;0;-0.5;25.5;-1.0;
28/02/2025 21:54:10;116;0;347.31;-4;-44.54;-5.00;0.0;20.60;75953;2836.703;-1800.943;0;324;500;508.1;100.0;100.6;0;-0.5;25.5;-1.0;
28/02/2025 21:54:30;116;0;11.33;-4;-57.61;-9.70;0.1;20.70;75954;2836.707;-1800.946;0;324;500;508.1;100.0;100.6;0;-0.5;25.5;-1.0;
28/02/2025 21:54:50;116;0;359.55;-4;-58.20;-9.45;0.3;20.70;75957;2836.712;-1800.948;0;324;500;508.1;100.0;100.6;0;-0.5;25.5;-1.0;
28/02/2025 21:55:10;116;0;352.29;-4;-51.53;-18.81;-0.1;20.70;75955;2836.716;-1800.951;0;324;500;508.1;100.0;100.6;0;-0.5;25.5;-1.0;
28/02/2025 21:55:30;116;0;17.05;-4;-48.00;-12.58;-0.1;20.70;75961;2836.718;-1800.952;0;324;500;508.1;100.0;100.6;0;-0.5;25.5;-1.0;
28/02/2025 21:55:50;116;0;3.31;-4;-54.23;-8.45;-0.1;20.70;75961;2836.724;-1800.955;0;324;500;506.5;100.0;100.6;0;-0.5;25.5;-1.0;
28/02/2025 21:56:10;116;0;12.68;-4;-51.43;-5.44;-0.0;20.70;75959;2836.729;-1800.959;0;324;500;506.5;100.0;100.6;0;-0.5;25.5;-1.0;
28/02/2025 21:56:30;116;0;25.98;-4;-58.69;-17.10;-0.1;20.80;75971;2836.734;-1800.962;0;324;500;506.5;100.0;100.7;0;-0.5;25.5;-1.0;
28/02/2025 21:56:50;116;0;36.80;-4;-48.89;-7.42;-0.1;20.80;75971;2836.738;-1800.964;0;324;500;506.5;100.0;100.6;0;-0.5;25.5;-1.0;
28/02/2025 21:57:10;116;0;39.68;-4;-59.31;-14.56;-0.1;20.80;75977;2836.742;-1800.967;0;324;500;508.1;100.0;100.6;0;-0.5;25.6;-1.0;
28/02/2025 21:57:30;116;0;40.20;-4;-55.67;-12.32;-0.1;20.80;75976;2836.750;-1800.972;0;324;500;506.5;100.0;100.6;0;-0.5;25.5;-1.0;
28/02/2025 21:57:50;116;0;22.08;-4;-60.96;-6.32;0.1;20.80;75978;2836.753;-1800.974;0;324;500;506.5;100.0;100.6;0;-0.5;25.5;-1.0;
28/02/2025 21:58:10;116;0;20.49;-4;-65.13;-8.65;0.0;20.80;75988;2836.757;-1800.976;0;324;500;506.5;100.0;100.6;0;-0.5;25.5;-1.0;
28/02/2025 21:58:30;116;0;38.08;-4;-62.19;-14.88;-0.0;20.80;75985;2836.762;-1800.980;0;324;500;508.1;100.0;100.6;0;-0.5;25.5;-1.0;
28/02/2025 21:58:50;116;0;39.64;-4;-53.26;-13.00;-0.0;20.90;75987;2836.766;-1800.983;0;324;500;506.5;100.0;100.6;0;-0.5;25.5;-1.0;
28/02/2025 21:59:10;116;0;30.07;-4;-53.00;-31.09;-0.1;20.90;75997;2836.771;-1800.985;0;324;500;508.1;100.0;100.6;0;-0.5;25.5;-1.0;
28/02/2025 21:59:30;116;0;9.11;-4;-55.23;-6.90;0.1;20.90;75997;2836.776;-1800.989;0;324;500;508.1;100.0;100.6;0;-0.5;25.5;-1.0;
28/02/2025 21:59:50;116;0;49.06;-4;-43.82;-9.11;-0.1;20.90;75996;2836.781;-1800.993;0;324;500;506.5;100.0;100.6;0;-0.5;25.5;-1.0;
28/02/2025 22:00:10;116;0;68.90;-4;-60.03;-24.08;0.1;20.90;75985;2836.785;-1800.995;0;324;500;508.1;100.0;100.6;0;-0.5;25.5;-1.0;
28/02/2025 22:00:31;116;0;35.94;-4;-50.40;-19.19;-0.1;20.90;76002;2836.789;-1800.998;0;324;500;509.7;100.0;100.6;0;-0.5;25.5;-1.0;
28/02/2025 22:00:51;116;0;355.94;-4;-40.80;-20.05;-0.1;20.90;76010;2836.793;-1801.001;0;324;500;508.1;100.0;100.6;0;-0.5;25.5;-1.0;
28/02/2025 22:01:11;116;0;338.82;-4;-52.45;-18.07;-0.1;21.00;76009;2836.798;-1801.006;0;324;500;508.1;100.0;100.6;0;-0.5;25.5;-1.0;
28/02/2025 22:01:31;116;0;341.74;-4;-53.04;-14.43;-0.0;21.00;76017;2836.801;-1801.008;0;324;500;506.5;100.0;100.6;0;-0.5;25.5;-1.0;
28/02/2025 22:01:51;116;0;15.87;-4;-48.28;-11.15;0.1;21.00;76011;2836.806;-1801.014;0;324;500;508.1;100.0;100.6;0;-0.5;25.5;-1.0;
28/02/2025 22:02:11;116;0;37.89;-4;-65.61;-15.04;-0.1;21.00;76027;2836.813;-1801.016;0;324;500;508.1;100.0;100.6;0;-0.5;25.5;-1.0;
28/02/2025 22:02:31;116;0;27.31;-4;-58.03;-38.16;0.2;21.00;76020;2836.816;-1801.017;0;324;500;508.1;100.0;100.6;0;-0.5;25.5;-1.0;
28/02/2025 22:02:51;116;0;32.96;-4;-54.16;-15.56;-0.1;21.00;76012;2836.821;-1801.021;0;324;500;508.1;100.0;100.6;0;-0.5;25.5;-1.0;
28/02/2025 22:03:11;116;0;21.67;-4;-51.10;-3.91;-0.0;21.00;76017;2836.825;-1801.023;0;324;500;506.5;100.0;100.6;0;-0.5;25.6;-1.0;
28/02/2025 22:03:31;110;0;24.28;-4;-51.79;-8.94;0.1;21.00;76017;2836.825;-1801.023;0;324;-90;380.6;100.0;100.6;-7;-7.2;25.5;-1.0;
28/02/2025 22:03:41;110;0;12.63;-4;-49.34;-22.86;0.1;21.00;76386;2836.825;-1801.023;1;324;-90;237.1;100.0;100.6;-7;-7.7;25.5;-1.0;
28/02/2025 22:03:51;110;0;24.14;-4;-53.41;-1.24;0.5;21.00;76623;2836.825;-1801.023;1;324;-90;79.0;100.0;100.4;-7;-7.2;25.5;-1.0;
28/02/2025 22:04:01;110;0;29.92;-4;-71.29;-30.14;0.8;21.10;76947;2836.825;-1801.023;1;324;-90;-82.3;100.0;100.6;-7;-7.7;25.5;-1.0;
28/02/2025 22:04:11;110;0;42.09;-4;-69.11;-16.82;1.3;21.10;77293;2836.826;-1801.024;1;324;-90;-90.3;41.9;41.7;-7;-7.2;25.5;-1.0;
28/02/2025 22:04:31;100;0;24.97;-4;-28.52;-15.94;4.0;21.10;77254;2836.828;-1801.023;1;324;-90;-88.7;41.9;41.4;-7;-7.2;25.5;-1.0;
28/02/2025 22:04:51;100;0;31.50;-4;-17.77;-15.13;6.8;21.10;77265;2836.831;-1801.021;1;324;-90;-83.9;42.6;42.9;70;69.9;25.5;-1.0;
28/02/2025 22:05:11;100;0;32.57;-4;-22.53;23.55;9.7;21.00;77277;2836.834;-1801.020;1;324;-90;-85.5;41.8;41.7;70;69.9;25.6;-1.0;
28/02/2025 22:05:31;100;0;21.06;-4;-20.89;22.88;12.6;21.00;77273;2836.837;-1801.019;1;324;-90;-85.5;41.8;41.5;70;69.9;25.5;-1.0;
28/02/2025 22:05:51;100;0;9.59;-4;-22.57;23.36;15.5;20.90;77271;2836.841;-1801.019;1;324;-90;-85.5;41.0;40.9;61;60.9;25.5;0.0;
28/02/2025 22:06:11;100;0;0.12;-4;-19.62;17.46;18.1;20.90;77275;2836.844;-1801.019;1;324;-90;-83.9;41.0;40.9;46;46.0;25.5;0.0;
28/02/2025 22:06:31;100;0;350.55;-4;-18.32;11.24;20.6;20.90;77285;2836.847;-1801.021;1;324;-90;-83.9;41.5;41.8;32;32.0;25.6;0.0;
28/02/2025 22:06:51;100;0;346.72;-4;-19.06;4.22;23.0;20.80;77279;2836.850;-1801.022;1;324;-90;-83.9;41.5;41.8;24;23.9;25.5;0.0;
28/02/2025 22:07:11;100;0;344.49;-4;-17.85;0.03;25.6;20.80;77284;2836.854;-1801.024;1;324;-90;-85.5;42.2;42.1;22;22.1;25.5;0.0;
28/02/2025 22:07:31;100;0;346.09;-4;-19.03;-1.05;27.8;20.80;77283;2836.857;-1801.025;1;324;-90;-83.9;42.2;42.3;22;21.7;25.5;0.0;
28/02/2025 22:07:51;100;0;346.34;-4;-19.34;-0.84;30.1;20.80;77284;2836.860;-1801.026;1;324;-90;-85.5;42.2;42.3;24;23.9;25.5;0.0;
28/02/2025 22:08:11;100;0;346.58;-4;-19.56;0.34;32.6;20.70;77283;2836.863;-1801.028;1;324;-90;-85.5;42.2;42.3;24;24.4;25.5;0.0;
28/02/2025 22:08:31;100;0;344.14;-4;-20.29;0.39;35.0;20.70;77292;2836.866;-1801.029;1;324;-90;-85.5;42.2;42.3;21;21.2;25.5;0.0;
28/02/2025 22:08:51;100;0;341.28;-4;-19.52;-1.50;37.6;20.70;77285;2836.869;-1801.031;1;324;-90;-85.5;42.2;42.3;18;18.1;25.5;0.0;
28/02/2025 22:09:11;100;0;339.20;-4;-19.99;-2.94;40.1;20.70;77280;2836.872;-1801.033;1;324;-90;-85.5;42.2;42.3;16;15.8;25.5;0.0;
28/02/2025 22:09:31;100;0;338.54;-4;-19.24;-4.07;42.5;20.70;77283;2836.875;-1801.035;1;324;-90;-85.5;42.2;42.3;16;15.3;25.5;0.0;
28/02/2025 22:09:51;100;0;338.07;-4;-19.97;-3.98;44.7;20.60;77271;2836.878;-1801.037;1;324;-90;-85.5;42.2;42.3;16;15.3;25.5;0.0;
28/02/2025 22:10:11;100;0;338.65;-4;-19.27;-4.03;47.1;20.60;77263;2836.881;-1801.038;1;324;-90;-83.9;42.2;42.3;16;15.3;25.5;0.0;
28/02/2025 22:10:31;100;0;339.49;-4;-19.12;-3.99;49.5;20.60;77258;2836.884;-1801.040;1;324;-90;-83.9;42.2;42.3;16;15.8;25.5;0.0;
28/02/2025 22:10:51;100;0;340.16;-4;-19.48;-4.00;51.8;20.60;77261;2836.887;-1801.042;1;324;-90;-83.9;42.2;42.3;16;15.3;25.5;0.0;
28/02/2025 22:11:11;100;0;341.35;-4;-19.81;-3.95;54.2;20.50;77247;2836.890;-1801.044;1;324;-90;-83.9;42.2;42.3;18;18.1;25.5;0.0;
28/02/2025 22:11:31;100;0;339.18;-4;-19.85;-2.41;56.4;20.50;77257;2836.892;-1801.045;1;324;-90;-85.5;42.2;42.3;16;15.8;25.5;0.0;
28/02/2025 22:11:51;100;0;336.47;-4;-19.63;-4.11;58.9;20.50;77249;2836.895;-1801.047;1;324;-90;-85.5;42.2;42.3;16;15.3;25.5;0.0;
28/02/2025 22:12:11;100;0;335.13;-4;-19.85;-4.07;61.3;20.50;77246;2836.898;-1801.049;1;324;-90;-85.5;42.2;42.4;16;15.3;25.5;0.0;
28/02/2025 22:12:31;100;0;332.78;-4;-19.78;-4.08;63.7;20.40;77235;2836.901;-1801.052;1;324;-90;-83.9;42.2;42.3;16;15.3;25.5;0.0;
28/02/2025 22:12:51;100;0;329.36;-4;-19.96;-4.13;66.0;20.40;77225;2836.903;-1801.054;1;324;-90;-85.5;42.2;42.3;16;15.3;25.5;0.0;
28/02/2025 22:13:11;100;0;329.92;-4;-18.67;-4.07;68.6;20.40;77215;2836.906;-1801.056;1;324;-90;-87.1;42.6;42.6;16;15.3;25.5;0.0;
28/02/2025 22:13:31;100;0;327.82;-4;-20.09;-4.15;70.6;20.30;77203;2836.909;-1801.058;1;324;-90;-85.5;42.6;42.9;16;15.3;25.5;0.0;
28/02/2025 22:13:51;100;0;327.87;-4;-20.10;-4.05;72.8;20.30;77196;2836.911;-1801.061;1;324;-90;-85.5;42.6;42.9;16;15.3;25.5;0.0;
28/02/2025 22:14:11;100;0;327.44;-4;-20.35;-4.12;75.0;20.20;77200;2836.913;-1801.063;1;324;-90;-83.9;42.6;42.9;14;14.0;25.5;0.0;
28/02/2025 22:14:31;100;0;324.60;-4;-19.92;-4.94;77.1;20.20;77187;2836.916;-1801.065;1;324;-90;-85.5;42.6;42.9;14;14.0;25.5;0.0;
28/02/2025 22:14:51;100;0;320.68;-4;-20.27;-4.79;79.2;20.20;77186;2836.918;-1801.068;1;324;-90;-85.5;42.6;42.9;10;9.9;25.5;0.0;
28/02/2025 22:15:11;100;0;316.77;-4;-20.38;-6.91;81.3;20.10;77170;2836.920;-1801.071;1;324;-90;-83.9;42.6;42.9;5;5.0;25.5;0.0;
28/02/2025 22:15:31;100;0;315.86;-4;-19.92;-9.45;83.5;20.10;77155;2836.922;-1801.073;1;324;-90;-85.5;42.6;42.9;5;4.5;25.6;0.0;
28/02/2025 22:15:51;100;0;316.84;-4;-19.99;-9.47;85.7;20.10;77159;2836.924;-1801.076;1;324;-90;-85.5;42.6;42.9;5;5.0;25.5;0.0;
28/02/2025 22:16:11;100;0;318.37;-4;-20.08;-9.49;87.8;20.00;77144;2836.926;-1801.079;1;324;-90;-85.5;42.6;42.9;8;8.1;25.5;0.0;
28/02/2025 22:16:31;100;0;321.92;-4;-20.24;-7.41;90.0;20.00;77129;2836.928;-1801.081;1;324;-90;-83.9;42.6;42.9;11;10.8;25.5;0.0;
28/02/2025 22:16:51;100;0;324.97;-4;-20.32;-5.97;92.3;20.00;77133;2836.931;-1801.084;1;324;-90;-87.1;42.6;42.9;13;13.1;25.5;0.0;
28/02/2025 22:17:11;100;0;324.79;-4;-20.37;-4.99;94.4;19.90;77124;2836.933;-1801.086;1;324;-90;-83.9;42.6;42.9;13;13.1;25.5;0.0;
28/02/2025 22:17:31;100;0;323.29;-4;-20.38;-5.03;96.6;19.90;77115;2836.935;-1801.088;1;324;-90;-85.5;42.6;42.9;13;13.1;25.5;0.0;
28/02/2025 22:17:51;100;0;320.05;-4;-20.17;-5.07;98.9;19.80;77106;2836.937;-1801.091;1;324;-90;-85.5;42.6;42.9;10;9.9;25.5;0.0;
28/02/2025 22:18:11;100;0;318.25;-4;-19.99;-6.96;101.2;19.80;77113;2836.940;-1801.094;1;324;-90;-83.9;42.6;42.9;8;8.1;25.6;0.0;
28/02/2025 22:18:31;100;0;318.54;-4;-19.83;-7.70;103.4;19.80;77100;2836.942;-1801.097;1;324;-90;-83.9;42.6;42.9;8;8.1;25.5;0.0;
28/02/2025 22:18:51;100;0;322.22;-4;-19.61;-7.61;105.6;19.80;77085;2836.944;-1801.099;1;324;-90;-85.5;42.6;42.9;11;10.8;25.5;0.0;
28/02/2025 22:19:11;100;0;325.36;-4;-20.11;-6.12;107.6;19.70;77087;2836.946;-1801.101;1;324;-90;-85.5;42.6;42.9;13;13.1;25.5;0.0;
28/02/2025 22:19:31;100;0;322.53;-4;-19.88;-5.02;109.9;19.70;77077;2836.948;-1801.104;1;324;-90;-83.9;42.6;43.0;11;10.8;25.5;0.0;
28/02/2025 22:19:51;100;0;322.48;-4;-20.74;-6.63;112.0;19.60;77076;2836.951;-1801.106;1;324;-90;-83.9;42.6;42.9;11;10.4;25.5;0.0;
28/02/2025 22:20:11;100;0;325.47;-4;-20.23;-6.61;114.6;19.60;77070;2836.953;-1801.109;1;324;-90;-83.9;42.6;42.9;14;14.0;25.5;0.0;
28/02/2025 22:20:31;100;0;332.60;-4;-19.89;-4.19;116.9;19.60;77052;2836.956;-1801.111;1;324;-90;-83.9;42.6;42.9;14;14.4;25.5;0.0;
28/02/2025 22:20:51;100;0;336.22;-4;-20.15;-4.56;119.3;19.50;77059;2836.959;-1801.113;1;324;-90;-85.5;42.6;42.9;14;14.0;25.6;0.0;
28/02/2025 22:21:11;100;0;340.58;-4;-20.50;-4.53;122.0;19.50;77053;2836.962;-1801.115;1;324;-90;-85.5;42.6;42.9;18;18.1;25.5;0.0;
28/02/2025 22:21:31;100;0;341.60;-4;-20.79;-2.29;124.4;19.40;77035;2836.965;-1801.117;1;324;-90;-85.5;42.6;42.9;18;18.5;25.5;0.0;
28/02/2025 22:21:51;100;0;340.23;-4;-20.08;-2.50;126.9;19.40;77027;2836.968;-1801.118;1;324;-90;-85.5;42.6;42.9;18;18.5;25.5;0.0;
28/02/2025 22:22:11;100;0;339.43;-4;-20.15;-2.45;129.3;19.40;77020;2836.971;-1801.120;1;324;-90;-85.5;42.6;42.9;16;15.8;25.5;0.0;
28/02/2025 22:22:31;100;0;339.20;-4;-19.80;-4.02;131.9;19.30;77003;2836.974;-1801.122;1;324;-90;-83.9;42.6;42.9;16;15.3;25.5;0.0;
28/02/2025 22:22:51;100;0;337.95;-4;-19.87;-4.11;134.3;19.30;77004;2836.977;-1801.124;1;324;-90;-83.9;42.6;42.9;16;15.3;25.5;0.0;
28/02/2025 22:23:11;100;0;336.83;-4;-19.79;-4.09;136.6;19.20;76995;2836.980;-1801.126;1;324;-90;-85.5;42.6;42.9;16;15.3;25.5;0.0;
28/02/2025 22:23:31;100;0;335.58;-4;-20.05;-4.06;139.3;19.20;76988;2836.983;-1801.128;1;324;-90;-83.9;42.6;42.9;16;15.3;25.5;0.0;
28/02/2025 22:23:51;100;0;333.83;-4;-20.03;-3.99;141.8;19.20;76990;2836.986;-1801.130;1;324;-90;-85.5;42.6;42.9;16;15.3;25.5;0.0;
28/02/2025 22:24:11;100;0;332.34;-4;-19.92;-4.03;144.5;19.10;76983;2836.989;-1801.133;1;324;-90;-85.5;42.6;42.9;14;14.0;25.5;0.0;
28/02/2025 22:24:31;100;0;327.15;-4;-19.75;-5.07;147.0;19.10;76985;2836.992;-1801.135;1;324;-90;-85.5;42.6;42.9;14;13.5;25.5;0.0;
28/02/2025 22:24:51;100;0;329.11;-4;-19.58;-5.08;149.6;19.00;76970;2836.994;-1801.138;1;324;-90;-83.9;42.6;42.9;14;13.5;25.5;0.0;
28/02/2025 22:25:11;100;0;331.16;-4;-19.50;-5.07;152.2;19.00;76961;2836.997;-1801.140;1;324;-90;-83.9;42.6;42.9;14;13.5;25.5;0.0;
28/02/2025 22:25:31;100;0;330.54;-4;-19.83;-5.02;154.7;19.00;76953;2837.000;-1801.142;1;324;-90;-85.5;42.6;42.9;14;13.5;25.5;0.0;
28/02/2025 22:25:51;100;0;328.68;-4;-19.77;-5.10;157.4;19.00;76963;2837.003;-1801.145;1;324;-90;-82.3;42.6;42.9;14;13.5;25.6;0.0;
28/02/2025 22:26:11;100;0;329.06;-4;-19.54;-5.05;159.9;18.90;76956;2837.006;-1801.147;1;324;-90;-85.5;42.6;42.9;14;13.5;25.5;0.0;
28/02/2025 22:26:31;100;0;326.82;-4;-19.80;-5.12;162.6;18.90;76941;2837.009;-1801.150;1;324;-90;-85.5;42.6;42.9;14;13.5;25.5;0.0;
28/02/2025 22:26:51;100;0;328.14;-4;-19.66;-5.06;165.1;18.80;76940;2837.012;-1801.153;1;324;-90;-85.5;42.6;42.9;14;13.5;25.5;0.0;
28/02/2025 22:27:11;100;0;328.53;-4;-19.66;-5.09;167.6;18.80;76935;2837.014;-1801.155;1;324;-90;-85.5;42.6;43.0;14;13.5;25.5;0.0;
28/02/2025 22:27:31;100;0;327.67;-4;-19.63;-5.08;170.2;18.80;76910;2837.017;-1801.158;1;324;-90;-85.5;42.6;42.9;14;13.5;25.5;0.0;
28/02/2025 22:27:51;100;0;325.98;-4;-19.72;-5.05;172.8;18.70;76906;2837.020;-1801.160;1;324;-90;-83.9;42.6;43.0;14;13.5;25.5;0.0;
28/02/2025 22:28:11;100;0;325.22;-4;-19.59;-5.09;175.2;18.70;76904;2837.023;-1801.163;1;324;-90;-85.5;42.6;42.9;14;13.5;25.5;0.0;
28/02/2025 22:28:31;100;0;326.94;-4;-19.39;-5.09;177.7;18.70;76892;2837.025;-1801.165;1;324;-90;-83.9;42.6;42.9;14;13.5;25.5;0.0;
28/02/2025 22:28:52;100;0;328.31;-4;-19.45;-5.08;180.0;18.60;76890;2837.028;-1801.168;1;324;-90;-85.5;42.6;42.9;14;13.5;25.5;0.0;
28/02/2025 22:29:12;100;0;331.34;-4;-19.44;-5.06;182.3;18.60;76884;2837.031;-1801.170;1;324;-90;-83.9;42.6;42.9;14;13.5;25.5;0.0;
28/02/2025 22:29:32;100;0;334.48;-4;-19.39;-5.07;184.5;18.50;76883;2837.033;-1801.172;1;324;-90;-85.5;42.6;42.9;14;13.5;25.5;0.0;
28/02/2025 22:29:52;100;0;336.20;-4;-19.52;-5.04;187.0;18.50;76872;2837.036;-1801.174;1;324;-90;-83.9;42.6;42.9;14;13.5;25.5;0.0;
28/02/2025 22:30:12;100;0;339.46;-4;-19.37;-5.04;189.1;18.50;76865;2837.039;-1801.176;1;324;-90;-83.9;42.6;42.9;16;15.8;25.5;0.0;
28/02/2025 22:30:32;100;0;340.95;-4;-19.68;-3.51;191.2;18.50;76861;2837.042;-1801.177;1;324;-90;-85.5;42.6;43.0;16;16.2;25.5;0.0;
28/02/2025 22:30:52;100;0;342.76;-4;-19.62;-3.52;193.3;18.40;76853;2837.044;-1801.179;1;324;-90;-85.5;42.6;42.9;18;18.5;25.5;0.0;
28/02/2025 22:31:12;100;0;344.11;-4;-20.14;-2.33;195.6;18.40;76847;2837.047;-1801.180;1;324;-90;-85.5;42.6;42.9;21;21.7;25.5;0.0;
28/02/2025 22:31:32;100;0;342.66;-4;-20.43;-0.71;197.9;18.40;76845;2837.050;-1801.182;1;324;-90;-85.5;42.6;43.0;19;19.0;25.5;0.0;
28/02/2025 22:31:52;100;0;342.05;-4;-20.22;-2.22;200.1;18.30;76828;2837.053;-1801.183;1;324;-90;-83.9;42.6;43.0;19;19.0;25.5;0.0;
28/02/2025 22:32:12;100;0;340.94;-4;-19.84;-2.39;202.4;18.30;76818;2837.055;-1801.185;1;324;-90;-85.5;42.6;43.0;19;18.5;25.5;0.0;
28/02/2025 22:32:32;100;0;341.45;-4;-19.67;-2.35;204.6;18.20;76802;2837.058;-1801.187;1;324;-90;-83.9;42.6;42.9;17;17.1;25.5;0.0;
28/02/2025 22:32:52;100;0;342.26;-4;-19.77;-3.45;206.5;18.20;76797;2837.060;-1801.188;1;324;-110;-112.9;42.6;42.9;17;16.7;25.5;0.0;
28/02/2025 22:33:12;100;0;343.21;-4;-19.01;-3.36;208.6;18.20;76859;2837.063;-1801.189;1;324;-110;-109.7;42.6;42.9;19;19.0;25.5;0.0;
28/02/2025 22:33:32;100;0;343.32;-4;-19.43;-1.82;211.0;18.10;76846;2837.066;-1801.191;1;324;-110;-111.3;42.6;42.9;19;19.4;25.5;0.0;
28/02/2025 22:33:52;100;0;343.01;-4;-19.33;-1.80;213.1;18.10;76830;2837.069;-1801.193;1;324;-110;-111.3;42.6;42.9;19;19.9;25.5;0.0;
28/02/2025 22:34:12;100;0;342.79;-4;-19.47;-1.74;215.4;18.00;76838;2837.072;-1801.194;1;324;-110;-109.7;42.6;43.0;19;19.4;25.5;0.0;
28/02/2025 22:34:32;100;0;341.54;-4;-19.52;-1.83;217.8;18.00;76817;2837.075;-1801.196;1;324;-110;-111.3;42.6;43.0;19;19.4;25.5;0.0;
28/02/2025 22:34:52;100;0;337.16;-4;-19.51;-1.94;220.1;18.00;76797;2837.078;-1801.198;1;324;-110;-111.3;42.6;42.9;16;15.8;25.5;0.0;
28/02/2025 22:35:12;100;0;334.33;-4;-19.49;-3.93;222.5;17.90;76796;2837.080;-1801.200;1;324;-110;-111.3;42.6;42.9;16;15.3;25.5;0.0;
28/02/2025 22:35:32;100;0;329.20;-4;-19.22;-3.91;225.0;17.90;76783;2837.083;-1801.202;1;324;-110;-111.3;42.6;42.9;16;15.8;25.5;0.0;
28/02/2025 22:35:52;100;0;324.07;-4;-19.28;-3.95;227.3;17.90;76785;2837.086;-1801.205;1;324;-110;-111.3;42.6;43.0;14;14.0;25.5;0.0;
28/02/2025 22:36:12;100;0;319.62;-4;-19.22;-5.01;229.7;17.80;76781;2837.088;-1801.208;1;324;-110;-111.3;42.6;42.9;10;9.5;25.5;0.0;
28/02/2025 22:36:32;100;0;318.75;-4;-18.75;-7.00;232.1;17.80;76771;2837.091;-1801.211;1;324;-110;-111.3;43.0;43.0;10;9.5;25.5;0.0;
28/02/2025 22:36:52;100;0;320.33;-4;-19.32;-6.88;234.4;17.70;76752;2837.093;-1801.213;1;324;-110;-111.3;43.0;43.3;10;9.5;25.5;0.0;
28/02/2025 22:37:12;100;0;320.34;-4;-19.90;-6.89;236.8;17.70;76747;2837.095;-1801.216;1;324;-110;-109.7;43.0;43.3;10;9.5;25.5;0.0;
28/02/2025 22:37:32;100;0;321.96;-4;-19.90;-6.80;239.6;17.70;76739;2837.098;-1801.219;1;324;-110;-111.3;43.0;43.3;13;13.1;25.5;0.0;
28/02/2025 22:37:52;100;0;321.83;-4;-20.00;-4.77;242.2;17.60;76729;2837.101;-1801.222;1;324;-110;-111.3;43.0;43.3;13;13.1;25.5;0.0;
28/02/2025 22:38:12;100;0;321.46;-4;-20.24;-4.75;244.8;17.60;76728;2837.104;-1801.225;1;324;-110;-111.3;43.0;43.2;13;13.1;25.5;0.0;
28/02/2025 22:38:32;100;0;320.79;-4;-19.96;-4.86;247.6;17.60;76717;2837.106;-1801.228;1;324;-110;-111.3;43.0;43.3;13;13.5;25.5;0.0;
28/02/2025 22:38:52;100;0;319.47;-4;-20.17;-4.98;250.2;17.50;76714;2837.109;-1801.231;1;324;-110;-111.3;43.0;43.3;11;10.8;25.6;0.0;
28/02/2025 22:39:12;100;0;317.21;-4;-19.81;-6.26;252.8;17.50;76705;2837.111;-1801.234;1;324;-110;-111.3;43.0;43.3;9;9.0;25.5;0.0;
28/02/2025 22:39:32;100;0;316.98;-4;-19.63;-6.90;255.6;17.50;76715;2837.114;-1801.238;1;324;-110;-111.3;43.0;43.3;9;9.5;25.5;0.0;
28/02/2025 22:39:52;100;0;315.74;-4;-19.28;-6.98;258.4;17.40;76700;2837.117;-1801.241;1;324;-110;-111.3;43.0;43.3;7;7.2;25.6;0.0;
28/02/2025 22:40:12;100;0;317.54;-4;-19.60;-8.24;260.9;17.40;76691;2837.119;-1801.244;1;324;-110;-111.3;43.0;43.3;7;6.8;25.5;0.0;
28/02/2025 22:40:32;100;0;320.26;-4;-19.01;-8.24;263.7;17.40;76692;2837.122;-1801.248;1;324;-110;-111.3;43.0;43.3;11;10.8;25.5;0.0;
28/02/2025 22:40:52;100;0;322.90;-4;-19.35;-6.09;266.2;17.30;76681;2837.125;-1801.250;1;324;-110;-111.3;43.0;43.3;13;13.1;25.5;0.0;
28/02/2025 22:41:12;100;0;323.92;-4;-19.37;-4.91;268.8;17.30;76679;2837.127;-1801.253;1;324;-110;-111.3;43.0;43.3;13;13.5;25.5;0.0;
28/02/2025 22:41:32;100;0;324.83;-4;-19.45;-4.88;271.4;17.20;76663;2837.130;-1801.256;1;324;-110;-111.3;43.0;43.3;13;13.5;25.5;0.0;
28/02/2025 22:41:52;100;0;326.49;-4;-20.04;-4.87;274.1;17.20;76670;2837.133;-1801.259;1;324;-110;-111.3;43.0;43.3;13;13.5;25.5;0.0;
28/02/2025 22:42:12;100;0;325.84;-4;-20.01;-4.85;277.0;17.20;76662;2837.136;-1801.262;1;324;-110;-111.3;43.0;43.3;13;13.5;25.6;0.0;
28/02/2025 22:42:32;100;0;327.12;-4;-19.76;-4.78;279.7;17.10;76640;2837.139;-1801.264;1;324;-110;-111.3;43.0;43.3;13;13.5;25.5;0.0;
28/02/2025 22:42:52;100;0;328.20;-4;-19.56;-4.88;282.6;17.10;76656;2837.142;-1801.267;1;324;-110;-111.3;43.0;43.3;13;13.5;25.5;0.0;
28/02/2025 22:43:12;100;0;329.58;-4;-19.23;-4.93;285.1;17.10;76638;2837.145;-1801.270;1;324;-110;-109.7;43.0;43.3;13;13.5;25.5;0.0;
28/02/2025 22:43:32;100;0;330.40;-4;-19.37;-4.86;287.7;17.00;76627;2837.148;-1801.272;1;324;-110;-109.7;43.0;43.3;13;13.5;25.5;0.0;
28/02/2025 22:43:52;100;0;332.47;-4;-19.55;-4.88;290.3;17.00;76622;2837.151;-1801.275;1;324;-110;-111.3;43.0;43.3;13;13.5;25.5;0.0;
28/02/2025 22:44:12;100;0;333.75;-4;-19.54;-4.89;293.2;17.00;76616;2837.155;-1801.277;1;324;-110;-111.3;43.0;43.3;13;13.5;25.5;0.0;
28/02/2025 22:44:32;100;0;335.15;-4;-19.56;-4.89;295.7;16.90;76611;2837.158;-1801.279;1;324;-110;-111.3;43.0;43.3;13;13.5;25.5;0.0;
28/02/2025 22:44:52;100;0;336.35;-4;-19.48;-4.86;298.6;16.90;76602;2837.161;-1801.281;1;324;-110;-111.3;43.0;43.3;15;14.9;25.6;0.0;
28/02/2025 22:45:12;100;0;335.02;-4;-19.29;-4.01;301.4;16.90;76598;2837.165;-1801.284;1;324;-110;-111.3;43.0;43.3;15;15.3;25.5;0.0;
28/02/2025 22:45:32;100;0;334.27;-4;-19.50;-4.04;303.8;16.80;76583;2837.167;-1801.286;1;324;-110;-109.7;43.0;43.3;15;15.3;25.5;0.0;
28/02/2025 22:45:52;100;0;334.60;-4;-19.39;-4.01;306.7;16.80;76584;2837.171;-1801.288;1;324;-110;-111.3;43.0;43.3;15;15.3;25.5;0.0;
28/02/2025 22:46:12;100;0;335.88;-4;-19.42;-4.02;309.4;16.80;76578;2837.174;-1801.290;1;324;-110;-112.9;43.0;43.3;15;15.3;25.5;0.0;
28/02/2025 22:46:32;100;0;337.99;-4;-19.47;-3.97;312.1;16.70;76568;2837.178;-1801.293;1;324;-110;-111.3;43.0;43.3;15;15.3;25.5;0.0;
28/02/2025 22:46:52;100;0;339.03;-4;-19.77;-3.93;314.9;16.70;76566;2837.181;-1801.295;1;324;-110;-111.3;43.0;43.3;17;17.1;25.5;0.0;
28/02/2025 22:47:12;100;0;339.31;-4;-19.72;-2.75;317.7;16.70;76545;2837.184;-1801.297;1;324;-110;-111.3;43.0;43.3;17;17.6;25.5;0.0;
28/02/2025 22:47:32;100;0;339.52;-4;-19.81;-2.79;320.5;16.60;76545;2837.188;-1801.299;1;324;-110;-112.9;43.0;43.3;17;17.6;25.5;0.0;
28/02/2025 22:47:52;100;0;339.16;-4;-19.80;-2.77;323.3;16.60;76537;2837.191;-1801.301;1;324;-110;-111.3;43.0;43.3;17;17.6;25.5;0.0;
28/02/2025 22:48:12;100;0;338.21;-4;-19.61;-2.71;326.1;16.60;76522;2837.194;-1801.303;1;324;-110;-111.3;43.0;43.3;17;17.6;25.5;0.0;
28/02/2025 22:48:32;100;0;336.81;-4;-19.50;-2.95;328.8;16.50;76515;2837.198;-1801.305;1;324;-110;-111.3;43.0;43.3;15;14.9;25.5;0.0;
28/02/2025 22:48:52;100;0;335.76;-4;-19.16;-4.32;331.4;16.50;76519;2837.201;-1801.307;1;324;-110;-111.3;43.0;43.3;15;14.9;25.5;0.0;
28/02/2025 22:49:12;100;0;335.91;-4;-19.27;-4.34;334.2;16.50;76521;2837.204;-1801.309;1;324;-110;-112.9;43.0;43.3;15;14.4;25.5;0.0;
28/02/2025 22:49:32;100;0;336.26;-4;-19.33;-4.38;337.0;16.40;76497;2837.208;-1801.311;1;324;-110;-111.3;43.0;43.3;15;14.4;25.5;0.0;
28/02/2025 22:49:52;100;0;339.85;-4;-19.55;-4.27;339.6;16.40;76491;2837.211;-1801.313;1;324;-110;-109.7;43.0;43.3;18;18.1;25.5;0.0;
28/02/2025 22:50:12;100;0;340.10;-4;-19.86;-2.43;342.4;16.40;76492;2837.214;-1801.315;1;324;-110;-111.3;43.0;43.3;18;18.5;25.5;0.0;
28/02/2025 22:50:32;100;0;336.78;-4;-19.95;-1.90;345.2;16.30;76485;2837.218;-1801.317;1;324;-110;-112.9;43.0;43.2;16;15.3;25.5;0.0;
28/02/2025 22:50:52;100;0;336.61;-4;-19.15;-3.96;348.0;16.30;76483;2837.221;-1801.320;1;324;-110;-112.9;43.0;43.3;16;15.3;25.5;0.0;
28/02/2025 22:51:12;100;0;335.68;-4;-20.53;-3.84;350.6;16.30;76473;2837.224;-1801.322;1;324;-110;-111.3;43.0;43.3;16;15.3;25.5;0.0;
28/02/2025 22:51:32;100;0;336.24;-4;-19.68;-3.94;353.5;16.20;76478;2837.227;-1801.324;1;324;-110;-111.3;43.0;43.3;16;15.3;25.5;0.0;
28/02/2025 22:51:52;100;0;336.24;-4;-19.42;-4.02;356.1;16.20;76465;2837.231;-1801.326;1;324;-110;-111.3;43.0;43.3;16;15.3;25.5;0.0;
28/02/2025 22:52:12;100;0;339.34;-4;-19.31;-3.96;358.6;16.20;76452;2837.234;-1801.328;1;324;-110;-112.9;43.0;43.3;16;15.3;25.5;0.0;
28/02/2025 22:52:32;100;0;339.12;-4;-19.49;-3.96;361.3;16.20;76442;2837.237;-1801.330;1;324;-110;-112.9;43.0;43.4;16;15.3;25.5;0.0;
28/02/2025 22:52:52;100;0;339.43;-4;-19.45;-3.93;363.8;16.10;76431;2837.240;-1801.332;1;324;-110;-111.3;43.0;43.3;16;15.3;25.5;0.0;
28/02/2025 22:53:12;100;0;338.74;-4;-19.35;-4.01;366.5;16.10;76421;2837.244;-1801.334;1;324;-110;-109.7;43.0;43.3;16;15.3;25.5;0.0;
28/02/2025 22:53:32;100;0;338.59;-4;-19.17;-4.01;369.0;16.10;76409;2837.247;-1801.336;1;324;-110;-112.9;43.0;43.3;16;15.3;25.5;0.0;
28/02/2025 22:53:52;100;0;336.22;-4;-19.42;-4.04;371.6;16.00;76401;2837.250;-1801.338;1;324;-110;-111.3;43.0;43.3;16;15.3;25.5;0.0;
28/02/2025 22:54:12;100;0;334.77;-4;-19.49;-3.97;374.2;16.00;76411;2837.253;-1801.340;1;324;-110;-111.3;43.0;43.3;16;15.3;25.5;0.0;
28/02/2025 22:54:32;100;0;333.18;-4;-19.55;-3.97;376.9;16.00;76404;2837.256;-1801.343;1;324;-110;-111.3;43.0;43.3;16;15.3;25.5;0.0;
28/02/2025 22:54:52;100;0;331.06;-4;-19.68;-3.92;379.7;15.90;76397;2837.259;-1801.345;1;324;-110;-111.3;43.0;43.3;16;15.3;25.5;0.0;
28/02/2025 22:55:12;100;0;328.44;-4;-19.42;-4.05;382.3;15.90;76390;2837.262;-1801.348;1;324;-110;-112.9;43.0;43.3;16;15.3;25.5;0.0;
28/02/2025 22:55:32;100;0;327.19;-4;-19.46;-3.94;384.9;15.90;76389;2837.265;-1801.350;1;324;-110;-111.3;43.0;43.4;16;15.3;25.5;0.0;
28/02/2025 22:55:52;100;0;326.08;-4;-19.41;-4.02;387.5;15.80;76373;2837.268;-1801.353;1;324;-110;-109.7;43.0;43.3;16;15.3;25.5;0.0;
28/02/2025 22:56:12;100;0;324.85;-4;-18.99;-4.09;390.1;15.80;76368;2837.271;-1801.356;1;324;-110;-111.3;43.3;43.3;16;15.3;25.5;0.0;
28/02/2025 22:56:32;100;0;324.12;-4;-19.28;-3.96;392.5;15.80;76372;2837.274;-1801.359;1;324;-110;-111.3;43.3;43.3;14;14.0;25.5;0.0;
28/02/2025 22:56:52;100;0;324.38;-4;-18.99;-4.76;394.9;15.80;76374;2837.276;-1801.361;1;324;-110;-109.7;43.6;43.6;14;14.0;25.5;0.0;
28/02/2025 22:57:12;100;0;325.03;-4;-20.07;-4.83;397.5;15.70;76350;2837.279;-1801.364;1;324;-110;-109.7;43.6;43.7;14;14.0;25.5;0.0;
28/02/2025 22:57:32;100;0;325.38;-4;-20.33;-4.84;399.9;15.70;76358;2837.281;-1801.367;1;324;-110;-111.3;43.6;43.7;14;14.0;25.5;0.0;
28/02/2025 22:57:52;100;0;324.04;-4;-19.91;-4.76;402.4;15.70;76356;2837.284;-1801.369;1;324;-110;-111.3;43.6;43.7;14;14.0;25.6;0.0;
28/02/2025 22:58:12;100;0;324.53;-4;-19.93;-4.73;404.9;15.60;76354;2837.287;-1801.372;1;324;-110;-111.3;43.6;43.7;14;14.0;25.5;0.0;
28/02/2025 22:58:32;100;0;325.39;-4;-20.09;-4.69;407.3;15.60;76340;2837.289;-1801.375;1;324;-110;-111.3;43.6;43.9;14;14.0;25.5;0.0;
28/02/2025 22:58:52;100;0;327.05;-4;-20.18;-4.76;409.8;15.60;76335;2837.292;-1801.377;1;324;-110;-114.5;43.6;43.7;14;14.0;25.5;0.0;
28/02/2025 22:59:12;100;0;328.89;-4;-19.59;-4.72;412.1;15.50;76339;2837.295;-1801.379;1;324;-110;-109.7;43.6;43.9;14;14.0;25.6;0.0;
28/02/2025 22:59:32;100;0;328.31;-4;-19.70;-4.80;414.4;15.50;76330;2837.297;-1801.382;1;324;-110;-111.3;43.6;43.9;14;14.0;25.5;0.0;
28/02/2025 22:59:52;100;0;331.11;-4;-20.12;-4.75;416.5;15.50;76325;2837.299;-1801.384;1;324;-110;-111.3;43.6;43.7;14;14.0;25.5;0.0;
28/02/2025 23:00:12;100;0;332.60;-4;-20.26;-4.72;418.9;15.50;76307;2837.302;-1801.386;1;324;-110;-112.9;43.6;43.7;14;14.0;25.5;0.0;
28/02/2025 23:00:32;100;0;333.12;-4;-20.12;-4.70;421.1;15.40;76299;2837.305;-1801.388;1;324;-110;-111.3;43.6;43.7;14;14.0;25.5;0.0;
28/02/2025 23:00:52;100;0;333.24;-4;-20.10;-4.66;423.3;15.40;76295;2837.307;-1801.390;1;324;-110;-111.3;43.6;43.7;14;14.0;25.6;0.0;
28/02/2025 23:01:12;100;0;333.24;-4;-19.99;-4.69;425.6;15.40;76277;2837.310;-1801.392;1;324;-110;-111.3;43.6;43.9;14;14.0;25.5;0.0;
28/02/2025 23:01:32;100;0;334.89;-4;-20.30;-4.75;427.7;15.30;76287;2837.312;-1801.394;1;324;-110;-111.3;43.6;43.7;14;14.0;25.5;0.0;
28/02/2025 23:01:52;100;0;337.50;-4;-20.32;-4.66;430.0;15.30;76269;2837.315;-1801.396;1;324;-110;-111.3;43.6;43.7;16;15.8;25.5;0.0;
28/02/2025 23:02:12;100;0;338.86;-4;-20.30;-3.45;432.2;15.30;76262;2837.318;-1801.397;1;324;-110;-111.3;43.6;43.9;16;16.2;25.5;0.0;
28/02/2025 23:02:32;100;0;340.27;-4;-20.05;-3.55;434.3;15.20;76246;2837.320;-1801.399;1;324;-110;-111.3;43.6;43.9;16;16.2;25.5;0.0;
28/02/2025 23:02:52;100;0;342.59;-4;-20.06;-3.47;436.4;15.20;76246;2837.323;-1801.400;1;324;-110;-111.3;43.6;43.7;19;19.0;25.5;0.0;
28/02/2025 23:03:13;100;0;342.55;-4;-20.24;-1.96;438.4;15.20;76246;2837.325;-1801.402;1;324;-110;-111.3;43.6;43.9;19;19.4;25.5;0.0;
28/02/2025 23:03:33;100;0;342.59;-4;-20.47;-1.94;440.5;15.20;76243;2837.328;-1801.403;1;324;-110;-111.3;43.6;43.9;19;19.4;25.5;0.0;
28/02/2025 23:03:53;100;0;343.68;-4;-20.55;-1.88;442.6;15.10;76232;2837.331;-1801.405;1;324;-110;-111.3;43.6;43.9;19;19.0;25.5;0.0;
28/02/2025 23:04:13;100;0;345.10;-4;-20.56;-1.92;444.6;15.10;76227;2837.333;-1801.406;1;324;-110;-111.3;43.6;43.9;19;19.4;25.5;0.0;
28/02/2025 23:04:33;100;0;347.77;-4;-20.43;-1.87;446.9;15.10;76222;2837.336;-1801.407;1;324;-110;-111.3;43.6;43.7;27;27.1;25.5;0.0;
28/02/2025 23:04:53;100;0;346.35;-4;-20.40;2.14;448.9;15.00;76219;2837.338;-1801.408;1;324;-130;-132.3;43.6;43.9;22;22.1;25.5;0.0;
28/02/2025 23:05:13;100;0;349.02;-4;-20.48;-0.59;451.0;15.00;76269;2837.341;-1801.410;1;324;-130;-133.9;43.6;43.7;26;26.2;25.5;0.0;
28/02/2025 23:05:33;100;0;349.08;-4;-20.51;1.68;453.4;15.00;76256;2837.344;-1801.411;1;324;-130;-135.5;43.6;43.9;29;28.9;25.5;0.0;
28/02/2025 23:05:53;100;0;346.19;-4;-21.20;2.96;455.8;15.00;76249;2837.347;-1801.412;1;324;-130;-133.9;43.6;43.7;24;23.9;25.5;0.0;
28/02/2025 23:06:13;100;0;340.79;-4;-20.66;0.35;458.4;15.00;76244;2837.350;-1801.414;1;324;-130;-133.9;43.6;43.9;18;18.1;25.5;0.0;
28/02/2025 23:06:33;100;0;337.53;-4;-20.41;-2.72;460.9;14.90;76231;2837.353;-1801.416;1;324;-130;-132.3;43.6;43.9;16;15.8;25.5;0.0;
28/02/2025 23:06:53;100;0;334.92;-4;-20.43;-3.66;463.4;14.90;76238;2837.356;-1801.418;1;324;-130;-132.3;43.6;43.9;16;15.8;25.5;0.0;
28/02/2025 23:07:13;100;0;332.11;-4;-20.15;-3.54;465.9;14.90;76217;2837.359;-1801.420;1;324;-130;-132.3;43.6;43.9;16;15.8;25.5;0.0;
28/02/2025 23:07:33;100;0;331.13;-4;-20.03;-3.64;468.7;14.80;76224;2837.362;-1801.423;1;324;-130;-133.9;43.6;43.9;16;15.8;25.5;0.0;
28/02/2025 23:07:53;100;0;329.99;-4;-19.98;-3.67;471.3;14.80;76218;2837.365;-1801.425;1;324;-130;-133.9;43.6;43.9;16;15.8;25.5;0.0;
28/02/2025 23:08:13;100;0;329.80;-4;-19.75;-3.64;474.0;14.80;76213;2837.368;-1801.428;1;324;-130;-133.9;43.6;43.9;16;15.8;25.5;0.0;
28/02/2025 23:08:33;100;0;328.56;-4;-20.25;-3.69;476.7;14.80;76201;2837.371;-1801.430;1;324;-130;-133.9;43.6;43.9;16;15.8;25.5;0.0;
28/02/2025 23:08:53;100;0;327.18;-4;-20.19;-3.65;479.5;14.70;76189;2837.374;-1801.433;1;324;-130;-133.9;43.6;43.9;16;15.8;25.5;0.0;
28/02/2025 23:09:13;100;0;324.56;-4;-20.09;-3.69;482.3;14.70;76203;2837.377;-1801.436;1;324;-130;-133.9;43.6;43.9;16;15.8;25.5;0.0;
28/02/2025 23:09:33;100;0;321.71;-4;-20.03;-3.65;485.0;14.70;76193;2837.380;-1801.439;1;324;-130;-133.9;43.6;43.9;13;13.1;25.5;0.0;
28/02/2025 23:09:53;100;0;319.48;-4;-19.74;-5.20;487.9;14.60;76191;2837.382;-1801.442;1;324;-130;-133.9;43.6;43.7;13;13.1;25.5;0.0;
28/02/2025 23:10:13;100;0;318.11;-4;-19.41;-5.13;490.8;14.60;76181;2837.385;-1801.446;1;324;-130;-132.3;43.6;43.9;10;9.9;25.5;0.0;
28/02/2025 23:10:33;100;0;318.87;-4;-19.39;-6.87;493.5;14.60;76180;2837.388;-1801.449;1;324;-130;-133.9;43.6;43.7;10;9.5;25.5;0.0;
28/02/2025 23:10:53;100;0;320.04;-4;-19.43;-6.87;496.4;14.60;76178;2837.391;-1801.453;1;324;-130;-132.3;43.6;43.9;12;12.2;25.5;0.0;
28/02/2025 23:11:13;100;0;321.79;-4;-19.59;-5.23;499.3;14.60;76162;2837.394;-1801.456;1;324;-130;-133.9;43.6;43.9;12;12.6;25.5;0.0;
28/02/2025 23:11:33;100;0;323.88;-4;-19.55;-5.20;502.1;14.50;76167;2837.397;-1801.459;1;324;-130;-133.9;43.6;43.7;14;14.0;25.5;0.0;
28/02/2025 23:11:53;100;0;325.86;-4;-19.77;-4.25;505.0;14.50;76165;2837.400;-1801.462;1;324;-130;-133.9;43.6;43.7;14;14.4;25.5;0.0;
28/02/2025 23:12:13;100;0;328.00;-4;-19.69;-4.31;508.0;14.50;76159;2837.403;-1801.464;1;324;-130;-133.9;43.6;43.9;14;14.4;25.5;0.0;
28/02/2025 23:12:33;100;0;328.85;-4;-19.41;-4.35;510.8;14.40;76151;2837.406;-1801.467;1;324;-130;-133.9;43.6;43.9;14;14.4;25.5;0.0;
28/02/2025 23:12:53;100;0;329.73;-4;-19.59;-4.34;513.7;14.40;76139;2837.410;-1801.470;1;324;-130;-133.9;43.6;43.7;14;14.4;25.5;0.0;
28/02/2025 23:13:13;100;0;329.23;-4;-19.62;-4.36;516.6;14.40;76133;2837.413;-1801.473;1;324;-130;-133.9;43.6;43.9;14;14.4;25.5;0.0;
28/02/2025 23:13:33;100;0;328.12;-4;-19.47;-4.38;519.4;14.40;76128;2837.416;-1801.475;1;324;-130;-133.9;43.6;43.9;14;14.4;25.6;0.0;
28/02/2025 23:13:53;100;0;327.47;-4;-19.47;-4.34;522.3;14.40;76134;2837.419;-1801.478;1;324;-130;-133.9;43.6;43.9;14;14.4;25.5;0.0;
28/02/2025 23:14:13;100;0;326.62;-4;-19.43;-4.37;525.2;14.30;76130;2837.423;-1801.481;1;324;-130;-133.9;43.6;43.9;14;14.4;25.5;0.0;
28/02/2025 23:14:33;100;0;324.82;-4;-19.48;-4.36;528.2;14.30;76123;2837.426;-1801.484;1;324;-130;-135.5;43.6;43.7;14;14.4;25.5;0.0;
28/02/2025 23:14:53;100;0;324.31;-4;-19.58;-4.38;530.9;14.30;76114;2837.429;-1801.487;1;324;-130;-133.9;43.6;43.7;14;14.4;25.5;0.0;
28/02/2025 23:15:13;100;0;325.32;-4;-19.53;-4.36;534.0;14.20;76112;2837.432;-1801.490;1;324;-130;-132.3;43.6;43.7;14;14.4;25.5;0.0;
28/02/2025 23:15:33;100;0;324.91;-4;-19.48;-4.33;536.9;14.20;76107;2837.435;-1801.494;1;324;-130;-133.9;43.6;43.9;14;14.4;25.5;0.0;
28/02/2025 23:15:53;100;0;321.72;-4;-19.56;-4.35;539.9;14.20;76095;2837.438;-1801.497;1;324;-130;-133.9;43.6;43.9;14;14.4;25.5;0.0;
28/02/2025 23:16:13;100;0;320.69;-4;-19.61;-4.33;542.6;14.20;76098;2837.441;-1801.500;1;324;-130;-133.9;43.6;43.9;12;12.2;25.5;0.0;
28/02/2025 23:16:33;100;0;322.00;-4;-19.33;-5.64;545.4;14.20;76099;2837.444;-1801.503;1;324;-130;-132.3;43.6;43.9;12;11.7;25.5;0.0;
28/02/2025 23:16:53;100;0;322.89;-4;-19.43;-5.64;548.3;14.10;76085;2837.447;-1801.506;1;324;-130;-133.9;43.6;43.9;14;14.0;25.5;0.0;
28/02/2025 23:17:13;100;0;322.71;-4;-19.57;-4.45;550.8;14.10;76091;2837.450;-1801.509;1;324;-130;-133.9;43.6;43.9;14;14.0;25.6;0.0;
28/02/2025 23:17:33;100;0;323.94;-4;-19.36;-4.46;553.6;14.10;76078;2837.453;-1801.512;1;324;-130;-133.9;43.6;43.7;14;14.4;25.5;0.0;
28/02/2025 23:17:53;100;0;323.98;-4;-19.17;-4.46;556.0;14.10;76084;2837.455;-1801.515;1;324;-130;-133.9;43.6;43.9;14;14.0;25.5;0.0;
28/02/2025 23:18:13;100;0;324.29;-4;-19.30;-4.43;558.6;14.00;76075;2837.458;-1801.518;1;324;-130;-133.9;43.6;43.9;14;14.4;25.5;0.0;
28/02/2025 23:18:33;100;0;324.75;-4;-19.27;-4.44;561.0;14.00;76068;2837.461;-1801.520;1;324;-130;-133.9;43.6;43.7;14;14.4;25.5;0.0;
28/02/2025 23:18:53;100;0;326.17;-4;-19.44;-4.39;563.5;14.00;76057;2837.463;-1801.523;1;324;-130;-133.9;43.6;43.9;14;14.0;25.5;0.0;
28/02/2025 23:19:13;100;0;330.03;-4;-19.24;-4.39;565.9;14.00;76059;2837.466;-1801.525;1;324;-130;-133.9;43.6;43.7;14;14.4;25.5;0.0;
28/02/2025 23:19:33;100;0;330.15;-4;-19.56;-4.47;568.1;13.90;76047;2837.469;-1801.527;1;324;-130;-133.9;43.6;43.9;14;14.4;25.5;0.0;
28/02/2025 23:19:53;100;0;331.39;-4;-19.63;-4.39;570.4;13.90;76047;2837.471;-1801.530;1;324;-130;-133.9;43.6;43.9;14;14.4;25.5;0.0;
28/02/2025 23:20:13;100;0;332.19;-4;-19.46;-4.42;572.7;13.90;76042;2837.474;-1801.532;1;324;-130;-133.9;43.6;44.0;14;14.0;25.5;0.0;
28/02/2025 23:20:33;100;0;332.26;-4;-19.47;-4.40;575.0;13.90;76041;2837.477;-1801.534;1;324;-130;-132.3;43.6;43.9;14;14.0;25.5;0.0;
28/02/2025 23:20:53;100;0;335.06;-4;-19.00;-4.55;577.2;13.80;76036;2837.479;-1801.536;1;324;-130;-133.9;43.9;43.9;14;14.0;25.5;0.0;
28/02/2025 23:21:13;100;0;336.48;-4;-19.64;-4.32;579.5;13.80;76040;2837.482;-1801.538;1;324;-130;-133.9;43.9;43.9;14;14.0;25.5;0.0;
28/02/2025 23:21:33;100;0;337.91;-4;-19.23;-4.31;581.7;13.80;76031;2837.485;-1801.540;1;324;-130;-132.3;43.9;43.9;16;15.8;25.5;0.0;
28/02/2025 23:21:53;100;0;338.11;-4;-19.58;-3.56;583.9;13.80;76041;2837.488;-1801.541;1;324;-130;-133.9;43.9;43.9;16;15.8;25.5;0.0;
28/02/2025 23:22:13;100;0;339.95;-4;-19.57;-3.52;586.1;13.80;76026;2837.490;-1801.543;1;324;-130;-133.9;43.9;43.9;16;15.8;25.5;0.0;
28/02/2025 23:22:33;100;0;341.09;-4;-19.57;-3.55;588.2;13.80;76027;2837.493;-1801.545;1;324;-130;-133.9;43.9;43.9;16;16.2;25.5;0.0;
28/02/2025 23:22:53;100;0;344.58;-4;-19.47;-3.55;590.5;13.70;76026;2837.496;-1801.546;1;324;-130;-133.9;43.9;43.9;22;22.1;25.5;0.0;
28/02/2025 23:23:13;100;0;345.19;-4;-20.11;-0.29;592.7;13.70;76021;2837.499;-1801.547;1;324;-130;-133.9;43.9;43.7;22;22.6;25.5;0.0;
28/02/2025 23:23:33;100;0;343.91;-4;-20.21;-0.26;595.1;13.70;76005;2837.501;-1801.549;1;324;-130;-133.9;43.9;43.9;22;22.6;25.5;0.0;
28/02/2025 23:23:53;100;0;343.23;-4;-20.07;-0.26;597.2;13.70;76003;2837.504;-1801.550;1;324;-130;-133.9;43.9;43.9;19;19.0;25.5;0.0;
28/02/2025 23:24:13;100;0;344.67;-4;-19.60;-2.32;599.5;13.60;76002;2837.507;-1801.552;1;324;-130;-133.9;43.9;43.7;21;21.2;25.5;0.0;
28/02/2025 23:24:33;100;0;344.47;-4;-19.45;-0.76;601.8;13.60;75993;2837.510;-1801.553;1;324;-130;-133.9;43.9;43.9;21;21.7;25.5;0.0;
28/02/2025 23:24:53;100;0;344.17;-4;-19.54;-0.76;603.8;13.60;75985;2837.512;-1801.555;1;324;-130;-133.9;43.9;43.9;21;21.7;25.5;0.0;
28/02/2025 23:25:13;100;0;342.06;-4;-19.67;-0.74;605.9;13.60;75987;2837.515;-1801.556;1;324;-130;-133.9;43.9;43.9;18;18.1;25.5;0.0;
28/02/2025 23:25:33;100;0;341.38;-4;-19.61;-2.81;607.9;13.60;75987;2837.518;-1801.558;1;324;-130;-133.9;43.9;43.7;18;17.6;25.5;0.0;
28/02/2025 23:25:53;100;0;342.08;-4;-19.65;-2.78;610.1;13.50;75978;2837.520;-1801.559;1;324;-130;-133.9;43.9;43.9;18;17.6;25.5;0.0;
28/02/2025 23:26:13;100;0;341.06;-4;-19.34;-2.86;612.1;13.50;75981;2837.523;-1801.561;1;324;-130;-133.9;43.9;43.9;18;17.6;25.5;0.0;
28/02/2025 23:26:33;100;0;337.94;-4;-19.53;-2.83;614.1;13.50;75972;2837.525;-1801.562;1;324;-130;-133.9;43.9;43.9;16;15.8;25.5;0.0;
28/02/2025 23:26:53;100;0;335.35;-4;-19.52;-3.76;616.3;13.50;75961;2837.528;-1801.564;1;324;-130;-133.9;43.9;43.9;16;15.8;25.5;0.0;
28/02/2025 23:27:13;100;0;334.26;-4;-19.34;-3.79;618.4;13.50;75968;2837.530;-1801.566;1;324;-130;-133.9;43.9;43.7;16;15.8;25.5;0.0;
28/02/2025 23:27:33;100;0;332.77;-4;-19.27;-3.81;620.5;13.40;75952;2837.533;-1801.568;1;324;-130;-132.3;43.9;43.9;16;15.8;25.5;0.0;
28/02/2025 23:27:53;100;0;330.37;-4;-19.55;-3.78;622.6;13.40;75947;2837.535;-1801.570;1;324;-130;-133.9;43.9;43.9;16;15.8;25.5;0.0;
28/02/2025 23:28:13;100;0;328.29;-4;-19.33;-3.78;624.9;13.40;75948;2837.538;-1801.573;1;324;-130;-133.9;43.9;43.9;16;15.8;25.5;0.0;
28/02/2025 23:28:33;100;0;326.03;-4;-19.11;-3.81;627.0;13.40;75944;2837.540;-1801.575;1;324;-130;-132.3;43.9;43.9;16;15.8;25.5;0.0;
28/02/2025 23:28:53;100;0;326.00;-4;-19.01;-3.81;629.3;13.40;75937;2837.543;-1801.577;1;324;-130;-133.9;43.9;43.7;16;15.8;25.5;0.0;
28/02/2025 23:29:13;100;0;325.96;-4;-19.20;-3.86;631.3;13.30;75932;2837.545;-1801.580;1;324;-130;-132.3;43.9;43.7;14;14.0;25.5;0.0;
28/02/2025 23:29:33;100;0;326.83;-4;-19.10;-4.77;633.5;13.30;75914;2837.547;-1801.582;1;324;-130;-133.9;43.9;43.7;14;14.0;25.5;0.0;
28/02/2025 23:29:53;100;0;328.20;-4;-19.09;-4.69;635.6;13.30;75925;2837.550;-1801.584;1;324;-130;-133.9;43.9;43.7;14;14.0;25.5;0.0;
28/02/2025 23:30:13;100;0;328.80;-4;-19.30;-4.68;637.9;13.30;75927;2837.552;-1801.587;1;324;-130;-133.9;43.9;43.9;14;13.5;25.5;0.0;
28/02/2025 23:30:33;100;0;329.69;-4;-19.13;-4.74;640.1;13.30;75916;2837.555;-1801.589;1;324;-130;-135.5;43.9;43.7;14;14.0;25.5;0.0;
28/02/2025 23:30:53;100;0;330.51;-4;-19.14;-4.78;642.4;13.20;75907;2837.558;-1801.591;1;324;-130;-133.9;43.9;43.9;14;14.0;25.5;0.0;
28/02/2025 23:31:13;100;0;330.07;-4;-19.19;-4.69;644.5;13.20;75915;2837.560;-1801.593;1;324;-130;-133.9;43.9;43.7;14;14.0;25.5;0.0;
28/02/2025 23:31:33;100;0;330.84;-4;-19.68;-4.72;646.8;13.20;75899;2837.563;-1801.596;1;324;-130;-133.9;43.9;43.9;14;14.0;25.5;0.0;
28/02/2025 23:31:53;100;0;329.51;-4;-17.87;-4.90;649.1;13.20;75897;2837.565;-1801.598;1;324;-130;-133.9;44.5;44.5;14;13.5;25.5;0.0;
28/02/2025 23:32:13;100;0;328.23;-4;-20.73;-4.69;651.3;13.20;75899;2837.568;-1801.600;1;324;-130;-133.9;44.5;44.6;14;14.0;25.5;0.0;
28/02/2025 23:32:33;100;0;327.33;-4;-20.91;-4.66;653.7;13.10;75891;2837.570;-1801.602;1;324;-130;-132.3;44.5;44.6;14;14.0;25.5;0.0;
28/02/2025 23:32:53;100;0;328.72;-4;-20.90;-4.69;656.4;13.10;75888;2837.573;-1801.605;1;324;-130;-133.9;44.5;44.8;14;14.0;25.5;0.0;
28/02/2025 23:33:13;100;0;330.87;-4;-20.99;-4.66;659.0;13.10;75870;2837.576;-1801.607;1;324;-130;-133.9;44.5;44.8;14;14.0;25.5;0.0;
28/02/2025 23:33:33;100;0;332.75;-4;-20.96;-4.66;661.6;13.10;75870;2837.579;-1801.610;1;324;-130;-133.9;44.5;44.8;14;13.5;25.5;0.0;
28/02/2025 23:33:53;100;0;334.07;-4;-20.75;-4.66;664.2;13.10;75863;2837.582;-1801.612;1;324;-130;-133.9;44.5;44.8;14;14.0;25.5;0.0;
28/02/2025 23:34:13;100;0;336.60;-4;-20.62;-4.71;666.9;13.00;75861;2837.585;-1801.614;1;324;-130;-133.9;44.5;44.6;16;15.8;25.5;0.0;
28/02/2025 23:34:33;100;0;339.59;-4;-21.20;-3.50;669.6;13.00;75854;2837.588;-1801.616;1;324;-130;-133.9;44.5;44.8;16;16.2;25.5;0.0;
28/02/2025 23:34:53;100;0;339.59;-4;-21.23;-3.51;672.1;13.00;75841;2837.591;-1801.617;1;324;-130;-133.9;44.5;44.8;16;15.8;25.5;0.0;
28/02/2025 23:35:13;100;0;341.01;-4;-21.06;-3.43;675.0;13.00;75834;2837.594;-1801.619;1;324;-130;-133.9;44.5;44.8;19;19.0;25.5;0.0;
28/02/2025 23:35:33;100;0;339.45;-4;-21.16;-1.81;677.4;13.00;75812;2837.597;-1801.621;1;324;-130;-132.3;44.5;44.8;17;17.1;25.5;0.0;
28/02/2025 23:35:53;100;0;338.06;-4;-21.24;-3.09;680.2;12.90;75817;2837.600;-1801.623;1;324;-130;-133.9;44.5;44.8;17;17.1;25.5;0.0;
28/02/2025 23:36:13;100;0;335.96;-4;-21.13;-3.09;682.7;12.90;75812;2837.603;-1801.625;1;324;-130;-133.9;44.5;44.8;17;17.1;25.5;0.0;
28/02/2025 23:36:33;100;0;334.32;-4;-21.02;-3.05;685.3;12.90;75797;2837.606;-1801.627;1;324;-130;-135.5;44.5;44.8;15;14.9;25.5;0.0;
28/02/2025 23:36:53;100;0;334.55;-4;-20.71;-4.24;687.7;12.80;75790;2837.609;-1801.629;1;324;-130;-133.9;44.5;44.8;15;14.4;25.5;0.0;
28/02/2025 23:37:13;100;0;333.76;-4;-20.86;-4.27;690.1;12.80;75780;2837.612;-1801.631;1;324;-130;-133.9;44.5;44.6;15;14.9;25.5;0.0;
28/02/2025 23:37:33;100;0;332.95;-4;-20.48;-4.29;692.4;12.80;75775;2837.614;-1801.633;1;324;-130;-133.9;44.5;44.8;15;14.4;25.5;0.0;
28/02/2025 23:37:53;100;0;332.83;-4;-20.95;-4.28;694.7;12.80;75767;2837.617;-1801.635;1;324;-130;-133.9;44.5;44.6;15;14.4;25.5;0.0;
28/02/2025 23:38:14;100;0;334.90;-4;-20.95;-4.31;696.9;12.70;75745;2837.619;-1801.637;1;324;-130;-133.9;44.5;44.8;15;14.9;25.5;0.0;
28/02/2025 23:38:34;100;0;335.81;-4;-21.05;-4.27;699.5;12.70;75748;2837.622;-1801.639;1;324;-130;-133.9;44.5;44.8;15;14.4;25.5;0.0;
28/02/2025 23:38:54;100;0;336.59;-4;-20.82;-4.20;701.7;12.70;75737;2837.625;-1801.641;1;324;-130;-132.3;44.5;44.8;15;14.9;25.5;0.0;
28/02/2025 23:39:14;100;0;337.12;-4;-20.85;-4.25;704.2;12.70;75730;2837.628;-1801.643;1;324;-130;-133.9;44.5;44.8;15;14.4;25.5;0.0;
28/02/2025 23:39:34;100;0;339.15;-4;-21.06;-4.18;706.7;12.60;75726;2837.631;-1801.645;1;324;-130;-133.9;44.5;44.8;17;17.1;25.5;0.0;
28/02/2025 23:39:54;100;0;338.47;-4;-21.29;-2.87;709.1;12.60;75716;2837.633;-1801.647;1;324;-130;-133.9;44.5;44.8;17;17.1;25.5;0.0;
28/02/2025 23:40:14;100;0;336.90;-4;-21.16;-2.88;711.7;12.60;75720;2837.636;-1801.649;1;324;-130;-133.9;44.5;44.8;17;17.1;25.5;0.0;
28/02/2025 23:40:34;100;0;336.19;-4;-21.05;-2.82;714.2;12.60;75710;2837.639;-1801.651;1;324;-130;-133.9;44.5;44.8;17;17.1;25.5;0.0;
28/02/2025 23:40:54;100;0;334.91;-4;-21.00;-2.96;716.7;12.50;75706;2837.642;-1801.653;1;324;-130;-133.9;44.5;44.8;17;17.1;25.5;0.0;
28/02/2025 23:41:14;100;0;334.08;-4;-21.14;-2.95;719.2;12.50;75707;2837.645;-1801.655;1;324;-130;-133.9;44.5;44.8;17;17.1;25.5;0.0;
28/02/2025 23:41:34;100;0;333.10;-4;-20.99;-2.92;721.7;12.50;75700;2837.648;-1801.657;1;324;-130;-133.9;44.5;44.8;17;17.1;25.5;0.0;
28/02/2025 23:41:54;100;0;332.14;-4;-21.15;-2.95;724.1;12.50;75693;2837.650;-1801.659;1;324;-130;-133.9;44.5;44.8;17;17.1;25.5;0.0;
28/02/2025 23:42:14;100;0;330.68;-4;-21.16;-2.91;726.5;12.50;75691;2837.653;-1801.661;1;324;-130;-135.5;44.5;44.8;17;17.1;25.5;0.0;
28/02/2025 23:42:34;100;0;328.56;-4;-21.02;-2.98;729.1;12.40;75701;2837.656;-1801.664;1;324;-130;-133.9;44.5;44.8;17;17.1;25.5;0.0;
28/02/2025 23:42:54;100;0;326.75;-4;-21.02;-2.86;731.5;12.40;75680;2837.658;-1801.666;1;324;-130;-133.9;44.5;44.8;15;14.4;25.5;0.0;
28/02/2025 23:43:14;100;0;326.06;-4;-20.88;-4.25;733.9;12.40;75678;2837.661;-1801.669;1;324;-130;-137.1;44.5;44.8;15;14.4;25.5;0.0;
28/02/2025 23:43:34;100;0;325.90;-4;-20.95;-4.31;736.3;12.40;75690;2837.663;-1801.671;1;324;-130;-133.9;44.5;44.8;15;14.4;25.5;0.0;
28/02/2025 23:43:54;100;0;326.03;-4;-20.82;-4.26;738.4;12.30;75680;2837.665;-1801.673;1;324;-130;-133.9;44.5;44.8;15;14.4;25.5;0.0;
28/02/2025 23:44:14;100;0;326.35;-4;-20.77;-4.36;740.8;12.30;75673;2837.668;-1801.676;1;324;-130;-133.9;44.5;44.8;15;14.4;25.5;0.0;
28/02/2025 23:44:34;100;0;326.16;-4;-20.79;-4.31;743.2;12.30;75671;2837.670;-1801.678;1;324;-130;-133.9;44.5;44.8;15;14.4;25.5;0.0;
28/02/2025 23:44:54;100;0;325.94;-4;-21.02;-4.32;745.3;12.30;75663;2837.672;-1801.680;1;324;-130;-133.9;44.5;44.8;15;14.4;25.5;0.0;
28/02/2025 23:45:14;100;0;326.21;-4;-21.10;-4.24;747.7;12.20;75663;2837.675;-1801.683;1;324;-130;-133.9;44.5;44.6;15;14.4;25.5;0.0;
28/02/2025 23:45:34;100;0;325.25;-4;-20.73;-4.41;750.0;12.20;75656;2837.677;-1801.685;1;324;-130;-133.9;44.5;44.8;15;14.4;25.5;0.0;
28/02/2025 23:45:54;100;0;321.30;-4;-20.74;-4.33;752.2;12.20;75651;2837.679;-1801.688;1;324;-130;-133.9;44.5;44.8;12;12.2;25.5;0.0;
28/02/2025 23:46:14;100;0;321.36;-4;-21.03;-5.46;754.4;12.20;75637;2837.681;-1801.690;1;324;-130;-133.9;44.5;44.8;12;12.2;25.5;0.0;
28/02/2025 23:46:34;100;0;322.63;-4;-19.87;-5.64;756.6;12.20;75648;2837.684;-1801.693;1;324;-130;-133.9;44.5;44.8;12;12.2;25.6;0.0;
28/02/2025 23:46:54;100;0;322.62;-4;-20.85;-5.58;758.6;12.20;75656;2837.686;-1801.695;1;324;-130;-133.9;44.5;44.8;12;12.2;25.5;0.0;
28/02/2025 23:47:14;100;0;324.91;-4;-20.48;-5.49;760.7;12.10;75644;2837.688;-1801.697;1;324;-130;-135.5;44.5;44.8;14;14.0;25.5;0.0;
28/02/2025 23:47:34;100;0;326.16;-4;-20.60;-4.29;762.9;12.10;75640;2837.690;-1801.699;1;324;-130;-133.9;44.5;44.9;14;14.4;25.5;0.0;
28/02/2025 23:47:54;100;0;326.46;-4;-20.98;-4.28;764.9;12.10;75647;2837.692;-1801.702;1;324;-130;-133.9;44.5;44.8;14;14.4;25.5;0.0;
28/02/2025 23:48:14;100;0;325.94;-4;-20.76;-4.45;767.1;12.10;75643;2837.695;-1801.704;1;324;-130;-133.9;44.5;44.8;14;14.4;25.5;0.0;
28/02/2025 23:48:34;100;0;324.56;-4;-21.28;-4.22;769.4;12.10;75623;2837.697;-1801.706;1;324;-130;-132.3;44.5;44.8;14;14.4;25.5;0.0;
28/02/2025 23:48:54;100;0;326.20;-4;-20.84;-4.28;771.6;12.00;75605;2837.699;-1801.709;1;324;-130;-133.9;44.5;44.8;14;14.4;25.5;0.0;
28/02/2025 23:49:14;100;0;326.38;-4;-20.64;-4.39;774.0;12.00;75608;2837.702;-1801.711;1;324;-130;-133.9;44.5;44.8;14;14.4;25.5;0.0;
28/02/2025 23:49:34;100;0;327.14;-4;-20.63;-4.38;776.2;12.00;75596;2837.704;-1801.713;1;324;-130;-133.9;44.5;44.8;14;14.0;25.5;0.0;
28/02/2025 23:49:54;100;0;324.46;-4;-20.86;-4.46;778.4;12.00;75583;2837.706;-1801.716;1;324;-130;-133.9;44.5;44.8;14;14.4;25.5;0.0;
28/02/2025 23:50:14;100;0;321.19;-4;-21.19;-4.29;780.6;11.90;75577;2837.708;-1801.718;1;324;-130;-133.9;44.5;44.8;11;10.8;25.5;0.0;
28/02/2025 23:50:34;100;0;318.20;-4;-20.51;-6.16;783.0;11.90;75564;2837.711;-1801.721;1;324;-130;-133.9;44.5;44.8;8;8.1;25.5;0.0;
28/02/2025 23:50:54;100;0;316.23;-4;-20.21;-7.74;785.5;11.90;75564;2837.713;-1801.724;1;324;-130;-133.9;44.5;44.8;6;5.9;25.5;0.0;
28/02/2025 23:51:14;100;0;314.49;-4;-20.61;-8.68;787.8;11.90;75555;2837.715;-1801.727;1;324;-130;-133.9;44.5;44.8;2;1.8;25.5;0.0;
28/02/2025 23:51:34;100;0;316.02;-4;-19.82;-10.68;790.3;11.80;75539;2837.717;-1801.730;1;324;-130;-133.9;44.5;44.9;6;5.9;25.5;0.0;
28/02/2025 23:51:54;100;0;323.75;-4;-19.24;-8.61;792.5;11.80;75534;2837.720;-1801.732;1;324;-130;-132.3;44.5;44.8;13;13.1;25.5;0.0;
28/02/2025 23:52:14;100;0;321.04;-4;-21.03;-4.90;794.6;11.80;75528;2837.722;-1801.735;1;324;-130;-133.9;44.5;44.8;10;9.9;25.5;0.0;
28/02/2025 23:52:34;100;0;329.21;-4;-19.67;-6.65;796.9;11.80;75518;2837.724;-1801.737;1;324;-130;-133.9;44.5;44.8;15;15.3;25.5;0.0;
28/02/2025 23:52:54;100;0;331.42;-4;-20.25;-3.68;799.0;11.70;75516;2837.727;-1801.739;1;324;-130;-133.9;44.5;44.8;15;15.8;25.5;0.0;
28/02/2025 23:53:14;100;0;330.70;-4;-21.04;-3.81;801.1;11.70;75505;2837.729;-1801.741;1;324;-130;-132.3;44.5;44.8;15;15.8;25.5;0.0;
28/02/2025 23:53:34;100;0;331.46;-4;-20.84;-3.78;803.4;11.70;75504;2837.732;-1801.743;1;324;-130;-133.9;44.5;44.9;15;15.8;25.6;0.0;
28/02/2025 23:53:54;100;0;331.68;-4;-20.51;-3.77;805.8;11.70;75498;2837.734;-1801.745;1;324;-130;-133.9;44.5;44.8;15;15.8;25.5;0.0;
28/02/2025 23:54:14;100;0;331.02;-4;-20.65;-3.83;808.0;11.60;75476;2837.737;-1801.747;1;324;-130;-133.9;44.5;44.8;15;15.3;25.5;0.0;
28/02/2025 23:54:34;100;0;331.46;-4;-20.50;-3.67;810.4;11.60;75479;2837.739;-1801.750;1;324;-130;-133.9;44.5;44.8;15;15.3;25.5;0.0;
28/02/2025 23:54:54;100;0;330.92;-4;-20.60;-3.73;812.8;11.60;75483;2837.742;-1801.752;1;324;-130;-137.1;44.5;44.8;15;15.8;25.5;0.0;
28/02/2025 23:55:14;100;0;333.75;-4;-19.94;-3.98;815.2;11.60;75479;2837.745;-1801.754;1;324;-130;-133.9;44.5;44.8;15;15.8;25.5;0.0;
28/02/2025 23:55:34;100;0;333.42;-4;-19.96;-3.80;817.6;11.60;75469;2837.747;-1801.756;1;324;-130;-133.9;44.5;44.8;15;15.8;25.5;0.0;
28/02/2025 23:55:54;100;0;335.33;-4;-18.97;-3.66;819.7;11.50;75465;2837.750;-1801.758;1;324;-130;-132.3;44.8;44.8;15;15.3;25.5;0.0;
28/02/2025 23:56:14;100;0;334.62;-4;-19.58;-3.37;821.8;11.50;75464;2837.752;-1801.760;1;324;-130;-132.3;44.8;44.8;15;15.8;25.5;0.0;
