Timestamp;NavState;SecurityLevel;Heading;Declination;Pitch;Roll;Depth;Temperature;Pa;Lat;Lon;DeadReckoning;DesiredH;BallastCmd;BallastPos;LinCmd;LinPos;AngCmd;AngPos;Voltage;Altitude;
05/03/2025 10:01:22;119;0;63.58;-4;-50.14;-20.17;0.0;19.90;76393;2837.924;-1758.018;0;117;500;509.7;100.0;100.6;0;-0.5;24.7;-1.0;
05/03/2025 10:01:32;116;0;60.91;-4;-54.25;-24.02;0.0;19.90;76393;2837.928;-1758.021;0;117;500;506.5;100.0;100.6;0;-0.5;24.7;-1.0;
05/03/2025 10:01:57;116;0;59.33;-4;-55.51;-8.68;-0.1;20.00;76397;2837.930;-1758.021;0;117;500;509.7;100.0;100.6;0;-0.5;24.7;-1.0;
05/03/2025 10:02:07;116;0;76.37;-4;-54.44;-12.54;0.1;20.00;76391;2837.933;-1758.024;0;117;500;508.1;100.0;100.6;0;-0.5;24.7;-1.0;
05/03/2025 10:02:27;116;0;82.60;-4;-54.40;-27.14;-0.1;20.00;76398;2837.934;-1758.024;0;117;500;509.7;100.0;100.6;0;-0.5;24.7;-1.0;
05/03/2025 10:02:47;116;0;83.43;-4;-52.47;-9.77;0.2;20.00;76408;2837.937;-1758.026;0;124;500;506.5;100.0;100.6;0;-0.5;24.7;-1.0;
05/03/2025 10:03:01;116;0;88.38;-4;-55.34;0.70;0.0;20.00;76405;2837.939;-1758.028;0;124;500;509.7;100.0;100.6;0;-0.5;24.7;-1.0;
05/03/2025 10:03:21;116;0;65.41;-4;-51.48;-11.80;0.1;20.00;76415;2837.942;-1758.029;0;124;500;508.1;100.0;100.6;0;-0.5;24.7;-1.0;
05/03/2025 10:03:32;116;0;70.68;-4;-55.91;-10.27;0.2;20.00;76412;2837.943;-1758.030;0;124;500;508.1;100.0;100.6;0;-0.5;24.7;-1.0;
05/03/2025 10:04:12;116;0;45.04;-4;-55.67;-15.90;0.1;20.10;76414;2837.948;-1758.034;0;124;500;509.7;100.0;100.6;0;-0.5;24.7;-1.0;
05/03/2025 10:04:25;116;0;41.16;-4;-55.11;-7.26;0.2;20.10;76424;2837.949;-1758.034;0;124;500;509.7;100.0;100.6;0;-0.5;24.7;-1.0;
05/03/2025 10:04:45;110;0;50.41;-4;-57.53;-6.98;-0.3;20.20;76425;2837.949;-1758.034;0;124;-50;390.3;100.0;99.9;-10;-9.9;24.7;-1.0;
05/03/2025 10:04:55;110;0;49.74;-4;-53.59;-29.80;0.1;20.20;76787;2837.950;-1758.035;1;124;-50;241.9;100.0;99.9;-10;-10.4;24.7;-1.0;
05/03/2025 10:05:05;110;0;56.17;-4;-62.18;-21.88;0.4;20.20;77044;2837.951;-1758.036;1;124;-50;83.9;100.0;99.9;-10;-10.4;24.7;-1.0;
05/03/2025 10:05:15;110;0;40.73;-4;-67.32;-17.22;0.8;20.20;77360;2837.952;-1758.036;1;124;-50;-50.0;100.0;99.9;-10;-9.9;24.7;-1.0;
05/03/2025 10:05:25;110;0;48.18;-4;-67.78;-11.57;1.0;20.30;77639;2837.953;-1758.037;1;124;-50;-50.0;48.0;48.0;-10;-9.9;24.7;-1.0;
05/03/2025 10:05:45;100;0;67.22;-4;-33.49;-16.91;3.2;20.30;77607;2837.955;-1758.037;1;124;-50;-48.4;48.0;47.7;-10;-10.4;24.7;-1.0;
05/03/2025 10:06:05;100;0;75.03;-4;-30.48;-16.88;6.4;20.30;77610;2837.957;-1758.036;1;124;-50;-46.8;48.0;47.6;-56;-56.0;24.7;-1.0;
05/03/2025 10:06:25;100;0;82.63;-4;-31.90;-38.03;9.7;20.30;77604;2837.959;-1758.034;1;124;-50;-45.2;48.0;47.6;-46;-46.0;24.7;-1.0;
05/03/2025 10:06:45;100;0;93.81;-4;-29.82;-33.25;13.2;20.40;77609;2837.960;-1758.033;1;124;-50;-45.2;48.0;47.6;-31;-31.1;24.7;-1.0;
05/03/2025 10:07:05;100;0;103.19;-4;-29.79;-25.93;16.9;20.40;77603;2837.961;-1758.031;1;124;-50;-45.2;48.0;47.6;-16;-15.3;24.7;0.0;
05/03/2025 10:07:25;100;0;114.74;-4;-29.29;-18.21;20.6;20.40;77609;2837.961;-1758.029;1;124;-50;-45.2;48.0;47.7;4;4.1;24.7;0.0;
05/03/2025 10:07:45;100;0;118.65;-4;-31.01;-9.58;24.2;20.40;77609;2837.961;-1758.027;1;124;-50;-45.2;48.0;47.6;7;7.2;24.7;0.0;
05/03/2025 10:08:05;100;0;121.18;-4;-30.77;-7.65;28.1;20.40;77600;2837.960;-1758.026;1;124;-50;-46.8;48.0;47.7;11;11.3;24.7;0.0;
05/03/2025 10:08:25;100;0;123.92;-4;-30.73;-5.94;31.8;20.40;77606;2837.960;-1758.025;1;124;-50;-45.2;48.0;47.7;11;11.3;24.7;0.0;
05/03/2025 10:08:45;100;0;124.86;-4;-30.84;-5.80;35.2;20.40;77600;2837.960;-1758.024;1;124;-50;-48.4;48.0;47.7;11;11.3;24.7;0.0;
05/03/2025 10:09:05;100;0;125.69;-4;-30.34;-5.70;38.8;20.40;77612;2837.959;-1758.022;1;124;-50;-46.8;48.0;47.6;11;11.3;24.7;0.0;
05/03/2025 10:09:25;100;0;126.56;-4;-29.92;-5.44;42.7;20.40;77615;2837.959;-1758.021;1;124;-50;-45.2;48.0;47.7;11;11.7;24.7;0.0;
05/03/2025 10:09:45;100;0;127.86;-4;-29.78;-5.54;46.2;20.40;77617;2837.958;-1758.020;1;124;-50;-45.2;48.0;47.7;11;11.3;24.7;0.0;
05/03/2025 10:10:05;100;0;126.54;-4;-30.60;-5.69;49.8;20.30;77612;2837.958;-1758.019;1;124;-50;-45.2;48.0;47.7;11;11.3;24.7;0.0;
05/03/2025 10:10:25;100;0;129.99;-4;-29.96;-5.78;53.2;20.30;77615;2837.957;-1758.018;1;124;-50;-46.8;48.0;47.6;13;13.1;24.7;0.0;
05/03/2025 10:10:45;100;0;135.79;-4;-30.38;-4.66;56.9;20.30;77618;2837.957;-1758.017;1;124;-50;-45.2;48.0;47.7;13;13.1;24.7;0.0;
05/03/2025 10:11:05;100;0;138.72;-4;-29.65;-4.83;60.3;20.30;77618;2837.956;-1758.016;1;124;-50;-46.8;48.0;47.7;13;13.1;24.7;0.0;
05/03/2025 10:11:25;100;0;139.89;-4;-29.86;-4.76;63.7;20.30;77616;2837.955;-1758.016;1;124;-50;-45.2;48.0;47.6;15;14.9;24.7;0.0;
05/03/2025 10:11:45;100;0;138.82;-4;-30.60;-3.65;66.9;20.30;77608;2837.954;-1758.015;1;124;-50;-45.2;48.0;47.7;15;14.9;24.7;0.0;
05/03/2025 10:12:05;100;0;136.40;-4;-30.73;-3.80;70.4;20.30;77606;2837.954;-1758.015;1;124;-50;-43.5;48.0;47.7;13;13.1;24.7;0.0;
05/03/2025 10:12:25;100;0;135.77;-4;-30.19;-5.31;73.9;20.30;77617;2837.953;-1758.014;1;124;-50;-45.2;48.0;47.7;13;12.6;24.7;0.0;
05/03/2025 10:12:45;100;0;137.08;-4;-30.52;-5.16;77.4;20.30;77614;2837.952;-1758.013;1;124;-50;-43.5;48.0;47.7;13;12.6;24.7;0.0;
05/03/2025 10:13:05;100;0;131.88;-4;-29.54;-4.97;81.1;20.30;77622;2837.951;-1758.012;1;124;-50;-45.2;48.0;47.7;13;12.6;24.7;0.0;
05/03/2025 10:13:25;100;0;128.98;-4;-29.47;-5.30;83.9;20.30;77602;2837.951;-1758.012;1;124;-50;-45.2;48.0;47.6;13;12.6;24.7;0.0;
05/03/2025 10:13:45;100;0;130.03;-4;-29.87;-5.20;86.9;20.30;77615;2837.951;-1758.011;1;124;-50;-45.2;48.0;47.7;13;12.6;24.7;0.0;
05/03/2025 10:14:05;100;0;134.01;-4;-29.48;-5.11;89.9;20.30;77613;2837.950;-1758.010;1;124;-50;-45.2;48.0;47.7;13;12.6;24.7;0.0;
05/03/2025 10:14:25;100;0;134.90;-4;-31.09;-5.63;92.8;20.30;77616;2837.950;-1758.010;1;124;-50;-43.5;48.0;47.7;13;12.6;24.7;0.0;
05/03/2025 10:14:45;100;0;131.73;-4;-30.88;-5.48;95.8;20.30;77618;2837.950;-1758.010;1;124;-50;-45.2;48.0;47.7;13;12.6;24.7;0.0;
05/03/2025 10:15:05;100;0;132.29;-4;-29.81;-4.83;99.2;20.30;77613;2837.949;-1758.009;1;124;-50;-46.8;48.0;47.7;13;12.6;24.7;0.0;
05/03/2025 10:15:25;100;0;132.29;-4;-30.49;-5.10;102.4;20.20;77606;2837.949;-1758.008;1;124;-50;-45.2;48.0;47.6;13;12.6;24.7;0.0;
05/03/2025 10:15:45;100;0;131.52;-4;-30.26;-5.43;105.8;20.20;77615;2837.948;-1758.007;1;124;-50;-45.2;48.0;47.6;13;12.6;24.7;0.0;
05/03/2025 10:16:05;100;0;130.27;-4;-30.81;-5.32;109.4;20.20;77602;2837.948;-1758.006;1;124;-50;-48.4;48.0;47.7;13;12.6;24.7;0.0;
05/03/2025 10:16:25;100;0;129.71;-4;-30.16;-5.16;112.9;20.20;77615;2837.947;-1758.005;1;124;-50;-45.2;48.0;47.6;13;12.6;24.7;0.0;
05/03/2025 10:16:45;100;0;128.92;-4;-28.87;-5.61;116.2;20.20;77613;2837.947;-1758.004;1;124;-50;-45.2;48.3;48.3;13;12.6;24.7;0.0;
05/03/2025 10:17:05;100;0;126.72;-4;-30.72;-6.53;119.3;20.20;77607;2837.946;-1758.003;1;124;-50;-45.2;48.3;48.5;13;12.6;24.7;0.0;
05/03/2025 10:17:25;100;0;131.00;-4;-29.71;-5.20;122.8;20.20;77597;2837.946;-1758.003;1;124;-50;-45.2;48.3;48.5;13;12.6;24.7;0.0;
05/03/2025 10:17:45;100;0;131.25;-4;-30.53;-5.75;125.9;20.20;77606;2837.946;-1758.002;1;124;-50;-45.2;48.3;48.5;13;12.6;24.7;0.0;
05/03/2025 10:18:05;100;0;126.32;-4;-30.57;-5.68;129.1;20.20;77587;2837.945;-1758.001;1;124;-50;-45.2;48.3;48.5;13;12.6;24.7;0.0;
05/03/2025 10:18:25;100;0;127.75;-4;-30.30;-4.31;132.4;20.20;77598;2837.945;-1758.000;1;124;-50;-48.4;48.3;48.6;13;12.6;24.7;0.0;
05/03/2025 10:18:45;100;0;127.10;-4;-31.05;-5.25;135.7;20.20;77596;2837.945;-1757.999;1;124;-50;-45.2;48.3;48.5;13;12.6;24.7;0.0;
05/03/2025 10:19:05;100;0;129.15;-4;-30.79;-5.18;139.3;20.10;77596;2837.944;-1757.998;1;124;-50;-45.2;48.3;48.5;13;12.6;24.7;0.0;
05/03/2025 10:19:25;100;0;127.06;-4;-31.03;-5.28;142.7;20.10;77599;2837.944;-1757.997;1;124;-50;-45.2;48.3;48.5;13;12.6;24.7;0.0;
05/03/2025 10:19:45;100;0;121.94;-4;-30.92;-5.25;146.4;20.10;77592;2837.944;-1757.996;1;124;-50;-45.2;48.3;48.5;11;10.8;24.7;0.0;
05/03/2025 10:20:00;118;0;119.50;-4;-30.92;-6.58;148.9;20.10;77607;2837.944;-1757.995;1;124;190;-40.3;21.1;21.1;11;10.4;24.7;0.0;
05/03/2025 10:20:10;118;0;113.34;-4;-19.12;-6.98;150.3;20.10;77585;2837.943;-1757.994;1;124;190;88.7;21.1;20.9;11;10.4;24.3;-1.0;
05/03/2025 10:20:20;118;0;108.52;-4;9.39;-6.89;150.5;20.10;77300;2837.944;-1757.994;1;124;190;195.2;21.1;20.5;11;9.9;24.3;-1.0;
05/03/2025 10:20:30;118;0;122.96;-4;23.92;-7.57;149.6;20.10;77101;2837.944;-1757.994;1;124;190;193.5;21.1;21.1;11;10.4;24.7;-1.0;
05/03/2025 10:20:40;118;0;121.87;-4;27.35;-7.28;148.4;20.10;77113;2837.944;-1757.994;1;124;190;195.2;21.1;21.2;11;9.9;24.7;-1.0;
05/03/2025 10:21:00;117;0;117.06;-4;27.78;-7.26;145.5;20.10;77113;2837.945;-1757.993;1;124;190;193.5;21.1;21.2;11;10.4;24.7;-1.0;
05/03/2025 10:21:20;117;0;111.80;-4;28.81;-7.12;142.6;20.10;77101;2837.945;-1757.992;1;124;190;195.2;20.8;20.6;52;52.3;24.7;-1.0;
05/03/2025 10:21:40;117;0;116.75;-4;32.12;15.74;139.7;20.10;77108;2837.946;-1757.991;1;124;190;193.5;21.4;21.5;44;43.8;24.7;-1.0;
05/03/2025 10:22:00;117;0;118.66;-4;31.28;10.70;136.6;20.10;77108;2837.946;-1757.990;1;124;190;195.2;21.4;21.5;40;40.2;24.7;-1.0;
05/03/2025 10:22:20;117;0;120.83;-4;30.64;8.81;133.5;20.10;77117;2837.946;-1757.989;1;124;190;195.2;21.4;21.5;38;37.9;24.7;-1.0;
05/03/2025 10:22:40;117;0;120.68;-4;30.85;7.31;130.5;20.10;77101;2837.946;-1757.989;1;124;190;195.2;21.4;21.5;38;37.5;24.7;-1.0;
05/03/2025 10:23:00;117;0;120.63;-4;30.97;8.03;127.5;20.10;77113;2837.946;-1757.988;1;124;190;193.5;21.4;21.5;38;37.5;24.7;-1.0;
05/03/2025 10:23:20;117;0;121.75;-4;29.22;7.28;124.4;20.00;77110;2837.946;-1757.987;1;124;190;193.5;21.4;21.5;36;36.1;24.7;-1.0;
05/03/2025 10:23:40;117;0;123.01;-4;32.45;6.99;121.6;20.00;77117;2837.946;-1757.986;1;124;190;195.2;22.1;22.1;36;36.1;24.7;-1.0;
05/03/2025 10:24:00;117;0;119.46;-4;29.59;6.42;118.4;20.00;77117;2837.946;-1757.985;1;124;190;193.5;22.1;22.2;38;37.9;24.7;-1.0;
05/03/2025 10:24:21;117;0;119.60;-4;28.35;7.75;115.4;20.00;77119;2837.946;-1757.984;1;124;190;195.2;21.6;21.5;38;37.9;24.7;-1.0;
05/03/2025 10:24:41;117;0;118.51;-4;29.84;7.70;112.5;20.00;77117;2837.946;-1757.983;1;124;190;195.2;21.6;21.4;41;41.1;24.7;-1.0;
05/03/2025 10:25:01;117;0;117.29;-4;30.16;9.35;109.6;20.00;77115;2837.947;-1757.982;1;124;190;195.2;21.6;21.5;41;41.1;24.7;-1.0;
05/03/2025 10:25:21;117;0;116.25;-4;30.75;9.48;106.7;20.00;77115;2837.947;-1757.981;1;124;190;195.2;21.6;21.5;44;44.7;24.7;-1.0;
05/03/2025 10:25:41;117;0;116.47;-4;30.40;11.03;103.8;20.00;77119;2837.947;-1757.980;1;124;190;195.2;21.6;21.5;44;44.7;24.7;-1.0;
05/03/2025 10:26:01;117;0;117.87;-4;29.10;11.31;101.1;20.00;77116;2837.948;-1757.980;1;124;190;193.5;21.6;21.5;42;42.0;24.7;-1.0;
05/03/2025 10:26:21;117;0;121.18;-4;30.41;9.36;98.5;20.00;77113;2837.948;-1757.979;1;124;190;195.2;21.6;21.4;39;38.4;24.7;-1.0;
05/03/2025 10:26:41;117;0;121.18;-4;30.89;7.76;95.4;20.00;77118;2837.948;-1757.978;1;124;190;195.2;21.6;21.5;39;37.9;24.7;-1.0;
05/03/2025 10:27:01;117;0;118.63;-4;29.50;7.74;92.5;20.00;77107;2837.948;-1757.977;1;124;190;195.2;21.6;21.4;41;41.1;24.7;-1.0;
05/03/2025 10:27:21;117;0;120.88;-4;30.29;9.64;89.6;20.00;77116;2837.948;-1757.976;1;124;190;195.2;21.6;21.4;38;37.5;24.7;-1.0;
05/03/2025 10:27:41;117;0;118.99;-4;29.50;7.00;86.9;20.00;77126;2837.948;-1757.976;1;124;190;193.5;21.6;21.5;41;41.1;24.7;-1.0;
05/03/2025 10:28:01;117;0;120.26;-4;29.31;9.62;84.2;20.00;77118;2837.949;-1757.975;1;124;190;195.2;21.6;21.5;39;38.8;24.7;-1.0;
05/03/2025 10:28:21;117;0;119.92;-4;28.62;7.96;81.5;20.00;77118;2837.949;-1757.974;1;124;190;196.8;21.2;21.2;39;37.9;24.7;-1.0;
05/03/2025 10:28:41;117;0;123.75;-4;30.72;7.71;79.2;20.00;77111;2837.949;-1757.974;1;124;190;191.9;21.2;21.1;39;37.9;24.7;-1.0;
05/03/2025 10:29:01;117;0;123.17;-4;30.96;7.67;76.5;20.00;77114;2837.949;-1757.974;1;124;190;195.2;21.2;21.1;37;37.0;24.7;-1.0;
05/03/2025 10:29:21;117;0;123.41;-4;29.67;7.06;74.0;20.00;77118;2837.950;-1757.973;1;124;190;195.2;21.2;21.1;37;36.6;24.7;-1.0;
05/03/2025 10:29:41;117;0;126.32;-4;30.74;6.76;71.6;20.00;77115;2837.950;-1757.973;1;124;190;193.5;21.2;21.1;37;36.6;24.7;-1.0;
05/03/2025 10:30:01;117;0;125.52;-4;31.60;6.70;69.0;20.00;77115;2837.950;-1757.973;1;124;190;195.2;21.2;21.1;37;36.6;24.7;-1.0;
05/03/2025 10:30:21;117;0;128.36;-4;29.57;6.76;66.5;20.00;77120;2837.950;-1757.972;1;124;190;195.2;21.2;21.1;35;35.2;24.7;-1.0;
05/03/2025 10:30:41;117;0;126.46;-4;30.10;5.89;64.2;20.00;77115;2837.950;-1757.972;1;124;190;195.2;21.2;21.2;35;34.3;24.7;-1.0;
05/03/2025 10:31:01;117;0;127.85;-4;30.82;5.44;62.1;20.00;77120;2837.951;-1757.972;1;124;190;195.2;21.2;21.1;35;34.3;24.7;-1.0;
05/03/2025 10:31:21;117;0;129.68;-4;30.60;5.40;59.9;20.00;77120;2837.951;-1757.972;1;124;190;195.2;21.2;21.1;35;34.3;24.7;-1.0;
05/03/2025 10:31:41;117;0;126.78;-4;30.67;5.64;57.3;20.00;77120;2837.951;-1757.972;1;124;190;195.2;21.2;21.1;35;34.3;24.7;-1.0;
05/03/2025 10:32:01;117;0;120.23;-4;29.99;5.85;55.2;20.00;77122;2837.951;-1757.972;1;124;190;195.2;21.2;21.1;43;42.9;24.7;-1.0;
05/03/2025 10:32:21;117;0;118.58;-4;33.02;10.53;52.8;20.00;77123;2837.952;-1757.972;1;124;190;196.8;22.1;22.1;46;46.0;24.7;-1.0;
05/03/2025 10:32:41;117;0;122.25;-4;28.55;12.53;50.1;20.00;77133;2837.952;-1757.971;1;124;190;193.5;21.7;21.4;38;37.9;24.7;-1.0;
05/03/2025 10:33:01;117;0;120.62;-4;29.92;7.21;47.8;20.00;77133;2837.952;-1757.971;1;124;190;191.9;21.7;21.4;42;42.0;24.7;-1.0;
05/03/2025 10:33:21;117;0;117.22;-4;28.19;10.39;45.1;20.00;77136;2837.953;-1757.970;1;124;190;195.2;21.1;21.2;42;42.4;24.7;-1.0;
05/03/2025 10:33:41;117;0;117.31;-4;31.78;10.50;43.1;20.00;77141;2837.953;-1757.970;1;124;190;195.2;21.1;21.1;49;49.2;24.7;-1.0;
05/03/2025 10:34:01;117;0;122.14;-4;32.17;14.53;40.3;20.00;77136;2837.954;-1757.969;1;124;190;195.2;21.8;21.8;39;38.4;24.7;-1.0;
05/03/2025 10:34:21;117;0;119.88;-4;28.30;7.98;37.6;20.00;77130;2837.954;-1757.968;1;124;190;195.2;21.3;21.4;39;37.9;24.7;-1.0;
05/03/2025 10:34:41;117;0;118.19;-4;30.72;8.02;35.3;20.00;77136;2837.954;-1757.968;1;124;190;195.2;21.3;21.2;47;46.9;24.7;-1.0;
05/03/2025 10:35:01;117;0;116.28;-4;30.95;12.98;32.7;20.00;77144;2837.955;-1757.968;1;124;190;193.5;21.3;21.2;47;47.4;24.7;-1.0;
05/03/2025 10:35:21;117;0;114.83;-4;30.72;13.06;30.4;20.00;77141;2837.955;-1757.967;1;124;190;195.2;21.3;21.2;50;50.1;24.7;-1.0;
05/03/2025 10:35:41;117;0;115.52;-4;31.23;14.51;27.6;20.00;77144;2837.956;-1757.966;1;124;190;195.2;21.3;21.2;48;47.4;24.7;-1.0;
05/03/2025 10:36:01;117;0;120.63;-4;31.08;12.54;25.0;20.00;77133;2837.956;-1757.966;1;124;190;193.5;21.3;21.2;41;41.1;24.7;-1.0;
05/03/2025 10:36:21;117;0;120.55;-4;28.95;8.88;22.3;20.00;77149;2837.956;-1757.965;1;124;190;195.2;21.0;20.8;41;40.6;24.7;-1.0;
05/03/2025 10:36:41;117;0;120.36;-4;30.72;9.04;19.8;20.00;77141;2837.957;-1757.965;1;124;190;195.2;21.0;20.8;41;40.6;24.7;-1.0;
05/03/2025 10:37:01;117;0;121.35;-4;31.53;9.07;17.1;20.00;77141;2837.957;-1757.964;1;124;190;195.2;21.0;20.6;41;40.2;24.7;-1.0;
05/03/2025 10:37:21;117;0;118.70;-4;31.45;9.18;14.4;20.00;77138;2837.957;-1757.964;1;124;190;195.2;21.0;20.8;43;42.9;24.7;-1.0;
05/03/2025 10:37:41;117;0;123.06;-4;30.88;10.75;11.5;20.00;77141;2837.957;-1757.963;1;124;190;196.8;21.0;20.6;38;37.5;24.7;-1.0;
05/03/2025 10:38:01;117;0;122.21;-4;30.23;7.25;8.7;20.00;77141;2837.957;-1757.962;1;124;190;195.2;21.0;20.6;38;37.0;24.7;-1.0;
05/03/2025 10:38:21;117;0;119.76;-4;30.36;7.07;5.9;20.00;77147;2837.958;-1757.962;1;124;190;193.5;21.0;20.8;41;41.1;24.7;-1.0;
05/03/2025 10:38:41;117;0;120.92;-4;30.83;9.42;3.2;20.00;77138;2837.958;-1757.961;1;124;190;195.2;21.0;20.6;41;41.1;24.7;-1.0;
05/03/2025 10:38:44;115;0;122.42;-4;30.90;9.47;2.7;20.00;77140;2837.958;-1757.961;1;124;500;203.2;100.0;56.8;0;0.0;24.7;-1.0;
05/03/2025 10:38:54;115;0;105.59;-4;15.30;-13.39;1.7;20.00;77120;2837.958;-1757.960;1;124;500;321.0;100.0;100.0;0;0.0;24.4;-1.0;
05/03/2025 10:39:04;115;0;111.01;-4;-57.58;-11.60;2.0;20.00;76845;2837.959;-1757.961;1;124;500;440.3;100.0;100.3;0;0.0;24.4;-1.0;
05/03/2025 10:39:14;115;0;95.54;-4;-70.81;-7.73;1.7;20.00;76592;2837.959;-1757.961;1;124;500;508.1;100.0;100.4;0;-0.5;24.4;-1.0;
05/03/2025 10:39:24;115;0;99.73;-4;-35.52;-14.20;-0.3;20.00;76461;2837.960;-1757.960;1;124;500;508.1;100.0;100.4;0;0.0;24.7;-1.0;
05/03/2025 10:39:44;119;0;106.26;-4;-61.62;-10.94;-0.1;20.00;76461;2837.960;-1757.960;1;124;500;508.1;100.0;100.4;0;0.0;24.7;-1.0;
05/03/2025 10:39:54;119;0;118.41;-4;-53.66;-13.68;-0.1;20.10;76463;2837.951;-1757.953;0;124;500;508.1;100.0;100.4;0;0.0;24.7;-1.0;
