Timestamp;NavState;SecurityLevel;Heading;Declination;Pitch;Roll;Depth;Temperature;Pa;Lat;Lon;DeadReckoning;DesiredH;BallastCmd;BallastPos;LinCmd;LinPos;AngCmd;AngPos;Voltage;Altitude;
12/02/2025 14:12:03;119;0;221.89;-4;-53.46;-11.93;0.5;18.60;76457;2836.254;-1758.047;0;193;500;506.5;100.0;100.6;0;-0.5;29.1;-1.0;
12/02/2025 14:12:13;116;0;206.90;-4;-51.37;-11.17;0.6;18.70;76472;2836.256;-1758.043;0;193;500;509.7;100.0;100.6;0;-0.5;29.1;-1.0;
12/02/2025 14:12:40;116;0;220.84;-4;-49.69;-4.91;0.7;18.70;76490;2836.255;-1758.040;0;193;500;508.1;100.0;100.6;0;-0.5;29.1;-1.0;
12/02/2025 14:13:07;116;0;197.40;-4;-52.51;-5.50;0.8;18.90;76498;2836.255;-1758.040;0;-9999;500;508.1;100.0;100.6;0;-0.5;29.1;-1.0;
12/02/2025 14:13:29;116;0;209.38;-4;-53.55;-15.95;0.8;19.00;76503;2836.255;-1758.037;0;207;500;508.1;100.0;100.6;0;-0.5;29.1;-1.0;
12/02/2025 14:13:49;116;0;209.43;-4;-51.02;-23.65;1.0;19.10;76525;2836.254;-1758.036;0;207;500;508.1;100.0;100.6;0;-0.5;29.1;-1.0;
12/02/2025 14:14:51;116;0;202.47;-4;-52.51;-17.68;0.9;19.40;76551;2836.248;-1758.026;0;207;500;508.1;100.0;100.6;0;-0.5;29.1;-1.0;
12/02/2025 14:15:11;116;0;201.21;-4;-49.65;-13.13;0.9;19.60;76569;2836.249;-1758.025;0;208;500;509.7;100.0;100.6;0;-0.5;29.1;-1.0;
12/02/2025 14:15:31;116;0;205.53;-4;-53.92;-14.64;0.9;19.70;76582;2836.251;-1758.023;0;208;500;509.7;100.0;100.6;0;-0.5;29.1;-1.0;
12/02/2025 14:16:23;116;0;223.18;-4;-48.85;-23.45;0.9;20.00;76584;2836.249;-1758.015;0;208;500;508.1;100.0;100.6;0;-0.5;29.1;-1.0;
12/02/2025 14:16:34;116;0;218.91;-4;-51.53;-15.22;1.0;20.10;76600;2836.249;-1758.016;0;208;500;509.7;100.0;100.6;0;-0.5;29.1;-1.0;
12/02/2025 14:16:54;116;0;211.29;-4;-50.61;-3.68;0.9;20.20;76607;2836.249;-1758.012;0;208;500;509.7;100.0;100.6;0;-0.5;29.1;-1.0;
12/02/2025 14:17:05;116;0;216.71;-4;-56.13;-17.01;1.0;20.20;76604;2836.248;-1758.012;0;208;500;508.1;100.0;100.6;0;-0.5;29.1;-1.0;
12/02/2025 14:17:25;110;0;225.32;-4;-51.45;-6.90;0.0;20.30;76619;2836.248;-1758.012;0;208;-100;391.9;100.0;100.6;0;-0.5;29.1;-1.0;
12/02/2025 14:17:35;110;0;215.81;-4;-55.31;-6.52;0.2;20.40;76967;2836.248;-1758.012;1;208;-100;243.5;100.0;100.6;0;-0.5;29.1;-1.0;
12/02/2025 14:17:45;110;0;207.97;-4;-56.20;-8.84;0.5;20.40;77220;2836.248;-1758.012;1;208;-100;87.1;100.0;100.6;0;-0.5;29.1;-1.0;
12/02/2025 14:17:55;110;0;212.04;-4;-63.60;-6.97;0.8;20.50;77546;2836.248;-1758.012;1;208;-100;-67.7;100.0;100.6;0;-0.5;29.1;-1.0;
12/02/2025 14:18:05;110;0;208.21;-4;-63.72;-9.30;1.0;20.50;77876;2836.247;-1758.011;1;208;-100;-100.0;50.0;49.8;0;-0.5;29.1;-1.0;
12/02/2025 14:18:15;110;0;204.67;-4;-52.28;-10.62;2.2;20.50;77896;2836.247;-1758.011;1;208;-100;-100.0;50.0;49.6;0;-0.5;29.1;-1.0;
12/02/2025 14:18:35;100;0;220.16;-4;-32.01;-11.31;5.9;20.60;77874;2836.244;-1758.013;1;208;-100;-98.4;50.0;49.6;0;-0.5;29.1;-1.0;
12/02/2025 14:18:55;100;0;229.88;-4;-31.57;-11.86;10.3;20.60;77854;2836.241;-1758.016;1;208;-100;-98.4;50.0;49.5;8;8.1;29.1;-1.0;
12/02/2025 14:19:15;100;0;236.49;-4;-32.03;-7.29;14.7;20.60;77847;2836.239;-1758.018;1;208;-100;-96.8;49.4;49.2;19;19.4;29.1;0.0;
12/02/2025 14:19:35;100;0;237.78;-4;-33.17;-2.09;19.3;20.60;77839;2836.237;-1758.021;1;208;-100;-98.4;48.4;48.5;21;21.7;29.1;0.0;
12/02/2025 14:19:55;100;0;238.22;-4;-31.83;-0.94;23.8;20.60;77834;2836.235;-1758.025;1;208;-100;-96.8;48.4;48.2;21;21.7;29.1;0.0;
12/02/2025 14:20:15;100;0;237.97;-4;-30.91;-0.82;28.4;20.60;77834;2836.233;-1758.028;1;208;-100;-98.4;48.4;48.2;23;23.0;29.1;0.0;
12/02/2025 14:20:35;100;0;236.77;-4;-31.26;0.01;32.9;20.60;77838;2836.230;-1758.031;1;208;-100;-98.4;48.4;48.2;21;21.2;29.1;0.0;
12/02/2025 14:20:55;100;0;235.52;-4;-31.20;-1.27;37.6;20.60;77838;2836.228;-1758.034;1;208;-100;-96.8;48.4;48.2;19;18.5;29.1;0.0;
12/02/2025 14:21:15;100;0;233.04;-4;-30.72;-2.52;42.3;20.50;77842;2836.225;-1758.037;1;208;-100;-98.4;48.4;48.0;15;14.9;29.1;0.0;
12/02/2025 14:21:35;100;0;230.87;-4;-30.31;-4.43;46.8;20.50;77842;2836.222;-1758.040;1;208;-100;-96.8;48.4;48.2;12;11.7;29.1;0.0;
12/02/2025 14:21:55;100;0;229.96;-4;-29.87;-5.90;51.2;20.50;77842;2836.219;-1758.043;1;208;-100;-100.0;48.4;48.0;12;11.3;29.1;0.0;
12/02/2025 14:22:15;100;0;228.58;-4;-30.25;-6.00;55.8;20.50;77838;2836.217;-1758.046;1;208;-100;-98.4;48.4;48.0;9;9.0;29.1;0.0;
12/02/2025 14:22:35;100;0;228.61;-4;-29.61;-7.07;60.1;20.50;77838;2836.214;-1758.048;1;208;-100;-98.4;48.4;48.2;9;9.0;29.1;0.0;
12/02/2025 14:22:55;100;0;228.82;-4;-29.80;-7.17;64.6;20.50;77832;2836.211;-1758.051;1;208;-100;-98.4;48.4;48.2;9;8.6;29.1;0.0;
12/02/2025 14:23:15;100;0;228.99;-4;-29.81;-7.13;69.0;20.50;77833;2836.208;-1758.054;1;208;-100;-98.4;48.4;48.2;9;9.0;29.1;0.0;
12/02/2025 14:23:35;100;0;229.35;-4;-30.00;-7.04;73.6;20.50;77853;2836.205;-1758.057;1;208;-100;-96.8;48.4;48.0;9;9.0;29.1;0.0;
12/02/2025 14:23:55;100;0;230.21;-4;-29.90;-7.06;78.2;20.50;77842;2836.202;-1758.060;1;208;-100;-98.4;48.4;48.0;11;10.8;29.1;0.0;
12/02/2025 14:24:15;100;0;230.00;-4;-29.35;-5.90;82.7;20.50;77845;2836.200;-1758.063;1;208;-100;-96.8;48.4;48.2;11;11.3;29.1;0.0;
12/02/2025 14:24:35;100;0;230.59;-4;-29.61;-5.91;87.1;20.40;77838;2836.197;-1758.066;1;207;-100;-98.4;48.4;48.0;13;13.1;29.1;0.0;
12/02/2025 14:24:55;100;0;232.54;-4;-29.44;-4.49;91.5;20.40;77841;2836.194;-1758.069;1;207;-100;-96.8;48.4;48.0;16;15.8;29.1;0.0;
12/02/2025 14:25:15;100;0;233.75;-4;-29.01;-3.00;95.6;20.40;77824;2836.192;-1758.072;1;207;-100;-96.8;48.4;48.0;19;19.0;29.1;0.0;
12/02/2025 14:25:35;100;0;235.23;-4;-28.22;-1.53;100.0;20.40;77822;2836.189;-1758.075;1;207;-100;-96.8;49.0;49.0;21;21.7;29.1;0.0;
12/02/2025 14:25:55;100;0;238.03;-4;-31.13;-0.64;104.2;20.40;77801;2836.187;-1758.078;1;207;-100;-96.8;49.0;49.3;24;23.9;29.1;0.0;
12/02/2025 14:26:15;100;0;234.58;-4;-31.70;0.49;108.8;20.30;77790;2836.184;-1758.081;1;207;-100;-96.8;49.0;49.3;20;19.4;29.1;0.0;
12/02/2025 14:26:35;100;0;239.77;-4;-31.92;-2.02;113.5;20.30;77783;2836.182;-1758.084;1;207;-100;-96.8;49.0;49.3;29;28.9;29.1;0.0;
12/02/2025 14:26:55;100;0;239.14;-4;-32.40;2.85;118.3;20.30;77765;2836.180;-1758.088;1;207;-100;-98.4;48.3;48.3;29;28.9;29.1;0.0;
12/02/2025 14:27:15;100;0;231.43;-4;-30.06;2.55;122.8;20.30;77742;2836.177;-1758.091;1;207;-100;-96.8;48.3;48.0;15;14.4;29.1;0.0;
12/02/2025 14:27:35;100;0;225.22;-4;-29.09;-4.55;127.1;20.20;77726;2836.174;-1758.093;1;207;-100;-96.8;48.3;48.0;7;7.2;29.1;0.0;
12/02/2025 14:27:55;100;0;224.11;-4;-29.40;-8.22;131.2;20.20;77710;2836.171;-1758.096;1;207;-100;-96.8;48.3;48.0;7;6.8;29.1;0.0;
12/02/2025 14:28:15;100;0;223.98;-4;-30.44;-8.20;135.5;20.20;77691;2836.168;-1758.098;1;207;-100;-98.4;48.3;48.0;7;6.8;29.1;0.0;
12/02/2025 14:28:35;100;0;222.07;-4;-29.46;-8.09;140.0;20.10;77678;2836.165;-1758.101;1;207;-100;-96.8;48.3;48.0;5;5.0;29.1;0.0;
12/02/2025 14:28:55;100;0;220.89;-4;-28.42;-9.45;144.2;20.10;77657;2836.162;-1758.103;1;207;-100;-96.8;48.7;48.7;5;4.5;29.1;0.0;
12/02/2025 14:29:15;100;0;224.77;-4;-29.09;-9.35;148.2;20.10;77647;2836.159;-1758.106;1;207;-100;-96.8;48.7;49.0;5;4.5;29.1;0.0;
12/02/2025 14:29:35;100;0;222.02;-4;-30.40;-9.32;152.2;20.00;77633;2836.156;-1758.108;1;207;-100;-96.8;48.7;49.0;5;4.5;29.1;0.0;
12/02/2025 14:29:55;100;0;219.23;-4;-29.30;-9.19;156.6;20.00;77617;2836.153;-1758.110;1;207;-100;-96.8;48.7;49.0;5;4.5;29.1;0.0;
12/02/2025 14:30:15;100;0;213.51;-4;-30.01;-9.24;160.7;20.00;77589;2836.149;-1758.112;1;207;-100;-98.4;48.7;49.0;5;4.5;29.1;0.0;
12/02/2025 14:30:35;100;0;215.83;-4;-30.38;-8.81;164.9;19.90;77581;2836.146;-1758.114;1;207;-100;-98.4;48.7;49.0;5;4.5;29.1;0.0;
12/02/2025 14:30:55;100;0;216.86;-4;-30.25;-9.62;169.0;19.90;77560;2836.143;-1758.116;1;207;-100;-98.4;48.7;49.0;5;4.5;29.1;0.0;
12/02/2025 14:31:15;100;0;217.63;-4;-30.24;-9.47;173.1;19.80;77548;2836.140;-1758.118;1;207;-100;-96.8;48.7;49.0;5;4.5;29.1;0.0;
12/02/2025 14:31:35;100;0;218.25;-4;-30.84;-9.45;177.4;19.80;77547;2836.137;-1758.120;1;207;-100;-96.8;48.7;49.0;5;4.5;29.1;0.0;
12/02/2025 14:31:55;100;0;216.44;-4;-30.00;-9.34;181.8;19.80;77529;2836.133;-1758.122;1;207;-100;-96.8;48.7;49.0;5;4.5;29.1;0.0;
12/02/2025 14:32:15;100;0;222.73;-4;-29.66;-9.33;186.1;19.70;77512;2836.130;-1758.124;1;207;-100;-96.8;48.7;49.0;5;4.5;29.1;0.0;
12/02/2025 14:32:35;100;0;227.55;-4;-29.62;-9.43;190.1;19.70;77513;2836.128;-1758.126;1;207;-100;-98.4;48.7;49.0;9;9.0;29.1;0.0;
12/02/2025 14:32:55;100;0;230.15;-4;-30.24;-6.80;194.2;19.60;77494;2836.125;-1758.129;1;207;-100;-96.8;48.7;49.0;12;12.6;29.1;0.0;
12/02/2025 14:33:15;100;0;231.38;-4;-29.84;-5.16;198.4;19.60;77470;2836.123;-1758.132;1;207;-100;-96.8;48.7;49.0;14;14.0;29.1;0.0;
12/02/2025 14:33:35;100;0;228.33;-4;-30.42;-4.36;202.4;19.50;77458;2836.120;-1758.134;1;207;-100;-96.8;48.7;49.0;10;9.9;29.1;0.0;
12/02/2025 14:33:55;100;0;221.21;-4;-30.24;-6.78;206.6;19.50;77446;2836.117;-1758.137;1;207;-100;-96.8;48.7;49.0;5;5.0;29.1;0.0;
12/02/2025 14:34:15;100;0;219.68;-4;-29.94;-9.21;210.7;19.40;77431;2836.114;-1758.139;1;207;-100;-96.8;48.7;49.0;5;5.0;29.1;0.0;
12/02/2025 14:34:35;100;0;219.76;-4;-29.68;-9.30;214.6;19.40;77410;2836.111;-1758.141;1;207;-100;-98.4;48.7;49.0;5;5.0;29.1;0.0;
12/02/2025 14:34:55;100;0;220.33;-4;-30.30;-9.19;218.6;19.30;77394;2836.108;-1758.143;1;207;-100;-96.8;48.7;49.0;5;4.5;29.1;0.0;
12/02/2025 14:35:15;100;0;222.26;-4;-30.06;-9.16;222.7;19.30;77374;2836.105;-1758.145;1;206;-100;-96.8;48.7;49.0;5;4.5;29.1;0.0;
12/02/2025 14:35:35;100;0;223.14;-4;-29.74;-9.30;226.7;19.20;77354;2836.102;-1758.147;1;206;-100;-96.8;48.7;49.0;5;5.0;29.1;0.0;
12/02/2025 14:35:55;100;0;225.16;-4;-29.90;-9.21;230.6;19.20;77342;2836.100;-1758.149;1;206;-100;-98.4;48.7;49.0;8;8.1;29.1;0.0;
12/02/2025 14:36:15;100;0;224.27;-4;-30.52;-7.18;234.7;19.10;77333;2836.097;-1758.151;1;206;-100;-96.8;48.7;49.0;8;8.6;29.1;0.0;
12/02/2025 14:36:35;100;0;220.72;-4;-30.58;-7.18;238.6;19.10;77318;2836.094;-1758.153;1;206;-100;-98.4;48.7;49.2;5;5.0;29.1;0.0;
12/02/2025 14:36:55;100;0;217.25;-4;-30.08;-9.32;242.7;19.00;77310;2836.091;-1758.155;1;206;-100;-96.8;48.7;49.0;5;4.5;29.1;0.0;
12/02/2025 14:37:15;100;0;216.07;-4;-29.79;-9.35;246.6;19.00;77286;2836.088;-1758.157;1;206;-100;-96.8;48.7;49.0;5;4.5;29.1;0.0;
12/02/2025 14:37:35;100;0;219.40;-4;-28.99;-9.42;250.3;18.90;77267;2836.085;-1758.159;1;206;-100;-96.8;49.0;49.0;5;4.5;29.1;0.0;
12/02/2025 14:37:55;100;0;224.77;-4;-29.50;-9.46;253.9;18.90;77254;2836.083;-1758.161;1;206;-100;-96.8;49.0;49.0;7;7.2;29.1;0.0;
12/02/2025 14:38:15;100;0;228.30;-4;-30.11;-7.70;257.7;18.80;77238;2836.080;-1758.163;1;206;-100;-96.8;49.0;49.0;11;11.3;29.1;0.0;
12/02/2025 14:38:35;100;0;230.17;-4;-30.24;-5.77;261.7;18.80;77213;2836.078;-1758.166;1;206;-100;-96.8;49.0;49.2;14;14.0;29.1;0.0;
12/02/2025 14:38:55;100;0;229.33;-4;-29.36;-4.64;265.7;18.70;77209;2836.075;-1758.168;1;206;-100;-96.8;49.0;49.0;14;14.4;29.1;0.0;
12/02/2025 14:39:15;100;0;229.44;-4;-29.75;-4.39;269.5;18.70;77187;2836.073;-1758.171;1;206;-100;-98.4;49.0;49.0;14;14.4;29.1;0.0;
12/02/2025 14:39:35;100;0;230.80;-4;-30.06;-4.51;273.2;18.60;77189;2836.070;-1758.173;1;206;-100;-96.8;49.0;49.0;14;14.4;29.1;0.0;
12/02/2025 14:39:55;100;0;233.27;-4;-29.80;-4.49;277.0;18.50;77162;2836.068;-1758.176;1;206;-100;-98.4;49.0;49.0;19;19.0;29.1;0.0;
12/02/2025 14:40:15;100;0;228.43;-4;-29.47;-2.22;280.8;18.50;77152;2836.065;-1758.178;1;206;-100;-98.4;49.0;49.2;12;11.7;29.1;0.0;
12/02/2025 14:40:35;100;0;225.99;-4;-29.63;-5.92;284.7;18.40;77135;2836.063;-1758.180;1;206;-100;-96.8;49.0;49.0;9;9.0;29.1;0.0;
12/02/2025 14:40:55;100;0;225.94;-4;-29.74;-7.41;288.7;18.40;77132;2836.060;-1758.183;1;206;-100;-96.8;49.0;49.0;9;8.6;29.1;0.0;
12/02/2025 14:41:15;100;0;225.96;-4;-30.53;-7.40;292.9;18.30;77118;2836.057;-1758.185;1;206;-100;-96.8;49.0;49.0;9;8.6;29.1;0.0;
12/02/2025 14:41:35;100;0;223.96;-4;-31.11;-7.31;297.3;18.30;77112;2836.054;-1758.187;1;206;-100;-98.4;49.0;49.0;9;8.6;29.1;0.0;
12/02/2025 14:41:55;100;0;222.71;-4;-30.86;-7.19;302.0;18.20;77079;2836.051;-1758.190;1;206;-100;-98.4;49.0;49.0;7;7.2;29.1;0.0;
12/02/2025 14:42:15;100;0;221.89;-4;-30.20;-8.11;306.5;18.10;77082;2836.048;-1758.192;1;206;-100;-98.4;49.0;49.0;7;6.8;29.1;0.0;
12/02/2025 14:42:35;100;0;224.00;-4;-29.22;-8.24;310.8;18.10;77061;2836.045;-1758.195;1;206;-100;-98.4;49.0;49.0;7;6.8;29.1;0.0;
12/02/2025 14:42:55;100;0;227.00;-4;-30.51;-8.13;315.2;18.00;77035;2836.042;-1758.198;1;206;-100;-96.8;49.0;49.0;12;12.2;29.1;0.0;
12/02/2025 14:43:15;100;0;226.79;-4;-30.04;-5.32;319.9;18.00;77021;2836.039;-1758.200;1;206;-100;-96.8;49.0;49.0;12;12.6;29.1;0.0;
12/02/2025 14:43:35;100;0;227.37;-4;-29.40;-5.49;324.1;17.90;77006;2836.036;-1758.203;1;206;-100;-96.8;49.0;49.0;12;12.2;29.1;0.0;
12/02/2025 14:43:55;100;0;229.62;-4;-30.07;-5.42;328.2;17.90;76983;2836.034;-1758.206;1;206;-100;-98.4;49.0;49.0;14;14.0;29.1;0.0;
12/02/2025 14:44:15;100;0;226.38;-4;-30.81;-4.21;332.7;17.80;76960;2836.031;-1758.208;1;206;-100;-96.8;49.0;49.0;11;10.8;29.1;0.0;
12/02/2025 14:44:35;100;0;223.37;-4;-30.17;-6.31;337.4;17.80;76957;2836.027;-1758.211;1;206;-100;-96.8;49.0;49.0;8;7.7;29.1;0.0;
12/02/2025 14:44:55;100;0;221.62;-4;-30.90;-7.80;342.1;17.70;76938;2836.024;-1758.213;1;205;-100;-98.4;49.0;49.0;8;7.7;29.1;0.0;
12/02/2025 14:45:15;100;0;218.55;-4;-30.00;-7.67;346.8;17.60;76925;2836.021;-1758.216;1;205;-100;-96.8;49.0;49.0;6;5.9;29.1;0.0;
12/02/2025 14:45:35;100;0;216.08;-4;-29.89;-8.90;351.5;17.60;76920;2836.017;-1758.218;1;205;-100;-96.8;49.0;49.0;6;5.4;29.1;0.0;
12/02/2025 14:45:55;100;0;213.19;-4;-30.44;-8.82;356.2;17.50;76906;2836.013;-1758.220;1;205;-100;-96.8;49.0;49.0;6;5.4;29.1;0.0;
12/02/2025 14:46:15;100;0;219.65;-4;-28.79;-8.72;360.6;17.50;76892;2836.010;-1758.222;1;205;-100;-98.4;49.4;49.5;6;5.4;29.1;0.0;
12/02/2025 14:46:35;100;0;221.80;-4;-29.61;-9.06;364.9;17.40;76870;2836.007;-1758.225;1;205;-100;-96.8;49.4;49.6;8;8.1;29.1;0.0;
12/02/2025 14:46:55;100;0;223.79;-4;-29.83;-7.27;369.3;17.40;76859;2836.004;-1758.227;1;205;-100;-96.8;49.4;49.6;10;9.9;29.1;0.0;
12/02/2025 14:47:15;100;0;226.20;-4;-29.88;-6.45;373.8;17.30;76844;2836.001;-1758.230;1;205;-100;-96.8;49.4;49.6;12;12.2;29.1;0.0;
12/02/2025 14:47:35;100;0;226.79;-4;-29.81;-5.49;378.2;17.20;76841;2835.998;-1758.233;1;205;-100;-98.4;49.4;49.6;12;12.2;29.1;0.0;
12/02/2025 14:47:56;100;0;232.59;-4;-30.67;-5.38;382.7;17.20;76834;2835.996;-1758.236;1;205;-100;-98.4;49.4;49.6;22;22.1;29.1;0.0;
12/02/2025 14:48:16;100;0;232.76;-4;-31.06;-0.51;387.1;17.10;76813;2835.993;-1758.238;1;205;-100;-96.8;49.4;49.8;22;22.6;29.1;0.0;
12/02/2025 14:48:36;100;0;231.85;-4;-30.94;-0.50;391.7;17.10;76799;2835.990;-1758.241;1;205;-100;-96.8;49.4;49.8;22;22.6;29.1;0.0;
12/02/2025 14:48:56;100;0;227.91;-4;-30.53;-0.59;396.1;17.00;76782;2835.988;-1758.244;1;205;-100;-96.8;49.4;49.8;15;14.9;29.1;0.0;
12/02/2025 14:49:16;100;0;225.35;-4;-30.65;-4.34;400.5;16.90;76760;2835.985;-1758.246;1;205;-100;-96.8;49.4;49.6;11;9.9;29.1;0.0;
12/02/2025 14:49:36;100;0;223.87;-4;-30.64;-6.30;404.9;16.90;76753;2835.982;-1758.249;1;205;-100;-96.8;49.4;49.8;11;10.8;29.1;0.0;
12/02/2025 14:49:56;100;0;223.47;-4;-30.56;-6.36;409.3;16.90;76749;2835.979;-1758.251;1;205;-100;-96.8;49.4;49.8;11;10.8;29.1;0.0;
12/02/2025 14:50:16;100;0;225.96;-4;-30.82;-6.30;413.7;16.80;76734;2835.976;-1758.254;1;205;-100;-98.4;49.4;49.8;11;10.8;29.1;0.0;
12/02/2025 14:50:36;100;0;223.54;-4;-30.86;-6.26;418.2;16.70;76721;2835.973;-1758.256;1;205;-100;-98.4;49.4;49.6;11;10.8;29.1;0.0;
12/02/2025 14:50:56;100;0;221.43;-4;-30.60;-6.35;422.6;16.70;76711;2835.970;-1758.259;1;205;-100;-98.4;49.4;49.6;8;6.8;29.1;0.0;
12/02/2025 14:51:16;100;0;220.31;-4;-30.39;-7.58;427.1;16.60;76698;2835.967;-1758.261;1;205;-100;-96.8;49.4;49.6;8;8.1;29.1;0.0;
12/02/2025 14:51:36;100;0;219.03;-4;-30.84;-7.68;431.3;16.60;76687;2835.964;-1758.263;1;205;-100;-98.4;49.4;49.6;8;8.1;29.1;0.0;
12/02/2025 14:51:56;100;0;217.60;-4;-30.46;-7.90;435.7;16.50;76685;2835.960;-1758.265;1;205;-100;-96.8;49.4;49.6;8;7.7;29.1;0.0;
12/02/2025 14:52:16;100;0;216.64;-4;-30.93;-7.65;440.0;16.50;76671;2835.957;-1758.267;1;205;-100;-98.4;49.4;49.8;6;5.4;29.1;0.0;
12/02/2025 14:52:36;100;0;215.46;-4;-30.53;-9.04;444.4;16.40;76676;2835.954;-1758.269;1;205;-100;-96.8;49.4;49.6;6;5.4;29.1;0.0;
12/02/2025 14:52:56;100;0;220.03;-4;-29.94;-9.00;448.8;16.40;76657;2835.951;-1758.271;1;205;-100;-96.8;49.4;49.8;6;5.0;29.1;0.0;
12/02/2025 14:53:16;100;0;222.29;-4;-29.69;-9.25;452.9;16.30;76644;2835.948;-1758.273;1;205;-100;-96.8;49.4;49.6;9;9.0;29.1;0.0;
12/02/2025 14:53:36;100;0;225.10;-4;-29.88;-6.89;456.9;16.30;76630;2835.945;-1758.276;1;205;-100;-96.8;49.4;49.8;9;9.5;29.1;0.0;
12/02/2025 14:53:56;100;0;229.34;-4;-30.29;-6.90;461.0;16.20;76616;2835.942;-1758.278;1;204;-100;-96.8;49.4;49.6;17;17.1;29.1;0.0;
12/02/2025 14:54:16;100;0;229.83;-4;-30.42;-2.87;465.1;16.20;76605;2835.940;-1758.281;1;204;-100;-96.8;49.4;49.8;17;17.6;29.1;0.0;
12/02/2025 14:54:36;100;0;230.01;-4;-30.91;-2.91;469.3;16.10;76593;2835.937;-1758.283;1;204;-100;-96.8;49.4;49.8;17;17.6;29.1;0.0;
12/02/2025 14:54:56;100;0;229.92;-4;-30.90;-2.98;473.6;16.10;76581;2835.935;-1758.286;1;204;-100;-98.4;49.4;49.6;17;17.6;29.1;0.0;
12/02/2025 14:55:16;100;0;231.80;-4;-30.77;-2.93;477.9;16.00;76572;2835.932;-1758.289;1;204;-100;-96.8;49.4;49.6;21;21.2;29.1;0.0;
12/02/2025 14:55:36;100;0;232.66;-4;-30.92;-0.88;482.1;16.00;76577;2835.930;-1758.291;1;204;-100;-98.4;49.4;49.6;23;23.5;29.1;0.0;
12/02/2025 14:55:56;100;0;231.50;-4;-31.49;0.18;486.5;15.90;76568;2835.927;-1758.294;1;204;-100;-96.8;49.4;49.8;21;21.2;29.1;0.0;
12/02/2025 14:56:16;100;0;231.28;-4;-31.47;-1.51;491.0;15.90;76554;2835.924;-1758.297;1;204;-100;-96.8;49.4;49.6;21;20.8;29.1;0.0;
12/02/2025 14:56:36;100;0;228.54;-4;-30.93;-1.39;495.4;15.80;76543;2835.922;-1758.300;1;204;-100;-96.8;49.4;49.6;18;18.1;29.1;0.0;
12/02/2025 14:56:52;118;0;225.79;-4;-30.51;-2.75;498.8;15.80;76533;2835.919;-1758.302;1;204;100;-90.3;22.6;22.5;-2;-2.3;29.1;0.0;
12/02/2025 14:57:02;118;0;167.76;-4;-16.76;-13.45;500.4;15.80;76508;2835.917;-1758.301;1;204;100;38.7;22.6;22.2;-2;-2.3;28.4;-1.0;
12/02/2025 14:57:12;118;0;171.84;-4;10.29;-13.78;500.8;15.80;76242;2835.916;-1758.300;1;204;100;101.6;22.6;22.7;-2;-2.3;28.3;-1.0;
12/02/2025 14:57:22;118;0;241.16;-4;23.44;-14.49;500.2;15.70;76099;2835.916;-1758.301;1;204;100;101.6;22.6;22.8;-2;-2.3;29.1;-1.0;
12/02/2025 14:57:42;117;0;239.90;-4;28.55;-14.64;498.4;15.70;76105;2835.915;-1758.302;1;204;100;104.8;22.6;22.8;-2;-2.3;29.1;-1.0;
12/02/2025 14:58:02;117;0;235.57;-4;28.96;-14.61;496.6;15.70;76099;2835.914;-1758.303;1;204;100;104.8;22.3;21.9;0;0.0;29.1;-1.0;
12/02/2025 14:58:22;117;0;232.03;-4;29.81;-13.12;494.9;15.60;76095;2835.912;-1758.304;1;204;100;104.8;22.3;21.9;2;1.8;29.1;-1.0;
12/02/2025 14:58:42;117;0;229.10;-4;30.79;-12.39;493.5;15.60;76087;2835.911;-1758.304;1;204;100;104.8;22.3;21.9;2;2.3;29.1;-1.0;
12/02/2025 14:59:02;117;0;224.83;-4;30.86;-12.26;492.2;15.60;76077;2835.910;-1758.305;1;204;100;106.5;22.3;21.9;4;4.5;29.1;-1.0;
12/02/2025 14:59:22;117;0;222.40;-4;30.71;-10.84;490.8;15.50;76076;2835.909;-1758.305;1;204;100;104.8;22.3;22.1;4;4.5;29.1;-1.0;
12/02/2025 14:59:42;117;0;217.65;-4;30.76;-10.79;489.6;15.50;76078;2835.908;-1758.305;1;204;100;106.5;22.3;21.9;13;13.1;29.1;-1.0;
12/02/2025 15:00:02;117;0;214.08;-4;31.35;-6.20;488.4;15.40;76063;2835.907;-1758.305;1;204;100;104.8;22.3;21.9;24;23.9;29.1;-1.0;
12/02/2025 15:00:22;117;0;213.08;-4;32.30;-0.13;487.1;15.40;76076;2835.906;-1758.305;1;204;100;104.8;23.0;23.0;24;24.4;29.1;-1.0;
12/02/2025 15:00:42;117;0;211.20;-4;30.49;-0.12;485.9;15.30;76059;2835.905;-1758.305;1;204;100;104.8;23.0;23.0;24;24.4;29.1;-1.0;
12/02/2025 15:01:02;117;0;208.71;-4;30.78;-0.07;484.8;15.30;76056;2835.904;-1758.305;1;204;100;106.5;23.0;23.0;34;34.3;29.1;-1.0;
12/02/2025 15:01:22;117;0;206.88;-4;31.55;5.33;483.6;15.30;76050;2835.903;-1758.305;1;204;100;106.5;23.0;23.0;42;42.0;29.1;-1.0;
12/02/2025 15:01:42;117;0;204.01;-4;32.07;9.50;482.4;15.20;76048;2835.902;-1758.305;1;204;100;104.8;23.6;23.7;40;39.7;29.1;-1.0;
12/02/2025 15:02:02;117;0;202.42;-4;30.22;7.67;481.4;15.20;76041;2835.900;-1758.305;1;204;100;104.8;23.6;23.7;45;45.1;29.1;-1.0;
12/02/2025 15:02:22;117;0;198.92;-4;31.17;11.08;480.3;15.20;76037;2835.899;-1758.305;1;204;100;106.5;23.6;23.7;55;55.1;29.1;-1.0;
12/02/2025 15:02:42;117;0;197.26;-4;32.35;16.62;479.2;15.10;76042;2835.898;-1758.304;1;204;100;106.5;24.3;24.4;53;52.8;29.1;-1.0;
12/02/2025 15:03:02;117;0;198.90;-4;30.09;14.73;478.1;15.10;76043;2835.897;-1758.304;1;204;120;122.6;24.3;24.4;48;47.8;29.1;-1.0;
12/02/2025 15:03:22;117;0;196.50;-4;29.22;12.15;477.0;15.10;75993;2835.896;-1758.304;1;204;140;143.5;24.3;24.4;52;51.9;29.1;-1.0;
12/02/2025 15:03:42;117;0;197.33;-4;29.19;14.98;475.8;15.00;75939;2835.895;-1758.304;1;204;160;162.9;24.3;24.4;45;45.1;29.1;-1.0;
12/02/2025 15:04:02;117;0;198.56;-4;28.13;10.64;474.3;15.00;75901;2835.893;-1758.304;1;204;180;183.9;23.7;23.4;33;32.9;29.1;-1.0;
12/02/2025 15:04:22;117;0;198.51;-4;28.17;4.11;472.7;15.00;75857;2835.891;-1758.304;1;204;200;203.2;23.2;22.8;28;28.0;29.1;-1.0;
12/02/2025 15:04:42;117;0;195.99;-4;28.42;1.64;470.7;15.00;75816;2835.889;-1758.304;1;205;220;222.6;22.7;22.7;28;27.5;29.1;-1.0;
12/02/2025 15:05:02;117;0;194.60;-4;28.89;1.62;468.6;14.90;75763;2835.887;-1758.304;1;205;220;222.6;22.4;22.2;30;29.8;29.1;-1.0;
12/02/2025 15:05:22;117;0;193.59;-4;29.29;3.11;466.2;14.90;75769;2835.885;-1758.304;1;205;220;222.6;22.4;22.2;28;28.0;29.1;-1.0;
12/02/2025 15:05:42;117;0;190.41;-4;29.26;1.71;463.7;14.90;75765;2835.882;-1758.304;1;205;220;222.6;22.4;22.4;33;32.9;29.1;-1.0;
12/02/2025 15:06:02;117;0;188.06;-4;29.45;4.62;461.2;14.90;75748;2835.880;-1758.304;1;205;220;222.6;22.4;22.2;37;37.0;29.1;-1.0;
12/02/2025 15:06:22;117;0;187.69;-4;29.75;6.77;458.6;14.90;75764;2835.877;-1758.303;1;205;220;222.6;22.4;22.2;37;37.0;29.1;-1.0;
12/02/2025 15:06:42;117;0;186.35;-4;30.21;6.88;456.2;14.80;75765;2835.875;-1758.303;1;205;220;222.6;22.4;22.2;41;41.1;29.1;-1.0;
12/02/2025 15:07:02;117;0;186.32;-4;30.30;8.99;453.7;14.80;75748;2835.872;-1758.303;1;205;220;222.6;22.4;22.2;43;42.9;29.1;-1.0;
12/02/2025 15:07:22;117;0;186.63;-4;30.46;10.06;451.0;14.80;75744;2835.870;-1758.303;1;205;220;222.6;22.4;22.2;36;36.1;29.1;-1.0;
12/02/2025 15:07:42;117;0;182.31;-4;29.95;5.74;448.4;14.70;75743;2835.867;-1758.302;1;205;220;222.6;22.4;22.2;45;45.1;29.1;-1.0;
12/02/2025 15:08:02;117;0;180.82;-4;30.33;11.33;445.9;14.70;75753;2835.865;-1758.302;1;205;220;222.6;22.4;22.4;47;46.9;29.1;-1.0;
12/02/2025 15:08:22;117;0;187.00;-4;30.70;12.35;443.3;14.70;75755;2835.862;-1758.301;1;205;220;222.6;22.4;22.2;40;39.7;29.1;-1.0;
12/02/2025 15:08:42;117;0;188.55;-4;30.04;7.95;440.8;14.70;75756;2835.860;-1758.301;1;206;220;222.6;22.4;22.4;38;37.9;29.1;-1.0;
12/02/2025 15:09:02;117;0;189.35;-4;30.07;6.98;438.3;14.70;75757;2835.858;-1758.301;1;206;220;222.6;22.4;22.2;38;37.5;29.1;-1.0;
12/02/2025 15:09:22;117;0;189.02;-4;29.66;6.86;435.9;14.70;75758;2835.855;-1758.301;1;206;220;222.6;22.4;22.2;38;37.5;29.1;-1.0;
12/02/2025 15:09:42;117;0;191.71;-4;29.82;6.87;433.5;14.60;75750;2835.853;-1758.301;1;206;220;222.6;22.4;22.2;35;34.7;29.0;-1.0;
12/02/2025 15:10:02;117;0;192.18;-4;29.39;5.26;431.2;14.60;75748;2835.851;-1758.301;1;206;220;222.6;22.4;22.2;35;34.7;29.1;-1.0;
12/02/2025 15:10:22;117;0;193.46;-4;30.00;5.27;428.9;14.60;75744;2835.848;-1758.301;1;206;220;222.6;22.4;22.2;33;32.9;29.1;-1.0;
12/02/2025 15:10:42;117;0;194.34;-4;28.81;4.17;426.6;14.60;75742;2835.846;-1758.301;1;206;220;221.0;22.0;21.6;30;29.8;29.0;-1.0;
12/02/2025 15:11:02;117;0;195.79;-4;30.31;2.46;424.4;14.60;75748;2835.844;-1758.301;1;206;220;221.0;22.0;21.6;30;29.3;29.1;-1.0;
12/02/2025 15:11:22;117;0;192.20;-4;30.50;2.54;422.1;14.60;75738;2835.842;-1758.301;1;206;220;222.6;22.0;21.6;36;36.6;29.1;-1.0;
12/02/2025 15:11:42;117;0;192.45;-4;30.75;6.44;419.7;14.60;75748;2835.840;-1758.301;1;206;220;221.0;22.0;21.6;36;36.6;29.1;-1.0;
12/02/2025 15:12:02;117;0;193.63;-4;30.89;6.47;417.3;14.60;75752;2835.837;-1758.301;1;206;220;222.6;22.0;21.6;33;32.5;29.1;-1.0;
12/02/2025 15:12:22;117;0;194.21;-4;30.55;4.07;414.9;14.50;75737;2835.835;-1758.301;1;206;220;224.2;22.0;21.6;33;32.0;29.1;-1.0;
12/02/2025 15:12:42;117;0;193.70;-4;30.78;4.05;412.7;14.50;75751;2835.833;-1758.300;1;206;220;222.6;22.0;21.5;35;35.2;29.1;-1.0;
12/02/2025 15:13:02;117;0;192.58;-4;30.85;5.83;410.4;14.50;75741;2835.831;-1758.300;1;206;220;222.6;22.0;21.6;35;35.6;29.1;-1.0;
12/02/2025 15:13:22;117;0;189.67;-4;30.99;5.86;408.0;14.50;75752;2835.829;-1758.300;1;207;220;222.6;22.0;21.6;39;39.3;29.1;-1.0;
12/02/2025 15:13:42;117;0;186.39;-4;31.35;8.14;405.7;14.50;75761;2835.826;-1758.300;1;207;220;222.6;22.0;21.6;45;45.1;29.1;-1.0;
12/02/2025 15:14:02;117;0;186.02;-4;31.40;11.25;403.3;14.50;75753;2835.824;-1758.300;1;207;220;221.0;22.0;21.6;45;45.6;29.1;-1.0;
12/02/2025 15:14:22;117;0;187.22;-4;31.71;11.45;400.9;14.50;75756;2835.822;-1758.299;1;207;220;222.6;22.0;21.6;45;45.6;29.1;-1.0;
12/02/2025 15:14:42;117;0;185.66;-4;30.66;11.38;398.3;14.50;75765;2835.819;-1758.299;1;207;220;221.0;22.0;21.8;45;45.6;29.1;-1.0;
12/02/2025 15:15:02;117;0;185.61;-4;32.45;11.24;395.8;14.50;75759;2835.817;-1758.299;1;207;220;222.6;22.7;22.7;45;45.6;29.1;-1.0;
12/02/2025 15:15:22;117;0;184.43;-4;30.84;11.55;393.4;14.50;75763;2835.815;-1758.298;1;207;220;222.6;22.7;22.8;48;47.8;29.1;-1.0;
12/02/2025 15:15:42;117;0;183.78;-4;30.35;12.97;391.1;14.50;75763;2835.813;-1758.298;1;207;220;222.6;22.7;22.8;48;47.8;29.1;-1.0;
12/02/2025 15:16:02;117;0;176.83;-4;30.03;12.87;388.7;14.50;75766;2835.810;-1758.297;1;207;220;222.6;22.7;22.8;56;56.0;29.1;-1.0;
12/02/2025 15:16:22;117;0;179.81;-4;29.96;17.30;386.1;14.50;75766;2835.808;-1758.297;1;207;220;222.6;22.7;22.8;51;51.0;29.1;-1.0;
12/02/2025 15:16:42;117;0;175.17;-4;29.65;14.42;383.8;14.50;75766;2835.805;-1758.296;1;208;220;222.6;22.7;22.8;60;60.5;29.1;-1.0;
12/02/2025 15:17:02;117;0;173.67;-4;30.50;20.18;381.4;14.40;75775;2835.803;-1758.295;1;208;220;222.6;22.7;23.0;60;60.5;29.1;-1.0;
12/02/2025 15:17:22;117;0;175.24;-4;30.73;19.84;379.0;14.40;75775;2835.801;-1758.294;1;208;220;222.6;22.7;23.0;60;60.9;29.1;-1.0;
12/02/2025 15:17:42;117;0;182.66;-4;30.32;19.72;376.5;14.40;75786;2835.798;-1758.294;1;208;220;222.6;22.7;22.8;49;49.2;29.1;-1.0;
12/02/2025 15:18:02;117;0;187.35;-4;30.10;13.11;374.0;14.40;75786;2835.796;-1758.294;1;208;220;222.6;22.7;23.0;44;44.2;29.1;-1.0;
12/02/2025 15:18:22;117;0;191.02;-4;29.83;10.01;371.7;14.40;75782;2835.794;-1758.293;1;208;220;222.6;22.7;23.0;39;38.4;29.1;-1.0;
12/02/2025 15:18:42;117;0;192.90;-4;28.94;7.11;369.4;14.40;75779;2835.791;-1758.293;1;208;220;222.6;22.4;22.4;36;35.6;29.1;-1.0;
12/02/2025 15:19:02;117;0;194.74;-4;29.66;5.79;367.0;14.40;75784;2835.789;-1758.294;1;208;220;222.6;22.4;22.1;33;32.9;29.1;-1.0;
12/02/2025 15:19:22;117;0;197.16;-4;29.67;4.15;364.5;14.40;75781;2835.787;-1758.294;1;208;220;222.6;22.4;21.9;29;28.9;29.1;-1.0;
12/02/2025 15:19:42;117;0;199.22;-4;29.54;1.87;362.0;14.40;75778;2835.784;-1758.294;1;208;220;222.6;22.4;22.1;24;23.9;29.1;-1.0;
12/02/2025 15:20:02;117;0;197.63;-4;29.06;-0.66;359.4;14.40;75783;2835.782;-1758.294;1;209;220;222.6;22.4;22.1;28;28.0;29.1;-1.0;
12/02/2025 15:20:22;117;0;196.16;-4;30.11;2.30;356.9;14.40;75787;2835.780;-1758.294;1;209;220;222.6;22.4;21.9;31;31.1;29.1;-1.0;
12/02/2025 15:20:42;117;0;199.95;-4;29.23;3.66;354.4;14.40;75792;2835.777;-1758.295;1;209;220;222.6;22.4;22.1;23;22.6;29.1;-1.0;
12/02/2025 15:21:02;117;0;199.55;-4;28.81;-1.26;351.8;14.40;75793;2835.775;-1758.295;1;209;220;222.6;22.1;21.9;25;25.3;29.1;-1.0;
12/02/2025 15:21:22;117;0;200.81;-4;29.19;0.43;349.3;14.40;75800;2835.772;-1758.295;1;209;220;222.6;22.1;22.1;21;21.2;29.1;-1.0;
12/02/2025 15:21:42;117;0;197.73;-4;28.97;-2.09;346.6;14.40;75792;2835.770;-1758.296;1;209;220;219.4;21.8;21.6;27;27.1;29.1;-1.0;
12/02/2025 15:22:02;117;0;194.13;-4;29.94;1.43;343.9;14.50;75800;2835.767;-1758.296;1;209;220;221.0;21.8;21.6;33;32.9;29.1;-1.0;
12/02/2025 15:22:22;117;0;192.15;-4;30.66;4.67;341.1;14.40;75792;2835.765;-1758.296;1;209;220;222.6;21.8;21.6;36;36.1;29.1;-1.0;
12/02/2025 15:22:43;117;0;192.89;-4;31.12;6.56;338.2;14.50;75803;2835.762;-1758.296;1;209;220;222.6;21.8;21.6;36;36.6;29.1;-1.0;
12/02/2025 15:23:03;117;0;190.72;-4;31.03;6.58;335.2;14.50;75810;2835.759;-1758.296;1;209;220;224.2;21.8;21.6;36;36.6;29.1;-1.0;
12/02/2025 15:23:23;117;0;188.08;-4;30.77;6.60;332.1;14.50;75811;2835.756;-1758.296;1;209;220;222.6;21.8;21.5;41;41.1;29.1;-1.0;
12/02/2025 15:23:43;117;0;188.20;-4;31.12;9.09;329.1;14.50;75803;2835.753;-1758.296;1;210;220;222.6;21.8;21.6;41;41.5;29.1;-1.0;
12/02/2025 15:24:03;117;0;187.75;-4;31.08;9.14;326.0;14.50;75805;2835.751;-1758.295;1;210;220;222.6;21.8;21.6;41;41.1;29.1;-1.0;
12/02/2025 15:24:23;117;0;188.68;-4;31.02;9.04;322.9;14.50;75813;2835.748;-1758.295;1;210;220;224.2;21.8;21.6;41;41.1;29.1;-1.0;
12/02/2025 15:24:43;117;0;186.93;-4;31.13;9.08;319.8;14.50;75827;2835.745;-1758.295;1;210;220;222.6;21.8;21.6;44;44.2;29.1;-1.0;
12/02/2025 15:25:03;117;0;186.72;-4;31.37;10.81;316.6;14.50;75824;2835.742;-1758.295;1;210;220;222.6;21.8;21.8;44;44.2;29.1;-1.0;
12/02/2025 15:25:23;117;0;187.26;-4;31.31;10.79;313.3;14.50;75837;2835.739;-1758.295;1;210;220;222.6;21.8;21.6;42;42.0;29.1;-1.0;
12/02/2025 15:25:43;117;0;191.48;-4;31.09;8.96;310.0;14.50;75834;2835.736;-1758.295;1;210;220;224.2;21.8;21.6;35;35.2;29.1;-1.0;
12/02/2025 15:26:03;117;0;191.73;-4;30.73;5.56;306.9;14.50;75839;2835.733;-1758.295;1;210;220;224.2;21.8;21.6;37;37.0;29.1;-1.0;
12/02/2025 15:26:23;117;0;195.38;-4;30.71;6.85;303.6;14.50;75842;2835.730;-1758.295;1;210;220;222.6;21.8;21.6;29;28.9;29.1;-1.0;
12/02/2025 15:26:43;117;0;196.71;-4;30.19;1.91;300.4;14.50;75853;2835.727;-1758.296;1;211;220;222.6;21.8;21.6;29;28.4;29.1;-1.0;
12/02/2025 15:27:03;117;0;196.16;-4;30.08;1.87;297.4;14.50;75855;2835.724;-1758.296;1;211;220;222.6;21.8;21.6;31;31.1;29.1;-1.0;
12/02/2025 15:27:23;117;0;197.61;-4;30.27;3.65;294.4;14.60;75868;2835.722;-1758.296;1;211;220;224.2;21.8;21.6;29;28.9;29.1;-1.0;
12/02/2025 15:27:43;117;0;197.39;-4;30.25;1.81;291.3;14.60;75874;2835.719;-1758.297;1;211;220;224.2;21.8;21.5;27;27.1;29.1;-1.0;
12/02/2025 15:28:03;117;0;194.50;-4;30.34;0.96;288.2;14.60;75883;2835.716;-1758.297;1;211;220;222.6;21.8;21.5;34;34.3;29.1;-1.0;
12/02/2025 15:28:23;117;0;190.60;-4;30.76;5.42;285.0;14.60;75883;2835.713;-1758.297;1;211;220;222.6;21.8;21.6;38;38.4;29.1;-1.0;
12/02/2025 15:28:43;117;0;190.57;-4;30.65;7.64;281.8;14.60;75894;2835.710;-1758.297;1;211;220;224.2;21.8;21.6;38;38.8;29.1;-1.0;
12/02/2025 15:29:03;117;0;188.69;-4;31.00;7.64;278.6;14.60;75903;2835.707;-1758.297;1;211;220;222.6;21.8;21.6;43;42.9;29.1;-1.0;
12/02/2025 15:29:23;117;0;183.20;-4;31.93;10.26;275.3;14.60;75900;2835.704;-1758.296;1;212;220;224.2;21.8;21.6;51;51.4;29.1;-1.0;
12/02/2025 15:29:43;117;0;183.24;-4;31.64;14.77;271.9;14.60;75922;2835.701;-1758.296;1;212;220;222.6;21.8;21.6;51;51.4;29.1;-1.0;
12/02/2025 15:30:03;117;0;183.85;-4;31.65;14.72;268.6;14.70;75920;2835.698;-1758.296;1;212;220;222.6;21.8;21.6;51;51.4;29.1;-1.0;
12/02/2025 15:30:23;117;0;185.33;-4;31.85;14.75;265.2;14.70;75925;2835.695;-1758.295;1;212;220;221.0;21.8;21.6;47;46.9;29.1;-1.0;
12/02/2025 15:30:43;117;0;184.76;-4;31.26;11.81;262.0;14.70;75930;2835.692;-1758.295;1;212;220;224.2;21.8;21.6;47;46.5;29.1;-1.0;
12/02/2025 15:31:03;117;0;187.97;-4;31.03;11.78;258.8;14.70;75947;2835.689;-1758.295;1;212;220;224.2;21.8;21.5;45;45.1;29.1;-1.0;
12/02/2025 15:31:23;117;0;188.09;-4;31.76;10.78;255.6;14.70;75955;2835.686;-1758.295;1;212;220;224.2;21.8;21.6;45;44.7;29.1;-1.0;
12/02/2025 15:31:43;117;0;187.45;-4;31.11;10.78;252.3;14.80;75965;2835.683;-1758.295;1;213;220;222.6;21.8;21.6;45;44.7;29.1;-1.0;
12/02/2025 15:32:03;117;0;189.53;-4;30.73;10.78;249.0;14.80;75985;2835.680;-1758.295;1;213;220;224.2;21.8;21.5;43;42.9;29.0;-1.0;
12/02/2025 15:32:23;117;0;194.95;-4;30.90;9.39;245.8;14.80;75997;2835.677;-1758.295;1;213;220;222.6;21.8;21.6;36;36.1;29.1;-1.0;
12/02/2025 15:32:43;117;0;194.46;-4;30.33;5.80;242.7;14.80;76001;2835.675;-1758.295;1;213;220;222.6;21.8;21.6;36;35.6;29.1;-1.0;
12/02/2025 15:33:03;117;0;194.72;-4;30.34;5.83;239.7;14.80;76003;2835.672;-1758.295;1;213;220;224.2;21.8;21.6;36;35.6;29.1;-1.0;
12/02/2025 15:33:23;117;0;194.88;-4;30.30;5.82;236.7;14.90;76016;2835.669;-1758.295;1;213;220;222.6;21.8;21.6;36;35.6;29.1;-1.0;
12/02/2025 15:33:43;117;0;194.15;-4;30.55;5.85;233.6;14.90;76029;2835.666;-1758.296;1;213;220;224.2;21.8;21.6;38;37.9;29.1;-1.0;
12/02/2025 15:34:03;117;0;192.65;-4;30.57;7.35;230.5;14.90;76036;2835.663;-1758.296;1;213;220;224.2;21.8;21.5;40;40.6;29.0;-1.0;
12/02/2025 15:34:23;117;0;196.20;-4;30.50;8.74;227.3;15.00;76040;2835.660;-1758.296;1;214;220;224.2;21.8;21.6;35;34.7;29.1;-1.0;
12/02/2025 15:34:43;117;0;202.41;-4;29.72;5.19;224.3;15.00;76037;2835.658;-1758.297;1;214;220;224.2;21.8;21.6;26;26.2;29.1;-1.0;
12/02/2025 15:35:03;117;0;205.29;-4;29.89;0.52;221.3;15.00;76053;2835.655;-1758.297;1;214;220;222.6;21.8;21.5;21;21.2;29.1;-1.0;
12/02/2025 15:35:23;117;0;204.56;-4;29.58;-2.02;218.4;15.00;76066;2835.653;-1758.298;1;214;220;224.2;21.8;21.6;21;21.2;29.1;-1.0;
12/02/2025 15:35:43;117;0;203.21;-4;29.53;-1.95;215.4;15.00;76076;2835.650;-1758.299;1;214;220;224.2;21.8;21.6;25;24.8;29.1;-1.0;
12/02/2025 15:36:03;117;0;204.33;-4;29.37;0.35;212.4;15.10;76086;2835.647;-1758.299;1;214;220;224.2;21.8;21.6;21;21.2;29.1;-1.0;
12/02/2025 15:36:23;117;0;203.67;-4;29.88;-2.03;209.3;15.10;76106;2835.644;-1758.300;1;214;220;224.2;21.8;21.6;21;20.8;29.1;-1.0;
12/02/2025 15:36:43;117;0;199.42;-4;29.37;-1.97;206.2;15.10;76116;2835.641;-1758.301;1;214;220;222.6;21.8;21.6;29;28.9;29.1;-1.0;
12/02/2025 15:37:03;117;0;195.10;-4;30.08;2.60;203.1;15.20;76131;2835.639;-1758.301;1;214;220;225.8;21.8;21.5;36;36.1;29.1;-1.0;
12/02/2025 15:37:23;117;0;192.10;-4;30.43;6.42;200.0;15.20;76140;2835.636;-1758.301;1;214;220;224.2;21.8;21.5;41;41.1;29.1;-1.0;
12/02/2025 15:37:43;117;0;190.81;-4;30.91;9.23;196.7;15.20;76142;2835.633;-1758.301;1;215;220;224.2;21.8;21.6;44;44.2;29.1;-1.0;
12/02/2025 15:38:03;117;0;191.50;-4;30.85;10.83;193.4;15.20;76143;2835.630;-1758.301;1;215;220;224.2;21.8;21.6;44;44.7;29.1;-1.0;
12/02/2025 15:38:23;117;0;188.74;-4;31.19;10.97;190.0;15.30;76150;2835.627;-1758.301;1;215;220;224.2;21.8;21.5;47;46.9;29.1;-1.0;
12/02/2025 15:38:43;117;0;188.32;-4;31.24;12.26;186.6;15.30;76158;2835.623;-1758.301;1;215;220;224.2;21.8;21.6;47;46.9;29.1;-1.0;
12/02/2025 15:39:03;117;0;189.24;-4;31.38;12.45;183.3;15.30;76172;2835.620;-1758.301;1;215;220;224.2;21.8;21.6;47;47.4;29.1;-1.0;
12/02/2025 15:39:23;117;0;191.68;-4;30.71;12.26;179.9;15.40;76177;2835.617;-1758.301;1;215;220;222.6;21.8;21.6;43;42.9;29.1;-1.0;
12/02/2025 15:39:43;117;0;193.89;-4;30.61;9.45;176.7;15.40;76189;2835.614;-1758.301;1;216;220;222.6;21.8;21.6;41;41.1;29.1;-1.0;
12/02/2025 15:40:03;117;0;194.18;-4;30.44;8.46;173.5;15.40;76188;2835.611;-1758.301;1;216;220;224.2;21.8;21.6;41;40.6;29.1;-1.0;
12/02/2025 15:40:23;117;0;192.15;-4;30.17;8.42;170.4;15.50;76203;2835.609;-1758.301;1;216;220;224.2;21.8;21.6;45;45.1;29.1;-1.0;
12/02/2025 15:40:43;117;0;192.89;-4;30.84;11.15;167.4;15.50;76208;2835.606;-1758.301;1;216;220;224.2;21.8;21.6;45;45.1;29.1;-1.0;
12/02/2025 15:41:03;117;0;196.53;-4;30.71;11.12;164.4;15.50;76215;2835.603;-1758.302;1;216;220;224.2;21.8;21.6;39;38.8;29.1;-1.0;
12/02/2025 15:41:23;117;0;198.67;-4;30.28;7.19;161.3;15.50;76227;2835.600;-1758.302;1;216;220;224.2;21.8;21.5;36;36.1;29.1;-1.0;
12/02/2025 15:41:43;117;0;202.83;-4;30.65;5.91;158.4;15.60;76240;2835.598;-1758.303;1;216;220;222.6;21.8;21.6;29;28.9;29.1;-1.0;
12/02/2025 15:42:03;117;0;204.50;-4;29.66;2.15;155.3;15.60;76252;2835.595;-1758.303;1;217;220;224.2;21.8;21.6;29;28.4;29.1;-1.0;
12/02/2025 15:42:23;117;0;209.56;-4;28.65;2.20;152.3;15.60;76260;2835.592;-1758.304;1;217;220;224.2;21.3;21.1;17;17.1;29.1;-1.0;
12/02/2025 15:42:43;117;0;209.72;-4;29.50;-4.56;149.7;15.70;76272;2835.590;-1758.305;1;217;220;225.8;21.3;20.9;20;20.3;29.1;-1.0;
12/02/2025 15:43:03;117;0;204.40;-4;30.08;-2.30;147.0;15.70;76290;2835.588;-1758.306;1;217;220;222.6;21.3;20.9;30;30.2;29.1;-1.0;
12/02/2025 15:43:23;117;0;199.96;-4;30.53;3.27;144.3;15.80;76291;2835.585;-1758.306;1;217;220;224.2;21.3;21.1;37;37.0;29.1;-1.0;
12/02/2025 15:43:43;117;0;197.27;-4;31.54;7.06;141.5;15.80;76310;2835.583;-1758.306;1;217;220;224.2;21.3;21.1;42;42.0;29.1;-1.0;
12/02/2025 15:44:03;117;0;202.48;-4;31.76;9.62;138.4;15.80;76314;2835.580;-1758.307;1;217;220;222.6;21.3;20.9;31;30.7;29.1;-1.0;
12/02/2025 15:44:23;117;0;204.92;-4;31.26;3.07;135.5;15.90;76340;2835.578;-1758.308;1;217;220;224.2;21.3;21.1;27;27.1;29.1;-1.0;
12/02/2025 15:44:43;117;0;204.81;-4;30.91;0.99;132.5;15.90;76351;2835.575;-1758.308;1;217;220;225.8;21.3;20.9;27;26.6;29.1;-1.0;
12/02/2025 15:45:03;117;0;204.40;-4;30.32;0.97;129.5;15.90;76370;2835.572;-1758.309;1;217;220;224.2;21.3;20.9;27;26.6;29.1;-1.0;
12/02/2025 15:45:23;117;0;204.95;-4;30.56;0.98;126.5;16.00;76393;2835.570;-1758.310;1;218;220;224.2;21.3;20.9;29;28.9;29.0;-1.0;
12/02/2025 15:45:43;117;0;201.77;-4;30.34;2.60;123.7;16.00;76440;2835.567;-1758.310;1;218;220;224.2;21.3;20.9;34;33.8;29.1;-1.0;
12/02/2025 15:46:03;117;0;200.57;-4;30.72;5.14;120.8;16.10;76475;2835.565;-1758.310;1;218;220;224.2;21.3;20.9;39;38.8;29.0;-1.0;
12/02/2025 15:46:23;117;0;196.26;-4;31.23;7.84;118.1;16.10;76527;2835.562;-1758.311;1;218;220;224.2;21.3;20.9;43;42.9;29.0;-1.0;
12/02/2025 15:46:43;117;0;195.87;-4;31.54;10.15;115.2;16.20;76552;2835.560;-1758.311;1;218;220;224.2;21.3;20.9;45;45.1;29.1;-1.0;
12/02/2025 15:47:03;117;0;197.65;-4;31.71;11.31;112.2;16.30;76578;2835.557;-1758.311;1;218;220;224.2;21.3;20.9;42;42.0;29.0;-1.0;
12/02/2025 15:47:23;117;0;196.96;-4;31.36;9.01;109.3;16.30;76581;2835.555;-1758.311;1;218;220;224.2;21.3;20.9;42;41.5;29.1;-1.0;
12/02/2025 15:47:43;117;0;196.19;-4;31.54;8.94;106.4;16.40;76596;2835.552;-1758.312;1;219;220;224.2;21.3;21.1;45;45.1;29.0;-1.0;
12/02/2025 15:48:03;117;0;197.33;-4;31.71;11.25;103.5;16.40;76617;2835.550;-1758.312;1;219;220;224.2;21.3;20.9;45;45.1;29.1;-1.0;
12/02/2025 15:48:23;117;0;196.73;-4;31.98;11.24;100.4;16.50;76630;2835.547;-1758.312;1;219;220;224.2;21.3;20.9;43;42.9;29.1;-1.0;
12/02/2025 15:48:43;117;0;193.31;-4;31.93;9.49;97.2;16.50;76631;2835.544;-1758.312;1;219;220;224.2;21.3;20.9;48;48.3;29.1;-1.0;
12/02/2025 15:49:03;117;0;192.81;-4;32.25;13.00;94.0;16.60;76656;2835.541;-1758.312;1;219;220;224.2;22.0;22.1;48;48.3;29.1;-1.0;
12/02/2025 15:49:23;117;0;192.99;-4;30.27;13.06;90.9;16.60;76663;2835.538;-1758.312;1;219;220;224.2;22.0;22.2;48;48.3;29.1;-1.0;
12/02/2025 15:49:43;117;0;193.34;-4;29.98;13.07;87.8;16.70;76679;2835.535;-1758.313;1;220;220;224.2;22.0;22.2;48;48.3;29.1;-1.0;
12/02/2025 15:50:03;117;0;195.00;-4;29.84;13.03;84.9;16.80;76684;2835.533;-1758.313;1;220;220;224.2;22.0;22.4;48;48.3;29.1;-1.0;
12/02/2025 15:50:23;117;0;196.93;-4;29.88;13.02;81.9;16.80;76693;2835.530;-1758.313;1;220;220;224.2;22.0;22.2;44;44.2;29.1;-1.0;
12/02/2025 15:50:43;117;0;198.48;-4;29.48;10.38;78.9;16.90;76707;2835.527;-1758.314;1;220;220;224.2;22.0;22.2;41;41.1;29.1;-1.0;
12/02/2025 15:51:03;117;0;198.85;-4;29.32;8.58;76.0;16.90;76716;2835.524;-1758.314;1;220;220;224.2;22.0;22.4;41;40.6;29.1;-1.0;
12/02/2025 15:51:23;117;0;198.03;-4;29.25;8.59;73.1;17.00;76719;2835.522;-1758.314;1;220;220;225.8;22.0;22.2;41;40.6;29.1;-1.0;
12/02/2025 15:51:43;117;0;197.15;-4;29.30;8.56;70.1;17.00;76728;2835.519;-1758.315;1;221;220;225.8;22.0;22.2;44;44.2;29.1;-1.0;
12/02/2025 15:52:03;117;0;198.03;-4;29.44;10.84;67.2;17.10;76736;2835.516;-1758.315;1;221;220;224.2;22.0;22.2;44;44.7;29.1;-1.0;
12/02/2025 15:52:23;117;0;199.29;-4;29.58;10.89;64.2;17.10;76746;2835.513;-1758.316;1;221;220;225.8;22.0;22.2;44;44.7;29.1;-1.0;
12/02/2025 15:52:43;117;0;201.79;-4;29.26;10.90;61.3;17.20;76749;2835.510;-1758.316;1;221;220;225.8;22.0;22.2;39;38.4;29.1;-1.0;
12/02/2025 15:53:03;117;0;203.26;-4;29.10;7.12;58.3;17.20;76755;2835.508;-1758.317;1;221;220;225.8;22.0;22.2;35;34.7;29.1;-1.0;
12/02/2025 15:53:23;117;0;203.78;-4;28.77;5.38;55.2;17.30;76759;2835.505;-1758.318;1;221;220;224.2;21.7;21.5;35;34.7;29.1;-1.0;
12/02/2025 15:53:43;117;0;204.67;-4;29.93;5.37;52.4;17.40;76770;2835.502;-1758.318;1;222;220;222.6;21.7;21.4;35;34.7;29.0;-1.0;
12/02/2025 15:54:03;117;0;204.54;-4;30.31;5.41;49.3;17.40;76780;2835.500;-1758.319;1;222;220;224.2;21.7;21.4;35;34.7;29.0;-1.0;
12/02/2025 15:54:23;117;0;204.15;-4;30.06;5.37;46.1;17.40;76786;2835.497;-1758.320;1;222;220;225.8;21.7;21.5;35;34.7;29.1;-1.0;
12/02/2025 15:54:43;117;0;201.26;-4;29.93;5.43;43.0;17.50;76789;2835.494;-1758.320;1;222;220;224.2;21.7;21.4;40;40.2;29.1;-1.0;
12/02/2025 15:55:03;117;0;201.88;-4;30.07;8.49;40.1;17.50;76787;2835.491;-1758.321;1;222;220;224.2;21.7;21.4;40;40.6;29.1;-1.0;
12/02/2025 15:55:23;117;0;204.34;-4;30.19;8.57;37.1;17.60;76796;2835.489;-1758.321;1;222;220;224.2;21.7;21.4;35;35.2;29.1;-1.0;
12/02/2025 15:55:43;117;0;203.45;-4;29.51;5.52;34.1;17.60;76814;2835.486;-1758.322;1;222;220;222.6;21.7;21.4;38;37.9;29.1;-1.0;
12/02/2025 15:56:04;117;0;203.84;-4;29.95;7.42;31.2;17.70;76817;2835.484;-1758.323;1;223;220;224.2;21.7;21.4;38;38.4;29.1;-1.0;
12/02/2025 15:56:24;117;0;204.04;-4;30.30;7.43;28.2;17.70;76828;2835.481;-1758.323;1;223;220;224.2;21.7;21.4;38;38.4;29.1;-1.0;
12/02/2025 15:56:44;117;0;203.74;-4;30.23;7.55;25.4;17.70;76828;2835.478;-1758.324;1;223;220;224.2;21.7;21.4;38;38.4;29.1;-1.0;
12/02/2025 15:57:04;117;0;204.71;-4;30.43;7.41;22.2;17.80;76839;2835.476;-1758.325;1;223;220;224.2;21.7;21.4;36;36.1;29.1;-1.0;
12/02/2025 15:57:24;117;0;204.21;-4;30.17;6.33;19.2;17.80;76842;2835.473;-1758.325;1;223;220;224.2;21.7;21.4;36;36.1;29.1;-1.0;
12/02/2025 15:57:44;117;0;203.71;-4;30.07;6.09;16.3;17.90;76840;2835.470;-1758.326;1;223;220;224.2;21.7;21.4;39;38.8;29.0;-1.0;
12/02/2025 15:58:04;117;0;203.23;-4;30.35;7.63;13.2;17.90;76852;2835.468;-1758.327;1;224;220;224.2;21.7;21.5;39;39.3;29.1;-1.0;
12/02/2025 15:58:24;117;0;203.50;-4;30.43;7.95;10.1;18.00;76856;2835.465;-1758.327;1;224;220;224.2;21.7;21.4;39;39.3;29.1;-1.0;
12/02/2025 15:58:44;117;0;202.84;-4;30.05;7.43;7.0;18.00;76859;2835.462;-1758.328;1;224;220;224.2;21.7;21.4;39;39.3;29.1;-1.0;
12/02/2025 15:59:04;117;0;202.22;-4;30.29;7.84;4.0;18.10;76866;2835.459;-1758.329;1;224;220;224.2;21.7;21.4;41;41.5;29.1;-1.0;
12/02/2025 15:59:10;115;0;203.55;-4;31.16;8.91;3.0;18.10;76872;2835.458;-1758.329;1;224;500;232.3;100.0;66.0;0;-0.9;29.1;-1.0;
12/02/2025 15:59:20;115;0;184.02;-4;13.08;-13.64;1.9;18.10;76842;2835.457;-1758.329;1;224;500;351.6;100.0;100.0;0;-0.5;28.8;-1.0;
12/02/2025 15:59:30;115;0;176.49;-4;-62.90;-12.67;2.4;18.10;76589;2835.456;-1758.328;1;224;500;461.3;100.0;100.7;0;-0.9;28.8;-1.0;
12/02/2025 15:59:40;115;0;158.76;-4;-72.94;-16.26;2.0;18.10;76342;2835.456;-1758.328;1;224;500;508.1;100.0;100.7;0;-0.9;28.8;-1.0;
12/02/2025 15:59:50;115;0;185.42;-4;-20.28;-5.80;-0.6;18.20;76260;2835.453;-1758.328;1;225;500;508.1;100.0;100.6;0;-0.9;29.1;-1.0;
12/02/2025 16:00:10;119;0;193.11;-4;-58.31;-22.18;-0.1;18.20;76296;2835.453;-1758.328;1;225;500;509.7;100.0;100.7;0;-0.5;29.1;-1.0;
12/02/2025 16:00:20;119;0;213.55;-4;-47.09;-7.63;-0.3;18.30;76310;2835.350;-1758.278;0;225;500;511.3;100.0;100.7;0;-0.9;29.1;-1.0;
