Timestamp;NavState;SecurityLevel;Heading;Declination;Pitch;Roll;Depth;Temperature;Pa;Lat;Lon;DeadReckoning;DesiredH;BallastCmd;BallastPos;LinCmd;LinPos;AngCmd;AngPos;Voltage;Altitude;
22/02/2025 21:59:03;119;0;274.64;-4;-46.21;-14.90;-0.0;17.20;75622;2839.686;-1803.220;0;320;500;506.5;100.0;100.7;0;-0.5;27.1;-1.0;
22/02/2025 21:59:13;116;0;258.65;-4;-56.64;-6.41;0.2;17.20;75632;2839.689;-1803.227;0;320;500;508.1;100.0;100.6;0;-0.5;27.0;-1.0;
22/02/2025 21:59:38;116;0;260.71;-4;-45.59;-22.67;0.0;17.30;75639;2839.691;-1803.232;0;320;500;508.1;100.0;100.7;0;-0.5;27.1;-1.0;
22/02/2025 22:00:04;116;0;253.45;-4;-55.70;-12.00;0.0;17.30;75647;2839.693;-1803.235;0;138;500;508.1;100.0;100.7;0;-0.5;27.1;-1.0;
22/02/2025 22:00:18;116;0;281.87;-4;-55.30;-42.99;0.1;17.40;75645;2839.694;-1803.237;0;138;500;508.1;100.0;100.7;0;-0.5;27.1;-1.0;
22/02/2025 22:00:38;116;0;298.85;-4;-55.34;-13.41;0.1;17.40;75646;2839.697;-1803.241;0;138;500;506.5;100.0;100.7;0;-0.5;27.1;-1.0;
22/02/2025 22:01:41;116;0;280.29;-4;-52.40;-1.26;0.0;17.60;75672;2839.703;-1803.255;0;138;500;508.1;100.0;100.7;0;-0.5;27.1;-1.0;
22/02/2025 22:03:11;116;0;248.56;-4;-56.70;-14.21;-0.0;17.90;75699;2839.721;-1803.279;0;138;500;508.1;100.0;100.7;0;-0.5;27.1;-1.0;
22/02/2025 22:03:35;116;0;257.67;-4;-48.48;-20.47;0.1;18.00;75714;2839.722;-1803.279;0;138;500;508.1;100.0;100.7;0;-0.5;27.0;-1.0;
22/02/2025 22:03:56;116;0;273.70;-4;-46.55;-3.98;0.0;18.10;75707;2839.725;-1803.282;0;138;500;506.5;100.0;100.7;0;-0.5;27.1;-1.0;
22/02/2025 22:04:59;116;0;290.24;-4;-53.97;-18.43;0.0;18.30;75732;2839.736;-1803.295;0;138;500;506.5;100.0;100.9;0;-0.5;27.1;-1.0;
22/02/2025 22:06:37;116;0;233.84;-4;-57.28;-2.03;0.1;18.70;75768;2839.753;-1803.315;0;138;500;508.1;100.0;100.7;0;-0.5;27.1;-1.0;
22/02/2025 22:06:48;116;0;216.86;-4;-58.75;-10.16;0.2;18.80;75771;2839.756;-1803.317;0;138;500;508.1;100.0;100.7;0;-0.5;27.1;-1.0;
22/02/2025 22:07:08;110;0;259.78;-4;-53.96;-8.82;-0.1;18.80;75773;2839.756;-1803.317;0;138;-70;388.7;100.0;99.9;-7;-7.2;27.1;-1.0;
22/02/2025 22:07:18;110;0;266.05;-4;-54.31;-17.43;0.0;18.90;76126;2839.757;-1803.317;1;138;-70;240.3;100.0;99.7;-7;-7.7;27.0;-1.0;
22/02/2025 22:07:28;110;0;250.86;-4;-64.54;-12.32;0.5;18.90;76370;2839.757;-1803.318;1;138;-70;80.6;100.0;99.7;-7;-7.7;27.0;-1.0;
22/02/2025 22:07:39;110;0;243.67;-4;-71.64;-23.00;0.8;19.00;76694;2839.757;-1803.319;1;138;-70;-69.4;100.0;99.9;-7;-7.7;27.0;-1.0;
22/02/2025 22:07:49;110;0;246.67;-4;-67.01;-38.49;1.1;19.00;77002;2839.758;-1803.319;1;138;-70;-69.4;43.3;43.3;-7;-7.7;27.1;-1.0;
22/02/2025 22:08:09;100;0;243.71;-4;-31.65;-15.00;4.4;19.00;76973;2839.758;-1803.323;1;138;-70;-67.7;43.3;43.0;-7;-7.7;27.0;-1.0;
22/02/2025 22:08:29;100;0;249.02;-4;-21.22;-15.23;7.8;19.10;76979;2839.757;-1803.328;1;138;-70;-64.5;43.3;42.9;70;69.9;27.1;-1.0;
22/02/2025 22:08:49;100;0;249.45;-4;-22.98;23.75;10.8;19.10;76995;2839.757;-1803.333;1;138;-70;-64.5;42.4;42.3;70;70.4;27.1;-1.0;
22/02/2025 22:09:09;100;0;237.21;-4;-23.19;23.32;14.1;19.10;76995;2839.756;-1803.337;1;138;-70;-62.9;41.5;41.5;70;70.4;27.1;0.0;
22/02/2025 22:09:29;100;0;221.38;-4;-20.68;23.99;17.0;19.10;77003;2839.754;-1803.341;1;138;-70;-64.5;41.5;41.4;70;70.4;27.1;0.0;
22/02/2025 22:09:49;100;0;212.46;-4;-20.22;23.36;19.7;19.10;77001;2839.752;-1803.344;1;138;-70;-64.5;41.5;41.2;70;70.4;27.0;0.0;
22/02/2025 22:10:09;100;0;200.04;-4;-19.80;23.81;22.4;19.10;77022;2839.750;-1803.346;1;138;-70;-64.5;41.5;41.4;70;70.4;27.1;0.0;
22/02/2025 22:10:29;100;0;189.98;-4;-20.47;23.32;25.1;19.10;77004;2839.748;-1803.348;1;138;-70;-64.5;41.5;41.2;70;69.9;27.1;0.0;
22/02/2025 22:10:49;100;0;176.91;-4;-19.63;23.82;27.8;19.10;77025;2839.745;-1803.348;1;138;-70;-66.1;41.5;41.2;59;59.1;27.1;0.0;
22/02/2025 22:11:09;100;0;167.06;-4;-19.36;17.37;30.4;19.10;77029;2839.743;-1803.348;1;138;-70;-64.5;41.5;41.2;45;45.1;27.1;0.0;
22/02/2025 22:11:29;100;0;157.99;-4;-18.26;10.24;32.9;19.10;77023;2839.740;-1803.348;1;138;-70;-64.5;42.0;42.1;30;29.3;27.1;0.0;
22/02/2025 22:11:49;100;0;151.33;-4;-18.97;2.68;35.5;19.20;77028;2839.738;-1803.347;1;138;-70;-62.9;42.3;42.6;20;19.4;27.1;0.0;
22/02/2025 22:12:09;100;0;148.70;-4;-19.26;-2.12;38.0;19.20;77028;2839.737;-1803.345;1;138;-70;-64.5;42.3;42.6;18;18.1;27.1;0.0;
22/02/2025 22:12:29;100;0;146.77;-4;-19.23;-2.92;40.6;19.20;77034;2839.735;-1803.344;1;138;-70;-62.9;42.3;42.6;16;15.8;27.1;0.0;
22/02/2025 22:12:49;100;0;146.64;-4;-19.41;-4.16;43.2;19.20;77042;2839.733;-1803.343;1;138;-70;-62.9;42.3;42.6;16;15.3;27.1;0.0;
22/02/2025 22:13:09;100;0;146.64;-4;-19.62;-4.03;45.8;19.20;77041;2839.731;-1803.342;1;138;-70;-64.5;42.3;42.6;16;15.3;27.1;0.0;
22/02/2025 22:13:29;100;0;145.73;-4;-19.13;-4.07;48.4;19.20;77046;2839.729;-1803.340;1;138;-70;-62.9;42.3;42.6;16;15.3;27.1;0.0;
22/02/2025 22:13:49;100;0;145.24;-4;-19.67;-4.09;51.2;19.20;77051;2839.727;-1803.339;1;138;-70;-62.9;42.3;42.6;16;15.3;27.1;0.0;
22/02/2025 22:14:09;100;0;144.06;-4;-19.03;-4.07;53.8;19.20;77054;2839.725;-1803.337;1;138;-70;-64.5;42.3;42.6;16;15.3;27.1;0.0;
22/02/2025 22:14:29;100;0;143.25;-4;-19.47;-4.16;56.5;19.20;77051;2839.723;-1803.336;1;138;-70;-64.5;42.3;42.6;16;15.3;27.1;0.0;
22/02/2025 22:14:49;100;0;143.14;-4;-18.77;-4.05;59.1;19.20;77071;2839.721;-1803.334;1;138;-70;-64.5;42.7;42.7;16;15.3;27.1;0.0;
22/02/2025 22:15:09;100;0;140.86;-4;-19.75;-4.13;61.7;19.20;77071;2839.720;-1803.333;1;138;-70;-64.5;42.7;43.0;16;15.3;27.1;0.0;
22/02/2025 22:15:29;100;0;138.04;-4;-19.96;-4.16;64.4;19.20;77070;2839.718;-1803.331;1;138;-70;-62.9;42.7;42.9;16;15.3;27.1;0.0;
22/02/2025 22:15:49;100;0;137.93;-4;-19.78;-4.08;67.1;19.20;77077;2839.717;-1803.329;1;138;-70;-62.9;42.7;43.0;16;15.3;27.1;0.0;
22/02/2025 22:16:09;100;0;138.79;-4;-19.99;-4.01;69.8;19.20;77067;2839.715;-1803.328;1;138;-70;-62.9;42.7;43.0;16;15.3;27.1;0.0;
22/02/2025 22:16:29;100;0;138.37;-4;-19.80;-4.10;72.4;19.20;77077;2839.714;-1803.326;1;138;-70;-62.9;42.7;43.0;16;15.3;27.1;0.0;
22/02/2025 22:16:49;100;0;138.36;-4;-19.92;-4.07;75.0;19.20;77073;2839.712;-1803.324;1;138;-70;-66.1;42.7;43.0;16;15.3;27.1;0.0;
22/02/2025 22:17:09;100;0;137.08;-4;-19.78;-4.14;77.6;19.20;77073;2839.711;-1803.322;1;138;-70;-64.5;42.7;43.0;16;15.3;27.1;0.0;
22/02/2025 22:17:29;100;0;136.28;-4;-19.95;-4.09;80.1;19.20;77090;2839.709;-1803.321;1;138;-70;-64.5;42.7;43.0;16;15.3;27.1;0.0;
22/02/2025 22:17:49;100;0;135.24;-4;-18.95;-4.22;82.6;19.30;77090;2839.708;-1803.319;1;138;-70;-64.5;43.0;43.0;16;15.3;27.1;0.0;
22/02/2025 22:18:09;100;0;133.16;-4;-20.05;-4.17;85.0;19.20;77090;2839.707;-1803.317;1;138;-70;-64.5;43.0;42.9;14;14.0;27.1;0.0;
22/02/2025 22:18:29;100;0;132.24;-4;-19.83;-4.85;87.4;19.20;77093;2839.706;-1803.316;1;138;-70;-64.5;43.0;43.0;14;14.0;27.1;0.0;
22/02/2025 22:18:49;100;0;131.39;-4;-19.74;-4.92;89.9;19.20;77088;2839.704;-1803.314;1;138;-70;-66.1;43.0;43.0;14;14.0;27.1;0.0;
22/02/2025 22:19:09;100;0;130.37;-4;-19.90;-4.83;92.4;19.20;77102;2839.703;-1803.312;1;138;-70;-64.5;43.0;43.0;12;12.2;27.1;0.0;
22/02/2025 22:19:29;100;0;130.32;-4;-19.70;-5.93;94.8;19.20;77102;2839.702;-1803.310;1;138;-70;-64.5;43.0;43.0;12;11.3;27.1;0.0;
22/02/2025 22:19:49;100;0;129.98;-4;-19.71;-5.94;97.2;19.20;77105;2839.701;-1803.308;1;138;-70;-64.5;43.0;43.0;12;11.7;27.1;0.0;
22/02/2025 22:20:09;100;0;129.65;-4;-19.37;-6.02;99.5;19.20;77105;2839.700;-1803.306;1;138;-70;-64.5;43.0;43.0;12;11.3;27.1;0.0;
22/02/2025 22:20:29;100;0;128.59;-4;-20.01;-6.03;101.8;19.20;77102;2839.700;-1803.305;1;138;-70;-64.5;43.0;42.9;10;9.9;27.1;0.0;
22/02/2025 22:20:49;100;0;134.04;-4;-19.60;-7.10;104.2;19.20;77079;2839.698;-1803.303;1;138;-70;-64.5;43.0;43.0;14;14.0;27.1;0.0;
22/02/2025 22:21:09;100;0;136.84;-4;-20.51;-4.22;106.6;19.20;77069;2839.697;-1803.302;1;138;-70;-62.9;43.0;42.9;14;14.4;27.1;0.0;
22/02/2025 22:21:29;100;0;137.17;-4;-20.45;-4.40;109.2;19.20;77063;2839.696;-1803.300;1;138;-70;-64.5;43.0;43.0;14;14.9;27.1;0.0;
22/02/2025 22:21:49;100;0;137.84;-4;-19.39;-4.32;111.6;19.20;77058;2839.694;-1803.298;1;138;-70;-62.9;43.0;43.0;14;14.9;27.1;0.0;
22/02/2025 22:22:09;100;0;136.80;-4;-19.46;-4.44;113.9;19.20;77044;2839.693;-1803.297;1;138;-70;-62.9;43.0;43.0;14;14.9;27.1;0.0;
22/02/2025 22:22:29;100;0;135.50;-4;-19.62;-4.37;116.3;19.20;77037;2839.692;-1803.295;1;138;-70;-64.5;43.0;43.0;14;14.4;27.1;0.0;
22/02/2025 22:22:49;100;0;136.71;-4;-19.00;-4.44;118.5;19.10;77023;2839.691;-1803.294;1;138;-70;-64.5;43.3;43.3;14;14.4;27.1;0.0;
22/02/2025 22:23:09;100;0;138.72;-4;-20.47;-4.40;120.8;19.10;77003;2839.689;-1803.292;1;138;-70;-62.9;43.3;43.4;14;14.9;27.1;0.0;
22/02/2025 22:23:29;100;0;140.19;-4;-20.74;-4.35;123.3;19.10;76978;2839.688;-1803.291;1;138;-70;-64.5;43.3;43.4;14;14.9;27.1;0.0;
22/02/2025 22:23:49;100;0;142.51;-4;-20.44;-4.33;125.9;19.10;76968;2839.686;-1803.290;1;138;-70;-62.9;43.3;43.6;14;14.4;27.1;0.0;
22/02/2025 22:24:09;100;0;144.70;-4;-20.50;-4.34;128.3;19.10;76965;2839.685;-1803.288;1;138;-70;-64.5;43.3;43.6;14;14.4;27.1;0.0;
22/02/2025 22:24:29;100;0;146.51;-4;-20.39;-4.34;130.8;19.00;76951;2839.683;-1803.287;1;138;-70;-64.5;43.3;43.4;14;14.4;27.1;0.0;
22/02/2025 22:24:49;100;0;147.67;-4;-20.77;-4.36;133.4;19.00;76930;2839.681;-1803.286;1;138;-70;-64.5;43.3;43.4;16;15.8;27.1;0.0;
22/02/2025 22:25:09;100;0;148.19;-4;-20.36;-3.58;135.9;19.00;76925;2839.680;-1803.285;1;138;-70;-66.1;43.3;43.6;16;16.2;27.1;0.0;
22/02/2025 22:25:29;100;0;151.23;-4;-19.96;-3.60;138.2;18.90;76912;2839.678;-1803.284;1;138;-70;-64.5;43.3;43.6;19;19.0;27.1;0.0;
22/02/2025 22:25:49;100;0;150.25;-4;-20.92;-1.83;140.5;18.90;76904;2839.677;-1803.284;1;138;-70;-64.5;43.3;43.6;19;19.4;27.1;0.0;
22/02/2025 22:26:09;100;0;148.27;-4;-20.67;-1.93;143.0;18.90;76892;2839.675;-1803.283;1;138;-70;-62.9;43.3;43.6;16;15.8;27.1;0.0;
22/02/2025 22:26:29;100;0;149.81;-4;-20.09;-3.62;145.3;18.80;76880;2839.674;-1803.282;1;138;-70;-64.5;43.3;43.6;18;18.1;27.1;0.0;
22/02/2025 22:26:49;100;0;149.84;-4;-20.53;-2.50;147.7;18.80;76876;2839.672;-1803.281;1;138;-70;-64.5;43.3;43.6;18;18.5;27.1;0.0;
22/02/2025 22:27:09;100;0;155.07;-4;-20.93;-2.63;150.2;18.80;76861;2839.670;-1803.280;1;138;-70;-64.5;43.3;43.6;24;23.9;27.1;0.0;
22/02/2025 22:27:29;100;0;155.80;-4;-21.16;0.49;152.7;18.80;76851;2839.668;-1803.280;1;138;-70;-64.5;43.3;43.6;24;24.4;27.1;0.0;
22/02/2025 22:27:49;100;0;151.95;-4;-21.15;0.48;155.3;18.70;76847;2839.666;-1803.279;1;138;-70;-64.5;43.3;43.6;20;19.9;27.1;0.0;
22/02/2025 22:28:09;100;0;149.45;-4;-20.56;-1.87;157.7;18.70;76848;2839.665;-1803.278;1;138;-70;-62.9;43.3;43.6;18;18.1;27.1;0.0;
22/02/2025 22:28:29;100;0;146.86;-4;-21.10;-3.01;160.2;18.70;76832;2839.663;-1803.277;1;138;-70;-64.5;43.3;43.6;16;15.8;27.1;0.0;
22/02/2025 22:28:49;100;0;149.95;-4;-20.62;-4.14;162.7;18.60;76831;2839.661;-1803.276;1;138;-70;-62.9;43.3;43.6;18;18.1;27.1;0.0;
22/02/2025 22:29:09;100;0;150.80;-4;-20.70;-2.43;165.2;18.60;76821;2839.660;-1803.275;1;138;-70;-64.5;43.3;43.6;18;18.5;27.1;0.0;
22/02/2025 22:29:29;100;0;150.30;-4;-20.74;-2.39;167.8;18.60;76811;2839.658;-1803.274;1;138;-70;-62.9;43.3;43.6;18;18.5;27.1;0.0;
22/02/2025 22:29:49;100;0;147.17;-4;-20.37;-2.44;170.2;18.50;76807;2839.656;-1803.273;1;138;-70;-64.5;43.3;43.6;16;15.8;27.1;0.0;
22/02/2025 22:30:09;100;0;146.18;-4;-20.23;-4.21;172.5;18.50;76788;2839.655;-1803.272;1;138;-70;-64.5;43.3;43.6;16;14.9;27.1;0.0;
22/02/2025 22:30:29;100;0;146.35;-4;-20.04;-4.28;175.0;18.50;76783;2839.653;-1803.271;1;138;-70;-62.9;43.3;43.6;16;14.9;27.1;0.0;
22/02/2025 22:30:49;100;0;145.54;-4;-19.93;-4.18;177.3;18.40;76773;2839.652;-1803.270;1;138;-70;-64.5;43.3;43.6;16;15.3;27.1;0.0;
22/02/2025 22:31:09;100;0;146.81;-4;-20.32;-4.19;179.7;18.40;76763;2839.650;-1803.269;1;138;-70;-64.5;43.3;43.6;16;15.3;27.1;0.0;
22/02/2025 22:31:29;100;0;147.97;-4;-20.84;-4.14;182.2;18.40;76750;2839.648;-1803.268;1;138;-70;-62.9;43.3;43.6;16;14.9;27.1;0.0;
22/02/2025 22:31:49;100;0;147.04;-4;-20.03;-4.17;184.7;18.30;76740;2839.647;-1803.267;1;138;-70;-62.9;43.3;43.6;16;14.9;27.1;0.0;
22/02/2025 22:32:09;100;0;149.48;-4;-19.99;-4.21;187.1;18.30;76732;2839.645;-1803.266;1;138;-70;-64.5;43.3;43.6;18;18.1;27.1;0.0;
22/02/2025 22:32:29;100;0;150.84;-4;-20.37;-2.52;189.4;18.30;76710;2839.643;-1803.265;1;138;-70;-64.5;43.3;43.6;18;18.5;27.1;0.0;
22/02/2025 22:32:49;100;0;149.68;-4;-20.55;-2.52;191.8;18.20;76705;2839.642;-1803.264;1;138;-70;-64.5;43.3;43.6;18;18.5;27.1;0.0;
22/02/2025 22:33:09;100;0;147.86;-4;-20.82;-2.49;194.3;18.20;76688;2839.640;-1803.263;1;138;-70;-64.5;43.3;43.6;18;18.1;27.1;0.0;
22/02/2025 22:33:29;100;0;148.09;-4;-20.75;-2.45;196.8;18.20;76692;2839.639;-1803.262;1;138;-70;-62.9;43.3;43.6;18;18.1;27.1;0.0;
22/02/2025 22:33:49;100;0;146.60;-4;-20.55;-2.50;199.3;18.10;76682;2839.637;-1803.261;1;138;-70;-64.5;43.3;43.6;16;15.8;27.1;0.0;
22/02/2025 22:34:09;100;0;146.11;-4;-20.17;-4.02;201.7;18.10;76681;2839.635;-1803.260;1;138;-70;-64.5;43.3;43.6;16;15.3;27.1;0.0;
22/02/2025 22:34:29;100;0;143.31;-4;-20.06;-4.08;203.9;18.00;76669;2839.634;-1803.259;1;138;-70;-62.9;43.3;43.6;16;15.3;27.1;0.0;
22/02/2025 22:34:49;100;0;141.05;-4;-20.22;-4.08;206.3;18.00;76654;2839.633;-1803.258;1;138;-70;-64.5;43.3;43.6;16;15.3;27.1;0.0;
22/02/2025 22:35:09;100;0;140.44;-4;-20.45;-4.03;208.5;18.00;76653;2839.631;-1803.257;1;138;-70;-64.5;43.3;43.6;16;15.3;27.1;0.0;
22/02/2025 22:35:29;100;0;139.99;-4;-20.54;-4.07;210.9;17.90;76632;2839.630;-1803.255;1;138;-70;-64.5;43.3;43.6;16;15.3;27.1;0.0;
22/02/2025 22:35:49;100;0;141.28;-4;-20.67;-4.00;213.4;17.90;76637;2839.629;-1803.254;1;138;-70;-62.9;43.3;43.6;16;15.3;27.1;0.0;
22/02/2025 22:36:09;100;0;142.31;-4;-20.86;-3.95;215.8;17.90;76629;2839.627;-1803.253;1;138;-70;-64.5;43.3;43.6;16;15.3;27.1;0.0;
22/02/2025 22:36:29;100;0;142.59;-4;-20.46;-3.94;218.3;17.80;76611;2839.626;-1803.252;1;138;-70;-62.9;43.3;43.6;16;15.3;27.1;0.0;
22/02/2025 22:36:49;100;0;139.60;-4;-19.66;-4.05;220.7;17.80;76606;2839.624;-1803.250;1;138;-70;-64.5;43.3;43.6;16;15.3;27.1;0.0;
22/02/2025 22:37:09;100;0;135.97;-4;-20.33;-3.87;222.8;17.70;76602;2839.623;-1803.249;1;138;-70;-62.9;43.3;43.6;16;15.3;27.1;0.0;
22/02/2025 22:37:29;100;0;136.47;-4;-20.32;-3.97;225.2;17.70;76586;2839.622;-1803.247;1;138;-70;-62.9;43.3;43.6;16;15.3;27.1;0.0;
22/02/2025 22:37:49;100;0;136.23;-4;-19.68;-3.95;227.5;17.60;76587;2839.621;-1803.246;1;138;-70;-64.5;43.3;43.7;16;15.3;27.1;0.0;
22/02/2025 22:38:09;100;0;136.68;-4;-20.17;-4.01;229.8;17.60;76572;2839.620;-1803.244;1;138;-70;-64.5;43.3;43.6;16;15.3;27.0;0.0;
22/02/2025 22:38:29;100;0;137.40;-4;-20.09;-4.09;232.1;17.60;76573;2839.619;-1803.243;1;138;-70;-64.5;43.3;43.6;16;15.3;27.1;0.0;
22/02/2025 22:38:49;100;0;136.47;-4;-19.90;-4.02;234.4;17.60;76566;2839.617;-1803.242;1;138;-70;-64.5;43.3;43.6;16;15.3;27.1;0.0;
22/02/2025 22:39:09;100;0;139.45;-4;-20.62;-4.51;236.6;17.50;76559;2839.616;-1803.240;1;138;-70;-64.5;43.3;43.6;16;15.3;27.1;0.0;
22/02/2025 22:39:29;100;0;141.82;-4;-20.00;-3.96;238.9;17.50;76555;2839.615;-1803.239;1;138;-70;-66.1;43.3;43.6;16;15.3;27.1;0.0;
22/02/2025 22:39:49;100;0;145.23;-4;-20.21;-3.61;241.4;17.40;76540;2839.613;-1803.238;1;138;-70;-64.5;43.3;43.6;16;15.3;27.1;0.0;
22/02/2025 22:40:09;100;0;145.13;-4;-21.08;-4.50;243.9;17.40;76542;2839.612;-1803.237;1;138;-70;-64.5;43.3;43.6;16;15.3;27.1;0.0;
22/02/2025 22:40:29;100;0;144.54;-4;-20.02;-3.91;246.5;17.40;76527;2839.610;-1803.236;1;138;-70;-66.1;43.3;43.6;16;15.3;27.1;0.0;
22/02/2025 22:40:49;100;0;147.93;-4;-20.20;-3.89;249.0;17.30;76529;2839.608;-1803.234;1;138;-70;-64.5;43.3;43.6;16;15.3;27.1;0.0;
22/02/2025 22:41:09;100;0;148.98;-4;-20.48;-4.04;251.5;17.30;76522;2839.607;-1803.233;1;138;-70;-64.5;43.3;43.6;18;18.1;27.1;0.0;
22/02/2025 22:41:29;100;0;149.73;-4;-20.36;-2.37;254.0;17.30;76520;2839.605;-1803.232;1;138;-70;-64.5;43.3;43.6;18;18.5;27.1;0.0;
22/02/2025 22:41:50;100;0;151.68;-4;-20.60;-2.44;256.4;17.20;76522;2839.603;-1803.232;1;138;-70;-62.9;43.3;43.6;20;19.9;27.1;0.0;
22/02/2025 22:42:10;100;0;151.64;-4;-20.76;-1.38;259.0;17.20;76515;2839.601;-1803.231;1;138;-70;-62.9;43.3;43.6;20;20.3;27.1;0.0;
22/02/2025 22:42:30;100;0;150.13;-4;-20.31;-1.37;261.5;17.20;76500;2839.599;-1803.230;1;138;-70;-62.9;43.3;43.6;20;20.3;27.1;0.0;
22/02/2025 22:42:50;100;0;145.59;-4;-20.27;-1.45;264.0;17.10;76498;2839.598;-1803.229;1;138;-70;-64.5;43.3;43.6;16;15.8;27.0;0.0;
22/02/2025 22:43:10;100;0;140.97;-4;-19.83;-3.87;266.4;17.10;76486;2839.596;-1803.227;1;138;-70;-64.5;43.3;43.6;16;15.8;27.1;0.0;
22/02/2025 22:43:30;100;0;137.73;-4;-19.75;-3.85;268.7;17.10;76481;2839.595;-1803.226;1;138;-70;-62.9;43.3;43.6;16;15.8;27.1;0.0;
22/02/2025 22:43:50;100;0;134.17;-4;-19.83;-3.91;271.0;17.00;76463;2839.594;-1803.224;1;138;-70;-64.5;43.3;43.6;16;15.8;27.1;0.0;
22/02/2025 22:44:10;100;0;133.21;-4;-19.71;-3.82;273.3;17.00;76462;2839.593;-1803.223;1;138;-70;-62.9;43.3;43.6;16;15.8;27.1;0.0;
22/02/2025 22:44:30;100;0;134.26;-4;-19.87;-3.85;275.6;17.00;76453;2839.592;-1803.221;1;138;-70;-62.9;43.3;43.6;16;15.8;27.1;0.0;
22/02/2025 22:44:50;100;0;132.90;-4;-19.83;-3.89;277.9;16.90;76451;2839.591;-1803.220;1;138;-70;-62.9;43.3;43.6;14;14.0;27.1;0.0;
22/02/2025 22:45:10;100;0;132.03;-4;-19.67;-4.92;280.1;16.90;76423;2839.590;-1803.218;1;138;-70;-64.5;43.3;43.6;14;13.5;27.1;0.0;
22/02/2025 22:45:30;100;0;132.89;-4;-19.84;-4.92;282.4;16.90;76427;2839.589;-1803.217;1;138;-70;-64.5;43.3;43.6;14;13.5;27.1;0.0;
22/02/2025 22:45:50;100;0;131.41;-4;-20.02;-4.94;284.7;16.80;76412;2839.588;-1803.215;1;138;-70;-64.5;43.3;43.6;14;13.5;27.1;0.0;
22/02/2025 22:46:10;100;0;131.77;-4;-20.01;-4.87;287.2;16.80;76408;2839.587;-1803.213;1;138;-70;-64.5;43.3;43.6;14;13.5;27.1;0.0;
22/02/2025 22:46:30;100;0;133.31;-4;-20.20;-4.93;289.4;16.80;76406;2839.586;-1803.212;1;138;-70;-64.5;43.3;43.6;14;13.5;27.1;0.0;
22/02/2025 22:46:50;100;0;133.75;-4;-20.31;-4.92;291.9;16.70;76403;2839.585;-1803.210;1;138;-70;-66.1;43.3;43.6;14;13.5;27.1;0.0;
22/02/2025 22:47:10;100;0;132.97;-4;-20.24;-4.88;294.4;16.70;76398;2839.583;-1803.208;1;138;-70;-64.5;43.3;43.6;14;13.5;27.1;0.0;
22/02/2025 22:47:30;100;0;131.97;-4;-20.17;-4.88;296.8;16.70;76392;2839.582;-1803.206;1;138;-70;-62.9;43.3;43.6;14;13.5;27.1;0.0;
22/02/2025 22:47:50;100;0;131.87;-4;-20.15;-4.86;299.1;16.60;76375;2839.581;-1803.205;1;138;-70;-62.9;43.3;43.6;14;13.5;27.1;0.0;
22/02/2025 22:48:10;100;0;131.46;-4;-20.23;-4.87;301.5;16.60;76371;2839.580;-1803.203;1;138;-70;-64.5;43.3;43.6;14;13.5;27.1;0.0;
22/02/2025 22:48:30;100;0;133.15;-4;-20.19;-4.89;303.8;16.60;76367;2839.579;-1803.201;1;138;-70;-62.9;43.3;43.6;14;13.5;27.1;0.0;
22/02/2025 22:48:50;100;0;132.85;-4;-20.15;-4.93;306.1;16.50;76373;2839.578;-1803.200;1;138;-70;-62.9;43.3;43.6;14;13.5;27.1;0.0;
22/02/2025 22:49:10;100;0;133.32;-4;-20.10;-4.93;308.5;16.50;76365;2839.577;-1803.198;1;138;-70;-62.9;43.3;43.6;14;13.5;27.1;0.0;
22/02/2025 22:49:30;100;0;133.93;-4;-20.05;-4.90;310.8;16.50;76357;2839.576;-1803.197;1;138;-70;-64.5;43.3;43.6;14;13.5;27.1;0.0;
22/02/2025 22:49:50;100;0;134.56;-4;-20.04;-4.93;313.0;16.40;76355;2839.575;-1803.195;1;138;-70;-64.5;43.3;43.6;14;13.5;27.1;0.0;
22/02/2025 22:50:10;100;0;136.37;-4;-20.04;-4.90;315.3;16.40;76341;2839.574;-1803.194;1;138;-70;-64.5;43.3;43.6;14;13.5;27.1;0.0;
22/02/2025 22:50:30;100;0;136.80;-4;-20.10;-4.90;317.5;16.40;76353;2839.573;-1803.192;1;138;-70;-64.5;43.3;43.6;14;13.5;27.1;0.0;
22/02/2025 22:50:50;100;0;134.68;-4;-20.00;-4.91;319.8;16.30;76341;2839.572;-1803.191;1;138;-70;-64.5;43.3;43.6;14;13.5;27.1;0.0;
22/02/2025 22:51:10;100;0;132.44;-4;-19.72;-4.97;322.0;16.30;76323;2839.571;-1803.189;1;138;-70;-64.5;43.3;43.6;14;13.5;27.1;0.0;
22/02/2025 22:51:30;100;0;131.15;-4;-19.62;-4.99;324.0;16.30;76326;2839.570;-1803.188;1;138;-70;-64.5;43.3;43.6;14;14.0;27.1;0.0;
22/02/2025 22:51:50;100;0;131.02;-4;-19.69;-4.91;326.1;16.20;76314;2839.569;-1803.187;1;138;-70;-64.5;43.3;43.6;14;13.5;27.1;0.0;
22/02/2025 22:52:10;100;0;131.61;-4;-19.86;-4.99;328.3;16.20;76313;2839.568;-1803.185;1;138;-70;-64.5;43.3;43.6;14;13.5;27.1;0.0;
22/02/2025 22:52:30;100;0;137.89;-4;-19.74;-5.01;330.4;16.20;76294;2839.567;-1803.184;1;138;-70;-64.5;43.3;43.6;14;13.5;27.1;0.0;
22/02/2025 22:52:50;100;0;141.39;-4;-19.69;-4.96;332.5;16.20;76301;2839.566;-1803.183;1;138;-70;-64.5;43.3;43.6;14;13.5;27.1;0.0;
22/02/2025 22:53:10;100;0;140.29;-4;-19.47;-4.98;334.6;16.10;76278;2839.565;-1803.182;1;138;-70;-62.9;43.3;43.6;14;13.5;27.1;0.0;
22/02/2025 22:53:30;100;0;140.33;-4;-19.48;-4.95;336.7;16.10;76268;2839.564;-1803.180;1;138;-70;-64.5;43.3;43.6;14;13.5;27.1;0.0;
22/02/2025 22:53:50;100;0;142.66;-4;-19.62;-4.92;338.7;16.00;76257;2839.563;-1803.180;1;138;-70;-62.9;43.3;43.4;14;13.5;27.1;0.0;
22/02/2025 22:54:10;100;0;147.61;-4;-19.87;-5.01;340.7;16.00;76252;2839.562;-1803.179;1;138;-90;-88.7;43.3;43.6;16;15.8;27.1;0.0;
22/02/2025 22:54:30;100;0;148.85;-4;-19.13;-3.53;342.9;16.00;76318;2839.560;-1803.178;1;138;-90;-91.9;43.3;43.6;16;16.2;27.0;0.0;
22/02/2025 22:54:50;100;0;151.42;-4;-19.23;-3.46;345.3;16.00;76309;2839.558;-1803.177;1;138;-90;-91.9;43.3;43.6;20;19.9;27.0;0.0;
22/02/2025 22:55:10;100;0;150.30;-4;-19.40;-1.37;347.6;15.90;76299;2839.557;-1803.176;1;138;-90;-93.5;43.3;43.6;18;18.1;27.0;0.0;
22/02/2025 22:55:30;100;0;148.24;-4;-19.42;-2.59;350.1;15.90;76301;2839.555;-1803.175;1;138;-90;-93.5;43.3;43.6;18;18.1;27.1;0.0;
22/02/2025 22:55:50;100;0;146.33;-4;-19.41;-2.62;352.4;15.80;76293;2839.553;-1803.174;1;138;-90;-95.2;43.3;43.6;16;15.8;27.1;0.0;
22/02/2025 22:56:10;100;0;145.05;-4;-19.39;-3.97;354.9;15.80;76294;2839.551;-1803.173;1;138;-90;-95.2;43.3;43.6;16;15.3;27.1;0.0;
22/02/2025 22:56:30;100;0;144.02;-4;-19.45;-3.94;357.4;15.80;76293;2839.550;-1803.171;1;138;-90;-95.2;43.3;43.6;16;15.3;27.1;0.0;
22/02/2025 22:56:50;100;0;143.78;-4;-19.36;-3.83;359.7;15.80;76286;2839.548;-1803.170;1;138;-90;-95.2;43.3;43.6;16;15.3;27.1;0.0;
22/02/2025 22:57:10;100;0;143.54;-4;-19.48;-4.00;362.1;15.70;76273;2839.547;-1803.169;1;138;-90;-96.8;43.3;43.6;16;15.3;27.1;0.0;
22/02/2025 22:57:30;100;0;147.79;-4;-19.47;-3.93;364.7;15.70;76263;2839.545;-1803.168;1;138;-90;-95.2;43.3;43.6;16;15.3;27.1;0.0;
22/02/2025 22:57:50;100;0;152.08;-4;-19.62;-3.92;367.2;15.70;76267;2839.543;-1803.167;1;138;-90;-95.2;43.3;43.6;20;19.9;27.1;0.0;
22/02/2025 22:58:10;100;0;151.92;-4;-19.85;-1.34;369.7;15.60;76260;2839.541;-1803.166;1;138;-90;-95.2;43.3;43.6;20;20.3;27.1;0.0;
22/02/2025 22:58:30;100;0;148.80;-4;-19.90;-1.39;372.3;15.60;76257;2839.539;-1803.165;1;138;-90;-96.8;43.3;43.6;18;18.1;27.1;0.0;
22/02/2025 22:58:50;100;0;145.47;-4;-19.71;-2.86;374.8;15.60;76250;2839.537;-1803.164;1;138;-90;-95.2;43.3;43.6;16;15.8;27.1;0.0;
22/02/2025 22:59:10;100;0;143.54;-4;-19.61;-3.90;377.5;15.60;76250;2839.536;-1803.162;1;138;-90;-96.8;43.3;43.6;16;15.3;27.1;0.0;
22/02/2025 22:59:30;100;0;144.64;-4;-19.69;-3.87;380.1;15.50;76249;2839.534;-1803.161;1;138;-90;-96.8;43.3;43.6;16;15.3;27.1;0.0;
22/02/2025 22:59:50;100;0;144.54;-4;-19.64;-3.90;382.7;15.50;76236;2839.532;-1803.160;1;138;-90;-95.2;43.3;43.6;16;15.3;27.1;0.0;
22/02/2025 23:00:10;100;0;142.84;-4;-19.46;-3.85;385.3;15.50;76220;2839.530;-1803.158;1;138;-90;-96.8;43.3;43.6;16;15.8;27.1;0.0;
22/02/2025 23:00:30;100;0;141.23;-4;-19.38;-3.98;387.8;15.40;76227;2839.529;-1803.157;1;138;-90;-96.8;43.3;43.6;16;15.3;27.1;0.0;
22/02/2025 23:00:50;100;0;143.03;-4;-19.57;-3.93;390.3;15.40;76220;2839.527;-1803.155;1;138;-90;-96.8;43.3;43.6;16;15.3;27.1;0.0;
22/02/2025 23:01:10;100;0;145.74;-4;-19.58;-3.89;392.9;15.40;76205;2839.525;-1803.154;1;138;-90;-95.2;43.3;43.6;16;15.3;27.1;0.0;
22/02/2025 23:01:30;100;0;145.47;-4;-19.68;-3.88;395.4;15.30;76203;2839.524;-1803.153;1;138;-90;-96.8;43.3;43.6;16;15.3;27.1;0.0;
22/02/2025 23:01:50;100;0;144.07;-4;-19.44;-3.98;398.0;15.30;76199;2839.522;-1803.151;1;138;-90;-95.2;43.3;43.6;16;15.3;27.1;0.0;
22/02/2025 23:02:10;100;0;145.31;-4;-19.21;-3.98;400.6;15.30;76184;2839.520;-1803.150;1;138;-90;-96.8;43.3;43.6;16;15.3;27.1;0.0;
22/02/2025 23:02:30;100;0;145.18;-4;-19.12;-3.92;403.1;15.20;76177;2839.518;-1803.149;1;138;-90;-95.2;43.3;43.6;16;15.3;27.1;0.0;
22/02/2025 23:02:50;100;0;144.35;-4;-19.22;-3.95;405.5;15.20;76181;2839.517;-1803.147;1;138;-90;-95.2;43.3;43.4;16;15.3;27.1;0.0;
22/02/2025 23:03:10;100;0;142.95;-4;-19.16;-3.95;408.1;15.20;76177;2839.515;-1803.146;1;138;-90;-96.8;43.3;43.6;16;15.3;27.1;0.0;
22/02/2025 23:03:30;100;0;143.51;-4;-19.01;-3.92;410.5;15.20;76170;2839.513;-1803.145;1;138;-90;-98.4;43.3;43.6;16;15.3;27.1;0.0;
22/02/2025 23:03:50;100;0;142.61;-4;-19.39;-4.00;413.1;15.10;76158;2839.512;-1803.143;1;138;-90;-96.8;43.3;43.6;16;15.3;27.1;0.0;
22/02/2025 23:04:10;100;0;142.06;-4;-19.32;-3.93;415.7;15.10;76156;2839.510;-1803.142;1;138;-90;-96.8;43.3;43.6;16;15.3;27.1;0.0;
22/02/2025 23:04:30;100;0;142.57;-4;-19.10;-3.94;418.4;15.10;76142;2839.508;-1803.140;1;138;-90;-96.8;43.3;43.6;16;15.3;27.1;0.0;
22/02/2025 23:04:50;100;0;140.74;-4;-19.17;-3.96;421.0;15.10;76142;2839.506;-1803.138;1;138;-90;-95.2;43.3;43.6;16;15.3;27.1;0.0;
22/02/2025 23:05:10;100;0;139.46;-4;-18.88;-3.93;423.6;15.00;76134;2839.505;-1803.137;1;138;-90;-95.2;43.6;43.6;16;15.3;27.1;0.0;
22/02/2025 23:05:30;100;0;137.61;-4;-18.84;-3.99;426.0;15.00;76129;2839.503;-1803.135;1;138;-90;-96.8;44.0;44.0;16;15.3;27.0;0.0;
22/02/2025 23:05:50;100;0;137.21;-4;-20.05;-3.96;428.6;15.00;76116;2839.502;-1803.133;1;138;-90;-95.2;44.0;44.0;16;15.3;27.0;0.0;
22/02/2025 23:06:10;100;0;137.33;-4;-20.25;-3.98;431.4;14.90;76113;2839.500;-1803.131;1;138;-90;-95.2;44.0;44.2;16;15.3;27.1;0.0;
22/02/2025 23:06:30;100;0;137.92;-4;-20.10;-3.87;434.3;14.90;76106;2839.498;-1803.130;1;138;-90;-96.8;44.0;44.2;16;15.3;27.1;0.0;
22/02/2025 23:06:50;100;0;138.90;-4;-19.98;-3.82;437.0;14.90;76101;2839.497;-1803.128;1;138;-90;-95.2;44.0;44.0;16;15.3;27.1;0.0;
22/02/2025 23:07:10;100;0;139.33;-4;-20.03;-3.95;439.7;14.80;76097;2839.495;-1803.126;1;138;-90;-95.2;44.0;44.2;16;15.3;27.1;0.0;
22/02/2025 23:07:30;100;0;140.44;-4;-20.17;-3.97;442.4;14.80;76091;2839.493;-1803.124;1;138;-90;-95.2;44.0;44.2;16;15.3;27.1;0.0;
22/02/2025 23:07:50;100;0;138.49;-4;-20.03;-3.96;445.1;14.80;76086;2839.492;-1803.123;1;138;-90;-96.8;44.0;44.2;16;15.3;27.1;0.0;
22/02/2025 23:08:10;100;0;137.32;-4;-20.15;-3.94;447.9;14.80;76079;2839.490;-1803.121;1;138;-90;-95.2;44.0;44.2;16;15.3;27.1;0.0;
22/02/2025 23:08:30;100;0;134.99;-4;-20.36;-3.92;450.6;14.70;76075;2839.489;-1803.119;1;138;-90;-95.2;44.0;44.2;16;15.3;27.1;0.0;
22/02/2025 23:08:50;100;0;133.27;-4;-20.14;-3.85;453.3;14.70;76075;2839.487;-1803.117;1;138;-90;-95.2;44.0;44.2;16;15.3;27.1;0.0;
22/02/2025 23:09:10;100;0;131.29;-4;-20.17;-3.97;456.1;14.70;76064;2839.486;-1803.115;1;138;-90;-96.8;44.0;44.2;14;14.0;27.1;0.0;
22/02/2025 23:09:30;100;0;130.00;-4;-20.21;-4.74;458.7;14.60;76065;2839.485;-1803.113;1;138;-90;-96.8;44.0;44.2;14;14.0;27.0;0.0;
22/02/2025 23:09:50;100;0;127.62;-4;-19.94;-4.66;461.4;14.60;76068;2839.483;-1803.110;1;138;-90;-96.8;44.0;44.2;11;10.8;27.1;0.0;
22/02/2025 23:10:10;100;0;126.67;-4;-19.84;-6.27;464.0;14.60;76047;2839.482;-1803.108;1;138;-90;-96.8;44.0;44.2;11;10.8;27.1;0.0;
22/02/2025 23:10:30;100;0;127.25;-4;-19.88;-6.22;466.5;14.60;76051;2839.481;-1803.106;1;138;-90;-95.2;44.0;44.2;11;10.4;27.1;0.0;
22/02/2025 23:10:50;100;0;127.54;-4;-19.94;-6.20;469.2;14.60;76050;2839.480;-1803.104;1;138;-90;-98.4;44.0;44.2;11;10.8;27.1;0.0;
22/02/2025 23:11:10;100;0;126.11;-4;-20.47;-6.19;471.8;14.50;76037;2839.479;-1803.102;1;138;-90;-96.8;44.0;44.2;9;9.0;27.1;0.0;
22/02/2025 23:11:30;100;0;126.47;-4;-20.20;-7.21;474.7;14.50;76041;2839.478;-1803.099;1;138;-90;-96.8;44.0;44.2;9;8.6;27.0;0.0;
22/02/2025 23:11:50;100;0;126.79;-4;-20.21;-7.23;477.3;14.50;76039;2839.477;-1803.097;1;138;-90;-96.8;44.0;44.2;9;8.6;27.1;0.0;
22/02/2025 23:12:10;100;0;126.30;-4;-20.16;-7.22;480.2;14.50;76027;2839.476;-1803.094;1;138;-90;-95.2;44.0;44.2;9;8.6;27.1;0.0;
22/02/2025 23:12:30;100;0;125.05;-4;-20.10;-7.23;482.9;14.40;76021;2839.475;-1803.092;1;138;-90;-96.8;44.0;44.2;9;8.6;27.1;0.0;
22/02/2025 23:12:50;100;0;125.65;-4;-20.00;-7.22;485.7;14.40;76029;2839.474;-1803.090;1;138;-90;-96.8;44.0;44.2;9;8.6;27.1;0.0;
22/02/2025 23:13:10;100;0;125.60;-4;-19.76;-7.26;488.3;14.40;76016;2839.473;-1803.087;1;138;-90;-96.8;44.0;44.2;9;8.6;27.0;0.0;
22/02/2025 23:13:30;100;0;128.79;-4;-20.05;-7.29;491.1;14.40;76021;2839.472;-1803.085;1;138;-90;-95.2;44.0;44.2;12;12.2;27.0;0.0;
22/02/2025 23:13:50;100;0;131.20;-4;-20.02;-5.22;493.7;14.30;76016;2839.470;-1803.083;1;138;-90;-95.2;44.0;44.2;14;14.0;27.1;0.0;
22/02/2025 23:14:10;100;0;129.69;-4;-19.88;-4.28;496.4;14.30;75996;2839.469;-1803.081;1;138;-90;-95.2;44.0;44.2;14;14.4;27.1;0.0;
22/02/2025 23:14:30;100;0;128.63;-4;-19.80;-4.30;499.0;14.30;76002;2839.468;-1803.079;1;138;-90;-95.2;44.0;44.2;12;12.2;27.1;0.0;
22/02/2025 23:14:50;100;0;130.04;-4;-19.83;-5.73;501.6;14.30;75985;2839.467;-1803.077;1;138;-90;-95.2;44.0;44.2;12;11.7;27.1;0.0;
22/02/2025 23:15:10;100;0;131.11;-4;-19.92;-5.69;504.2;14.20;75986;2839.466;-1803.075;1;138;-90;-95.2;44.0;44.2;12;11.7;27.1;0.0;
22/02/2025 23:15:30;100;0;134.52;-4;-20.14;-5.65;506.9;14.20;75974;2839.464;-1803.073;1;138;-90;-95.2;44.0;44.2;15;14.9;27.1;0.0;
22/02/2025 23:15:50;100;0;136.03;-4;-20.37;-3.90;509.7;14.20;75972;2839.463;-1803.071;1;138;-90;-95.2;44.0;44.2;15;15.3;27.1;0.0;
22/02/2025 23:16:10;100;0;140.35;-4;-19.96;-3.71;512.4;14.20;75970;2839.461;-1803.069;1;138;-90;-95.2;44.0;44.2;15;15.3;27.1;0.0;
22/02/2025 23:16:30;100;0;142.24;-4;-20.32;-3.89;515.2;14.10;75963;2839.459;-1803.068;1;138;-90;-96.8;44.0;44.2;15;15.3;27.0;0.0;
22/02/2025 23:16:51;100;0;145.53;-4;-20.09;-3.77;518.0;14.10;75965;2839.457;-1803.066;1;138;-90;-95.2;44.0;44.3;15;15.3;27.1;0.0;
22/02/2025 23:17:11;100;0;147.11;-4;-20.05;-3.83;520.8;14.10;75960;2839.455;-1803.065;1;138;-90;-96.8;44.0;44.2;17;17.6;27.1;0.0;
22/02/2025 23:17:31;100;0;151.12;-4;-20.86;-2.57;523.6;14.10;75964;2839.453;-1803.064;1;138;-90;-96.8;44.0;44.2;20;19.9;27.1;0.0;
22/02/2025 23:17:51;100;0;147.64;-4;-20.17;-1.35;526.4;14.10;75956;2839.451;-1803.062;1;138;-90;-98.4;44.0;44.2;17;17.1;27.1;0.0;
22/02/2025 23:18:11;100;0;146.70;-4;-19.92;-3.13;529.3;14.00;75942;2839.449;-1803.061;1;138;-90;-95.2;44.0;44.2;17;17.1;27.1;0.0;
22/02/2025 23:18:31;100;0;147.23;-4;-20.47;-3.02;532.0;14.00;75952;2839.447;-1803.060;1;138;-90;-96.8;44.0;44.2;17;17.1;27.0;0.0;
22/02/2025 23:18:51;100;0;149.83;-4;-20.07;-3.07;534.7;14.00;75942;2839.445;-1803.059;1;138;-90;-96.8;44.0;44.2;19;19.0;27.1;0.0;
22/02/2025 23:19:11;100;0;147.90;-4;-19.92;-1.85;537.4;13.90;75931;2839.443;-1803.057;1;138;-90;-96.8;44.0;44.2;19;19.4;27.1;0.0;
22/02/2025 23:19:31;100;0;146.48;-4;-19.77;-1.86;540.0;13.90;75927;2839.441;-1803.056;1;138;-90;-95.2;44.0;44.2;16;15.8;27.1;0.0;
22/02/2025 23:19:51;100;0;147.80;-4;-19.64;-3.84;542.6;13.90;75927;2839.439;-1803.055;1;138;-90;-96.8;44.0;44.2;18;18.1;27.1;0.0;
22/02/2025 23:20:11;100;0;147.41;-4;-20.06;-2.31;545.2;13.90;75926;2839.437;-1803.054;1;138;-90;-100.0;44.0;44.2;18;19.0;27.1;0.0;
22/02/2025 23:20:31;100;0;147.12;-4;-19.81;-2.37;547.8;13.90;75913;2839.436;-1803.053;1;138;-90;-96.8;44.0;44.2;18;18.5;27.1;0.0;
22/02/2025 23:20:51;100;0;147.66;-4;-19.93;-2.31;550.4;13.80;75914;2839.434;-1803.051;1;138;-90;-96.8;44.0;44.2;18;19.0;27.1;0.0;
22/02/2025 23:21:11;100;0;148.91;-4;-19.86;-2.27;552.9;13.80;75907;2839.432;-1803.050;1;138;-90;-96.8;44.0;44.2;18;18.5;27.1;0.0;
22/02/2025 23:21:31;100;0;149.56;-4;-19.90;-2.26;555.5;13.80;75898;2839.430;-1803.049;1;138;-90;-96.8;44.0;44.2;18;18.5;27.1;0.0;
22/02/2025 23:21:51;100;0;148.47;-4;-19.82;-2.26;558.1;13.80;75896;2839.428;-1803.048;1;138;-90;-96.8;44.0;44.3;18;18.5;27.1;0.0;
22/02/2025 23:22:11;100;0;147.26;-4;-19.70;-2.26;560.7;13.70;75905;2839.426;-1803.047;1;138;-90;-96.8;44.0;44.2;18;18.5;27.1;0.0;
22/02/2025 23:22:31;100;0;147.00;-4;-20.05;-2.24;563.2;13.70;75885;2839.425;-1803.046;1;138;-90;-96.8;44.0;44.2;18;18.5;27.1;0.0;
22/02/2025 23:22:51;100;0;145.58;-4;-19.89;-2.32;565.8;13.70;75884;2839.423;-1803.045;1;138;-90;-95.2;44.0;44.2;18;18.5;27.1;0.0;
22/02/2025 23:23:11;100;0;143.89;-4;-19.73;-2.27;568.3;13.70;75889;2839.421;-1803.043;1;138;-90;-95.2;44.0;44.2;16;15.3;27.0;0.0;
22/02/2025 23:23:31;100;0;139.63;-4;-19.42;-3.89;570.8;13.70;75873;2839.420;-1803.042;1;138;-90;-96.8;44.0;44.2;16;15.3;27.0;0.0;
22/02/2025 23:23:51;100;0;136.15;-4;-19.62;-3.93;573.3;13.60;75877;2839.418;-1803.040;1;138;-90;-95.2;44.0;44.2;16;15.3;27.1;0.0;
22/02/2025 23:24:11;100;0;133.90;-4;-19.88;-3.88;576.0;13.60;75875;2839.417;-1803.038;1;138;-90;-95.2;44.0;44.2;16;15.3;27.1;0.0;
22/02/2025 23:24:31;100;0;135.48;-4;-20.23;-3.86;578.6;13.60;75853;2839.415;-1803.036;1;138;-90;-96.8;44.0;44.2;16;15.3;27.1;0.0;
22/02/2025 23:24:51;100;0;135.12;-4;-19.82;-3.85;581.3;13.60;75853;2839.414;-1803.034;1;138;-90;-96.8;44.0;44.2;16;15.3;27.1;0.0;
22/02/2025 23:25:11;100;0;134.16;-4;-20.06;-3.78;584.1;13.50;75843;2839.413;-1803.032;1;138;-90;-96.8;44.0;44.2;16;15.3;27.1;0.0;
22/02/2025 23:25:31;100;0;134.90;-4;-20.00;-4.00;586.6;13.50;75843;2839.411;-1803.031;1;138;-90;-96.8;44.0;44.3;16;15.3;27.1;0.0;
22/02/2025 23:25:51;100;0;130.89;-4;-20.13;-4.13;589.0;13.50;75849;2839.410;-1803.029;1;138;-90;-96.8;44.0;44.2;13;13.1;27.1;0.0;
22/02/2025 23:26:11;100;0;135.56;-4;-21.05;-5.25;591.6;13.50;75830;2839.409;-1803.027;1;138;-90;-95.2;44.0;44.2;15;14.9;27.1;0.0;
22/02/2025 23:26:31;100;0;129.33;-4;-19.65;-4.16;594.2;13.40;75820;2839.408;-1803.025;1;138;-90;-95.2;44.0;44.2;13;13.1;27.1;0.0;
22/02/2025 23:26:51;100;0;128.70;-4;-20.62;-5.37;596.8;13.40;75826;2839.407;-1803.023;1;138;-90;-95.2;44.0;44.2;11;10.8;27.1;0.0;
22/02/2025 23:27:11;100;0;128.47;-4;-19.35;-6.28;599.3;13.40;75816;2839.406;-1803.021;1;138;-90;-96.8;44.0;44.2;11;10.4;27.1;0.0;
22/02/2025 23:27:31;100;0;125.43;-4;-18.30;-6.93;601.8;13.40;75809;2839.405;-1803.019;1;138;-90;-96.8;44.5;44.6;8;8.1;27.1;0.0;
22/02/2025 23:27:51;100;0;129.11;-4;-19.66;-7.71;604.0;13.40;75808;2839.404;-1803.017;1;138;-90;-96.8;44.5;44.8;11;10.8;27.0;0.0;
22/02/2025 23:28:11;100;0;130.41;-4;-19.71;-6.08;606.3;13.30;75808;2839.403;-1803.015;1;138;-90;-96.8;44.5;44.8;11;11.3;27.1;0.0;
22/02/2025 23:28:31;100;0;128.20;-4;-20.14;-5.66;608.8;13.30;75803;2839.402;-1803.013;1;138;-90;-95.2;44.5;44.8;11;11.3;27.1;0.0;
22/02/2025 23:28:51;100;0;127.80;-4;-20.77;-6.03;611.2;13.30;75791;2839.401;-1803.012;1;138;-90;-95.2;44.5;44.8;11;10.8;27.1;0.0;
22/02/2025 23:29:11;100;0;128.73;-4;-20.79;-5.92;613.6;13.30;75789;2839.400;-1803.010;1;138;-90;-96.8;44.5;44.8;11;11.3;27.1;0.0;
22/02/2025 23:29:31;100;0;129.17;-4;-20.31;-6.11;616.0;13.30;75778;2839.399;-1803.008;1;138;-90;-95.2;44.5;44.8;11;11.3;27.0;0.0;
22/02/2025 23:29:51;100;0;130.59;-4;-20.67;-6.14;618.4;13.20;75775;2839.398;-1803.006;1;138;-90;-96.8;44.5;44.8;11;11.3;27.1;0.0;
22/02/2025 23:30:11;100;0;131.85;-4;-21.12;-6.02;620.9;13.20;75763;2839.397;-1803.004;1;138;-90;-95.2;44.5;44.8;13;13.1;27.0;0.0;
22/02/2025 23:30:31;100;0;131.74;-4;-19.89;-4.69;623.4;13.20;75763;2839.396;-1803.003;1;138;-90;-96.8;44.5;44.8;13;13.5;27.0;0.0;
22/02/2025 23:30:51;100;0;131.50;-4;-20.17;-4.80;625.7;13.20;75753;2839.395;-1803.001;1;138;-90;-96.8;44.5;44.8;13;13.5;27.0;0.0;
22/02/2025 23:31:11;100;0;130.98;-4;-21.08;-4.90;628.0;13.10;75758;2839.394;-1802.999;1;138;-90;-96.8;44.5;44.8;13;13.5;27.1;0.0;
22/02/2025 23:31:31;100;0;131.15;-4;-21.03;-4.87;630.4;13.10;75749;2839.393;-1802.998;1;138;-90;-96.8;44.5;44.8;13;13.5;27.1;0.0;
22/02/2025 23:31:51;100;0;132.54;-4;-20.86;-4.80;633.0;13.10;75735;2839.392;-1802.996;1;138;-90;-95.2;44.5;44.9;13;13.5;27.1;0.0;
22/02/2025 23:32:11;100;0;131.88;-4;-20.44;-4.86;635.6;13.10;75736;2839.391;-1802.994;1;138;-90;-95.2;44.5;44.8;13;13.5;27.1;0.0;
22/02/2025 23:32:31;100;0;132.75;-4;-20.45;-4.85;638.2;13.00;75735;2839.389;-1802.992;1;138;-90;-95.2;44.5;44.6;13;13.5;27.1;0.0;
22/02/2025 23:32:51;100;0;135.30;-4;-20.54;-4.80;640.7;13.00;75738;2839.388;-1802.990;1;138;-90;-96.8;44.5;44.8;13;13.5;27.1;0.0;
22/02/2025 23:33:11;100;0;138.97;-4;-20.05;-4.85;643.2;13.00;75726;2839.387;-1802.989;1;138;-90;-96.8;44.5;44.8;15;14.9;27.1;0.0;
22/02/2025 23:33:31;100;0;140.75;-4;-20.89;-4.04;645.7;13.00;75706;2839.385;-1802.988;1;138;-90;-96.8;44.5;44.8;15;15.3;27.1;0.0;
22/02/2025 23:33:51;100;0;141.28;-4;-20.44;-3.88;648.2;13.00;75720;2839.384;-1802.986;1;138;-90;-96.8;44.5;44.8;15;15.3;27.1;0.0;
22/02/2025 23:34:11;100;0;141.53;-4;-20.66;-3.94;650.8;12.90;75710;2839.382;-1802.985;1;138;-90;-96.8;44.5;44.8;15;15.3;27.1;0.0;
22/02/2025 23:34:31;100;0;140.01;-4;-20.38;-3.98;653.3;12.90;75703;2839.381;-1802.983;1;138;-90;-96.8;44.5;44.6;15;15.3;27.0;0.0;
22/02/2025 23:34:51;100;0;139.03;-4;-20.48;-3.86;655.8;12.90;75715;2839.379;-1802.982;1;138;-90;-96.8;44.5;44.8;15;15.3;27.1;0.0;
22/02/2025 23:35:11;100;0;141.03;-4;-20.65;-3.97;658.4;12.90;75702;2839.378;-1802.980;1;138;-90;-95.2;44.5;44.8;15;15.3;27.1;0.0;
22/02/2025 23:35:31;100;0;139.79;-4;-20.43;-3.98;660.9;12.90;75706;2839.376;-1802.979;1;138;-90;-96.8;44.5;44.8;15;15.3;27.0;0.0;
22/02/2025 23:35:51;100;0;142.92;-4;-20.74;-3.87;663.4;12.80;75693;2839.375;-1802.978;1;138;-90;-96.8;44.5;44.8;15;15.3;27.1;0.0;
22/02/2025 23:36:11;100;0;142.26;-4;-20.69;-3.95;666.0;12.80;75692;2839.373;-1802.976;1;138;-90;-95.2;44.5;44.8;15;15.3;27.0;0.0;
22/02/2025 23:36:31;100;0;140.76;-4;-20.94;-3.89;668.6;12.80;75687;2839.372;-1802.975;1;138;-90;-96.8;44.5;44.8;15;15.3;27.1;0.0;
22/02/2025 23:36:51;100;0;140.46;-4;-21.33;-4.22;671.3;12.80;75671;2839.370;-1802.973;1;138;-90;-96.8;44.5;44.8;15;15.3;27.1;0.0;
22/02/2025 23:37:11;100;0;138.62;-4;-21.07;-3.89;674.0;12.70;75669;2839.369;-1802.972;1;138;-90;-96.8;44.5;44.8;15;15.3;27.1;0.0;
22/02/2025 23:37:31;100;0;139.13;-4;-21.04;-3.83;676.7;12.70;75656;2839.367;-1802.970;1;138;-90;-95.2;44.5;44.9;15;15.3;27.0;0.0;
22/02/2025 23:37:51;100;0;138.35;-4;-20.88;-3.89;679.3;12.70;75649;2839.366;-1802.968;1;138;-90;-95.2;44.5;44.8;15;15.3;27.1;0.0;
22/02/2025 23:38:11;100;0;137.96;-4;-21.15;-3.87;681.9;12.70;75649;2839.364;-1802.967;1;138;-90;-96.8;44.5;44.8;15;15.3;27.1;0.0;
22/02/2025 23:38:31;100;0;141.69;-4;-20.80;-3.93;684.6;12.70;75652;2839.363;-1802.965;1;138;-90;-95.2;44.5;44.8;15;15.3;27.1;0.0;
22/02/2025 23:38:51;100;0;143.81;-4;-21.19;-3.75;687.2;12.60;75640;2839.361;-1802.964;1;138;-90;-96.8;44.5;44.8;15;15.3;27.1;0.0;
22/02/2025 23:39:11;100;0;143.88;-4;-20.78;-3.81;689.9;12.60;75632;2839.359;-1802.963;1;138;-90;-95.2;44.5;44.8;15;15.3;27.1;0.0;
22/02/2025 23:39:31;100;0;141.69;-4;-20.31;-3.74;692.4;12.60;75629;2839.358;-1802.961;1;138;-90;-96.8;44.5;44.8;15;15.3;27.1;0.0;
22/02/2025 23:39:51;100;0;139.60;-4;-20.86;-3.90;695.0;12.60;75623;2839.356;-1802.960;1;138;-90;-96.8;44.5;44.8;15;15.3;27.0;0.0;
22/02/2025 23:40:11;100;0;138.08;-4;-20.76;-3.89;697.6;12.60;75624;2839.355;-1802.958;1;138;-90;-95.2;44.5;44.8;15;15.3;27.1;0.0;
22/02/2025 23:40:31;100;0;137.70;-4;-20.63;-3.90;700.2;12.50;75620;2839.353;-1802.957;1;138;-90;-96.8;44.5;44.8;15;15.3;27.1;0.0;
22/02/2025 23:40:51;100;0;135.26;-4;-20.68;-3.89;702.7;12.50;75608;2839.352;-1802.955;1;138;-90;-95.2;44.5;44.8;15;15.3;27.1;0.0;
22/02/2025 23:41:11;100;0;133.48;-4;-20.61;-3.97;705.3;12.50;75604;2839.351;-1802.953;1;138;-90;-96.8;44.5;44.8;15;15.3;27.1;0.0;
22/02/2025 23:41:31;100;0;132.10;-4;-20.66;-3.92;707.9;12.40;75599;2839.350;-1802.951;1;138;-90;-96.8;44.5;44.8;13;13.1;27.1;0.0;
22/02/2025 23:41:51;100;0;132.81;-4;-20.59;-5.27;710.6;12.40;75591;2839.349;-1802.949;1;138;-90;-95.2;44.5;44.9;13;12.6;27.0;0.0;
22/02/2025 23:42:11;100;0;132.86;-4;-20.73;-5.26;713.2;12.40;75593;2839.347;-1802.948;1;138;-90;-96.8;44.5;44.8;13;12.6;27.1;0.0;
22/02/2025 23:42:31;100;0;133.63;-4;-20.59;-5.25;715.9;12.40;75583;2839.346;-1802.946;1;138;-90;-96.8;44.5;44.8;13;12.6;27.1;0.0;
22/02/2025 23:42:51;100;0;135.53;-4;-20.32;-5.22;718.6;12.40;75589;2839.344;-1802.944;1;138;-90;-96.8;44.5;44.8;13;12.6;27.0;0.0;
22/02/2025 23:43:11;100;0;135.79;-4;-20.59;-5.27;721.2;12.30;75574;2839.343;-1802.942;1;138;-90;-95.2;44.5;44.8;13;12.6;27.1;0.0;
22/02/2025 23:43:31;100;0;135.14;-4;-20.09;-5.30;723.8;12.30;75575;2839.342;-1802.940;1;138;-90;-98.4;44.5;44.8;13;12.6;27.1;0.0;
22/02/2025 23:43:51;100;0;133.61;-4;-20.38;-5.38;726.3;12.30;75578;2839.340;-1802.938;1;138;-90;-95.2;44.5;44.8;13;12.6;27.1;0.0;
22/02/2025 23:44:11;100;0;133.42;-4;-20.40;-5.30;728.8;12.30;75565;2839.339;-1802.937;1;138;-90;-96.8;44.5;44.8;13;12.6;27.1;0.0;
22/02/2025 23:44:31;100;0;134.47;-4;-20.41;-5.28;731.5;12.30;75564;2839.338;-1802.935;1;138;-90;-96.8;44.5;44.8;13;12.6;27.0;0.0;
22/02/2025 23:44:51;100;0;133.94;-4;-20.65;-5.26;734.1;12.30;75556;2839.337;-1802.933;1;138;-90;-95.2;44.5;44.8;13;12.6;27.0;0.0;
22/02/2025 23:45:11;100;0;134.31;-4;-20.72;-5.33;736.8;12.20;75550;2839.335;-1802.931;1;138;-90;-96.8;44.5;44.8;13;12.6;27.1;0.0;
22/02/2025 23:45:31;100;0;134.51;-4;-20.52;-5.30;739.3;12.20;75548;2839.334;-1802.930;1;138;-90;-95.2;44.5;44.8;13;12.6;27.0;0.0;
22/02/2025 23:45:51;100;0;136.56;-4;-20.58;-5.24;741.7;12.20;75535;2839.333;-1802.928;1;138;-90;-96.8;44.5;44.8;13;12.6;27.1;0.0;
22/02/2025 23:46:11;100;0;138.78;-4;-20.42;-5.20;744.2;12.20;75533;2839.331;-1802.927;1;138;-90;-95.2;44.5;44.8;13;12.6;27.1;0.0;
22/02/2025 23:46:31;100;0;139.85;-4;-20.39;-5.29;746.5;12.10;75529;2839.330;-1802.925;1;138;-90;-96.8;44.5;44.8;13;12.6;27.0;0.0;
22/02/2025 23:46:51;100;0;140.83;-4;-20.37;-5.31;748.8;12.10;75527;2839.329;-1802.924;1;138;-90;-95.2;44.5;44.8;13;12.6;27.0;0.0;
22/02/2025 23:47:11;100;0;142.45;-4;-20.27;-5.26;751.1;12.10;75525;2839.328;-1802.923;1;138;-90;-96.8;44.5;44.8;13;12.6;27.1;0.0;
22/02/2025 23:47:31;100;0;142.69;-4;-20.15;-5.15;753.3;12.10;75507;2839.326;-1802.922;1;138;-90;-96.8;44.5;44.8;15;14.9;27.0;0.0;
22/02/2025 23:47:51;100;0;142.39;-4;-20.17;-3.95;755.5;12.00;75514;2839.325;-1802.921;1;138;-90;-95.2;44.5;44.8;15;15.3;27.1;0.0;
22/02/2025 23:48:11;100;0;141.60;-4;-20.25;-3.84;757.6;12.00;75507;2839.324;-1802.920;1;138;-90;-96.8;44.5;44.8;15;15.3;27.0;0.0;
22/02/2025 23:48:31;100;0;140.21;-4;-20.29;-3.90;759.8;12.00;75510;2839.323;-1802.918;1;138;-90;-95.2;44.5;44.8;15;15.3;27.1;0.0;
22/02/2025 23:48:51;100;0;140.62;-4;-20.03;-3.61;762.0;12.00;75508;2839.321;-1802.917;1;138;-90;-95.2;44.5;44.8;15;15.3;27.1;0.0;
22/02/2025 23:49:11;100;0;137.98;-4;-20.18;-4.17;764.2;12.00;75505;2839.320;-1802.916;1;138;-90;-95.2;44.5;44.8;15;15.3;27.1;0.0;
22/02/2025 23:49:31;100;0;137.91;-4;-20.61;-4.00;766.3;11.90;75495;2839.319;-1802.915;1;138;-90;-98.4;44.5;44.8;15;15.3;27.0;0.0;
22/02/2025 23:49:51;100;0;137.87;-4;-20.43;-3.71;768.3;11.90;75485;2839.318;-1802.914;1;138;-90;-96.8;44.5;44.8;15;15.3;27.0;0.0;
22/02/2025 23:50:11;100;0;139.23;-4;-19.94;-3.83;770.4;11.90;75491;2839.317;-1802.913;1;138;-90;-95.2;44.5;44.9;15;15.3;27.1;0.0;
22/02/2025 23:50:31;100;0;139.62;-4;-20.52;-3.91;772.6;11.90;75486;2839.316;-1802.911;1;138;-90;-95.2;44.5;44.8;15;15.3;27.1;0.0;
22/02/2025 23:50:51;100;0;140.63;-4;-20.49;-3.95;774.6;11.90;75479;2839.315;-1802.910;1;138;-90;-95.2;44.5;44.8;15;15.3;27.1;0.0;
22/02/2025 23:51:11;100;0;140.84;-4;-20.01;-3.96;776.6;11.80;75483;2839.314;-1802.910;1;138;-110;-108.1;44.5;44.8;15;15.3;27.0;0.0;
22/02/2025 23:51:31;100;0;142.50;-4;-20.08;-3.83;778.6;11.80;75514;2839.313;-1802.909;1;138;-110;-109.7;44.5;44.8;15;15.3;27.1;0.0;
22/02/2025 23:51:51;100;0;141.81;-4;-19.96;-3.81;780.6;11.80;75509;2839.312;-1802.908;1;138;-110;-111.3;44.5;44.8;15;15.3;27.1;0.0;
22/02/2025 23:52:11;100;0;140.67;-4;-20.19;-3.76;782.7;11.80;75503;2839.311;-1802.907;1;138;-110;-111.3;44.5;44.8;15;15.3;27.1;0.0;
22/02/2025 23:52:32;100;0;141.62;-4;-19.76;-3.91;784.7;11.80;75489;2839.310;-1802.906;1;138;-130;-133.9;44.5;44.8;15;15.3;27.1;0.0;
22/02/2025 23:52:52;100;0;142.05;-4;-20.16;-3.82;786.9;11.80;75526;2839.309;-1802.905;1;138;-130;-133.9;44.5;44.8;15;15.3;27.1;0.0;
22/02/2025 23:53:12;100;0;141.97;-4;-20.31;-3.69;789.1;11.70;75525;2839.307;-1802.903;1;138;-130;-133.9;44.5;44.8;15;15.3;27.1;0.0;
22/02/2025 23:53:32;100;0;142.09;-4;-20.54;-3.65;791.5;11.70;75511;2839.306;-1802.902;1;138;-130;-133.9;44.5;44.8;15;15.3;27.1;0.0;
22/02/2025 23:53:52;100;0;144.96;-4;-20.24;-3.68;794.0;11.70;75511;2839.304;-1802.901;1;138;-130;-133.9;44.5;44.8;15;15.3;27.1;0.0;
22/02/2025 23:54:12;100;0;144.80;-4;-19.98;-3.68;796.4;11.70;75507;2839.303;-1802.900;1;138;-130;-133.9;44.5;44.8;15;15.3;27.1;0.0;
22/02/2025 23:54:32;100;0;143.75;-4;-19.96;-3.69;798.7;11.60;75506;2839.302;-1802.899;1;138;-130;-135.5;44.5;44.8;15;15.3;27.1;0.0;
22/02/2025 23:54:52;100;0;143.11;-4;-20.11;-3.72;801.0;11.60;75508;2839.300;-1802.898;1;138;-130;-135.5;44.5;44.8;15;15.3;27.0;0.0;
22/02/2025 23:55:12;100;0;144.02;-4;-20.53;-3.71;803.4;11.60;75495;2839.299;-1802.896;1;138;-130;-132.3;44.5;44.8;15;15.3;27.1;0.0;
22/02/2025 23:55:32;100;0;145.49;-4;-20.22;-3.70;805.9;11.60;75489;2839.297;-1802.895;1;138;-130;-133.9;44.5;44.8;15;15.3;27.1;0.0;
22/02/2025 23:55:52;100;0;144.88;-4;-20.03;-3.69;808.4;11.50;75480;2839.295;-1802.894;1;138;-130;-135.5;44.5;44.8;15;15.3;27.1;0.0;
22/02/2025 23:56:12;100;0;144.26;-4;-19.93;-3.75;810.8;11.50;75491;2839.294;-1802.893;1;138;-130;-135.5;44.5;44.8;15;15.3;27.1;0.0;
22/02/2025 23:56:32;100;0;145.02;-4;-20.06;-3.69;813.3;11.50;75487;2839.292;-1802.892;1;138;-130;-135.5;44.5;44.8;15;15.3;27.1;0.0;
22/02/2025 23:56:52;100;0;144.78;-4;-20.12;-3.71;815.9;11.50;75483;2839.290;-1802.890;1;138;-130;-135.5;44.5;44.8;15;15.3;27.1;0.0;
22/02/2025 23:57:12;100;0;144.95;-4;-20.01;-3.69;818.5;11.50;75473;2839.289;-1802.889;1;138;-130;-133.9;44.5;44.8;15;15.3;27.1;0.0;
22/02/2025 23:57:32;100;0;145.57;-4;-19.84;-3.69;821.1;11.50;75471;2839.287;-1802.888;1;138;-130;-135.5;44.5;44.8;15;15.3;27.1;0.0;
22/02/2025 23:57:52;100;0;145.97;-4;-19.62;-3.75;823.6;11.40;75464;2839.285;-1802.886;1;138;-130;-135.5;44.5;44.8;15;15.3;27.0;0.0;
22/02/2025 23:58:12;100;0;143.90;-4;-19.69;-3.74;826.1;11.40;75460;2839.284;-1802.885;1;138;-130;-133.9;44.5;44.8;15;15.3;27.1;0.0;
22/02/2025 23:58:32;100;0;142.87;-4;-19.77;-3.78;828.6;11.40;75455;2839.282;-1802.884;1;138;-130;-133.9;44.5;44.8;15;15.3;27.1;0.0;
22/02/2025 23:58:52;100;0;140.55;-4;-19.41;-3.72;831.0;11.40;75450;2839.281;-1802.882;1;138;-130;-135.5;44.5;44.8;15;15.3;27.1;0.0;
22/02/2025 23:59:12;100;0;139.98;-4;-19.24;-3.72;833.4;11.30;75429;2839.279;-1802.881;1;138;-130;-135.5;44.5;44.8;15;15.3;27.1;0.0;
22/02/2025 23:59:32;100;0;140.07;-4;-19.25;-3.78;835.7;11.30;75425;2839.278;-1802.880;1;138;-130;-135.5;44.5;44.8;15;15.3;27.1;0.0;
22/02/2025 23:59:52;100;0;139.97;-4;-19.18;-3.98;838.0;11.30;75413;2839.276;-1802.878;1;138;-130;-135.5;44.5;44.8;15;15.3;27.1;0.0;
23/02/2025 00:00:12;100;0;139.91;-4;-19.52;-3.73;840.4;11.30;75418;2839.275;-1802.877;1;138;-130;-133.9;44.5;44.8;15;15.3;27.1;0.0;
23/02/2025 00:00:32;100;0;139.65;-4;-19.83;-3.75;842.8;11.30;75414;2839.274;-1802.875;1;138;-130;-135.5;44.5;44.8;15;15.3;27.1;0.0;
23/02/2025 00:00:52;100;0;141.12;-4;-19.37;-3.90;845.3;11.20;75397;2839.272;-1802.874;1;138;-130;-135.5;44.5;44.8;15;15.3;27.1;0.0;
23/02/2025 00:01:12;100;0;140.31;-4;-19.39;-3.81;847.8;11.20;75400;2839.270;-1802.872;1;138;-130;-135.5;44.5;44.8;15;15.3;27.0;0.0;
23/02/2025 00:01:32;100;0;139.53;-4;-19.29;-3.69;850.1;11.20;75397;2839.269;-1802.871;1;138;-130;-135.5;44.5;44.8;15;15.3;27.1;0.0;
23/02/2025 00:01:52;100;0;138.19;-4;-19.73;-3.89;852.6;11.20;75390;2839.268;-1802.869;1;138;-130;-133.9;44.5;44.8;15;15.3;27.1;0.0;
23/02/2025 00:02:12;100;0;137.36;-4;-19.55;-3.72;855.0;11.10;75380;2839.266;-1802.868;1;138;-130;-133.9;44.5;44.8;15;15.3;27.1;0.0;
23/02/2025 00:02:32;100;0;136.57;-4;-19.50;-3.78;857.4;11.10;75378;2839.265;-1802.866;1;138;-130;-133.9;44.5;44.8;15;15.3;27.1;0.0;
23/02/2025 00:02:52;100;0;137.59;-4;-19.60;-3.74;860.0;11.10;75368;2839.264;-1802.865;1;138;-130;-135.5;44.5;44.8;15;15.3;27.1;0.0;
23/02/2025 00:03:12;100;0;138.47;-4;-19.30;-3.72;862.5;11.10;75364;2839.262;-1802.863;1;138;-130;-135.5;44.5;44.8;15;15.3;27.1;0.0;
23/02/2025 00:03:32;100;0;139.57;-4;-19.40;-3.81;865.0;11.10;75358;2839.261;-1802.861;1;138;-130;-132.3;44.5;44.8;15;15.3;27.0;0.0;
23/02/2025 00:03:52;100;0;139.65;-4;-19.48;-3.67;867.6;11.00;75347;2839.259;-1802.860;1;138;-130;-135.5;44.5;44.8;15;15.3;27.1;0.0;
23/02/2025 00:04:12;100;0;138.98;-4;-19.49;-3.63;870.1;11.00;75342;2839.257;-1802.858;1;138;-130;-133.9;44.5;44.8;15;15.3;27.0;0.0;
23/02/2025 00:04:32;100;0;138.01;-4;-18.92;-3.75;872.8;11.00;75337;2839.256;-1802.856;1;138;-130;-135.5;44.8;44.8;15;15.3;27.1;0.0;
23/02/2025 00:04:52;100;0;137.77;-4;-19.30;-3.77;875.2;11.00;75335;2839.254;-1802.855;1;138;-130;-135.5;44.8;44.8;15;15.3;27.1;0.0;
23/02/2025 00:05:12;100;0;136.93;-4;-19.37;-3.83;877.7;10.90;75328;2839.253;-1802.853;1;138;-130;-133.9;44.8;44.8;15;15.3;27.1;0.0;
23/02/2025 00:05:32;100;0;137.10;-4;-19.24;-3.69;880.3;10.90;75328;2839.251;-1802.851;1;138;-130;-133.9;44.8;44.8;15;15.3;27.1;0.0;
23/02/2025 00:05:52;100;0;136.17;-4;-19.42;-3.75;882.6;10.90;75323;2839.250;-1802.850;1;138;-130;-135.5;44.8;44.8;15;15.3;27.0;0.0;
23/02/2025 00:06:12;100;0;135.96;-4;-19.38;-3.78;885.3;10.90;75320;2839.249;-1802.848;1;138;-130;-133.9;44.8;44.8;15;15.3;27.1;0.0;
23/02/2025 00:06:32;100;0;135.30;-4;-19.23;-3.77;887.8;10.90;75319;2839.247;-1802.846;1;138;-130;-135.5;44.8;44.8;15;15.3;27.1;0.0;
23/02/2025 00:06:52;100;0;135.83;-4;-19.48;-3.72;890.4;10.80;75309;2839.246;-1802.844;1;138;-130;-133.9;44.8;44.8;15;15.3;27.1;0.0;
23/02/2025 00:07:12;100;0;136.30;-4;-19.32;-3.71;893.0;10.80;75304;2839.244;-1802.842;1;138;-130;-135.5;44.8;44.9;15;15.3;27.1;0.0;
23/02/2025 00:07:32;100;0;138.88;-4;-18.88;-3.76;895.4;10.80;75303;2839.243;-1802.841;1;138;-130;-135.5;45.1;45.2;15;15.3;27.1;0.0;
23/02/2025 00:07:52;100;0;140.79;-4;-20.43;-3.63;898.0;10.80;75295;2839.241;-1802.839;1;138;-130;-133.9;45.1;45.4;15;15.3;27.1;0.0;
23/02/2025 00:08:12;100;0;140.27;-4;-20.53;-3.70;900.8;10.70;75291;2839.239;-1802.837;1;138;-130;-133.9;45.1;45.4;15;15.3;27.0;0.0;
23/02/2025 00:08:32;100;0;140.21;-4;-20.77;-3.62;903.5;10.70;75294;2839.238;-1802.836;1;138;-130;-133.9;45.1;45.4;15;15.3;27.1;0.0;
23/02/2025 00:08:52;100;0;139.30;-4;-20.71;-3.69;906.3;10.70;75290;2839.236;-1802.834;1;138;-130;-135.5;45.1;45.4;15;15.3;27.1;0.0;
23/02/2025 00:09:12;100;0;138.75;-4;-20.91;-3.81;909.0;10.70;75283;2839.235;-1802.832;1;138;-130;-135.5;45.1;45.4;15;15.3;27.1;0.0;
23/02/2025 00:09:32;100;0;139.33;-4;-20.97;-3.80;911.9;10.70;75274;2839.233;-1802.831;1;138;-130;-135.5;45.1;45.4;15;15.3;27.1;0.0;
23/02/2025 00:09:52;100;0;136.21;-4;-20.16;-3.76;914.5;10.60;75272;2839.231;-1802.829;1;138;-130;-133.9;45.1;45.4;15;15.3;27.1;0.0;
23/02/2025 00:10:12;100;0;136.52;-4;-20.51;-3.64;917.1;10.60;75267;2839.230;-1802.827;1;138;-130;-135.5;45.1;45.4;15;15.3;27.0;0.0;
23/02/2025 00:10:32;100;0;137.19;-4;-21.49;-3.73;919.4;10.60;75265;2839.229;-1802.826;1;138;-130;-135.5;45.1;45.4;15;15.3;27.0;0.0;
23/02/2025 00:10:52;100;0;137.40;-4;-20.89;-3.62;922.3;10.60;75267;2839.227;-1802.824;1;138;-130;-133.9;45.1;45.4;15;15.3;27.1;0.0;
23/02/2025 00:11:12;100;0;134.93;-4;-20.28;-3.94;925.1;10.60;75267;2839.226;-1802.822;1;138;-130;-135.5;45.1;45.4;15;15.3;27.1;0.0;
23/02/2025 00:11:32;100;0;136.04;-4;-20.34;-3.78;927.8;10.60;75265;2839.224;-1802.820;1;138;-130;-133.9;45.1;45.4;15;15.3;27.1;0.0;
23/02/2025 00:11:52;100;0;136.67;-4;-18.22;-3.51;930.4;10.50;75256;2839.223;-1802.818;1;138;-130;-133.9;45.7;45.7;15;15.3;27.0;0.0;
23/02/2025 00:12:12;100;0;135.93;-4;-23.55;-3.50;932.6;10.50;75244;2839.222;-1802.817;1;138;-130;-135.5;44.6;44.6;15;15.3;27.1;0.0;
23/02/2025 00:12:32;100;0;135.53;-4;-20.84;-3.81;935.6;10.50;75254;2839.220;-1802.815;1;138;-130;-133.9;44.6;44.5;15;15.3;27.1;0.0;
23/02/2025 00:12:52;100;0;138.69;-4;-20.43;-3.69;938.2;10.50;75245;2839.219;-1802.814;1;138;-130;-133.9;44.6;44.5;15;15.3;27.0;0.0;
23/02/2025 00:13:12;100;0;139.83;-4;-18.75;-3.70;940.8;10.50;75248;2839.217;-1802.812;1;138;-130;-135.5;45.0;44.9;15;15.3;27.0;0.0;
23/02/2025 00:13:32;100;0;139.34;-4;-20.02;-3.80;943.2;10.40;75248;2839.216;-1802.810;1;138;-130;-133.9;45.0;45.1;15;15.3;27.0;0.0;
23/02/2025 00:13:52;100;0;141.93;-4;-20.78;-3.72;945.7;10.40;75249;2839.214;-1802.809;1;138;-130;-133.9;45.0;45.1;15;15.3;27.1;0.0;
23/02/2025 00:14:12;100;0;139.10;-4;-19.76;-3.83;948.3;10.40;75237;2839.213;-1802.808;1;138;-130;-135.5;45.0;45.1;15;15.3;27.0;0.0;
23/02/2025 00:14:32;100;0;136.10;-4;-20.60;-3.81;950.8;10.40;75239;2839.211;-1802.806;1;138;-130;-135.5;45.0;45.2;15;15.3;27.1;0.0;
23/02/2025 00:14:52;100;0;135.37;-4;-19.45;-3.76;953.2;10.40;75240;2839.210;-1802.804;1;138;-130;-135.5;45.0;45.2;15;15.3;27.1;0.0;
23/02/2025 00:15:12;100;0;135.55;-4;-20.95;-3.94;955.6;10.30;75244;2839.209;-1802.803;1;138;-130;-133.9;45.0;45.2;15;15.3;27.0;0.0;
23/02/2025 00:15:32;100;0;132.59;-4;-19.58;-3.71;958.1;10.30;75244;2839.208;-1802.801;1;138;-130;-133.9;45.0;45.2;13;13.1;27.0;0.0;
23/02/2025 00:15:52;100;0;131.66;-4;-19.88;-5.05;960.2;10.30;75243;2839.207;-1802.799;1;138;-130;-133.9;45.0;45.2;13;13.1;27.1;0.0;
23/02/2025 00:16:12;100;0;133.79;-4;-20.84;-5.19;962.6;10.30;75230;2839.206;-1802.798;1;138;-130;-135.5;45.0;45.2;13;13.1;27.1;0.0;
23/02/2025 00:16:32;100;0;132.44;-4;-19.60;-4.87;965.2;10.30;75215;2839.205;-1802.796;1;138;-130;-133.9;45.0;45.1;13;13.1;27.0;0.0;
23/02/2025 00:16:52;100;0;135.16;-4;-21.11;-5.21;967.2;10.30;75231;2839.204;-1802.795;1;138;-130;-135.5;45.0;45.1;13;12.6;27.1;0.0;
23/02/2025 00:17:12;100;0;133.28;-4;-20.19;-5.25;969.7;10.30;75232;2839.203;-1802.793;1;138;-130;-135.5;45.0;45.1;13;13.1;27.1;0.0;
23/02/2025 00:17:32;100;0;135.23;-4;-19.37;-4.89;972.2;10.20;75219;2839.201;-1802.791;1;138;-130;-135.5;45.0;45.1;13;13.1;27.1;0.0;
23/02/2025 00:17:52;100;0;137.96;-4;-19.10;-5.12;974.6;10.20;75225;2839.200;-1802.790;1;138;-130;-135.5;45.0;45.1;13;13.1;27.1;0.0;
23/02/2025 00:18:12;100;0;136.47;-4;-19.34;-4.99;976.6;10.20;75216;2839.199;-1802.789;1;138;-150;-150.0;45.0;45.2;13;13.1;27.1;0.0;
23/02/2025 00:18:32;100;0;138.44;-4;-20.53;-4.50;978.7;10.20;75267;2839.198;-1802.787;1;138;-150;-150.0;45.0;45.2;13;12.6;27.1;0.0;
23/02/2025 00:18:52;100;0;136.64;-4;-19.45;-5.16;981.0;10.20;75255;2839.197;-1802.786;1;138;-150;-153.2;45.0;45.2;13;12.6;27.0;0.0;
23/02/2025 00:19:12;100;0;136.26;-4;-20.46;-4.90;983.5;10.20;75260;2839.195;-1802.784;1;138;-150;-151.6;45.0;45.2;13;13.1;27.1;0.0;
23/02/2025 00:19:32;100;0;137.37;-4;-19.14;-4.98;986.0;10.20;75251;2839.194;-1802.783;1;138;-150;-151.6;45.0;45.2;13;13.1;27.1;0.0;
23/02/2025 00:19:52;100;0;138.40;-4;-19.57;-5.08;988.6;10.10;75251;2839.192;-1802.781;1;138;-150;-151.6;45.0;45.2;13;13.1;27.0;0.0;
23/02/2025 00:20:12;100;0;139.82;-4;-19.01;-5.29;991.1;10.10;75253;2839.191;-1802.779;1;138;-150;-150.0;45.0;45.2;13;13.1;27.0;0.0;
23/02/2025 00:20:32;100;0;138.55;-4;-20.31;-4.86;993.9;10.10;75240;2839.189;-1802.777;1;138;-150;-151.6;45.0;45.2;13;13.1;27.1;0.0;
23/02/2025 00:20:52;100;0;138.21;-4;-19.59;-4.99;996.4;10.10;75241;2839.188;-1802.776;1;138;-150;-151.6;45.0;45.2;13;13.1;27.1;0.0;
23/02/2025 00:21:12;100;0;140.37;-4;-19.48;-5.06;998.8;10.10;75255;2839.186;-1802.774;1;138;-150;-151.6;45.0;45.1;13;13.1;27.1;0.0;
23/02/2025 00:21:15;118;0;140.65;-4;-19.53;-5.04;999.3;10.10;75237;2839.186;-1802.774;1;138;270;-150.0;25.9;25.9;7;7.2;27.1;0.0;
23/02/2025 00:21:25;118;0;114.33;-4;-7.15;-8.77;1000.3;10.10;75234;2839.185;-1802.773;1;138;270;-24.2;25.9;25.8;7;7.2;25.8;-1.0;
23/02/2025 00:21:35;118;0;101.90;-4;13.55;-8.61;1000.4;10.10;74967;2839.186;-1802.773;1;138;270;100.0;25.9;25.3;7;7.2;25.6;-1.0;
23/02/2025 00:21:45;118;0;97.16;-4;22.71;-9.12;999.7;10.10;74704;2839.186;-1802.772;1;138;270;224.2;25.9;25.9;7;7.2;25.5;-1.0;
23/02/2025 00:21:55;118;0;97.27;-4;21.92;-8.84;998.5;10.10;74461;2839.187;-1802.771;1;138;270;272.6;25.9;26.1;7;7.2;25.6;-1.0;
23/02/2025 00:22:05;118;0;140.35;-4;19.06;-8.64;997.2;10.10;74373;2839.186;-1802.770;1;138;270;272.6;25.9;25.9;7;7.2;27.0;-1.0;
23/02/2025 00:22:25;117;0;137.25;-4;16.91;-8.29;994.9;10.10;74366;2839.184;-1802.769;1;138;270;269.4;25.9;25.9;7;7.2;27.0;-1.0;
23/02/2025 00:22:45;117;0;131.86;-4;18.42;-8.54;992.2;10.20;74382;2839.183;-1802.767;1;138;270;272.6;25.4;24.9;30;30.2;27.0;-1.0;
23/02/2025 00:23:05;117;0;131.32;-4;20.77;3.73;989.3;10.20;74376;2839.182;-1802.764;1;138;270;272.6;25.4;24.9;30;30.2;27.0;-1.0;
23/02/2025 00:23:25;117;0;132.63;-4;20.86;3.56;986.3;10.20;74375;2839.180;-1802.762;1;138;270;272.6;25.4;24.9;30;30.7;27.0;-1.0;
23/02/2025 00:23:45;117;0;133.58;-4;21.12;3.76;983.6;10.20;74377;2839.179;-1802.760;1;138;270;272.6;25.4;24.9;30;30.2;27.0;-1.0;
23/02/2025 00:24:05;117;0;134.69;-4;20.97;3.79;980.7;10.20;74377;2839.177;-1802.758;1;138;270;272.6;25.4;25.0;30;30.2;27.0;-1.0;
23/02/2025 00:24:25;117;0;135.26;-4;21.39;3.74;978.1;10.20;74375;2839.176;-1802.756;1;138;270;272.6;25.4;25.0;30;30.2;27.0;-1.0;
23/02/2025 00:24:45;117;0;136.26;-4;21.20;3.73;975.4;10.20;74368;2839.174;-1802.755;1;138;270;272.6;25.4;24.9;30;30.2;27.0;-1.0;
23/02/2025 00:25:05;117;0;136.81;-4;21.38;3.93;972.8;10.20;74363;2839.173;-1802.753;1;138;270;272.6;25.4;25.0;30;30.7;27.0;-1.0;
23/02/2025 00:25:25;117;0;137.72;-4;21.31;3.81;970.2;10.20;74366;2839.172;-1802.751;1;138;270;272.6;25.4;24.9;30;30.2;27.0;-1.0;
23/02/2025 00:25:45;117;0;139.40;-4;21.14;3.82;967.5;10.10;74359;2839.170;-1802.750;1;138;270;274.2;25.4;24.9;30;30.2;27.0;-1.0;
23/02/2025 00:26:05;117;0;140.71;-4;21.67;3.76;965.0;10.10;74349;2839.169;-1802.749;1;138;270;272.6;25.4;25.0;30;30.2;27.1;-1.0;
23/02/2025 00:26:25;117;0;140.31;-4;21.60;3.71;962.3;10.10;74357;2839.167;-1802.747;1;138;270;272.6;25.4;24.9;30;30.2;27.1;-1.0;
23/02/2025 00:26:45;117;0;139.53;-4;20.87;4.14;959.6;10.10;74355;2839.166;-1802.746;1;138;270;272.6;25.4;25.0;30;30.7;27.0;-1.0;
23/02/2025 00:27:05;117;0;140.69;-4;22.22;3.63;956.9;10.10;74347;2839.164;-1802.744;1;138;270;272.6;26.1;26.1;30;30.2;27.1;-1.0;
23/02/2025 00:27:25;117;0;145.53;-4;19.45;3.59;954.6;10.10;74347;2839.163;-1802.743;1;138;270;272.6;26.1;26.2;28;28.0;27.0;-1.0;
23/02/2025 00:27:45;117;0;143.87;-4;19.39;2.57;952.1;10.10;74337;2839.161;-1802.742;1;138;270;272.6;26.1;26.2;28;28.0;27.0;-1.0;
23/02/2025 00:28:05;117;0;143.49;-4;19.36;2.43;949.8;10.00;74335;2839.159;-1802.740;1;138;270;272.6;26.1;26.2;28;28.0;27.0;-1.0;
23/02/2025 00:28:25;117;0;144.71;-4;19.12;2.46;947.7;10.00;74333;2839.158;-1802.739;1;138;270;272.6;26.1;26.2;28;27.5;27.1;-1.0;
23/02/2025 00:28:45;117;0;146.01;-4;18.85;2.43;945.5;10.00;74322;2839.157;-1802.739;1;138;270;272.6;25.7;25.8;28;28.0;27.0;-1.0;
23/02/2025 00:29:05;117;0;144.62;-4;18.84;2.29;943.2;10.00;74313;2839.155;-1802.737;1;138;270;272.6;25.4;25.2;28;28.0;27.0;-1.0;
23/02/2025 00:29:25;117;0;144.40;-4;20.79;2.29;941.0;10.00;74316;2839.154;-1802.736;1;138;270;272.6;25.4;24.7;28;27.5;27.0;-1.0;
23/02/2025 00:29:45;117;0;143.51;-4;21.93;2.37;938.6;10.00;74319;2839.153;-1802.735;1;138;270;272.6;25.4;24.7;28;27.5;27.0;-1.0;
23/02/2025 00:30:05;117;0;143.89;-4;20.95;2.49;935.7;10.00;74317;2839.151;-1802.734;1;138;270;272.6;25.4;24.6;28;28.0;27.0;-1.0;
23/02/2025 00:30:25;117;0;144.32;-4;21.35;2.34;933.0;10.00;74322;2839.149;-1802.732;1;138;270;274.2;25.4;24.6;28;28.0;27.0;-1.0;
23/02/2025 00:30:45;117;0;143.97;-4;21.42;2.63;930.5;10.00;74310;2839.147;-1802.731;1;138;270;272.6;25.4;24.7;28;28.0;27.0;-1.0;
23/02/2025 00:31:05;117;0;144.72;-4;21.98;2.27;928.2;10.00;74315;2839.146;-1802.730;1;138;270;272.6;25.4;24.7;28;28.0;27.0;-1.0;
23/02/2025 00:31:25;117;0;143.58;-4;21.78;2.33;925.8;9.90;74310;2839.145;-1802.729;1;138;270;271.0;25.4;24.7;28;28.0;27.1;-1.0;
23/02/2025 00:31:45;117;0;144.10;-4;21.92;2.35;923.4;9.90;74308;2839.143;-1802.728;1;138;270;272.6;25.4;24.7;28;28.0;27.1;-1.0;
23/02/2025 00:32:05;117;0;144.45;-4;22.13;2.52;921.0;9.90;74298;2839.142;-1802.727;1;138;270;272.6;26.0;26.1;28;28.0;27.0;-1.0;
23/02/2025 00:32:25;117;0;144.05;-4;19.56;2.55;918.7;9.90;74304;2839.141;-1802.726;1;138;270;272.6;26.0;26.1;28;28.0;27.0;-1.0;
23/02/2025 00:32:45;117;0;141.12;-4;19.26;2.53;916.6;9.90;74300;2839.140;-1802.725;1;138;270;272.6;26.0;26.2;28;27.5;27.0;-1.0;
23/02/2025 00:33:06;117;0;139.79;-4;19.28;2.51;914.7;9.90;74285;2839.139;-1802.724;1;138;290;293.5;26.0;26.1;28;27.5;27.1;-1.0;
23/02/2025 00:33:26;117;0;134.94;-4;19.07;2.51;912.6;9.90;74248;2839.138;-1802.723;1;138;290;293.5;26.0;26.1;28;27.5;27.0;-1.0;
23/02/2025 00:33:46;117;0;134.81;-4;19.09;2.61;910.6;9.90;74249;2839.137;-1802.721;1;138;290;293.5;26.0;26.1;28;28.0;27.1;-1.0;
