Timestamp;NavState;SecurityLevel;Heading;Declination;Pitch;Roll;Depth;Temperature;Pa;Lat;Lon;DeadReckoning;DesiredH;BallastCmd;BallastPos;LinCmd;LinPos;AngCmd;AngPos;Voltage;Altitude;
28/02/2025 13:13:06;119;0;351.00;-4;-40.36;-10.89;0.1;16.50;75524;2836.520;-1759.382;0;131;500;506.5;100.0;100.4;0;-0.5;25.6;-1.0;
28/02/2025 13:13:16;116;0;333.98;-4;-60.02;-17.03;-0.0;16.50;75535;2836.520;-1759.384;0;131;500;508.1;100.0;100.6;0;-0.5;25.6;-1.0;
28/02/2025 13:13:43;116;0;340.47;-4;-59.52;3.79;0.3;16.60;75547;2836.508;-1759.399;0;131;500;508.1;100.0;100.6;0;-0.5;25.5;-1.0;
28/02/2025 13:14:22;116;0;347.48;-4;-45.60;-12.91;0.0;16.80;75566;2836.508;-1759.399;0;131;500;506.5;100.0;100.6;0;-0.5;25.6;-1.0;
28/02/2025 13:14:42;116;0;348.46;-4;-45.97;3.88;0.1;16.80;75571;2836.510;-1759.396;0;146;500;506.5;100.0;100.4;0;-0.5;25.4;-1.0;
28/02/2025 13:14:54;116;0;349.88;-4;-58.44;-24.72;0.2;16.90;75570;2836.512;-1759.395;0;146;500;504.8;100.0;100.6;0;-0.5;25.6;-1.0;
28/02/2025 13:15:56;116;0;328.99;-4;-48.96;-5.79;-0.0;17.10;75611;2836.512;-1759.395;0;146;500;508.1;100.0;100.4;0;-0.5;25.6;-1.0;
28/02/2025 13:16:47;116;0;307.18;-4;-61.09;-19.74;-0.0;17.30;75622;2836.514;-1759.395;0;146;500;504.8;100.0;100.4;0;-0.5;25.6;-1.0;
28/02/2025 13:17:39;116;0;318.68;-4;-50.14;-11.93;-0.1;17.60;75633;2836.517;-1759.397;0;146;500;508.1;100.0;100.6;0;-0.5;25.5;-1.0;
28/02/2025 13:17:50;116;0;333.86;-4;-54.04;-12.44;-0.0;17.60;75646;2836.516;-1759.398;0;146;500;508.1;100.0;100.6;0;-0.5;25.6;-1.0;
28/02/2025 13:18:01;116;0;326.14;-4;-50.86;-12.46;-0.1;17.70;75657;2836.517;-1759.398;0;146;500;506.5;100.0;100.4;0;-0.5;25.6;-1.0;
28/02/2025 13:18:21;110;0;344.07;-4;-43.13;-13.49;0.3;17.70;75650;2836.517;-1759.398;0;146;-90;385.5;100.0;100.4;-8;-8.1;25.6;-1.0;
28/02/2025 13:18:31;110;0;340.53;-4;-45.28;-16.26;0.4;17.80;76017;2836.518;-1759.398;1;146;-90;241.9;100.0;100.4;-8;-8.1;25.5;-1.0;
28/02/2025 13:18:41;110;0;336.11;-4;-55.28;-25.70;0.6;17.80;76240;2836.519;-1759.399;1;146;-90;87.1;100.0;100.6;-8;-8.1;25.6;-1.0;
28/02/2025 13:18:51;110;0;339.41;-4;-70.38;-4.99;1.1;17.90;76564;2836.520;-1759.399;1;146;-90;-69.4;100.0;100.6;-8;-8.6;25.5;-1.0;
28/02/2025 13:19:01;110;0;345.25;-4;-67.92;-15.81;1.4;17.90;76902;2836.521;-1759.399;1;146;-90;-90.3;43.0;54.2;-8;-8.1;25.5;-1.0;
28/02/2025 13:19:11;110;0;337.47;-4;-52.31;-9.44;2.4;17.90;76900;2836.522;-1759.400;1;146;-90;-90.3;43.0;43.0;-8;-8.1;25.6;-1.0;
28/02/2025 13:19:31;100;0;348.81;-4;-21.43;-15.58;5.1;18.00;76907;2836.527;-1759.401;1;146;-90;-85.5;43.0;42.7;-8;-8.1;25.6;-1.0;
28/02/2025 13:19:51;100;0;354.60;-4;-19.96;-15.41;7.9;18.00;76906;2836.532;-1759.402;1;146;-90;-85.5;43.0;42.4;-70;-69.9;25.6;-1.0;
28/02/2025 13:20:11;100;0;2.88;-4;-20.27;-45.18;10.6;18.10;76917;2836.537;-1759.402;1;146;-90;-83.9;43.0;42.6;-70;-69.9;25.6;-1.0;
28/02/2025 13:20:31;100;0;11.89;-4;-18.20;-45.57;13.3;18.20;76918;2836.543;-1759.402;1;146;-90;-82.3;43.5;43.6;-70;-69.9;25.6;0.0;
28/02/2025 13:20:51;100;0;20.72;-4;-20.63;-45.90;15.5;18.20;76926;2836.547;-1759.402;1;146;-90;-82.3;43.5;43.9;-70;-69.9;25.6;0.0;
28/02/2025 13:21:11;100;0;31.19;-4;-22.34;-45.57;17.8;18.20;76931;2836.551;-1759.400;1;146;-90;-82.3;42.8;42.9;-70;-69.9;25.6;0.0;
28/02/2025 13:21:31;100;0;42.15;-4;-19.86;-45.52;20.2;18.30;76932;2836.555;-1759.399;1;146;-90;-82.3;42.8;42.7;-70;-69.9;25.6;0.0;
28/02/2025 13:21:51;100;0;53.51;-4;-19.98;-45.05;22.7;18.30;76947;2836.558;-1759.396;1;146;-90;-82.3;42.8;42.7;-70;-69.9;25.6;0.0;
28/02/2025 13:22:11;100;0;65.58;-4;-19.89;-45.48;25.0;18.30;76949;2836.561;-1759.394;1;146;-90;-82.3;42.8;42.7;-70;-69.9;25.6;0.0;
28/02/2025 13:22:31;100;0;77.29;-4;-20.14;-45.74;27.3;18.30;76953;2836.564;-1759.391;1;146;-90;-82.3;42.8;42.7;-70;-69.9;25.6;0.0;
28/02/2025 13:22:51;100;0;89.59;-4;-19.93;-45.53;29.7;18.40;76959;2836.565;-1759.388;1;146;-90;-82.3;42.8;42.7;-67;-66.8;25.6;0.0;
28/02/2025 13:23:11;100;0;102.23;-4;-19.68;-43.61;32.1;18.40;76974;2836.566;-1759.385;1;146;-90;-82.3;42.8;42.7;-51;-51.0;25.6;0.0;
28/02/2025 13:23:31;100;0;114.58;-4;-19.26;-35.45;34.4;18.40;76962;2836.567;-1759.383;1;146;-90;-82.3;42.8;42.7;-36;-36.1;25.6;0.0;
28/02/2025 13:23:51;100;0;126.56;-4;-19.36;-28.26;36.6;18.40;76970;2836.567;-1759.380;1;146;-90;-82.3;42.8;42.6;-20;-19.4;25.6;0.0;
28/02/2025 13:24:11;100;0;135.70;-4;-19.71;-20.28;38.7;18.40;76970;2836.566;-1759.379;1;146;-90;-82.3;42.8;42.7;-8;-8.1;25.6;0.0;
28/02/2025 13:24:31;100;0;142.01;-4;-19.49;-15.08;40.8;18.40;76983;2836.566;-1759.377;1;146;-90;-82.3;42.8;42.7;4;4.1;25.6;0.0;
28/02/2025 13:24:51;100;0;144.35;-4;-19.98;-9.53;43.1;18.50;76985;2836.565;-1759.376;1;146;-90;-82.3;42.8;42.7;8;8.1;25.6;0.0;
28/02/2025 13:25:11;100;0;146.53;-4;-20.27;-7.34;45.1;18.50;76980;2836.565;-1759.375;1;146;-90;-80.6;42.8;42.7;8;8.6;25.6;0.0;
28/02/2025 13:25:31;100;0;148.13;-4;-20.18;-7.32;47.2;18.50;76996;2836.564;-1759.374;1;146;-90;-85.5;42.8;42.7;11;11.3;25.6;0.0;
28/02/2025 13:25:51;100;0;149.96;-4;-20.34;-5.90;49.4;18.50;76999;2836.563;-1759.373;1;146;-90;-82.3;42.8;42.9;11;11.3;25.6;0.0;
28/02/2025 13:26:11;100;0;149.66;-4;-20.69;-5.83;51.6;18.50;76993;2836.562;-1759.372;1;146;-90;-82.3;42.8;42.7;11;11.7;25.6;0.0;
28/02/2025 13:26:31;100;0;148.90;-4;-20.14;-5.82;53.8;18.50;76981;2836.562;-1759.371;1;146;-90;-83.9;42.8;42.9;11;11.7;25.6;0.0;
28/02/2025 13:26:51;100;0;148.52;-4;-19.88;-5.66;55.9;18.50;76984;2836.561;-1759.370;1;146;-90;-82.3;42.8;42.7;11;11.3;25.6;0.0;
28/02/2025 13:27:11;100;0;151.65;-4;-19.87;-5.95;58.0;18.50;76981;2836.560;-1759.369;1;146;-90;-82.3;42.8;42.7;11;11.7;25.6;0.0;
28/02/2025 13:27:31;100;0;156.33;-4;-20.30;-5.81;60.1;18.50;76966;2836.559;-1759.368;1;146;-90;-82.3;42.8;42.6;13;13.1;25.6;0.0;
28/02/2025 13:27:51;100;0;153.69;-4;-20.33;-4.88;62.2;18.50;76961;2836.559;-1759.367;1;146;-90;-83.9;42.8;42.7;13;13.1;25.6;0.0;
28/02/2025 13:28:11;100;0;151.54;-4;-19.84;-4.77;64.5;18.50;76955;2836.558;-1759.366;1;146;-90;-82.3;42.8;42.7;13;13.5;25.6;0.0;
28/02/2025 13:28:31;100;0;151.30;-4;-20.22;-4.80;66.6;18.50;76947;2836.557;-1759.365;1;146;-90;-82.3;42.8;42.7;13;13.5;25.6;0.0;
28/02/2025 13:28:51;100;0;149.81;-4;-19.83;-4.94;68.8;18.50;76941;2836.556;-1759.364;1;146;-90;-82.3;42.8;42.7;11;10.8;25.6;0.0;
28/02/2025 13:29:11;100;0;150.01;-4;-20.23;-6.47;70.9;18.50;76941;2836.556;-1759.363;1;146;-90;-82.3;42.8;42.7;11;10.4;25.6;0.0;
28/02/2025 13:29:31;100;0;151.66;-4;-19.98;-6.48;73.1;18.50;76941;2836.555;-1759.362;1;146;-90;-82.3;42.8;42.7;11;10.4;25.6;0.0;
28/02/2025 13:29:51;100;0;154.69;-4;-19.58;-6.46;75.3;18.50;76928;2836.554;-1759.361;1;146;-90;-82.3;42.8;42.7;13;13.1;25.6;0.0;
28/02/2025 13:30:11;100;0;152.75;-4;-20.06;-4.95;77.3;18.50;76894;2836.553;-1759.360;1;146;-110;-109.7;42.8;42.7;13;13.5;25.6;0.0;
28/02/2025 13:30:31;100;0;150.49;-4;-19.57;-4.86;79.8;18.40;76966;2836.552;-1759.359;1;146;-110;-112.9;42.8;42.7;13;13.5;25.6;0.0;
28/02/2025 13:30:51;100;0;150.06;-4;-19.81;-4.80;82.1;18.40;76955;2836.551;-1759.358;1;146;-110;-111.3;42.8;42.7;13;13.5;25.6;0.0;
28/02/2025 13:31:11;100;0;151.30;-4;-19.51;-4.79;84.6;18.40;76952;2836.550;-1759.357;1;146;-110;-111.3;42.8;42.7;13;13.5;25.6;0.0;
28/02/2025 13:31:31;100;0;156.44;-4;-19.55;-4.79;87.2;18.40;76934;2836.549;-1759.356;1;146;-110;-111.3;42.8;42.7;13;13.5;25.6;0.0;
28/02/2025 13:31:51;100;0;161.36;-4;-19.50;-4.81;89.4;18.40;76934;2836.548;-1759.355;1;146;-110;-112.9;42.8;42.7;13;13.5;25.6;0.0;
28/02/2025 13:32:11;100;0;163.51;-4;-19.46;-4.73;91.9;18.40;76921;2836.546;-1759.355;1;146;-110;-111.3;42.8;42.7;15;14.9;25.6;0.0;
28/02/2025 13:32:31;100;0;163.81;-4;-19.92;-3.77;94.3;18.40;76907;2836.545;-1759.354;1;146;-110;-111.3;42.8;42.7;15;15.3;25.6;0.0;
28/02/2025 13:32:51;100;0;163.74;-4;-19.91;-3.83;96.8;18.30;76896;2836.543;-1759.354;1;146;-110;-111.3;42.8;42.9;15;15.3;25.6;0.0;
28/02/2025 13:33:11;100;0;161.56;-4;-19.97;-3.77;99.5;18.30;76900;2836.542;-1759.353;1;146;-110;-111.3;42.8;42.7;15;15.3;25.6;0.0;
28/02/2025 13:33:31;100;0;158.14;-4;-19.98;-3.79;102.1;18.30;76884;2836.540;-1759.352;1;146;-110;-112.9;42.8;42.7;13;13.1;25.6;0.0;
28/02/2025 13:33:51;100;0;155.14;-4;-19.86;-5.22;104.7;18.30;76882;2836.539;-1759.351;1;146;-110;-111.3;42.8;42.7;13;12.6;25.6;0.0;
28/02/2025 13:34:11;100;0;152.78;-4;-19.96;-5.18;107.3;18.30;76866;2836.538;-1759.350;1;146;-110;-111.3;42.8;42.7;13;12.6;25.6;0.0;
28/02/2025 13:34:31;100;0;149.32;-4;-19.64;-5.22;110.1;18.30;76868;2836.536;-1759.349;1;146;-110;-111.3;42.8;42.7;13;12.6;25.6;0.0;
28/02/2025 13:34:51;100;0;146.67;-4;-19.04;-5.29;112.5;18.20;76844;2836.535;-1759.347;1;146;-110;-111.3;42.8;42.7;10;9.9;25.6;0.0;
28/02/2025 13:35:11;100;0;150.94;-4;-18.93;-6.81;115.1;18.20;76837;2836.534;-1759.346;1;146;-110;-111.3;43.2;43.4;12;12.2;25.6;0.0;
28/02/2025 13:35:31;100;0;153.97;-4;-20.06;-5.26;117.6;18.20;76819;2836.533;-1759.345;1;146;-110;-112.9;43.2;43.4;12;12.6;25.6;0.0;
28/02/2025 13:35:51;100;0;155.95;-4;-20.22;-5.24;120.3;18.10;76814;2836.531;-1759.344;1;146;-110;-111.3;43.2;43.4;12;12.6;25.6;0.0;
28/02/2025 13:36:11;100;0;157.78;-4;-20.34;-5.24;122.9;18.10;76806;2836.530;-1759.343;1;146;-110;-112.9;43.2;43.4;12;12.6;25.6;0.0;
28/02/2025 13:36:31;100;0;159.23;-4;-20.13;-5.21;125.5;18.10;76804;2836.528;-1759.342;1;146;-110;-111.3;43.2;43.4;12;12.6;25.6;0.0;
28/02/2025 13:36:51;100;0;158.86;-4;-19.86;-5.11;128.1;18.10;76789;2836.527;-1759.341;1;146;-110;-111.3;43.2;43.4;12;12.6;25.6;0.0;
28/02/2025 13:37:11;100;0;159.40;-4;-20.24;-5.21;130.6;18.00;76792;2836.525;-1759.340;1;146;-110;-112.9;43.2;43.4;12;12.6;25.6;0.0;
28/02/2025 13:37:31;100;0;162.24;-4;-20.31;-5.30;133.2;18.00;76788;2836.524;-1759.340;1;146;-110;-109.7;43.2;43.4;14;14.0;25.6;0.0;
28/02/2025 13:37:51;100;0;161.43;-4;-20.07;-4.30;135.7;18.00;76781;2836.523;-1759.339;1;146;-110;-111.3;43.2;43.4;14;14.4;25.6;0.0;
28/02/2025 13:38:11;100;0;163.41;-4;-20.33;-4.26;138.3;18.00;76774;2836.521;-1759.339;1;146;-110;-111.3;43.2;43.6;14;14.4;25.6;0.0;
28/02/2025 13:38:31;100;0;164.34;-4;-20.51;-4.32;140.8;17.90;76761;2836.520;-1759.338;1;146;-110;-111.3;43.2;43.4;14;14.4;25.6;0.0;
28/02/2025 13:38:51;100;0;167.90;-4;-20.38;-4.23;143.4;17.90;76763;2836.518;-1759.338;1;146;-110;-111.3;43.2;43.4;19;19.0;25.6;0.0;
28/02/2025 13:39:11;100;0;168.61;-4;-20.66;-1.91;145.9;17.90;76743;2836.517;-1759.338;1;146;-110;-112.9;43.2;43.4;19;19.0;25.6;0.0;
28/02/2025 13:39:31;100;0;172.47;-4;-20.64;-1.90;148.4;17.90;76736;2836.515;-1759.338;1;146;-110;-112.9;43.2;43.6;24;23.9;25.6;0.0;
28/02/2025 13:39:52;100;0;172.21;-4;-21.10;0.68;151.1;17.80;76734;2836.514;-1759.338;1;146;-110;-112.9;43.2;43.4;24;24.4;25.6;0.0;
28/02/2025 13:40:12;100;0;168.73;-4;-21.19;0.68;153.8;17.80;76735;2836.512;-1759.338;1;146;-110;-111.3;43.2;43.4;20;19.9;25.6;0.0;
28/02/2025 13:40:32;100;0;169.74;-4;-20.67;-1.81;156.6;17.80;76720;2836.510;-1759.337;1;146;-110;-111.3;43.2;43.6;22;22.1;25.6;0.0;
28/02/2025 13:40:52;100;0;169.67;-4;-21.19;-0.56;159.1;17.70;76710;2836.509;-1759.337;1;146;-110;-111.3;43.2;43.6;20;19.9;25.6;0.0;
28/02/2025 13:41:12;100;0;170.16;-4;-20.80;-1.84;161.7;17.70;76709;2836.507;-1759.337;1;146;-110;-111.3;43.2;43.4;20;19.4;25.6;0.0;
28/02/2025 13:41:32;100;0;165.33;-4;-20.77;-1.85;164.6;17.70;76694;2836.506;-1759.337;1;146;-110;-112.9;43.2;43.6;17;17.1;25.6;0.0;
28/02/2025 13:41:52;100;0;163.91;-4;-20.66;-2.97;167.1;17.60;76701;2836.504;-1759.336;1;146;-110;-111.3;43.2;43.4;15;14.9;25.6;0.0;
28/02/2025 13:42:12;100;0;162.83;-4;-20.68;-4.18;169.8;17.60;76690;2836.503;-1759.336;1;146;-110;-111.3;43.2;43.4;15;14.9;25.6;0.0;
28/02/2025 13:42:32;100;0;161.07;-4;-20.69;-4.21;172.3;17.60;76689;2836.501;-1759.335;1;146;-110;-112.9;43.2;43.4;15;14.4;25.6;0.0;
28/02/2025 13:42:52;100;0;161.02;-4;-20.61;-4.15;175.0;17.60;76677;2836.500;-1759.334;1;146;-110;-111.3;43.2;43.6;15;14.9;25.6;0.0;
28/02/2025 13:43:12;100;0;162.15;-4;-20.37;-4.21;177.5;17.50;76669;2836.498;-1759.334;1;146;-110;-111.3;43.2;43.6;15;14.4;25.6;0.0;
28/02/2025 13:43:32;100;0;163.74;-4;-20.07;-4.27;180.0;17.50;76662;2836.497;-1759.333;1;146;-110;-112.9;43.2;43.4;15;14.9;25.6;0.0;
28/02/2025 13:43:52;100;0;165.07;-4;-20.47;-4.25;182.7;17.50;76655;2836.495;-1759.333;1;146;-110;-111.3;43.2;43.4;17;17.1;25.6;0.0;
28/02/2025 13:44:12;100;0;160.56;-4;-20.57;-2.76;185.2;17.40;76646;2836.494;-1759.332;1;146;-110;-111.3;43.2;43.4;14;14.0;25.6;0.0;
28/02/2025 13:44:32;100;0;159.32;-4;-20.27;-4.65;187.8;17.40;76635;2836.493;-1759.332;1;146;-110;-111.3;43.2;43.4;14;13.5;25.6;0.0;
28/02/2025 13:44:52;100;0;162.57;-4;-20.39;-4.60;190.4;17.40;76626;2836.491;-1759.331;1;146;-110;-114.5;43.2;43.4;14;14.0;25.6;0.0;
28/02/2025 13:45:12;100;0;162.49;-4;-20.38;-4.62;193.1;17.30;76623;2836.490;-1759.330;1;146;-110;-111.3;43.2;43.4;14;13.5;25.6;0.0;
28/02/2025 13:45:32;100;0;163.27;-4;-20.39;-4.65;195.7;17.30;76600;2836.488;-1759.330;1;146;-110;-112.9;43.2;43.4;14;14.0;25.6;0.0;
28/02/2025 13:45:52;100;0;163.14;-4;-20.30;-4.64;198.6;17.30;76611;2836.486;-1759.329;1;146;-110;-112.9;43.2;43.4;16;15.8;25.6;0.0;
28/02/2025 13:46:12;100;0;162.13;-4;-20.35;-3.36;201.2;17.20;76596;2836.485;-1759.328;1;146;-110;-114.5;43.2;43.6;16;16.2;25.6;0.0;
28/02/2025 13:46:32;100;0;157.73;-4;-20.16;-3.42;204.1;17.20;76589;2836.483;-1759.327;1;146;-110;-112.9;43.2;43.4;14;13.5;25.6;0.0;
28/02/2025 13:46:52;100;0;153.95;-4;-20.11;-4.83;206.8;17.20;76571;2836.481;-1759.326;1;146;-110;-111.3;43.2;43.4;14;13.5;25.6;0.0;
28/02/2025 13:47:12;100;0;153.41;-4;-20.20;-4.82;209.6;17.10;76568;2836.480;-1759.325;1;146;-110;-111.3;43.2;43.4;14;13.5;25.6;0.0;
28/02/2025 13:47:32;100;0;152.31;-4;-20.15;-4.85;212.4;17.10;76560;2836.478;-1759.324;1;146;-110;-112.9;43.2;43.6;14;13.5;25.6;0.0;
28/02/2025 13:47:52;100;0;150.83;-4;-20.03;-4.81;215.1;17.10;76559;2836.477;-1759.322;1;146;-110;-111.3;43.2;43.4;14;13.5;25.6;0.0;
28/02/2025 13:48:12;100;0;148.31;-4;-19.74;-4.85;218.1;17.00;76541;2836.475;-1759.320;1;146;-110;-112.9;43.2;43.4;14;13.5;25.6;0.0;
28/02/2025 13:48:32;100;0;147.39;-4;-20.05;-4.77;220.7;17.00;76534;2836.474;-1759.319;1;146;-110;-111.3;43.2;43.4;12;12.2;25.6;0.0;
28/02/2025 13:48:52;100;0;148.38;-4;-19.52;-5.59;223.4;17.00;76519;2836.473;-1759.317;1;146;-110;-111.3;43.2;43.4;12;12.2;25.6;0.0;
28/02/2025 13:49:12;100;0;147.69;-4;-19.97;-5.53;226.2;16.90;76506;2836.471;-1759.316;1;146;-110;-111.3;43.2;43.4;12;12.2;25.6;0.0;
28/02/2025 13:49:32;100;0;147.11;-4;-19.99;-5.52;229.2;16.90;76498;2836.470;-1759.314;1;146;-110;-112.9;43.2;43.4;12;12.2;25.6;0.0;
28/02/2025 13:49:52;100;0;146.61;-4;-19.99;-5.56;231.9;16.90;76487;2836.469;-1759.312;1;146;-110;-111.3;43.2;43.4;12;12.2;25.6;0.0;
28/02/2025 13:50:12;100;0;146.42;-4;-19.96;-5.54;234.9;16.80;76482;2836.467;-1759.310;1;146;-110;-112.9;43.2;43.4;12;12.2;25.6;0.0;
28/02/2025 13:50:32;100;0;145.87;-4;-20.05;-5.57;237.8;16.80;76478;2836.466;-1759.309;1;146;-110;-112.9;43.2;43.4;12;11.7;25.6;0.0;
28/02/2025 13:50:52;100;0;144.02;-4;-19.89;-5.54;240.7;16.80;76474;2836.464;-1759.307;1;146;-110;-112.9;43.2;43.4;10;9.9;25.6;0.0;
28/02/2025 13:51:12;100;0;142.19;-4;-19.59;-6.84;243.6;16.70;76467;2836.463;-1759.305;1;146;-110;-112.9;43.2;43.4;8;8.1;25.6;0.0;
28/02/2025 13:51:32;100;0;145.38;-4;-19.37;-7.52;246.4;16.70;76449;2836.461;-1759.303;1;146;-110;-111.3;43.2;43.4;11;10.8;25.6;0.0;
28/02/2025 13:51:52;100;0;150.78;-4;-19.47;-5.84;249.2;16.70;76448;2836.460;-1759.301;1;146;-110;-112.9;43.2;43.4;13;13.1;25.6;0.0;
28/02/2025 13:52:12;100;0;153.38;-4;-19.81;-4.93;252.1;16.60;76439;2836.458;-1759.300;1;146;-110;-114.5;43.2;43.4;13;13.1;25.6;0.0;
28/02/2025 13:52:32;100;0;156.52;-4;-19.88;-4.91;255.0;16.60;76426;2836.456;-1759.299;1;146;-110;-111.3;43.2;43.4;13;13.5;25.6;0.0;
28/02/2025 13:52:52;100;0;161.14;-4;-19.69;-4.76;257.9;16.60;76417;2836.455;-1759.298;1;146;-110;-111.3;43.2;43.4;13;13.1;25.6;0.0;
28/02/2025 13:53:12;100;0;164.69;-4;-19.80;-4.89;260.8;16.50;76414;2836.453;-1759.297;1;146;-110;-112.9;43.2;43.4;17;17.1;25.6;0.0;
28/02/2025 13:53:32;100;0;163.94;-4;-20.19;-2.78;263.8;16.50;76412;2836.451;-1759.297;1;146;-110;-112.9;43.2;43.4;17;17.6;25.6;0.0;
28/02/2025 13:53:52;100;0;164.32;-4;-20.09;-2.77;266.6;16.50;76402;2836.449;-1759.296;1;146;-110;-114.5;43.2;43.4;17;17.6;25.6;0.0;
28/02/2025 13:54:12;100;0;166.67;-4;-20.18;-2.89;269.6;16.40;76386;2836.447;-1759.295;1;146;-110;-111.3;43.2;43.4;19;19.0;25.6;0.0;
28/02/2025 13:54:32;100;0;169.48;-4;-20.34;-1.83;272.8;16.40;76381;2836.444;-1759.295;1;146;-110;-112.9;43.2;43.4;24;23.9;25.6;0.0;
28/02/2025 13:54:52;100;0;166.70;-4;-20.58;0.72;275.6;16.30;76382;2836.443;-1759.295;1;146;-110;-111.3;43.2;43.4;18;18.1;25.6;0.0;
28/02/2025 13:55:12;100;0;166.09;-4;-20.64;-2.79;278.7;16.30;76379;2836.441;-1759.294;1;146;-110;-111.3;43.2;43.4;18;17.6;25.6;0.0;
28/02/2025 13:55:32;100;0;164.75;-4;-19.98;-2.52;281.8;16.30;76365;2836.438;-1759.294;1;146;-110;-112.9;43.2;43.4;18;17.6;25.6;0.0;
28/02/2025 13:55:52;100;0;167.66;-4;-20.05;-2.62;285.0;16.20;76369;2836.436;-1759.293;1;146;-110;-111.3;43.2;43.4;21;21.7;25.6;0.0;
28/02/2025 13:56:12;100;0;164.43;-4;-20.72;-0.55;287.9;16.20;76362;2836.434;-1759.293;1;146;-110;-116.1;43.2;43.4;16;15.8;25.6;0.0;
28/02/2025 13:56:32;100;0;165.47;-4;-20.23;-3.76;291.0;16.20;76352;2836.432;-1759.292;1;146;-110;-112.9;43.2;43.4;18;18.1;25.6;0.0;
28/02/2025 13:56:52;100;0;170.55;-4;-19.98;-2.08;294.1;16.10;76348;2836.430;-1759.292;1;146;-110;-111.3;43.2;43.4;25;24.8;25.6;0.0;
28/02/2025 13:57:12;100;0;170.72;-4;-20.67;1.25;297.1;16.10;76344;2836.428;-1759.292;1;146;-110;-111.3;43.2;43.4;25;25.3;25.6;0.0;
28/02/2025 13:57:32;100;0;166.50;-4;-20.45;1.27;300.1;16.10;76333;2836.426;-1759.291;1;146;-110;-111.3;43.2;43.6;19;19.0;25.6;0.0;
28/02/2025 13:57:52;100;0;165.08;-4;-20.00;-2.25;303.3;16.00;76331;2836.423;-1759.291;1;146;-110;-111.3;43.2;43.4;19;18.5;25.6;0.0;
28/02/2025 13:58:12;100;0;162.59;-4;-20.27;-2.32;306.2;16.00;76321;2836.421;-1759.290;1;146;-110;-111.3;43.2;43.4;16;15.8;25.6;0.0;
28/02/2025 13:58:32;100;0;159.45;-4;-20.08;-3.82;309.3;16.00;76317;2836.419;-1759.289;1;146;-110;-112.9;43.2;43.4;14;13.5;25.6;0.0;
28/02/2025 13:58:52;100;0;155.81;-4;-19.58;-4.91;312.2;15.90;76305;2836.418;-1759.288;1;146;-110;-112.9;43.2;43.4;14;13.5;25.6;0.0;
28/02/2025 13:59:12;100;0;151.84;-4;-19.74;-4.84;315.1;15.90;76292;2836.416;-1759.286;1;146;-110;-112.9;43.2;43.4;14;13.5;25.5;0.0;
28/02/2025 13:59:32;100;0;150.18;-4;-19.59;-4.82;318.0;15.90;76278;2836.414;-1759.285;1;146;-110;-112.9;43.2;43.6;14;13.5;25.6;0.0;
28/02/2025 13:59:52;100;0;148.79;-4;-19.44;-4.90;320.8;15.80;76277;2836.413;-1759.283;1;146;-110;-111.3;43.2;43.4;14;13.5;25.6;0.0;
28/02/2025 14:00:12;100;0;151.29;-4;-19.41;-4.84;323.4;15.80;76261;2836.412;-1759.282;1;146;-110;-112.9;43.2;43.4;14;13.5;25.6;0.0;
28/02/2025 14:00:32;100;0;152.58;-4;-19.50;-4.82;326.2;15.80;76266;2836.410;-1759.280;1;146;-110;-112.9;43.2;43.4;14;13.5;25.6;0.0;
28/02/2025 14:00:52;100;0;153.25;-4;-20.11;-4.73;329.1;15.70;76253;2836.408;-1759.279;1;146;-110;-112.9;43.2;43.4;14;13.5;25.6;0.0;
28/02/2025 14:01:12;100;0;152.75;-4;-19.62;-4.76;331.8;15.70;76252;2836.407;-1759.278;1;146;-110;-111.3;43.2;43.4;14;13.5;25.6;0.0;
28/02/2025 14:01:32;100;0;148.51;-4;-19.39;-4.79;334.6;15.70;76244;2836.406;-1759.276;1;146;-110;-112.9;43.2;43.4;14;13.5;25.6;0.0;
28/02/2025 14:01:52;100;0;146.11;-4;-19.43;-4.85;337.3;15.60;76246;2836.404;-1759.274;1;146;-110;-111.3;43.2;43.4;12;12.2;25.6;0.0;
28/02/2025 14:02:12;100;0;144.30;-4;-19.71;-5.58;339.9;15.60;76222;2836.403;-1759.272;1;146;-110;-112.9;43.2;43.4;10;9.9;25.6;0.0;
28/02/2025 14:02:32;100;0;144.60;-4;-19.22;-6.73;342.5;15.60;76221;2836.402;-1759.271;1;146;-110;-111.3;43.2;43.4;10;9.5;25.6;0.0;
28/02/2025 14:02:52;100;0;144.20;-4;-19.28;-6.83;345.2;15.50;76217;2836.401;-1759.269;1;146;-110;-112.9;43.2;43.4;10;9.5;25.6;0.0;
28/02/2025 14:03:12;100;0;146.47;-4;-19.11;-6.77;347.8;15.50;76208;2836.399;-1759.267;1;146;-110;-111.3;43.2;43.4;12;12.2;25.6;0.0;
28/02/2025 14:03:32;100;0;145.39;-4;-19.47;-5.12;350.3;15.50;76213;2836.398;-1759.266;1;146;-110;-111.3;43.2;43.4;12;13.1;25.6;0.0;
28/02/2025 14:03:52;100;0;143.56;-4;-19.57;-5.07;352.9;15.40;76207;2836.397;-1759.264;1;146;-110;-111.3;43.2;43.4;9;9.0;25.6;0.0;
28/02/2025 14:04:12;100;0;144.79;-4;-19.21;-7.10;355.4;15.40;76200;2836.396;-1759.262;1;146;-110;-111.3;43.2;43.4;9;9.0;25.6;0.0;
28/02/2025 14:04:32;100;0;146.41;-4;-19.19;-7.16;358.0;15.40;76188;2836.395;-1759.261;1;146;-110;-112.9;43.2;43.4;11;10.8;25.6;0.0;
28/02/2025 14:04:52;100;0;148.01;-4;-19.54;-5.96;360.6;15.30;76179;2836.394;-1759.259;1;146;-110;-111.3;43.2;43.4;11;11.3;25.6;0.0;
28/02/2025 14:05:12;100;0;152.29;-4;-19.72;-5.89;363.3;15.30;76177;2836.393;-1759.258;1;146;-110;-112.9;43.2;43.4;13;13.1;25.6;0.0;
28/02/2025 14:05:32;100;0;155.15;-4;-20.15;-4.76;366.0;15.30;76167;2836.391;-1759.257;1;146;-110;-111.3;43.2;43.4;13;13.5;25.6;0.0;
28/02/2025 14:05:52;100;0;159.57;-4;-19.72;-4.68;368.6;15.20;76169;2836.389;-1759.256;1;146;-110;-112.9;43.2;43.4;13;13.5;25.6;0.0;
28/02/2025 14:06:12;100;0;160.47;-4;-19.84;-4.71;371.4;15.20;76164;2836.388;-1759.255;1;146;-110;-112.9;43.2;43.4;13;13.5;25.6;0.0;
28/02/2025 14:06:32;100;0;156.94;-4;-19.61;-4.78;374.2;15.20;76149;2836.386;-1759.254;1;146;-110;-111.3;43.2;43.4;13;13.5;25.6;0.0;
28/02/2025 14:06:52;100;0;161.10;-4;-19.76;-4.74;376.8;15.20;76145;2836.385;-1759.253;1;146;-110;-111.3;43.2;43.4;13;13.1;25.6;0.0;
28/02/2025 14:07:12;100;0;165.96;-4;-19.71;-4.67;379.5;15.10;76137;2836.383;-1759.253;1;146;-110;-112.9;43.2;43.4;17;17.1;25.6;0.0;
28/02/2025 14:07:32;100;0;170.41;-4;-19.57;-2.46;382.3;15.10;76118;2836.381;-1759.253;1;146;-110;-111.3;43.2;43.4;23;23.0;25.6;0.0;
28/02/2025 14:07:52;100;0;170.44;-4;-19.88;0.31;385.0;15.10;76123;2836.379;-1759.253;1;146;-110;-111.3;43.2;43.4;23;23.5;25.6;0.0;
28/02/2025 14:08:12;100;0;167.93;-4;-20.08;0.23;387.6;15.00;76117;2836.378;-1759.252;1;146;-110;-112.9;43.2;43.6;20;19.4;25.6;0.0;
28/02/2025 14:08:32;100;0;166.97;-4;-19.83;-1.83;390.4;15.00;76109;2836.376;-1759.252;1;146;-110;-112.9;43.2;43.4;20;19.4;25.6;0.0;
28/02/2025 14:08:52;100;0;167.50;-4;-19.88;-1.76;393.1;15.00;76103;2836.374;-1759.252;1;146;-110;-112.9;43.2;43.4;20;19.4;25.6;0.0;
28/02/2025 14:09:12;100;0;170.34;-4;-20.02;-1.80;395.9;14.90;76088;2836.372;-1759.252;1;146;-110;-112.9;43.2;43.6;23;23.0;25.6;0.0;
28/02/2025 14:09:32;100;0;172.27;-4;-20.62;0.23;398.7;14.90;76086;2836.370;-1759.252;1;146;-110;-112.9;43.2;43.4;26;26.2;25.6;0.0;
28/02/2025 14:09:52;100;0;168.56;-4;-19.91;1.75;401.6;14.80;76071;2836.368;-1759.251;1;146;-110;-111.3;43.2;43.4;22;22.1;25.6;0.0;
28/02/2025 14:10:12;100;0;162.91;-4;-19.83;-0.69;404.3;14.80;76066;2836.367;-1759.251;1;146;-110;-111.3;43.2;43.4;15;14.9;25.6;0.0;
28/02/2025 14:10:32;100;0;159.45;-4;-19.41;-4.23;406.9;14.80;76063;2836.365;-1759.250;1;146;-110;-112.9;43.2;43.4;15;14.9;25.6;0.0;
28/02/2025 14:10:52;100;0;154.90;-4;-19.25;-4.20;409.4;14.80;76053;2836.364;-1759.249;1;146;-110;-112.9;43.2;43.4;15;14.9;25.6;0.0;
28/02/2025 14:11:12;100;0;153.34;-4;-19.44;-4.27;411.9;14.70;76041;2836.363;-1759.248;1;146;-110;-111.3;43.2;43.4;15;14.9;25.6;0.0;
28/02/2025 14:11:32;100;0;157.43;-4;-19.41;-4.20;414.4;14.70;76042;2836.361;-1759.247;1;146;-110;-112.9;43.2;43.4;15;14.9;25.6;0.0;
28/02/2025 14:11:52;100;0;161.74;-4;-19.47;-4.16;416.8;14.70;76041;2836.360;-1759.246;1;146;-110;-111.3;43.2;43.4;15;14.9;25.6;0.0;
28/02/2025 14:12:12;100;0;164.51;-4;-19.25;-4.11;419.3;14.60;76023;2836.358;-1759.246;1;146;-110;-111.3;43.2;43.4;17;17.1;25.6;0.0;
28/02/2025 14:12:32;100;0;165.64;-4;-19.36;-2.87;421.9;14.60;76011;2836.357;-1759.245;1;146;-110;-112.9;43.2;43.4;17;17.1;25.6;0.0;
28/02/2025 14:12:52;100;0;167.17;-4;-19.28;-2.80;424.4;14.60;76007;2836.355;-1759.245;1;146;-110;-112.9;43.2;43.4;19;19.0;25.6;0.0;
28/02/2025 14:13:12;100;0;168.29;-4;-19.34;-1.99;427.0;14.50;76020;2836.353;-1759.245;1;146;-110;-111.3;43.2;43.4;21;21.2;25.6;0.0;
28/02/2025 14:13:32;100;0;169.23;-4;-19.56;-0.81;429.4;14.50;76013;2836.352;-1759.245;1;146;-110;-112.9;43.2;43.4;21;21.2;25.6;0.0;
28/02/2025 14:13:52;100;0;166.29;-4;-19.42;-0.83;432.0;14.50;76006;2836.350;-1759.244;1;146;-110;-111.3;43.2;43.4;18;18.1;25.6;0.0;
28/02/2025 14:14:12;100;0;162.42;-4;-19.30;-2.75;434.3;14.50;75998;2836.349;-1759.244;1;146;-110;-112.9;43.2;43.4;15;14.9;25.6;0.0;
28/02/2025 14:14:32;100;0;158.65;-4;-19.04;-4.21;436.8;14.40;75983;2836.347;-1759.243;1;146;-110;-111.3;43.2;43.4;15;14.9;25.6;0.0;
28/02/2025 14:14:52;100;0;157.76;-4;-19.12;-4.21;439.2;14.40;75991;2836.346;-1759.242;1;146;-110;-111.3;43.2;43.4;15;14.9;25.6;0.0;
28/02/2025 14:15:13;100;0;154.42;-4;-18.96;-4.22;441.5;14.40;75980;2836.345;-1759.241;1;146;-110;-111.3;43.5;43.4;15;14.9;25.6;0.0;
28/02/2025 14:15:33;100;0;151.41;-4;-18.93;-4.21;443.8;14.40;75980;2836.344;-1759.240;1;146;-110;-111.3;43.8;43.7;15;14.9;25.6;0.0;
28/02/2025 14:15:53;100;0;148.40;-4;-20.08;-4.23;446.3;14.30;75959;2836.343;-1759.239;1;146;-110;-111.3;43.8;44.0;13;13.1;25.6;0.0;
28/02/2025 14:16:13;100;0;146.97;-4;-20.27;-5.20;448.6;14.30;75953;2836.342;-1759.237;1;146;-110;-111.3;43.8;44.0;13;13.1;25.6;0.0;
28/02/2025 14:16:33;100;0;145.64;-4;-20.24;-5.15;451.0;14.20;75952;2836.341;-1759.236;1;146;-110;-114.5;43.8;44.0;11;10.8;25.6;0.0;
28/02/2025 14:16:53;100;0;144.74;-4;-20.10;-6.32;453.5;14.20;75937;2836.340;-1759.234;1;146;-110;-112.9;43.8;44.0;11;10.4;25.6;0.0;
28/02/2025 14:17:13;100;0;145.64;-4;-19.61;-6.39;455.9;14.20;75931;2836.339;-1759.233;1;146;-110;-112.9;43.8;44.0;11;10.4;25.6;0.0;
28/02/2025 14:17:33;100;0;146.06;-4;-19.83;-6.39;458.3;14.20;75933;2836.338;-1759.231;1;146;-110;-112.9;43.8;44.0;11;10.4;25.6;0.0;
28/02/2025 14:17:53;100;0;146.02;-4;-19.89;-6.41;460.7;14.10;75932;2836.338;-1759.230;1;146;-110;-112.9;43.8;44.0;11;10.4;25.6;0.0;
28/02/2025 14:18:13;100;0;145.40;-4;-19.97;-6.39;463.1;14.10;75926;2836.337;-1759.228;1;146;-110;-112.9;43.8;44.0;11;10.4;25.6;0.0;
28/02/2025 14:18:33;100;0;146.79;-4;-19.89;-6.38;465.6;14.10;75917;2836.336;-1759.227;1;146;-110;-112.9;43.8;44.0;11;10.4;25.6;0.0;
28/02/2025 14:18:53;100;0;148.98;-4;-20.06;-6.32;468.0;14.00;75908;2836.335;-1759.226;1;146;-110;-111.3;43.8;44.0;13;13.1;25.6;0.0;
28/02/2025 14:19:13;100;0;150.28;-4;-20.33;-4.62;470.7;14.00;75907;2836.333;-1759.224;1;146;-110;-111.3;43.8;44.0;13;13.5;25.6;0.0;
28/02/2025 14:19:33;100;0;151.23;-4;-20.55;-4.80;473.4;14.00;75895;2836.332;-1759.223;1;146;-110;-111.3;43.8;44.0;13;13.5;25.6;0.0;
28/02/2025 14:19:53;100;0;152.33;-4;-20.37;-4.65;476.0;14.00;75889;2836.331;-1759.222;1;146;-110;-112.9;43.8;44.0;13;13.5;25.6;0.0;
28/02/2025 14:20:13;100;0;154.82;-4;-20.17;-4.68;478.7;13.90;75888;2836.329;-1759.221;1;146;-110;-112.9;43.8;44.0;13;13.5;25.6;0.0;
28/02/2025 14:20:33;100;0;156.73;-4;-20.08;-4.67;481.3;13.90;75886;2836.328;-1759.220;1;146;-110;-111.3;43.8;44.0;13;13.5;25.6;0.0;
28/02/2025 14:20:53;100;0;159.41;-4;-20.18;-4.77;484.0;13.90;75877;2836.326;-1759.219;1;146;-110;-111.3;43.8;44.0;13;13.5;25.6;0.0;
28/02/2025 14:21:13;100;0;162.55;-4;-20.12;-4.73;486.6;13.90;75885;2836.325;-1759.218;1;146;-110;-112.9;43.8;44.0;15;14.9;25.6;0.0;
28/02/2025 14:21:33;100;0;165.87;-4;-20.16;-3.83;489.1;13.80;75862;2836.323;-1759.218;1;146;-110;-111.3;43.8;44.0;18;18.1;25.6;0.0;
28/02/2025 14:21:53;100;0;167.68;-4;-20.22;-2.51;491.8;13.80;75871;2836.322;-1759.218;1;146;-110;-112.9;43.8;44.0;20;19.9;25.6;0.0;
28/02/2025 14:22:13;100;0;168.44;-4;-20.48;-1.40;494.4;13.80;75865;2836.320;-1759.217;1;146;-110;-112.9;43.8;44.0;20;20.3;25.6;0.0;
28/02/2025 14:22:33;100;0;168.88;-4;-20.79;-1.38;497.1;13.80;75874;2836.318;-1759.217;1;146;-110;-111.3;43.8;44.2;20;20.3;25.6;0.0;
28/02/2025 14:22:53;100;0;171.34;-4;-20.29;-1.35;500.0;13.70;75856;2836.316;-1759.217;1;146;-110;-112.9;43.8;44.0;26;26.2;25.6;0.0;
28/02/2025 14:23:13;100;0;167.99;-4;-20.95;1.73;502.7;13.70;75860;2836.315;-1759.217;1;146;-110;-111.3;43.8;44.0;20;19.9;25.6;0.0;
28/02/2025 14:23:33;100;0;167.29;-4;-20.71;-1.66;505.5;13.70;75850;2836.313;-1759.217;1;146;-110;-111.3;43.8;44.0;20;19.9;25.6;0.0;
28/02/2025 14:23:53;100;0;163.88;-4;-20.42;-1.72;508.2;13.60;75832;2836.311;-1759.216;1;146;-110;-112.9;43.8;44.0;16;15.8;25.6;0.0;
28/02/2025 14:24:13;100;0;162.44;-4;-20.41;-3.91;510.8;13.60;75834;2836.310;-1759.215;1;146;-110;-111.3;43.8;44.2;16;15.3;25.6;0.0;
28/02/2025 14:24:33;100;0;160.59;-4;-20.31;-3.95;513.7;13.60;75837;2836.308;-1759.215;1;146;-110;-112.9;43.8;44.0;16;15.3;25.6;0.0;
28/02/2025 14:24:53;100;0;158.09;-4;-20.11;-3.92;516.5;13.60;75836;2836.306;-1759.214;1;146;-110;-112.9;43.8;44.0;14;14.0;25.6;0.0;
28/02/2025 14:25:13;100;0;153.00;-4;-20.10;-4.73;519.1;13.50;75828;2836.305;-1759.212;1;146;-110;-112.9;43.8;44.0;14;14.0;25.6;0.0;
28/02/2025 14:25:33;100;0;153.00;-4;-20.02;-4.65;521.8;13.50;75821;2836.303;-1759.211;1;146;-110;-112.9;43.8;44.0;14;14.0;25.6;0.0;
28/02/2025 14:25:53;100;0;152.98;-4;-20.15;-4.67;524.5;13.50;75806;2836.302;-1759.210;1;146;-110;-112.9;43.8;44.0;14;14.0;25.6;0.0;
28/02/2025 14:26:13;100;0;151.21;-4;-20.05;-4.65;527.2;13.50;75813;2836.301;-1759.209;1;146;-110;-114.5;43.8;44.0;14;13.5;25.6;0.0;
28/02/2025 14:26:33;100;0;148.42;-4;-19.79;-4.72;530.0;13.40;75789;2836.299;-1759.207;1;146;-110;-111.3;43.8;44.0;14;14.0;25.6;0.0;
28/02/2025 14:26:53;100;0;145.00;-4;-19.64;-4.64;532.5;13.40;75784;2836.298;-1759.205;1;146;-110;-111.3;43.8;44.0;11;10.8;25.6;0.0;
28/02/2025 14:27:13;100;0;143.80;-4;-19.59;-6.47;535.2;13.40;75777;2836.297;-1759.204;1;146;-110;-112.9;43.8;44.0;11;10.4;25.6;0.0;
28/02/2025 14:27:33;100;0;148.63;-4;-19.52;-6.41;537.7;13.40;75776;2836.296;-1759.202;1;146;-110;-111.3;43.8;44.0;13;13.1;25.6;0.0;
28/02/2025 14:27:53;100;0;152.67;-4;-19.72;-4.80;540.5;13.30;75766;2836.295;-1759.201;1;146;-110;-112.9;43.8;44.0;13;13.5;25.6;0.0;
28/02/2025 14:28:13;100;0;154.24;-4;-19.81;-4.84;543.2;13.30;75764;2836.293;-1759.200;1;146;-110;-111.3;43.8;44.0;13;13.5;25.6;0.0;
28/02/2025 14:28:33;100;0;154.05;-4;-19.85;-4.90;546.1;13.30;75752;2836.291;-1759.198;1;146;-110;-112.9;43.8;44.0;13;13.5;25.6;0.0;
28/02/2025 14:28:53;100;0;156.11;-4;-19.79;-4.81;548.7;13.30;75748;2836.290;-1759.197;1;146;-110;-112.9;43.8;44.0;13;13.5;25.6;0.0;
28/02/2025 14:29:13;100;0;157.86;-4;-19.77;-4.84;551.5;13.20;75742;2836.288;-1759.196;1;146;-110;-112.9;43.8;44.0;13;13.5;25.6;0.0;
28/02/2025 14:29:33;100;0;160.25;-4;-19.69;-4.80;554.5;13.20;75737;2836.286;-1759.195;1;146;-110;-112.9;43.8;44.0;15;14.9;25.6;0.0;
28/02/2025 14:29:53;100;0;161.45;-4;-19.61;-4.02;557.3;13.20;75721;2836.285;-1759.195;1;146;-110;-111.3;43.8;44.2;15;15.3;25.6;0.0;
28/02/2025 14:30:13;100;0;164.29;-4;-19.69;-4.06;560.2;13.10;75713;2836.283;-1759.194;1;146;-110;-112.9;43.8;44.0;17;17.1;25.6;0.0;
28/02/2025 14:30:33;100;0;163.35;-4;-19.67;-2.95;562.8;13.10;75711;2836.281;-1759.194;1;146;-110;-111.3;43.8;44.0;17;17.6;25.6;0.0;
28/02/2025 14:30:53;100;0;162.64;-4;-19.88;-2.90;565.5;13.10;75696;2836.279;-1759.193;1;146;-110;-114.5;43.8;44.0;17;17.6;25.6;0.0;
28/02/2025 14:31:13;100;0;162.35;-4;-19.83;-2.87;568.4;13.10;75716;2836.278;-1759.192;1;146;-110;-112.9;43.8;44.0;17;17.6;25.6;0.0;
28/02/2025 14:31:33;100;0;160.95;-4;-19.90;-2.85;571.3;13.00;75685;2836.276;-1759.191;1;146;-110;-111.3;43.8;44.0;15;14.4;25.6;0.0;
28/02/2025 14:31:53;100;0;163.56;-4;-19.88;-4.44;574.1;13.00;75696;2836.274;-1759.191;1;146;-110;-111.3;43.8;44.0;17;17.1;25.6;0.0;
28/02/2025 14:32:13;100;0;162.02;-4;-20.00;-2.78;576.9;13.00;75682;2836.272;-1759.190;1;146;-110;-111.3;43.8;44.0;15;14.4;25.6;0.0;
28/02/2025 14:32:33;100;0;166.02;-4;-19.78;-4.35;579.5;13.00;75672;2836.271;-1759.190;1;146;-110;-111.3;43.8;44.0;18;18.5;25.6;0.0;
28/02/2025 14:32:53;100;0;165.36;-4;-19.61;-2.22;582.3;12.90;75674;2836.269;-1759.189;1;146;-110;-111.3;43.8;44.0;18;18.5;25.6;0.0;
28/02/2025 14:33:13;100;0;165.13;-4;-20.19;-2.25;584.9;12.90;75672;2836.267;-1759.189;1;146;-110;-112.9;43.8;44.2;18;18.5;25.6;0.0;
28/02/2025 14:33:33;100;0;165.81;-4;-20.11;-2.40;587.6;12.90;75657;2836.266;-1759.188;1;146;-110;-112.9;43.8;44.0;18;18.5;25.6;0.0;
28/02/2025 14:33:53;100;0;166.23;-4;-19.83;-2.27;590.4;12.90;75666;2836.264;-1759.188;1;146;-110;-111.3;43.8;44.0;20;19.9;25.6;0.0;
28/02/2025 14:34:13;100;0;165.22;-4;-20.05;-1.70;593.0;12.80;75654;2836.262;-1759.187;1;146;-110;-112.9;43.8;44.0;18;18.1;25.6;0.0;
28/02/2025 14:34:33;100;0;165.65;-4;-20.13;-2.76;595.7;12.80;75655;2836.260;-1759.187;1;146;-110;-112.9;43.8;44.0;18;18.1;25.6;0.0;
28/02/2025 14:34:53;100;0;161.36;-4;-19.63;-2.89;598.4;12.80;75650;2836.259;-1759.186;1;146;-110;-112.9;43.8;44.0;15;14.4;25.6;0.0;
28/02/2025 14:35:13;100;0;159.38;-4;-19.77;-4.48;601.2;12.80;75647;2836.257;-1759.185;1;146;-110;-112.9;43.8;44.0;15;14.4;25.6;0.0;
28/02/2025 14:35:33;100;0;160.28;-4;-20.00;-4.55;603.7;12.70;75643;2836.256;-1759.185;1;146;-110;-112.9;43.8;44.0;15;14.4;25.6;0.0;
28/02/2025 14:35:53;100;0;158.57;-4;-19.85;-4.53;606.3;12.70;75637;2836.254;-1759.184;1;146;-110;-112.9;43.8;44.0;15;14.4;25.6;0.0;
28/02/2025 14:36:13;100;0;156.04;-4;-19.70;-4.44;609.1;12.70;75624;2836.253;-1759.183;1;146;-110;-111.3;43.8;44.0;15;14.4;25.6;0.0;
28/02/2025 14:36:33;100;0;154.38;-4;-19.68;-4.44;611.8;12.70;75627;2836.251;-1759.182;1;146;-110;-111.3;43.8;44.0;15;14.4;25.6;0.0;
28/02/2025 14:36:53;100;0;151.16;-4;-20.08;-4.37;614.4;12.60;75618;2836.250;-1759.180;1;146;-110;-112.9;43.8;44.0;15;14.4;25.6;0.0;
28/02/2025 14:37:13;100;0;149.29;-4;-19.73;-4.34;617.1;12.60;75613;2836.249;-1759.179;1;146;-110;-112.9;43.8;44.2;15;14.4;25.6;0.0;
28/02/2025 14:37:33;100;0;148.27;-4;-19.62;-4.41;619.7;12.60;75613;2836.247;-1759.177;1;146;-110;-111.3;43.8;44.0;15;14.4;25.6;0.0;
28/02/2025 14:37:53;100;0;147.89;-4;-19.26;-4.43;622.4;12.60;75606;2836.246;-1759.176;1;146;-110;-112.9;43.8;44.0;13;13.1;25.6;0.0;
28/02/2025 14:38:13;100;0;147.90;-4;-19.37;-5.11;624.9;12.60;75604;2836.245;-1759.174;1;146;-110;-112.9;43.8;44.0;13;13.1;25.6;0.0;
28/02/2025 14:38:33;100;0;149.16;-4;-19.28;-5.15;627.4;12.50;75603;2836.244;-1759.173;1;146;-110;-112.9;43.8;44.0;13;13.1;25.6;0.0;
28/02/2025 14:38:53;100;0;149.29;-4;-19.67;-5.02;630.1;12.50;75584;2836.242;-1759.171;1;146;-110;-111.3;43.8;44.0;13;13.1;25.6;0.0;
28/02/2025 14:39:13;100;0;146.91;-4;-19.98;-5.08;632.8;12.50;75587;2836.241;-1759.170;1;146;-110;-111.3;43.8;44.0;13;13.1;25.6;0.0;
28/02/2025 14:39:33;100;0;145.07;-4;-19.59;-5.05;635.6;12.50;75581;2836.240;-1759.168;1;146;-110;-112.9;43.8;44.0;13;13.1;25.6;0.0;
28/02/2025 14:39:53;100;0;145.65;-4;-19.79;-5.03;638.3;12.40;75569;2836.239;-1759.166;1;146;-110;-112.9;43.8;44.0;13;13.1;25.6;0.0;
28/02/2025 14:40:13;100;0;148.46;-4;-19.52;-4.98;641.0;12.40;75570;2836.237;-1759.165;1;146;-110;-112.9;43.8;44.0;13;13.1;25.6;0.0;
28/02/2025 14:40:33;100;0;152.72;-4;-19.66;-5.00;643.7;12.40;75547;2836.236;-1759.163;1;146;-110;-114.5;43.8;44.0;13;13.1;25.6;0.0;
28/02/2025 14:40:53;100;0;154.76;-4;-19.83;-4.97;646.4;12.30;75548;2836.234;-1759.162;1;146;-110;-112.9;43.8;44.0;13;13.1;25.6;0.0;
28/02/2025 14:41:13;100;0;156.46;-4;-19.49;-5.00;649.2;12.30;75542;2836.233;-1759.161;1;146;-110;-111.3;43.8;44.0;13;13.1;25.6;0.0;
28/02/2025 14:41:33;100;0;160.00;-4;-19.62;-4.98;652.0;12.30;75544;2836.231;-1759.160;1;146;-110;-111.3;43.8;44.0;15;14.9;25.6;0.0;
28/02/2025 14:41:53;100;0;165.73;-4;-19.70;-3.90;654.6;12.30;75532;2836.229;-1759.160;1;146;-110;-111.3;43.8;44.2;18;18.1;25.6;0.0;
28/02/2025 14:42:13;100;0;168.69;-4;-19.89;-2.32;657.3;12.30;75530;2836.228;-1759.160;1;146;-110;-112.9;43.8;44.0;21;21.7;25.6;0.0;
28/02/2025 14:42:33;100;0;162.21;-4;-19.61;-0.78;660.1;12.20;75500;2836.226;-1759.159;1;146;-110;-109.7;43.8;44.2;16;15.3;25.6;0.0;
28/02/2025 14:42:53;100;0;163.77;-4;-19.72;-3.93;662.7;12.20;75506;2836.224;-1759.158;1;146;-110;-112.9;43.8;44.0;16;15.3;25.6;0.0;
28/02/2025 14:43:13;100;0;157.79;-4;-18.90;-4.11;665.3;12.20;75505;2836.223;-1759.157;1;146;-110;-112.9;44.1;44.2;16;15.3;25.6;0.0;
28/02/2025 14:43:33;100;0;156.77;-4;-20.02;-4.05;667.9;12.20;75500;2836.221;-1759.157;1;146;-110;-112.9;44.1;44.5;16;15.3;25.6;0.0;
28/02/2025 14:43:53;100;0;156.19;-4;-20.39;-3.89;670.5;12.10;75492;2836.220;-1759.156;1;146;-110;-111.3;44.1;44.3;16;15.3;25.6;0.0;
28/02/2025 14:44:13;100;0;159.41;-4;-20.11;-3.94;673.3;12.10;75476;2836.218;-1759.155;1;146;-110;-111.3;44.1;44.5;16;15.3;25.6;0.0;
28/02/2025 14:44:33;100;0;158.76;-4;-19.99;-4.01;675.9;12.10;75468;2836.217;-1759.154;1;146;-110;-112.9;44.1;44.3;16;15.3;25.6;0.0;
28/02/2025 14:44:53;100;0;159.27;-4;-20.02;-3.96;678.3;12.00;75461;2836.216;-1759.153;1;146;-110;-111.3;44.1;44.3;16;15.3;25.6;0.0;
28/02/2025 14:45:13;100;0;160.12;-4;-20.06;-3.95;681.1;12.00;75463;2836.214;-1759.152;1;146;-110;-111.3;44.1;44.5;16;15.3;25.6;0.0;
28/02/2025 14:45:33;100;0;160.24;-4;-20.24;-4.02;683.5;12.00;75449;2836.213;-1759.152;1;146;-110;-112.9;44.1;44.5;16;15.3;25.6;0.0;
28/02/2025 14:45:53;100;0;157.62;-4;-19.86;-4.03;686.0;12.00;75438;2836.211;-1759.151;1;146;-110;-111.3;44.1;44.5;16;15.3;25.6;0.0;
28/02/2025 14:46:13;100;0;156.04;-4;-19.92;-3.98;688.8;11.90;75434;2836.210;-1759.150;1;146;-110;-112.9;44.1;44.5;16;15.3;25.6;0.0;
28/02/2025 14:46:33;100;0;154.34;-4;-19.61;-3.93;691.3;11.90;75430;2836.208;-1759.149;1;146;-110;-111.3;44.1;44.3;16;15.3;25.6;0.0;
28/02/2025 14:46:53;100;0;152.36;-4;-19.70;-3.92;693.7;11.90;75424;2836.207;-1759.148;1;146;-110;-111.3;44.1;44.5;14;14.0;25.6;0.0;
28/02/2025 14:47:13;100;0;151.12;-4;-19.63;-4.72;696.2;11.90;75418;2836.206;-1759.146;1;146;-110;-111.3;44.1;44.6;14;14.0;25.6;0.0;
28/02/2025 14:47:33;100;0;149.98;-4;-19.72;-4.63;698.8;11.80;75417;2836.205;-1759.145;1;146;-110;-112.9;44.1;44.5;14;14.0;25.6;0.0;
28/02/2025 14:47:53;100;0;146.65;-4;-19.86;-4.60;701.2;11.80;75415;2836.204;-1759.144;1;146;-110;-112.9;44.1;44.5;12;12.2;25.6;0.0;
28/02/2025 14:48:13;100;0;141.81;-4;-19.74;-5.65;703.6;11.80;75408;2836.203;-1759.142;1;146;-110;-111.3;44.1;44.5;7;7.2;25.6;0.0;
28/02/2025 14:48:33;100;0;139.69;-4;-19.71;-8.13;705.9;11.80;75399;2836.203;-1759.140;1;146;-110;-111.3;44.1;44.5;2;1.8;25.6;0.0;
28/02/2025 14:48:53;100;0;140.80;-4;-19.58;-10.70;708.3;11.80;75394;2836.202;-1759.139;1;146;-110;-112.9;44.1;44.3;5;5.0;25.6;0.0;
28/02/2025 14:49:13;100;0;145.11;-4;-19.54;-8.98;710.8;11.70;75382;2836.201;-1759.137;1;146;-110;-112.9;44.1;44.5;10;9.9;25.6;0.0;
28/02/2025 14:49:34;100;0;148.26;-4;-19.88;-6.53;713.2;11.70;75375;2836.200;-1759.136;1;146;-110;-111.3;44.1;44.5;13;13.1;25.6;0.0;
28/02/2025 14:49:54;100;0;149.69;-4;-19.97;-4.80;715.7;11.70;75368;2836.199;-1759.134;1;146;-110;-111.3;44.1;44.3;13;13.5;25.6;0.0;
28/02/2025 14:50:14;100;0;150.56;-4;-19.98;-4.72;718.3;11.70;75377;2836.198;-1759.133;1;146;-110;-111.3;44.1;44.5;13;13.5;25.6;0.0;
28/02/2025 14:50:34;100;0;151.44;-4;-19.97;-4.87;720.9;11.60;75365;2836.196;-1759.132;1;146;-110;-112.9;44.1;44.5;13;13.5;25.6;0.0;
28/02/2025 14:50:54;100;0;153.24;-4;-20.19;-4.59;723.5;11.60;75353;2836.195;-1759.131;1;146;-110;-112.9;44.1;44.5;13;13.5;25.6;0.0;
28/02/2025 14:51:14;100;0;154.31;-4;-20.30;-4.69;726.1;11.60;75357;2836.194;-1759.130;1;146;-110;-111.3;44.1;44.5;13;13.5;25.6;0.0;
28/02/2025 14:51:34;100;0;158.56;-4;-19.79;-4.75;728.6;11.50;75352;2836.192;-1759.129;1;146;-110;-112.9;44.1;44.5;13;13.5;25.6;0.0;
28/02/2025 14:51:54;100;0;159.43;-4;-20.01;-4.73;731.1;11.50;75351;2836.191;-1759.128;1;146;-110;-112.9;44.1;44.5;15;14.9;25.6;0.0;
28/02/2025 14:52:14;100;0;160.74;-4;-20.35;-3.90;733.8;11.50;75341;2836.189;-1759.127;1;146;-110;-111.3;44.1;44.5;15;15.3;25.6;0.0;
28/02/2025 14:52:34;100;0;160.91;-4;-20.12;-3.89;736.6;11.50;75355;2836.188;-1759.126;1;146;-110;-112.9;44.1;44.5;15;15.3;25.6;0.0;
28/02/2025 14:52:54;100;0;160.71;-4;-20.14;-3.90;739.3;11.40;75344;2836.186;-1759.126;1;146;-110;-112.9;44.1;44.5;15;15.3;25.6;0.0;
28/02/2025 14:53:14;100;0;159.76;-4;-20.25;-3.91;742.2;11.40;75347;2836.184;-1759.125;1;146;-110;-111.3;44.1;44.5;15;15.3;25.6;0.0;
28/02/2025 14:53:34;100;0;163.39;-4;-20.27;-3.92;745.0;11.40;75341;2836.182;-1759.124;1;146;-110;-112.9;44.1;44.5;15;15.3;25.6;0.0;
28/02/2025 14:53:54;100;0;166.01;-4;-20.06;-3.83;747.7;11.40;75333;2836.181;-1759.124;1;146;-110;-112.9;44.1;44.5;18;18.1;25.6;0.0;
28/02/2025 14:54:14;100;0;167.43;-4;-19.94;-2.32;750.6;11.40;75331;2836.179;-1759.123;1;146;-110;-111.3;44.1;44.5;23;23.0;25.6;0.0;
28/02/2025 14:54:34;100;0;168.33;-4;-20.59;0.10;753.5;11.30;75327;2836.177;-1759.123;1;146;-110;-111.3;44.1;44.5;23;23.5;25.6;0.0;
28/02/2025 14:54:54;100;0;165.66;-4;-21.14;0.18;756.2;11.30;75325;2836.175;-1759.123;1;146;-110;-111.3;44.1;44.3;18;18.1;25.6;0.0;
28/02/2025 14:55:14;100;0;167.02;-4;-19.94;-2.99;759.1;11.30;75315;2836.173;-1759.122;1;146;-110;-112.9;44.1;44.3;21;21.2;25.6;0.0;
28/02/2025 14:55:34;100;0;166.86;-4;-19.52;-0.85;762.1;11.30;75317;2836.171;-1759.122;1;146;-110;-111.3;44.1;44.5;21;21.2;25.6;0.0;
28/02/2025 14:55:54;100;0;162.50;-4;-19.83;-1.06;764.8;11.20;75309;2836.170;-1759.121;1;146;-110;-112.9;44.1;44.3;16;15.8;25.6;0.0;
28/02/2025 14:56:14;100;0;160.79;-4;-20.07;-3.94;767.5;11.20;75316;2836.168;-1759.120;1;146;-110;-112.9;44.1;44.5;16;15.8;25.6;0.0;
28/02/2025 14:56:34;100;0;160.46;-4;-20.11;-3.81;770.3;11.20;75302;2836.166;-1759.120;1;146;-110;-111.3;44.1;44.3;16;15.8;25.6;0.0;
28/02/2025 14:56:54;100;0;159.43;-4;-20.20;-3.95;773.1;11.20;75304;2836.165;-1759.119;1;146;-110;-112.9;44.1;44.3;16;15.8;25.6;0.0;
28/02/2025 14:57:14;100;0;159.31;-4;-19.72;-3.90;775.9;11.20;75297;2836.163;-1759.118;1;146;-110;-111.3;44.1;44.5;16;15.8;25.6;0.0;
28/02/2025 14:57:34;100;0;157.94;-4;-19.68;-3.90;778.9;11.10;75290;2836.161;-1759.117;1;146;-110;-111.3;44.1;44.5;16;15.3;25.6;0.0;
28/02/2025 14:57:54;100;0;157.54;-4;-19.89;-3.92;781.7;11.10;75299;2836.159;-1759.116;1;146;-110;-114.5;44.1;44.3;16;15.8;25.6;0.0;
28/02/2025 14:58:14;100;0;157.64;-4;-19.85;-3.89;784.6;11.10;75286;2836.157;-1759.115;1;146;-110;-112.9;44.1;44.5;16;15.8;25.6;0.0;
28/02/2025 14:58:34;100;0;158.46;-4;-19.90;-3.90;787.4;11.10;75290;2836.156;-1759.114;1;146;-110;-111.3;44.1;44.5;16;15.8;25.6;0.0;
28/02/2025 14:58:54;100;0;159.23;-4;-19.73;-3.82;790.3;11.10;75290;2836.154;-1759.113;1;146;-110;-112.9;44.1;44.5;16;15.8;25.6;0.0;
28/02/2025 14:59:14;100;0;160.82;-4;-19.77;-3.78;793.2;11.00;75283;2836.152;-1759.112;1;146;-110;-112.9;44.1;44.3;16;15.8;25.6;0.0;
28/02/2025 14:59:34;100;0;161.50;-4;-19.79;-3.93;796.1;11.00;75279;2836.150;-1759.111;1;146;-110;-111.3;44.1;44.5;16;15.8;25.6;0.0;
28/02/2025 14:59:54;100;0;162.54;-4;-19.80;-3.90;798.8;11.00;75278;2836.149;-1759.110;1;146;-110;-112.9;44.1;44.5;16;15.8;25.6;0.0;
28/02/2025 15:00:14;100;0;163.56;-4;-19.69;-3.86;801.7;11.00;75267;2836.147;-1759.110;1;146;-110;-111.3;44.1;44.5;18;18.1;25.6;0.0;
28/02/2025 15:00:34;100;0;163.29;-4;-19.90;-2.53;804.4;11.00;75265;2836.145;-1759.109;1;146;-110;-112.9;44.1;44.5;18;18.1;25.6;0.0;
28/02/2025 15:00:54;100;0;161.62;-4;-20.16;-2.59;807.1;11.00;75271;2836.143;-1759.108;1;146;-110;-112.9;44.1;44.5;16;15.8;25.6;0.0;
28/02/2025 15:01:14;100;0;159.87;-4;-19.85;-3.77;809.8;10.90;75260;2836.142;-1759.108;1;146;-110;-111.3;44.1;44.5;16;15.8;25.6;0.0;
28/02/2025 15:01:34;100;0;158.84;-4;-19.71;-3.80;812.5;10.90;75258;2836.140;-1759.107;1;146;-110;-111.3;44.1;44.5;16;15.8;25.6;0.0;
28/02/2025 15:01:54;100;0;161.09;-4;-19.78;-3.82;815.3;10.90;75249;2836.138;-1759.106;1;146;-110;-112.9;44.1;44.5;16;15.8;25.6;0.0;
28/02/2025 15:02:14;100;0;165.83;-4;-19.75;-3.70;818.0;10.90;75252;2836.137;-1759.106;1;146;-110;-112.9;44.1;44.5;19;19.4;25.6;0.0;
28/02/2025 15:02:34;100;0;166.20;-4;-19.71;-1.81;820.6;10.90;75250;2836.135;-1759.105;1;146;-110;-112.9;44.1;44.3;19;19.4;25.6;0.0;
28/02/2025 15:02:54;100;0;166.83;-4;-20.08;-1.83;823.2;10.80;75232;2836.134;-1759.105;1;146;-110;-111.3;44.1;44.5;19;19.9;25.6;0.0;
28/02/2025 15:03:14;100;0;166.16;-4;-19.99;-1.90;825.9;10.80;75225;2836.132;-1759.104;1;146;-110;-111.3;44.1;44.3;19;19.4;25.6;0.0;
28/02/2025 15:03:34;100;0;164.65;-4;-19.94;-1.81;828.5;10.80;75228;2836.130;-1759.104;1;146;-110;-111.3;44.1;44.5;19;19.4;25.6;0.0;
28/02/2025 15:03:54;100;0;166.04;-4;-19.54;-1.75;831.2;10.80;75234;2836.129;-1759.104;1;146;-110;-111.3;44.1;44.5;19;19.4;25.6;0.0;
28/02/2025 15:04:14;100;0;168.11;-4;-20.10;-1.82;833.8;10.80;75230;2836.127;-1759.103;1;146;-110;-111.3;44.1;44.5;22;22.1;25.6;0.0;
28/02/2025 15:04:34;100;0;165.76;-4;-20.13;-0.60;836.4;10.70;75225;2836.125;-1759.103;1;146;-110;-114.5;44.1;44.5;19;19.0;25.6;0.0;
28/02/2025 15:04:54;100;0;166.24;-4;-20.04;-2.39;839.2;10.70;75223;2836.124;-1759.102;1;146;-110;-111.3;44.1;44.5;19;18.5;25.6;0.0;
28/02/2025 15:05:14;100;0;166.71;-4;-19.84;-2.32;842.0;10.70;75214;2836.122;-1759.102;1;146;-110;-111.3;44.1;44.5;19;18.5;25.6;0.0;
28/02/2025 15:05:34;100;0;165.92;-4;-20.10;-2.37;845.0;10.70;75220;2836.120;-1759.102;1;146;-110;-112.9;44.1;44.3;21;21.2;25.6;0.0;
28/02/2025 15:05:54;100;0;166.31;-4;-20.23;-1.15;847.9;10.70;75218;2836.118;-1759.101;1;146;-110;-111.3;44.1;44.5;21;21.7;25.6;0.0;
28/02/2025 15:06:14;100;0;165.23;-4;-19.75;-0.91;850.9;10.60;75212;2836.116;-1759.101;1;146;-110;-111.3;44.1;44.5;21;21.2;25.6;0.0;
28/02/2025 15:06:34;100;0;165.03;-4;-20.10;-0.82;853.7;10.60;75212;2836.114;-1759.100;1;146;-110;-111.3;44.1;44.5;21;21.7;25.6;0.0;
28/02/2025 15:06:54;100;0;163.52;-4;-20.09;-0.82;856.7;10.60;75208;2836.112;-1759.099;1;146;-110;-111.3;44.1;44.5;18;18.1;25.6;0.0;
28/02/2025 15:07:14;100;0;163.07;-4;-19.74;-2.84;859.7;10.60;75211;2836.110;-1759.099;1;146;-110;-111.3;44.1;44.3;18;17.6;25.6;0.0;
28/02/2025 15:07:34;100;0;158.05;-4;-19.56;-2.84;862.4;10.60;75201;2836.108;-1759.098;1;146;-110;-111.3;44.1;44.5;16;15.8;25.6;0.0;
28/02/2025 15:07:54;100;0;153.03;-4;-19.32;-3.83;865.2;10.60;75205;2836.107;-1759.096;1;146;-110;-111.3;44.1;44.5;16;15.8;25.6;0.0;
28/02/2025 15:08:14;100;0;152.39;-4;-19.68;-3.79;867.9;10.60;75210;2836.105;-1759.095;1;146;-110;-111.3;44.1;44.3;16;15.8;25.6;0.0;
28/02/2025 15:08:34;100;0;151.10;-4;-19.22;-3.93;870.5;10.50;75190;2836.104;-1759.094;1;146;-110;-112.9;44.1;44.5;16;15.8;25.6;0.0;
28/02/2025 15:08:54;100;0;147.18;-4;-19.65;-3.85;873.1;10.50;75180;2836.103;-1759.092;1;146;-110;-111.3;44.1;44.3;14;14.0;25.6;0.0;
28/02/2025 15:09:14;100;0;144.11;-4;-19.77;-4.64;875.8;10.50;75183;2836.102;-1759.090;1;146;-110;-112.9;44.1;44.5;12;12.2;25.6;0.0;
28/02/2025 15:09:34;100;0;143.48;-4;-19.41;-5.35;878.5;10.50;75186;2836.100;-1759.088;1;146;-110;-111.3;44.1;44.5;12;12.6;25.6;0.0;
28/02/2025 15:09:54;100;0;144.29;-4;-19.25;-5.39;881.0;10.40;75172;2836.099;-1759.087;1;146;-110;-112.9;44.1;44.5;12;12.6;25.6;0.0;
28/02/2025 15:10:14;100;0;146.31;-4;-19.29;-5.41;883.8;10.40;75172;2836.098;-1759.085;1;146;-110;-111.3;44.1;44.5;14;14.0;25.6;0.0;
28/02/2025 15:10:34;100;0;145.49;-4;-19.21;-4.55;886.3;10.40;75175;2836.097;-1759.083;1;146;-110;-111.3;44.1;44.3;14;14.0;25.6;0.0;
28/02/2025 15:10:54;100;0;143.79;-4;-19.15;-4.55;888.7;10.40;75176;2836.096;-1759.082;1;146;-110;-111.3;44.1;44.5;11;10.8;25.6;0.0;
28/02/2025 15:11:14;100;0;144.92;-4;-19.03;-5.88;891.3;10.40;75159;2836.095;-1759.080;1;146;-110;-111.3;44.1;44.5;11;11.3;25.6;0.0;
28/02/2025 15:11:34;100;0;145.58;-4;-19.27;-5.95;893.9;10.40;75159;2836.093;-1759.078;1;146;-110;-112.9;44.1;44.5;13;13.1;25.6;0.0;
28/02/2025 15:11:54;100;0;144.35;-4;-19.39;-4.88;896.4;10.40;75159;2836.092;-1759.077;1;146;-110;-111.3;44.1;44.5;13;13.5;25.6;0.0;
28/02/2025 15:12:14;100;0;142.75;-4;-19.23;-4.87;899.0;10.30;75156;2836.091;-1759.075;1;146;-110;-111.3;44.1;44.5;10;9.9;25.6;0.0;
28/02/2025 15:12:34;100;0;141.79;-4;-19.06;-6.68;901.4;10.30;75148;2836.090;-1759.073;1;146;-110;-112.9;44.1;44.5;10;9.9;25.6;0.0;
28/02/2025 15:12:54;100;0;142.94;-4;-19.31;-6.78;904.1;10.30;75149;2836.089;-1759.071;1;146;-110;-111.3;44.1;44.5;10;9.9;25.6;0.0;
28/02/2025 15:13:14;100;0;140.70;-4;-19.31;-6.76;906.7;10.30;75139;2836.088;-1759.069;1;146;-110;-112.9;44.1;44.3;7;7.2;25.6;0.0;
28/02/2025 15:13:34;100;0;143.84;-4;-18.54;-8.10;909.2;10.30;75137;2836.087;-1759.068;1;146;-110;-111.3;44.6;44.8;11;10.8;25.6;0.0;
28/02/2025 15:13:54;100;0;145.42;-4;-19.71;-5.84;911.7;10.30;75143;2836.086;-1759.066;1;146;-110;-112.9;44.6;44.8;11;11.3;25.6;0.0;
28/02/2025 15:14:14;100;0;147.30;-4;-19.60;-5.98;914.4;10.30;75149;2836.085;-1759.064;1;146;-110;-111.3;44.6;44.9;14;14.0;25.6;0.0;
28/02/2025 15:14:34;100;0;148.33;-4;-20.02;-4.62;917.0;10.20;75136;2836.084;-1759.063;1;146;-110;-114.5;44.6;44.9;14;14.0;25.6;0.0;
28/02/2025 15:14:54;100;0;150.16;-4;-20.02;-4.52;919.6;10.20;75145;2836.082;-1759.062;1;146;-110;-112.9;44.6;44.9;14;14.4;25.6;0.0;
28/02/2025 15:15:14;100;0;150.87;-4;-19.78;-4.47;922.1;10.20;75137;2836.081;-1759.060;1;146;-110;-112.9;44.6;44.9;14;14.4;25.6;0.0;
28/02/2025 15:15:34;100;0;150.66;-4;-20.58;-4.60;924.6;10.20;75139;2836.080;-1759.059;1;146;-110;-111.3;44.6;44.8;14;14.0;25.6;0.0;
28/02/2025 15:15:54;100;0;150.43;-4;-19.81;-4.47;927.2;10.20;75125;2836.079;-1759.058;1;146;-110;-112.9;44.6;44.8;14;14.4;25.6;0.0;
28/02/2025 15:16:14;100;0;150.65;-4;-19.61;-4.43;929.6;10.20;75126;2836.078;-1759.057;1;146;-110;-112.9;44.6;44.8;14;14.0;25.6;0.0;
28/02/2025 15:16:34;100;0;153.88;-4;-20.30;-4.50;932.1;10.20;75130;2836.077;-1759.056;1;146;-110;-111.3;44.6;44.8;14;14.0;25.6;0.0;
28/02/2025 15:16:54;100;0;154.71;-4;-19.58;-4.59;934.4;10.10;75114;2836.076;-1759.055;1;146;-110;-111.3;44.6;44.9;14;14.0;25.6;0.0;
28/02/2025 15:17:14;100;0;155.02;-4;-19.75;-4.46;936.8;10.10;75110;2836.075;-1759.054;1;146;-110;-111.3;44.6;44.9;14;14.4;25.6;0.0;
28/02/2025 15:17:34;100;0;155.99;-4;-19.95;-4.53;938.8;10.10;75120;2836.074;-1759.053;1;146;-110;-112.9;44.6;44.8;14;14.0;25.6;0.0;
28/02/2025 15:17:54;100;0;155.71;-4;-19.79;-4.54;941.0;10.10;75119;2836.073;-1759.052;1;146;-110;-111.3;44.6;44.8;14;14.4;25.6;0.0;
28/02/2025 15:18:14;100;0;156.51;-4;-19.96;-4.47;943.1;10.10;75106;2836.072;-1759.052;1;146;-110;-114.5;44.6;44.9;14;14.0;25.6;0.0;
28/02/2025 15:18:34;100;0;155.51;-4;-19.90;-4.55;945.1;10.10;75120;2836.072;-1759.051;1;146;-110;-111.3;44.6;44.9;14;14.0;25.6;0.0;
28/02/2025 15:18:54;100;0;155.43;-4;-20.03;-4.56;947.1;10.10;75118;2836.071;-1759.050;1;146;-130;-132.3;44.6;44.9;14;14.4;25.6;0.0;
28/02/2025 15:19:14;100;0;152.70;-4;-19.95;-4.48;949.3;10.00;75163;2836.070;-1759.049;1;146;-130;-133.9;44.6;44.8;14;14.0;25.6;0.0;
28/02/2025 15:19:34;100;0;153.49;-4;-19.81;-4.35;951.6;10.00;75166;2836.069;-1759.048;1;146;-130;-133.9;44.6;44.9;14;14.0;25.6;0.0;
28/02/2025 15:19:54;100;0;153.68;-4;-19.64;-4.47;954.0;10.00;75159;2836.068;-1759.047;1;146;-130;-133.9;44.6;44.8;14;14.0;25.6;0.0;
28/02/2025 15:20:14;100;0;154.34;-4;-19.70;-4.41;956.2;10.00;75150;2836.067;-1759.047;1;146;-130;-135.5;44.6;44.8;14;14.0;25.6;0.0;
28/02/2025 15:20:34;100;0;153.95;-4;-19.79;-4.43;958.6;10.00;75151;2836.066;-1759.046;1;146;-130;-133.9;44.6;44.8;14;14.0;25.6;0.0;
28/02/2025 15:20:54;100;0;154.82;-4;-19.80;-4.45;960.8;10.00;75157;2836.065;-1759.045;1;146;-130;-133.9;44.6;44.8;14;14.0;25.6;0.0;
28/02/2025 15:21:14;100;0;155.11;-4;-19.81;-4.43;963.2;10.00;75146;2836.064;-1759.044;1;146;-130;-133.9;44.6;44.8;14;14.0;25.6;0.0;
28/02/2025 15:21:34;100;0;155.40;-4;-19.87;-4.39;965.7;9.90;75141;2836.063;-1759.043;1;146;-130;-135.5;44.6;44.9;14;14.0;25.6;0.0;
28/02/2025 15:21:54;100;0;155.64;-4;-19.81;-4.44;968.1;9.90;75162;2836.061;-1759.042;1;146;-130;-132.3;44.6;44.9;14;14.4;25.6;0.0;
28/02/2025 15:22:14;100;0;155.20;-4;-19.83;-4.40;970.5;9.90;75141;2836.060;-1759.041;1;146;-130;-133.9;44.6;44.8;14;14.0;25.6;0.0;
28/02/2025 15:22:34;100;0;155.51;-4;-19.79;-4.39;973.2;9.90;75153;2836.059;-1759.040;1;146;-130;-133.9;44.6;44.9;14;14.0;25.6;0.0;
28/02/2025 15:22:54;100;0;154.55;-4;-19.59;-4.45;975.5;9.90;75149;2836.058;-1759.039;1;146;-130;-132.3;44.6;44.9;14;14.0;25.6;0.0;
28/02/2025 15:23:14;100;0;152.99;-4;-19.77;-4.45;977.8;9.90;75150;2836.057;-1759.038;1;146;-130;-133.9;44.6;44.8;14;14.4;25.6;0.0;
28/02/2025 15:23:34;100;0;154.48;-4;-19.60;-4.30;980.2;9.90;75137;2836.056;-1759.037;1;146;-130;-137.1;44.6;44.8;14;14.0;25.6;0.0;
28/02/2025 15:23:54;100;0;156.03;-4;-19.98;-4.44;982.6;9.90;75140;2836.055;-1759.036;1;146;-130;-132.3;44.6;44.8;14;14.0;25.6;0.0;
28/02/2025 15:24:14;100;0;158.68;-4;-19.45;-4.35;985.0;9.90;75135;2836.053;-1759.035;1;146;-130;-132.3;44.6;44.8;14;14.4;25.6;0.0;
28/02/2025 15:24:34;100;0;160.15;-4;-19.54;-4.50;987.3;9.80;75136;2836.052;-1759.035;1;146;-130;-133.9;44.6;44.8;14;14.4;25.6;0.0;
28/02/2025 15:24:54;100;0;161.10;-4;-19.59;-4.42;989.8;9.80;75134;2836.051;-1759.034;1;146;-130;-133.9;44.6;44.8;14;14.0;25.6;0.0;
28/02/2025 15:25:15;100;0;161.78;-4;-19.63;-4.44;992.2;9.80;75132;2836.049;-1759.034;1;146;-130;-135.5;44.6;44.8;16;15.8;25.6;0.0;
28/02/2025 15:25:35;100;0;161.27;-4;-19.81;-3.67;994.6;9.80;75133;2836.048;-1759.033;1;146;-130;-133.9;44.6;44.8;16;15.8;25.6;0.0;
28/02/2025 15:25:55;100;0;161.31;-4;-19.77;-3.67;997.0;9.80;75130;2836.047;-1759.032;1;146;-130;-133.9;44.6;44.9;16;15.8;25.6;0.0;
28/02/2025 15:26:11;118;0;161.74;-4;-19.68;-3.66;999.0;9.80;75133;2836.046;-1759.032;1;146;450;-130.6;22.5;22.4;7;7.2;25.6;0.0;
28/02/2025 15:26:21;118;0;122.92;-4;-5.46;-8.98;1000.0;9.80;75109;2836.046;-1759.031;1;146;450;-4.8;22.5;22.2;7;7.2;24.1;-1.0;
28/02/2025 15:26:31;118;0;103.21;-4;21.19;-8.85;1000.0;9.80;74844;2836.047;-1759.031;1;146;450;121.0;22.5;22.5;7;7.2;24.2;-1.0;
28/02/2025 15:26:41;118;0;97.88;-4;28.40;-8.98;999.2;9.80;74584;2836.047;-1759.030;1;146;450;245.2;22.5;22.7;7;7.2;24.1;-1.0;
28/02/2025 15:26:51;118;0;98.40;-4;27.14;-8.74;998.1;9.80;74339;2836.048;-1759.029;1;146;450;366.1;22.5;22.7;7;6.8;24.2;-1.0;
28/02/2025 15:27:01;118;0;100.40;-4;24.74;-7.99;996.5;9.80;74097;2836.048;-1759.028;1;146;450;451.6;22.5;22.7;7;7.2;24.0;-1.0;
28/02/2025 15:27:11;118;0;155.30;-4;21.82;-7.50;994.9;9.80;73919;2836.048;-1759.027;1;146;450;451.6;22.5;22.7;7;7.2;25.5;-1.0;
28/02/2025 15:27:21;118;0;152.50;-4;20.02;-7.63;993.2;9.90;73928;2836.047;-1759.026;1;146;450;453.2;22.5;22.7;7;7.2;25.5;-1.0;
28/02/2025 15:27:41;117;0;145.53;-4;18.36;-7.64;990.2;9.90;73922;2836.045;-1759.024;1;146;450;453.2;22.5;22.7;7;7.2;25.6;-1.0;
28/02/2025 15:28:01;117;0;137.28;-4;17.93;-7.54;986.8;9.90;73928;2836.043;-1759.021;1;146;450;453.2;21.9;21.4;39;38.8;25.6;-1.0;
28/02/2025 15:28:21;117;0;140.35;-4;20.70;8.86;983.8;10.00;73921;2836.042;-1759.019;1;146;450;453.2;21.9;21.9;36;36.1;25.6;-1.0;
28/02/2025 15:28:41;117;0;143.60;-4;22.09;7.38;980.2;10.00;73912;2836.040;-1759.017;1;146;450;453.2;22.6;22.7;32;31.6;25.6;-1.0;
28/02/2025 15:29:01;117;0;144.64;-4;21.04;4.94;976.6;10.00;73919;2836.038;-1759.014;1;146;450;453.2;22.6;22.7;32;31.6;25.6;-1.0;
28/02/2025 15:29:21;117;0;146.40;-4;20.62;4.99;973.0;10.00;73914;2836.036;-1759.012;1;146;450;453.2;22.6;22.8;30;29.8;25.6;-1.0;
28/02/2025 15:29:41;117;0;147.37;-4;20.52;3.75;969.6;10.00;73916;2836.034;-1759.010;1;146;450;451.6;22.6;22.7;30;29.8;25.6;-1.0;
28/02/2025 15:30:01;117;0;148.54;-4;20.28;3.90;966.2;10.00;73916;2836.032;-1759.008;1;146;450;453.2;22.6;22.8;30;29.8;25.6;-1.0;
28/02/2025 15:30:21;117;0;150.17;-4;20.62;3.89;962.7;10.00;73904;2836.030;-1759.006;1;146;450;453.2;22.6;22.8;30;29.3;25.6;-1.0;
28/02/2025 15:30:41;117;0;151.22;-4;20.33;3.97;959.4;10.00;73896;2836.028;-1759.004;1;146;450;453.2;22.6;22.7;30;29.8;25.6;-1.0;
28/02/2025 15:31:01;117;0;151.77;-4;20.09;3.71;955.9;10.00;73910;2836.026;-1759.002;1;146;450;453.2;22.6;22.7;30;29.8;25.6;-1.0;
28/02/2025 15:31:21;117;0;152.84;-4;20.43;3.93;952.5;9.90;73905;2836.023;-1759.001;1;146;450;453.2;22.6;22.7;30;29.8;25.6;-1.0;
28/02/2025 15:31:41;117;0;154.34;-4;20.13;3.80;948.9;9.90;73903;2836.021;-1758.999;1;146;450;451.6;22.6;22.8;30;29.8;25.6;-1.0;
28/02/2025 15:32:01;117;0;155.47;-4;20.65;3.90;945.6;9.90;73896;2836.019;-1758.998;1;146;450;450.0;22.6;22.8;30;29.8;25.6;-1.0;
28/02/2025 15:32:21;117;0;156.10;-4;20.29;3.87;942.2;9.90;73885;2836.017;-1758.996;1;146;450;453.2;22.6;22.7;30;29.8;25.6;-1.0;
28/02/2025 15:32:41;117;0;157.08;-4;20.50;4.10;938.9;9.90;73886;2836.015;-1758.995;1;146;450;453.2;22.6;22.8;30;29.8;25.6;-1.0;
28/02/2025 15:33:01;117;0;157.30;-4;20.54;3.83;935.7;9.90;73879;2836.012;-1758.994;1;146;450;453.2;22.6;22.7;30;29.8;25.6;-1.0;
28/02/2025 15:33:21;117;0;158.64;-4;20.47;3.83;932.2;9.90;73880;2836.010;-1758.992;1;146;450;451.6;22.6;22.7;30;29.8;25.6;-1.0;
28/02/2025 15:33:41;117;0;159.44;-4;20.33;3.86;928.7;9.90;73880;2836.007;-1758.991;1;146;450;453.2;22.6;22.7;28;26.6;25.6;-1.0;
28/02/2025 15:34:01;117;0;159.45;-4;20.08;3.06;925.4;9.90;73878;2836.005;-1758.990;1;146;450;453.2;22.6;22.8;28;28.0;25.6;-1.0;
28/02/2025 15:34:21;117;0;159.64;-4;20.06;2.98;922.2;9.80;73865;2836.003;-1758.989;1;146;450;453.2;22.6;22.7;28;28.0;25.6;-1.0;
28/02/2025 15:34:41;117;0;160.34;-4;20.35;3.22;918.8;9.80;73868;2836.000;-1758.988;1;146;450;453.2;22.6;22.7;28;28.0;25.6;-1.0;
28/02/2025 15:35:01;117;0;160.68;-4;19.94;2.98;915.5;9.80;73874;2835.998;-1758.987;1;146;450;453.2;22.6;22.8;28;28.0;25.6;-1.0;
28/02/2025 15:35:21;117;0;160.86;-4;20.33;3.05;912.2;9.80;73872;2835.996;-1758.986;1;146;450;451.6;22.6;22.8;28;28.0;25.6;-1.0;
28/02/2025 15:35:41;117;0;163.32;-4;20.31;2.88;908.9;9.80;73859;2835.993;-1758.985;1;146;450;453.2;22.6;22.8;26;25.7;25.6;-1.0;
28/02/2025 15:36:01;117;0;164.31;-4;19.99;2.36;905.5;9.80;73860;2835.991;-1758.984;1;146;450;453.2;22.6;22.8;26;26.6;25.6;-1.0;
28/02/2025 15:36:21;117;0;165.06;-4;19.83;2.27;902.1;9.80;73863;2835.988;-1758.983;1;146;450;453.2;22.6;22.8;24;23.9;25.6;-1.0;
28/02/2025 15:36:41;117;0;164.21;-4;19.69;0.85;898.8;9.80;73869;2835.986;-1758.982;1;146;450;453.2;22.6;22.8;24;23.9;25.6;-1.0;
28/02/2025 15:37:01;117;0;162.94;-4;19.57;0.81;895.5;9.80;73858;2835.983;-1758.982;1;146;450;454.8;22.6;22.7;26;26.2;25.6;-1.0;
28/02/2025 15:37:21;117;0;163.42;-4;19.76;2.42;892.2;9.70;73867;2835.981;-1758.981;1;146;450;453.2;22.6;22.8;26;26.6;25.6;-1.0;
28/02/2025 15:37:41;117;0;163.52;-4;19.78;2.35;889.1;9.70;73856;2835.979;-1758.980;1;146;450;453.2;22.6;22.8;26;26.6;25.6;-1.0;
28/02/2025 15:38:01;117;0;163.94;-4;19.84;2.33;885.9;9.70;73853;2835.977;-1758.979;1;146;450;453.2;22.6;22.8;26;26.6;25.6;-1.0;
28/02/2025 15:38:21;117;0;163.92;-4;19.68;2.41;882.7;9.70;73843;2835.974;-1758.978;1;146;450;453.2;22.6;22.7;26;26.6;25.6;-1.0;
28/02/2025 15:38:41;117;0;164.56;-4;19.75;2.34;879.7;9.70;73864;2835.972;-1758.978;1;146;450;453.2;22.6;22.8;26;26.6;25.6;-1.0;
28/02/2025 15:39:01;117;0;165.36;-4;19.88;2.61;876.6;9.70;73844;2835.970;-1758.977;1;146;450;453.2;22.6;22.8;24;23.9;25.6;-1.0;
28/02/2025 15:39:21;117;0;164.72;-4;19.59;0.87;873.6;9.70;73850;2835.968;-1758.977;1;146;450;453.2;22.6;22.8;24;23.5;25.6;-1.0;
28/02/2025 15:39:41;117;0;162.27;-4;19.60;0.91;870.6;9.70;73853;2835.966;-1758.976;1;146;450;453.2;22.6;22.7;27;27.5;25.6;-1.0;
28/02/2025 15:40:01;117;0;161.65;-4;19.64;3.04;867.7;9.70;73839;2835.964;-1758.975;1;146;450;453.2;22.6;22.8;27;28.0;25.6;-1.0;
28/02/2025 15:40:21;117;0;163.19;-4;19.70;3.01;864.7;9.70;73845;2835.962;-1758.974;1;146;450;453.2;22.6;22.8;27;27.5;25.6;-1.0;
28/02/2025 15:40:41;117;0;161.84;-4;20.11;3.03;861.8;9.70;73846;2835.960;-1758.974;1;146;450;453.2;22.6;22.8;27;28.0;25.6;-1.0;
28/02/2025 15:41:01;117;0;160.17;-4;21.24;2.78;858.6;9.70;73849;2835.958;-1758.973;1;146;450;451.6;22.6;22.8;27;28.0;25.6;-1.0;
28/02/2025 15:41:21;117;0;160.05;-4;20.03;2.87;855.2;9.70;73846;2835.956;-1758.971;1;146;450;453.2;22.6;22.8;27;28.0;25.6;-1.0;
28/02/2025 15:41:41;117;0;158.38;-4;19.96;3.10;852.0;9.70;73849;2835.954;-1758.970;1;146;450;453.2;22.6;22.8;27;28.0;25.6;-1.0;
28/02/2025 15:42:01;117;0;158.32;-4;19.70;3.03;848.8;9.60;73840;2835.951;-1758.969;1;146;450;453.2;22.6;22.8;27;28.0;25.6;-1.0;
28/02/2025 15:42:21;117;0;159.16;-4;19.94;3.06;845.5;9.60;73849;2835.949;-1758.968;1;146;450;453.2;22.6;22.7;27;28.0;25.6;-1.0;
28/02/2025 15:42:41;117;0;159.60;-4;20.10;2.96;842.1;9.60;73837;2835.947;-1758.967;1;146;450;453.2;22.6;22.7;27;28.0;25.6;-1.0;
28/02/2025 15:43:01;117;0;159.06;-4;19.99;3.07;838.8;9.60;73832;2835.944;-1758.965;1;146;450;453.2;22.6;22.8;27;28.0;25.6;-1.0;
28/02/2025 15:43:21;117;0;158.52;-4;19.88;2.97;835.4;9.60;73840;2835.942;-1758.964;1;146;450;453.2;22.6;22.7;27;28.0;25.6;-1.0;
28/02/2025 15:43:41;117;0;157.84;-4;19.92;3.15;831.9;9.60;73844;2835.939;-1758.963;1;146;450;453.2;22.6;22.8;27;28.0;25.6;-1.0;
28/02/2025 15:44:01;117;0;157.45;-4;20.01;2.97;828.2;9.60;73832;2835.937;-1758.961;1;146;450;453.2;22.6;22.8;27;28.0;25.6;-1.0;
28/02/2025 15:44:21;117;0;158.16;-4;19.84;3.03;824.9;9.60;73832;2835.935;-1758.960;1;146;450;453.2;22.6;22.8;27;28.0;25.6;-1.0;
