Timestamp;NavState;SecurityLevel;Heading;Declination;Pitch;Roll;Depth;Temperature;Pa;Lat;Lon;DeadReckoning;DesiredH;BallastCmd;BallastPos;LinCmd;LinPos;AngCmd;AngPos;Voltage;Altitude;
05/03/2025 13:25:48;117;0;132.02;-4;36.30;9.97;101.2;19.40;76390;2837.906;-1757.653;1;141;500;506.5;14.4;14.4;42;38.8;24.6;-1.0;
05/03/2025 13:25:51;110;0;131.85;-4;35.83;11.54;100.2;19.40;76403;2837.906;-1757.653;1;141;-500;246.8;51.6;50.1;-14;-14.4;24.6;-1.0;
05/03/2025 13:26:01;110;0;125.03;-4;24.19;-18.43;97.4;19.40;77119;2837.905;-1757.651;1;141;-500;-129.0;51.6;51.7;-14;-14.4;24.6;0.0;
05/03/2025 13:26:11;110;0;120.06;-4;-2.11;-18.35;97.0;19.40;77889;2837.905;-1757.651;1;141;-500;-500.0;51.6;52.0;-14;-14.4;24.6;0.0;
05/03/2025 13:26:21;110;0;117.13;-4;-18.16;-16.60;98.5;19.40;78662;2837.906;-1757.650;1;141;-500;-500.0;51.6;52.6;-14;-14.4;24.6;0.0;
05/03/2025 13:26:41;100;0;129.56;-4;-28.00;-15.56;104.4;19.40;78638;2837.903;-1757.647;1;141;-500;-506.5;51.6;52.9;-14;-14.4;24.6;0.0;
05/03/2025 13:27:01;100;0;148.23;-4;-29.30;-14.41;114.0;19.50;78627;2837.898;-1757.643;1;141;-500;-509.7;53.3;53.5;13;13.5;24.6;0.0;
05/03/2025 13:27:21;100;0;146.35;-4;-34.20;-1.44;123.3;19.50;78596;2837.893;-1757.640;1;141;-500;-514.5;53.3;53.6;13;13.5;24.6;0.0;
05/03/2025 13:27:41;100;0;139.83;-4;-36.39;-0.96;133.6;19.40;78591;2837.889;-1757.637;1;141;-500;-514.5;53.3;53.8;13;13.5;24.6;0.0;
05/03/2025 13:28:01;100;0;129.82;-4;-38.65;-0.35;144.4;19.40;78562;2837.886;-1757.632;1;141;-500;-517.7;52.2;52.1;8;8.1;24.6;0.0;
05/03/2025 13:28:21;100;0;121.20;-4;-36.94;-4.08;155.2;19.40;78470;2837.884;-1757.627;1;141;-500;-514.5;52.2;52.1;-3;-3.2;24.6;0.0;
05/03/2025 13:28:41;100;0;122.44;-4;-36.35;-9.41;165.2;19.40;78406;2837.882;-1757.621;1;141;-500;-514.5;52.2;52.0;-1;-0.9;24.6;0.0;
05/03/2025 13:29:01;100;0;126.15;-4;-35.81;-7.84;174.7;19.40;78374;2837.879;-1757.617;1;141;-500;-516.1;52.2;52.1;4;4.1;24.6;0.0;
05/03/2025 13:29:21;100;0;127.47;-4;-35.90;-5.76;184.4;19.30;78331;2837.877;-1757.612;1;141;-500;-516.1;52.2;52.1;6;4.1;24.6;14.1;
05/03/2025 13:29:24;118;0;127.83;-4;-36.35;-5.91;185.7;19.30;78324;2837.876;-1757.611;1;141;500;-519.4;15.7;15.9;14;14.4;24.6;13.2;
05/03/2025 13:29:34;118;0;118.64;-4;-29.04;-2.48;189.5;19.30;78310;2837.875;-1757.608;1;141;500;-393.5;15.7;15.5;14;14.4;24.2;-1.0;
05/03/2025 13:29:44;118;0;112.48;-4;-9.34;-1.92;192.4;19.20;78006;2837.874;-1757.604;1;141;500;-259.7;15.7;15.5;14;14.4;24.2;-1.0;
05/03/2025 13:29:54;118;0;107.24;-4;13.85;-3.84;192.9;19.20;77729;2837.875;-1757.604;1;141;500;-130.6;15.7;15.8;14;14.4;24.2;-1.0;
05/03/2025 13:30:04;118;0;101.88;-4;33.02;-4.55;192.2;19.20;77454;2837.875;-1757.604;1;141;500;-6.5;15.7;15.8;14;14.4;24.2;-1.0;
05/03/2025 13:30:14;118;0;100.89;-4;42.77;-5.12;191.5;19.20;77186;2837.876;-1757.604;1;141;500;116.1;15.7;15.8;14;14.4;24.2;-1.0;
05/03/2025 13:30:24;118;0;102.66;-4;39.64;-5.42;191.0;19.20;76913;2837.877;-1757.605;1;141;500;238.7;15.7;15.8;14;14.4;24.2;-1.0;
05/03/2025 13:30:34;118;0;105.21;-4;36.03;-5.38;190.4;19.20;76646;2837.877;-1757.605;1;141;500;362.9;15.7;15.8;14;14.4;24.2;-1.0;
05/03/2025 13:30:44;118;0;104.11;-4;38.27;-4.89;189.0;19.10;76389;2837.878;-1757.605;1;141;500;471.0;15.7;15.8;14;14.4;24.2;-1.0;
05/03/2025 13:30:54;118;0;102.27;-4;33.86;-4.26;186.8;19.10;76140;2837.878;-1757.604;1;141;500;504.8;15.7;15.8;14;14.4;24.2;-1.0;
05/03/2025 13:31:04;118;0;111.33;-4;38.76;-3.25;184.2;19.10;76053;2837.879;-1757.603;1;141;500;504.8;15.7;15.8;14;14.4;24.6;-1.0;
05/03/2025 13:31:24;117;0;104.58;-4;30.92;-3.96;177.4;19.10;76060;2837.879;-1757.598;1;141;500;504.8;15.7;15.8;14;14.4;24.6;-1.0;
05/03/2025 13:31:44;117;0;91.28;-4;30.94;-3.22;170.7;19.00;76037;2837.880;-1757.594;1;141;500;503.2;14.5;14.4;70;70.4;24.6;-1.0;
05/03/2025 13:32:04;117;0;96.36;-4;34.19;28.04;163.8;19.00;76026;2837.881;-1757.589;1;141;500;504.8;14.5;14.4;70;70.4;24.6;-1.0;
05/03/2025 13:32:24;117;0;106.62;-4;35.66;28.75;156.5;19.00;76034;2837.881;-1757.585;1;141;500;504.8;14.5;14.4;70;70.4;24.6;-1.0;
05/03/2025 13:32:44;117;0;110.87;-4;36.00;28.39;148.5;18.90;76053;2837.881;-1757.581;1;141;500;504.8;14.5;14.4;70;70.4;24.6;-1.0;
05/03/2025 13:33:04;117;0;120.42;-4;34.39;28.63;140.9;18.90;76060;2837.880;-1757.576;1;141;500;504.8;14.5;14.4;56;55.5;24.6;-1.0;
05/03/2025 13:33:24;117;0;122.71;-4;35.30;19.22;133.7;18.90;76081;2837.878;-1757.573;1;141;500;504.8;14.5;14.4;52;51.9;24.6;-1.0;
05/03/2025 13:33:44;117;0;129.73;-4;33.88;16.31;127.0;18.80;76137;2837.877;-1757.570;1;141;500;504.8;14.2;14.1;43;42.9;24.6;-1.0;
05/03/2025 13:34:04;117;0;132.17;-4;36.57;11.94;120.5;18.80;76196;2837.875;-1757.568;1;141;500;504.8;14.2;14.1;43;42.4;24.6;-1.0;
05/03/2025 13:34:24;117;0;126.35;-4;35.01;11.88;113.2;18.80;76257;2837.874;-1757.565;1;141;500;506.5;14.2;14.0;47;46.9;24.6;-1.0;
05/03/2025 13:34:44;117;0;121.36;-4;36.32;14.71;106.4;18.90;76299;2837.873;-1757.561;1;141;500;506.5;14.2;14.1;55;55.1;24.6;-1.0;
05/03/2025 13:35:04;117;0;124.20;-4;35.82;19.18;99.1;18.90;76321;2837.871;-1757.558;1;141;500;506.5;14.2;14.1;50;50.1;24.6;-1.0;
05/03/2025 13:35:24;117;0;127.25;-4;35.26;16.02;92.3;18.90;76343;2837.870;-1757.555;1;141;500;506.5;14.2;14.1;46;46.0;24.6;-1.0;
05/03/2025 13:35:44;117;0;129.73;-4;35.54;13.72;85.5;18.90;76347;2837.868;-1757.553;1;141;500;504.8;14.2;14.1;44;44.2;24.6;-1.0;
05/03/2025 13:36:04;117;0;130.23;-4;35.12;12.77;78.6;19.00;76369;2837.866;-1757.550;1;141;500;504.8;14.2;14.0;44;43.8;24.6;-1.0;
05/03/2025 13:36:24;117;0;128.92;-4;35.52;12.88;71.8;19.00;76386;2837.865;-1757.547;1;141;500;508.1;14.2;14.1;44;43.8;24.6;-1.0;
05/03/2025 13:36:44;117;0;128.51;-4;35.66;12.90;65.0;19.00;76399;2837.864;-1757.544;1;141;500;506.5;14.2;14.1;44;43.8;24.6;-1.0;
05/03/2025 13:37:04;117;0;127.50;-4;35.46;12.69;58.1;19.00;76418;2837.862;-1757.541;1;141;500;506.5;14.2;14.0;46;46.0;24.6;-1.0;
05/03/2025 13:37:24;117;0;129.21;-4;35.15;14.22;51.1;19.00;76423;2837.860;-1757.538;1;141;500;506.5;14.2;14.1;44;43.8;24.6;-1.0;
05/03/2025 13:37:44;117;0;129.17;-4;35.31;12.41;44.3;19.10;76430;2837.859;-1757.536;1;141;500;506.5;14.2;14.1;44;43.3;24.6;-1.0;
05/03/2025 13:38:04;117;0;129.42;-4;35.31;12.61;37.6;19.10;76440;2837.857;-1757.533;1;141;500;506.5;14.2;14.0;44;43.3;24.6;-1.0;
05/03/2025 13:38:24;117;0;129.64;-4;35.50;12.52;30.7;19.10;76445;2837.856;-1757.530;1;141;500;506.5;14.2;14.0;44;42.9;24.6;-1.0;
05/03/2025 13:38:44;117;0;128.88;-4;35.57;12.76;23.8;19.20;76448;2837.854;-1757.527;1;141;500;506.5;14.2;14.0;44;43.3;24.6;-1.0;
05/03/2025 13:39:04;117;0;129.19;-4;35.48;12.65;16.8;19.20;76447;2837.852;-1757.524;1;141;500;506.5;14.2;14.1;44;43.3;24.6;-1.0;
05/03/2025 13:39:24;117;0;126.00;-4;36.08;11.98;9.9;19.20;76449;2837.851;-1757.521;1;141;500;504.8;14.2;14.1;48;47.8;24.6;-1.0;
05/03/2025 13:39:43;115;0;126.61;-4;36.30;14.20;3.0;19.20;76462;2837.850;-1757.518;1;141;500;506.5;100.0;49.8;0;-0.5;24.6;-1.0;
05/03/2025 13:39:53;115;0;122.60;-4;24.32;-12.23;0.4;19.20;76451;2837.849;-1757.516;1;141;500;506.5;100.0;100.0;0;-0.5;24.6;-1.0;
05/03/2025 13:40:03;115;0;115.30;-4;-21.28;-11.05;0.3;19.30;76470;2837.849;-1757.517;1;141;500;504.8;100.0;100.3;0;-0.5;24.6;-1.0;
05/03/2025 13:40:23;119;0;60.27;-4;-41.49;-7.76;-0.0;19.30;76485;2837.849;-1757.517;1;141;500;506.5;100.0;100.7;0;-0.9;24.6;-1.0;
05/03/2025 13:40:33;119;0;339.80;-4;-56.02;-13.30;0.1;19.30;76480;2837.771;-1757.446;0;141;500;506.5;100.0;100.7;0;-0.5;24.6;-1.0;
