Timestamp;NavState;SecurityLevel;Heading;Declination;Pitch;Roll;Depth;Temperature;Pa;Lat;Lon;DeadReckoning;DesiredH;BallastCmd;BallastPos;LinCmd;LinPos;AngCmd;AngPos;Voltage;Altitude;
20/02/2025 11:00:05;119;0;357.69;-4;-51.98;-20.45;0.5;17.70;75871;2835.206;-1758.711;0;180;500;508.1;100.0;100.7;0;-0.5;27.5;-1.0;
20/02/2025 11:00:15;116;0;340.41;-4;-52.20;-4.61;0.6;17.70;75883;2835.208;-1758.710;0;176;500;508.1;100.0;100.6;0;-0.5;27.5;-1.0;
20/02/2025 11:00:40;116;0;346.86;-4;-44.33;-7.86;0.4;17.80;75896;2835.210;-1758.710;0;176;500;508.1;100.0;100.7;0;-0.5;27.5;-1.0;
20/02/2025 11:01:10;116;0;349.65;-4;-41.30;-10.14;0.5;17.90;75899;2835.209;-1758.710;0;177;500;506.5;100.0;100.6;0;-0.5;27.5;-1.0;
20/02/2025 11:01:30;116;0;339.46;-4;-45.89;-16.22;0.6;17.90;75882;2835.209;-1758.709;0;-9999;500;508.1;100.0;100.7;0;-0.5;27.5;-1.0;
20/02/2025 11:01:47;116;0;345.01;-4;-53.39;-9.83;0.4;18.00;75917;2835.209;-1758.707;0;177;500;508.1;100.0;100.6;0;-0.5;27.5;-1.0;
20/02/2025 11:02:49;116;0;358.68;-4;-55.16;-8.71;0.5;18.20;75937;2835.206;-1758.708;0;178;500;508.1;100.0;100.7;0;-0.5;27.5;-1.0;
20/02/2025 11:04:16;116;0;334.93;-4;-44.96;-17.25;0.4;18.50;75960;2835.207;-1758.709;0;177;500;506.5;100.0;100.7;0;-0.5;27.5;-1.0;
20/02/2025 11:05:20;116;0;359.55;-4;-50.49;-18.68;0.4;18.80;75979;2835.210;-1758.710;0;177;500;506.5;100.0;100.7;0;-0.5;27.5;-1.0;
20/02/2025 11:05:40;110;0;353.04;-4;-50.06;-13.15;-0.1;18.90;75982;2835.210;-1758.710;0;176;-70;393.5;100.0;99.9;-8;-8.1;27.5;-1.0;
20/02/2025 11:05:50;110;0;12.15;-4;-56.49;-14.24;0.3;18.90;76320;2835.210;-1758.710;1;176;-70;240.3;100.0;99.7;-8;-8.6;27.5;-1.0;
20/02/2025 11:06:00;110;0;9.09;-4;-58.47;-21.52;0.6;18.90;76587;2835.211;-1758.710;1;176;-70;80.6;100.0;99.7;-8;-8.6;27.5;-1.0;
20/02/2025 11:06:10;110;0;352.47;-4;-63.69;-19.43;0.8;19.00;76911;2835.211;-1758.710;1;176;-70;-69.4;100.0;99.9;-8;-8.6;27.5;-1.0;
20/02/2025 11:06:20;110;0;347.77;-4;-62.00;-12.83;1.4;19.00;77213;2835.211;-1758.711;1;176;-70;-69.4;43.1;43.2;-8;-8.6;27.5;-1.0;
20/02/2025 11:06:40;100;0;356.14;-4;-27.89;-16.36;4.9;19.10;77199;2835.215;-1758.711;1;176;-70;-66.1;43.1;42.9;-8;-8.6;27.5;-1.0;
20/02/2025 11:07:00;100;0;2.04;-4;-19.15;-15.94;7.9;19.10;77194;2835.219;-1758.711;1;177;-70;-62.9;43.1;43.3;-70;-69.9;27.5;-1.0;
20/02/2025 11:07:21;100;0;11.63;-4;-20.44;-45.41;10.6;19.20;77210;2835.223;-1758.710;1;177;-70;-62.9;43.1;43.4;-70;-69.9;27.5;-1.0;
20/02/2025 11:07:41;100;0;22.77;-4;-17.91;-44.90;13.4;19.30;77208;2835.227;-1758.709;1;178;-70;-62.9;43.7;43.9;-70;-69.9;27.5;0.0;
20/02/2025 11:08:01;100;0;36.84;-4;-19.74;-45.44;16.1;19.30;77221;2835.230;-1758.706;1;179;-70;-61.3;43.7;44.2;-70;-69.9;27.5;0.0;
20/02/2025 11:08:21;100;0;48.28;-4;-20.68;-44.88;18.8;19.40;77231;2835.232;-1758.704;1;180;-70;-61.3;43.7;44.2;-70;-69.9;27.5;0.0;
20/02/2025 11:08:41;100;0;58.36;-4;-20.45;-45.52;21.5;19.40;77231;2835.234;-1758.700;1;182;-70;-62.9;43.7;44.2;-70;-69.9;27.5;0.0;
20/02/2025 11:09:01;100;0;71.16;-4;-20.88;-44.92;24.2;19.40;77229;2835.235;-1758.697;1;183;-70;-61.3;43.7;44.2;-70;-69.9;27.5;0.0;
20/02/2025 11:09:21;100;0;82.01;-4;-20.75;-45.27;27.2;19.40;77238;2835.236;-1758.693;1;185;-70;-62.9;43.7;44.0;-70;-69.9;27.5;0.0;
20/02/2025 11:09:41;100;0;91.51;-4;-21.04;-45.37;30.1;19.50;77231;2835.236;-1758.689;1;187;-70;-61.3;43.7;44.2;-70;-69.9;27.5;0.0;
20/02/2025 11:10:01;100;0;106.28;-4;-20.98;-45.30;33.0;19.50;77244;2835.235;-1758.685;1;188;-70;-62.9;43.7;44.2;-70;-69.9;27.5;0.0;
20/02/2025 11:10:21;100;0;117.13;-4;-20.63;-45.14;35.9;19.50;77244;2835.234;-1758.681;1;190;-70;-61.3;43.7;44.0;-70;-70.4;27.5;0.0;
20/02/2025 11:10:41;100;0;128.36;-4;-20.87;-45.55;38.8;19.50;77249;2835.232;-1758.678;1;191;-70;-61.3;43.7;44.2;-60;-60.0;27.5;0.0;
20/02/2025 11:11:01;100;0;139.70;-4;-20.78;-40.16;41.8;19.50;77248;2835.229;-1758.676;1;193;-70;-61.3;43.7;44.2;-49;-49.2;27.5;0.0;
20/02/2025 11:11:21;100;0;151.37;-4;-20.08;-34.60;44.6;19.50;77260;2835.227;-1758.674;1;194;-70;-61.3;43.7;44.2;-35;-35.2;27.5;0.0;
20/02/2025 11:11:41;100;0;162.30;-4;-20.62;-27.78;47.4;19.50;77252;2835.224;-1758.673;1;195;-70;-61.3;43.7;44.2;-22;-22.1;27.5;0.0;
20/02/2025 11:12:01;100;0;171.97;-4;-20.91;-21.42;50.1;19.50;77261;2835.220;-1758.672;1;196;-70;-61.3;43.7;43.6;-7;-7.2;27.5;0.0;
20/02/2025 11:12:21;100;0;179.88;-4;-20.92;-14.60;52.9;19.50;77260;2835.217;-1758.672;1;196;-70;-61.3;43.7;43.6;5;5.0;27.5;0.0;
20/02/2025 11:12:41;100;0;183.04;-4;-21.28;-8.84;55.6;19.50;77262;2835.214;-1758.673;1;196;-70;-61.3;43.7;43.6;9;9.0;27.5;0.0;
20/02/2025 11:13:01;100;0;183.04;-4;-21.54;-6.68;58.6;19.50;77265;2835.211;-1758.673;1;197;-70;-61.3;43.7;43.6;9;9.5;27.5;0.0;
20/02/2025 11:13:21;100;0;182.88;-4;-21.51;-6.71;61.4;19.50;77272;2835.208;-1758.673;1;197;-70;-62.9;43.7;43.6;9;9.5;27.5;0.0;
20/02/2025 11:13:41;100;0;184.14;-4;-21.80;-6.49;64.3;19.50;77270;2835.205;-1758.674;1;198;-70;-59.7;43.7;43.7;9;9.5;27.5;0.0;
20/02/2025 11:14:01;100;0;182.59;-4;-21.48;-6.72;67.1;19.50;77284;2835.201;-1758.674;1;198;-70;-62.9;43.7;43.6;7;7.2;27.5;0.0;
20/02/2025 11:14:21;100;0;183.69;-4;-21.35;-8.18;69.9;19.50;77285;2835.198;-1758.674;1;198;-70;-61.3;43.7;43.6;7;6.8;27.5;0.0;
20/02/2025 11:14:41;100;0;183.95;-4;-21.23;-8.24;72.7;19.50;77293;2835.195;-1758.675;1;199;-70;-62.9;43.7;43.6;7;6.8;27.5;0.0;
20/02/2025 11:15:01;100;0;188.73;-4;-20.41;-8.26;75.5;19.50;77273;2835.192;-1758.675;1;199;-70;-62.9;43.7;43.6;11;11.3;27.5;0.0;
20/02/2025 11:15:21;100;0;191.45;-4;-21.43;-5.72;78.1;19.50;77282;2835.189;-1758.676;1;200;-70;-61.3;43.7;43.6;11;11.7;27.5;0.0;
20/02/2025 11:15:41;100;0;192.68;-4;-21.31;-5.75;80.9;19.50;77288;2835.186;-1758.677;1;200;-70;-61.3;43.7;43.6;11;11.7;27.5;0.0;
20/02/2025 11:16:01;100;0;193.41;-4;-21.35;-5.72;83.6;19.50;77291;2835.182;-1758.678;1;200;-70;-61.3;43.7;43.6;11;11.3;27.5;0.0;
20/02/2025 11:16:21;100;0;190.10;-4;-21.67;-5.81;86.4;19.50;77285;2835.179;-1758.679;1;200;-70;-62.9;43.7;43.6;11;11.7;27.5;0.0;
20/02/2025 11:16:41;100;0;185.61;-4;-21.45;-5.77;89.3;19.50;77286;2835.176;-1758.679;1;201;-70;-61.3;43.7;43.6;7;7.2;27.5;0.0;
20/02/2025 11:17:01;100;0;183.01;-4;-20.59;-8.11;92.1;19.50;77275;2835.173;-1758.680;1;202;-70;-61.3;43.7;43.6;2;1.8;27.5;0.0;
20/02/2025 11:17:21;100;0;185.92;-4;-20.55;-10.86;94.8;19.50;77272;2835.170;-1758.680;1;203;-70;-61.3;43.7;43.6;5;5.0;27.5;0.0;
20/02/2025 11:17:41;100;0;189.80;-4;-20.61;-8.90;97.5;19.50;77264;2835.167;-1758.681;1;203;-70;-61.3;43.7;43.6;9;9.0;27.5;0.0;
20/02/2025 11:18:01;100;0;191.17;-4;-21.21;-6.84;100.2;19.40;77259;2835.164;-1758.682;1;204;-70;-62.9;43.7;43.6;9;9.5;27.5;0.0;
20/02/2025 11:18:21;100;0;194.58;-4;-21.09;-6.74;102.9;19.40;77243;2835.161;-1758.683;1;205;-70;-59.7;43.7;43.6;11;10.8;27.5;0.0;
20/02/2025 11:18:41;100;0;193.12;-4;-21.31;-5.98;105.9;19.40;77243;2835.157;-1758.684;1;205;-70;-61.3;43.7;43.6;11;10.8;27.5;0.0;
20/02/2025 11:19:01;100;0;188.38;-4;-21.29;-6.10;108.7;19.40;77227;2835.154;-1758.685;1;207;-70;-61.3;43.7;43.6;3;3.2;27.5;0.0;
20/02/2025 11:19:21;100;0;190.90;-4;-20.49;-10.31;111.6;19.40;77211;2835.151;-1758.685;1;208;-70;-61.3;43.7;43.6;5;5.0;27.5;0.0;
20/02/2025 11:19:41;100;0;191.84;-4;-20.32;-8.97;114.3;19.40;77191;2835.148;-1758.686;1;209;-70;-62.9;43.7;43.6;5;5.4;27.5;0.0;
20/02/2025 11:20:01;100;0;196.78;-4;-19.77;-8.74;117.0;19.40;77179;2835.145;-1758.688;1;210;-70;-62.9;43.7;43.6;9;9.0;27.5;0.0;
20/02/2025 11:20:21;100;0;200.47;-4;-19.78;-6.85;119.6;19.30;77153;2835.142;-1758.689;1;211;-70;-61.3;43.7;43.6;11;10.8;27.5;0.0;
20/02/2025 11:20:41;100;0;201.79;-4;-20.20;-6.17;122.2;19.30;77149;2835.139;-1758.691;1;212;-70;-66.1;43.7;43.6;11;10.8;27.5;0.0;
20/02/2025 11:21:01;100;0;203.99;-4;-20.29;-6.21;124.8;19.30;77127;2835.136;-1758.692;1;213;-70;-61.3;43.7;43.6;11;10.8;27.5;0.0;
20/02/2025 11:21:21;100;0;203.40;-4;-20.37;-6.15;127.5;19.30;77126;2835.133;-1758.694;1;215;-70;-61.3;43.7;43.6;11;10.8;27.5;0.0;
20/02/2025 11:21:41;100;0;202.60;-4;-20.84;-6.23;130.2;19.20;77117;2835.130;-1758.695;1;217;-70;-62.9;43.7;43.6;9;9.0;27.5;0.0;
20/02/2025 11:22:01;100;0;199.45;-4;-20.95;-7.32;132.9;19.20;77101;2835.127;-1758.697;1;221;-70;-61.3;43.7;43.6;-1;-0.9;27.5;0.0;
20/02/2025 11:22:21;100;0;197.85;-4;-20.32;-12.23;135.6;19.20;77099;2835.124;-1758.698;1;231;-70;-62.9;43.7;43.6;-20;-19.9;27.5;0.0;
20/02/2025 11:22:41;100;0;199.89;-4;-19.45;-21.41;138.4;19.10;77083;2835.121;-1758.700;1;256;-70;-61.3;43.7;43.4;-51;-51.0;27.5;0.0;
20/02/2025 11:23:01;100;0;209.38;-4;-18.64;-36.13;141.0;19.10;77083;2835.118;-1758.702;1;311;-70;-62.9;44.1;44.5;-70;-69.9;27.5;0.0;
20/02/2025 11:23:21;100;0;220.03;-4;-20.29;-45.33;143.7;19.10;77073;2835.116;-1758.704;1;3;-70;-61.3;44.1;44.5;-70;-70.4;27.5;0.0;
20/02/2025 11:23:41;100;0;231.46;-4;-20.46;-45.28;146.7;19.10;77066;2835.114;-1758.708;1;27;-70;-61.3;44.1;44.5;-70;-70.4;27.5;0.0;
20/02/2025 11:24:01;100;0;242.52;-4;-20.46;-45.53;149.6;19.10;77056;2835.112;-1758.712;1;40;-70;-61.3;44.1;44.5;-70;-70.4;27.5;0.0;
20/02/2025 11:24:21;100;0;254.86;-4;-20.57;-45.63;152.5;19.00;77046;2835.111;-1758.716;1;50;-70;-66.1;44.1;44.5;-70;-70.4;27.5;0.0;
20/02/2025 11:24:41;100;0;266.92;-4;-20.47;-45.48;155.6;19.00;77028;2835.111;-1758.720;1;59;-70;-61.3;44.1;44.3;-70;-70.4;27.5;0.0;
20/02/2025 11:25:01;100;0;278.99;-4;-20.59;-45.46;158.6;19.00;77029;2835.112;-1758.725;1;67;-70;-61.3;44.1;44.6;-70;-70.4;27.5;0.0;
20/02/2025 11:25:21;100;0;291.16;-4;-20.32;-45.41;161.6;19.00;77016;2835.114;-1758.729;1;74;-70;-62.9;44.1;44.5;-70;-70.4;27.5;0.0;
20/02/2025 11:25:41;100;0;304.94;-4;-20.00;-45.62;164.6;18.90;76999;2835.116;-1758.732;1;82;-70;-61.3;44.1;44.5;-70;-70.4;27.5;0.0;
20/02/2025 11:26:01;100;0;316.33;-4;-20.39;-45.31;167.6;18.90;76986;2835.119;-1758.736;1;89;-70;-62.9;44.1;44.5;-70;-70.4;27.5;0.0;
20/02/2025 11:26:21;100;0;327.31;-4;-20.47;-45.22;170.6;18.90;76979;2835.123;-1758.738;1;95;-70;-61.3;44.1;44.5;-70;-70.4;27.5;0.0;
20/02/2025 11:26:41;100;0;338.78;-4;-20.08;-45.35;173.5;18.90;76990;2835.127;-1758.740;1;102;-70;-61.3;44.1;44.5;-70;-70.4;27.5;0.0;
20/02/2025 11:27:01;100;0;350.88;-4;-20.26;-45.43;176.4;18.80;76970;2835.130;-1758.740;1;108;-70;-61.3;44.1;44.5;-70;-70.4;27.5;0.0;
20/02/2025 11:27:21;100;0;3.32;-4;-20.65;-45.69;179.3;18.80;76952;2835.134;-1758.740;1;114;-70;-64.5;44.1;44.6;-70;-70.4;27.5;0.0;
20/02/2025 11:27:41;100;0;17.19;-4;-19.86;-45.81;182.3;18.80;76954;2835.138;-1758.739;1;120;-70;-61.3;44.1;44.5;-70;-70.4;27.5;0.0;
20/02/2025 11:28:01;100;0;29.86;-4;-19.99;-45.50;185.1;18.70;76933;2835.141;-1758.737;1;126;-70;-61.3;44.1;44.5;-70;-70.4;27.5;0.0;
20/02/2025 11:28:21;100;0;42.72;-4;-20.03;-45.52;188.0;18.70;76934;2835.144;-1758.734;1;132;-70;-61.3;44.1;44.5;-70;-70.4;27.5;0.0;
20/02/2025 11:28:41;100;0;56.32;-4;-19.68;-45.34;190.9;18.60;76930;2835.147;-1758.731;1;138;-70;-61.3;44.1;44.5;-70;-70.4;27.5;0.0;
20/02/2025 11:29:01;100;0;68.79;-4;-20.16;-45.48;193.7;18.60;76930;2835.148;-1758.727;1;144;-70;-61.3;44.1;44.5;-70;-70.4;27.5;0.0;
20/02/2025 11:29:21;100;0;82.07;-4;-20.04;-45.43;196.6;18.60;76913;2835.149;-1758.723;1;150;-70;-62.9;44.1;44.5;-70;-70.4;27.5;0.0;
20/02/2025 11:29:41;100;0;93.69;-4;-20.03;-45.16;199.3;18.50;76906;2835.149;-1758.719;1;155;-70;-61.3;44.1;44.5;-62;-61.8;27.5;0.0;
20/02/2025 11:30:01;100;0;103.88;-4;-19.97;-40.82;202.1;18.50;76890;2835.148;-1758.715;1;161;-70;-62.9;44.1;44.5;-57;-56.9;27.5;0.0;
20/02/2025 11:30:21;100;0;113.30;-4;-19.97;-38.42;204.7;18.50;76877;2835.147;-1758.712;1;166;-70;-62.9;44.1;44.5;-51;-51.0;27.5;0.0;
20/02/2025 11:30:41;100;0;127.58;-4;-19.65;-35.67;207.4;18.40;76858;2835.145;-1758.709;1;170;-70;-61.3;44.1;44.5;-37;-37.0;27.5;0.0;
20/02/2025 11:31:01;100;0;140.55;-4;-19.92;-28.69;209.9;18.40;76848;2835.143;-1758.707;1;174;-70;-61.3;44.1;44.5;-25;-24.8;27.5;0.0;
20/02/2025 11:31:21;100;0;148.15;-4;-20.76;-22.66;212.5;18.40;76848;2835.141;-1758.705;1;178;-70;-61.3;44.1;44.6;-20;-19.9;27.5;0.0;
20/02/2025 11:31:41;100;0;156.84;-4;-20.30;-20.20;215.0;18.30;76830;2835.138;-1758.704;1;181;-70;-61.3;44.1;44.6;-9;-9.0;27.5;0.0;
20/02/2025 11:32:01;100;0;163.06;-4;-20.91;-15.29;217.5;18.30;76812;2835.135;-1758.703;1;184;-70;-61.3;44.1;44.6;-3;-2.7;27.5;0.0;
20/02/2025 11:32:21;100;0;165.80;-4;-21.68;-12.41;220.1;18.20;76797;2835.132;-1758.702;1;188;-70;-59.7;44.1;44.8;-5;-5.4;27.5;0.0;
20/02/2025 11:32:41;100;0;168.68;-4;-21.67;-14.10;222.7;18.20;76791;2835.130;-1758.701;1;194;-70;-61.3;44.1;44.0;-9;-9.5;27.5;0.0;
20/02/2025 11:33:01;100;0;174.81;-4;-20.14;-16.40;225.3;18.10;76773;2835.127;-1758.701;1;202;-70;-61.3;44.1;43.9;-12;-12.2;27.5;0.0;
20/02/2025 11:33:21;100;0;181.55;-4;-20.02;-17.71;227.7;18.10;76759;2835.124;-1758.701;1;213;-70;-61.3;44.1;43.9;-18;-18.5;27.5;0.0;
20/02/2025 11:33:41;100;0;188.92;-4;-19.76;-20.81;230.1;18.10;76754;2835.121;-1758.702;1;244;-70;-61.3;44.1;43.7;-48;-47.8;27.5;0.0;
20/02/2025 11:34:01;100;0;198.15;-4;-19.01;-34.60;232.6;18.00;76750;2835.118;-1758.703;1;340;-70;-62.9;44.1;43.7;-70;-69.9;27.5;0.0;
20/02/2025 11:34:21;100;0;208.34;-4;-18.89;-45.22;235.1;18.00;76737;2835.115;-1758.705;1;11;-70;-61.3;44.5;44.5;-70;-69.9;27.5;0.0;
20/02/2025 11:34:41;100;0;218.65;-4;-20.20;-45.19;237.5;17.90;76717;2835.113;-1758.707;1;23;-70;-61.3;44.5;44.6;-70;-69.9;27.5;0.0;
20/02/2025 11:35:01;100;0;229.64;-4;-20.43;-45.24;239.9;17.90;76713;2835.111;-1758.710;1;32;-70;-61.3;44.5;44.6;-70;-69.9;27.5;0.0;
20/02/2025 11:35:21;100;0;240.01;-4;-20.64;-45.44;242.5;17.90;76698;2835.110;-1758.713;1;39;-70;-62.9;44.5;44.8;-70;-69.9;27.5;0.0;
20/02/2025 11:35:41;100;0;252.62;-4;-20.39;-45.27;245.0;17.80;76699;2835.109;-1758.717;1;47;-70;-61.3;44.5;44.8;-70;-70.4;27.5;0.0;
20/02/2025 11:36:01;100;0;262.48;-4;-20.46;-45.16;247.5;17.80;76673;2835.109;-1758.721;1;53;-70;-59.7;44.5;44.8;-70;-69.9;27.5;0.0;
20/02/2025 11:36:21;100;0;274.40;-4;-20.46;-45.21;250.0;17.80;76686;2835.110;-1758.724;1;60;-70;-61.3;44.5;44.6;-70;-69.9;27.5;0.0;
20/02/2025 11:36:41;100;0;284.37;-4;-20.58;-45.02;252.5;17.70;76673;2835.111;-1758.728;1;66;-70;-61.3;44.5;44.6;-70;-69.9;27.5;0.0;
20/02/2025 11:37:01;100;0;295.01;-4;-20.86;-45.66;255.0;17.70;76654;2835.112;-1758.731;1;72;-70;-61.3;44.5;44.8;-70;-69.9;27.5;0.0;
20/02/2025 11:37:21;100;0;309.71;-4;-20.19;-45.39;257.6;17.60;76633;2835.115;-1758.734;1;78;-70;-62.9;44.5;44.6;-70;-69.9;27.5;0.0;
20/02/2025 11:37:41;100;0;323.88;-4;-20.04;-45.43;260.2;17.60;76629;2835.117;-1758.737;1;85;-70;-62.9;44.5;44.8;-70;-69.9;27.5;0.0;
20/02/2025 11:38:01;100;0;336.29;-4;-20.21;-45.31;262.9;17.50;76629;2835.121;-1758.738;1;91;-70;-62.9;44.5;44.8;-70;-69.9;27.5;0.0;
20/02/2025 11:38:21;100;0;347.61;-4;-20.49;-45.23;265.4;17.50;76616;2835.124;-1758.739;1;98;-70;-61.3;44.5;44.6;-70;-69.9;27.5;0.0;
20/02/2025 11:38:41;100;0;358.56;-4;-20.46;-45.23;268.1;17.50;76596;2835.128;-1758.739;1;104;-70;-61.3;44.5;44.8;-70;-69.9;27.5;0.0;
20/02/2025 11:39:01;100;0;9.87;-4;-20.68;-45.16;270.7;17.40;76582;2835.131;-1758.739;1;110;-70;-61.3;44.5;44.8;-70;-69.9;27.5;0.0;
20/02/2025 11:39:21;100;0;22.56;-4;-20.24;-45.38;273.4;17.40;76584;2835.135;-1758.737;1;117;-70;-61.3;44.5;44.8;-70;-69.9;27.5;0.0;
20/02/2025 11:39:41;100;0;35.87;-4;-20.02;-45.31;276.0;17.30;76566;2835.138;-1758.735;1;123;-70;-61.3;44.5;44.8;-70;-69.9;27.5;0.0;
20/02/2025 11:40:01;100;0;49.30;-4;-20.28;-45.38;278.7;17.30;76557;2835.140;-1758.732;1;129;-70;-61.3;44.5;44.6;-70;-69.9;27.5;0.0;
20/02/2025 11:40:21;100;0;62.81;-4;-20.20;-45.42;281.4;17.20;76545;2835.142;-1758.729;1;135;-70;-62.9;44.5;44.8;-70;-69.9;27.5;0.0;
20/02/2025 11:40:41;100;0;74.77;-4;-20.25;-45.29;284.1;17.20;76540;2835.143;-1758.725;1;141;-70;-62.9;44.5;44.8;-70;-69.9;27.5;0.0;
20/02/2025 11:41:01;100;0;87.31;-4;-20.24;-45.28;286.8;17.20;76535;2835.144;-1758.721;1;147;-70;-61.3;44.5;44.6;-61;-60.9;27.5;0.0;
20/02/2025 11:41:21;100;0;100.65;-4;-20.10;-40.33;289.7;17.10;76537;2835.143;-1758.717;1;153;-70;-61.3;44.5;44.8;-51;-51.0;27.5;0.0;
20/02/2025 11:41:41;100;0;110.40;-4;-20.42;-35.51;292.4;17.10;76528;2835.142;-1758.714;1;159;-70;-61.3;44.5;44.8;-47;-46.9;27.5;0.0;
20/02/2025 11:42:02;100;0;120.56;-4;-20.07;-33.61;295.2;17.00;76507;2835.141;-1758.710;1;165;-70;-62.9;44.5;44.8;-41;-41.1;27.5;0.0;
20/02/2025 11:42:22;100;0;130.74;-4;-20.29;-30.58;297.9;17.00;76509;2835.139;-1758.707;1;171;-70;-61.3;44.5;44.9;-35;-34.7;27.5;0.0;
20/02/2025 11:42:42;100;0;140.01;-4;-20.49;-27.61;300.6;16.90;76488;2835.136;-1758.705;1;177;-70;-62.9;44.5;44.8;-31;-31.1;27.5;0.0;
20/02/2025 11:43:02;100;0;150.34;-4;-20.39;-25.75;303.4;16.90;76490;2835.133;-1758.703;1;184;-70;-62.9;44.5;44.8;-24;-23.9;27.5;0.0;
20/02/2025 11:43:22;100;0;159.70;-4;-20.65;-22.32;306.2;16.90;76478;2835.130;-1758.702;1;191;-70;-62.9;44.5;44.9;-21;-20.8;27.5;0.0;
20/02/2025 11:43:42;100;0;168.98;-4;-20.70;-20.78;309.0;16.80;76477;2835.127;-1758.701;1;200;-70;-62.9;44.5;44.9;-19;-19.0;27.5;0.0;
20/02/2025 11:44:02;100;0;177.48;-4;-20.71;-19.69;311.7;16.80;76472;2835.124;-1758.701;1;213;-70;-61.3;44.5;44.9;-26;-26.2;27.5;0.0;
20/02/2025 11:44:22;100;0;180.90;-4;-21.18;-23.91;314.5;16.70;76467;2835.121;-1758.701;1;254;-70;-61.3;44.5;44.9;-70;-69.9;27.5;0.0;
20/02/2025 11:44:42;100;0;190.47;-4;-20.76;-45.20;317.3;16.70;76453;2835.117;-1758.702;1;326;-70;-61.3;44.5;44.9;-70;-69.9;27.5;0.0;
20/02/2025 11:45:02;100;0;201.96;-4;-20.76;-45.19;320.2;16.70;76445;2835.114;-1758.704;1;357;-70;-61.3;44.5;44.9;-70;-69.9;27.5;0.0;
20/02/2025 11:45:22;100;0;213.75;-4;-20.77;-45.30;323.1;16.60;76434;2835.112;-1758.706;1;12;-70;-61.3;44.5;44.8;-70;-69.9;27.5;0.0;
20/02/2025 11:45:42;100;0;225.49;-4;-20.68;-45.16;326.0;16.60;76424;2835.109;-1758.709;1;23;-70;-61.3;44.5;44.8;-70;-69.9;27.5;0.0;
20/02/2025 11:46:02;100;0;238.24;-4;-20.72;-45.39;328.9;16.50;76415;2835.108;-1758.713;1;32;-70;-64.5;44.5;44.9;-70;-69.9;27.5;0.0;
20/02/2025 11:46:22;100;0;250.99;-4;-20.81;-45.19;331.9;16.50;76414;2835.107;-1758.717;1;40;-70;-61.3;44.5;44.8;-70;-69.9;27.5;0.0;
20/02/2025 11:46:42;100;0;262.19;-4;-20.85;-45.10;334.9;16.50;76409;2835.106;-1758.721;1;48;-70;-61.3;44.5;44.9;-70;-69.9;27.5;0.0;
20/02/2025 11:47:02;100;0;272.89;-4;-20.74;-45.09;337.9;16.40;76400;2835.107;-1758.725;1;55;-70;-62.9;44.5;44.9;-70;-69.9;27.5;0.0;
20/02/2025 11:47:22;100;0;283.82;-4;-20.82;-45.18;340.8;16.40;76383;2835.108;-1758.729;1;62;-70;-61.3;44.5;44.8;-70;-69.9;27.5;0.0;
20/02/2025 11:47:42;100;0;295.25;-4;-20.73;-45.17;343.8;16.40;76379;2835.110;-1758.733;1;68;-70;-61.3;44.5;44.8;-70;-69.9;27.5;0.0;
20/02/2025 11:48:02;100;0;306.51;-4;-20.80;-45.13;346.8;16.30;76370;2835.112;-1758.737;1;75;-70;-61.3;44.5;44.9;-70;-69.9;27.5;0.0;
20/02/2025 11:48:22;100;0;317.78;-4;-20.87;-45.16;349.9;16.30;76361;2835.115;-1758.740;1;81;-70;-61.3;44.5;44.8;-70;-69.9;27.5;0.0;
20/02/2025 11:48:42;100;0;328.72;-4;-20.54;-45.03;352.9;16.30;76359;2835.119;-1758.742;1;88;-70;-61.3;44.5;44.9;-70;-69.9;27.5;0.0;
20/02/2025 11:49:02;100;0;340.90;-4;-20.50;-45.15;355.9;16.20;76366;2835.123;-1758.744;1;94;-70;-61.3;44.5;44.9;-70;-69.9;27.5;0.0;
20/02/2025 11:49:22;100;0;353.30;-4;-20.36;-45.20;359.0;16.20;76352;2835.127;-1758.744;1;101;-70;-62.9;44.5;44.9;-70;-69.9;27.5;0.0;
20/02/2025 11:49:42;100;0;3.26;-4;-21.04;-45.06;362.1;16.10;76334;2835.131;-1758.744;1;107;-70;-61.3;44.5;44.9;-70;-70.4;27.5;0.0;
20/02/2025 11:50:02;100;0;14.28;-4;-20.70;-45.19;365.2;16.10;76336;2835.135;-1758.743;1;113;-70;-62.9;44.5;44.8;-70;-69.9;27.5;0.0;
20/02/2025 11:50:22;100;0;25.90;-4;-20.69;-45.23;368.4;16.10;76318;2835.139;-1758.741;1;120;-70;-61.3;44.5;44.9;-70;-69.9;27.5;0.0;
20/02/2025 11:50:42;100;0;39.18;-4;-20.24;-45.27;371.4;16.00;76322;2835.142;-1758.738;1;126;-70;-61.3;44.5;44.9;-70;-69.9;27.5;0.0;
20/02/2025 11:51:02;100;0;51.91;-4;-20.26;-45.13;374.4;16.00;76310;2835.144;-1758.735;1;132;-70;-61.3;44.5;44.9;-70;-69.9;27.5;0.0;
20/02/2025 11:51:22;100;0;64.08;-4;-20.47;-45.23;377.3;16.00;76303;2835.146;-1758.731;1;138;-70;-62.9;44.5;44.9;-70;-69.9;27.5;0.0;
20/02/2025 11:51:42;100;0;76.35;-4;-20.57;-45.28;380.3;15.90;76296;2835.147;-1758.727;1;143;-70;-61.3;44.5;44.8;-70;-69.9;27.5;0.0;
20/02/2025 11:52:02;100;0;88.15;-4;-20.68;-45.16;383.4;15.90;76303;2835.148;-1758.723;1;149;-70;-61.3;44.5;44.9;-62;-61.8;27.5;0.0;
20/02/2025 11:52:22;100;0;100.10;-4;-20.51;-40.89;386.5;15.90;76278;2835.147;-1758.719;1;154;-70;-62.9;44.5;44.8;-53;-52.8;27.5;0.0;
20/02/2025 11:52:42;100;0;111.80;-4;-20.31;-36.53;389.5;15.80;76285;2835.146;-1758.715;1;160;-70;-61.3;44.5;44.9;-46;-45.6;27.5;0.0;
20/02/2025 11:53:02;100;0;123.19;-4;-19.93;-32.95;392.5;15.80;76280;2835.144;-1758.711;1;165;-70;-61.3;44.5;44.8;-38;-37.9;27.5;0.0;
20/02/2025 11:53:22;100;0;135.40;-4;-20.11;-29.28;395.4;15.80;76271;2835.142;-1758.709;1;170;-70;-61.3;44.5;44.9;-27;-26.6;27.5;0.0;
20/02/2025 11:53:42;100;0;145.58;-4;-20.41;-23.67;398.3;15.70;76270;2835.139;-1758.706;1;174;-70;-62.9;44.5;44.9;-18;-18.1;27.5;0.0;
20/02/2025 11:54:02;100;0;153.07;-4;-20.75;-19.26;401.3;15.70;76258;2835.136;-1758.704;1;179;-70;-62.9;44.5;44.9;-14;-13.5;27.5;0.0;
20/02/2025 11:54:22;100;0;159.04;-4;-20.95;-17.29;404.2;15.60;76257;2835.133;-1758.703;1;184;-70;-61.3;44.5;44.8;-10;-9.9;27.5;0.0;
20/02/2025 11:54:42;100;0;165.78;-4;-20.93;-15.52;407.1;15.60;76255;2835.130;-1758.702;1;190;-70;-61.3;44.5;44.9;-10;-9.9;27.5;0.0;
20/02/2025 11:55:02;100;0;171.73;-4;-20.58;-15.45;410.0;15.60;76247;2835.126;-1758.702;1;198;-70;-64.5;44.5;44.9;-13;-13.5;27.4;0.0;
20/02/2025 11:55:22;100;0;179.49;-4;-20.86;-17.73;412.8;15.60;76238;2835.123;-1758.702;1;213;-70;-59.7;44.5;44.9;-23;-23.0;27.5;0.0;
20/02/2025 11:55:42;100;0;188.11;-4;-20.57;-22.26;415.7;15.50;76238;2835.120;-1758.702;1;281;-70;-61.3;44.5;44.9;-70;-69.9;27.5;0.0;
20/02/2025 11:56:02;100;0;198.72;-4;-20.21;-45.23;418.5;15.50;76242;2835.117;-1758.704;1;358;-70;-61.3;44.5;44.9;-70;-69.9;27.5;0.0;
20/02/2025 11:56:22;100;0;210.58;-4;-20.49;-44.93;421.4;15.50;76235;2835.114;-1758.706;1;16;-70;-62.9;44.5;44.9;-70;-69.9;27.5;0.0;
20/02/2025 11:56:42;100;0;221.14;-4;-20.41;-45.38;424.3;15.40;76227;2835.111;-1758.709;1;26;-70;-61.3;44.5;44.8;-70;-69.9;27.5;0.0;
20/02/2025 11:57:02;100;0;231.30;-4;-20.28;-45.48;427.2;15.40;76226;2835.109;-1758.712;1;34;-70;-62.9;44.5;44.8;-70;-69.9;27.5;0.0;
20/02/2025 11:57:22;100;0;242.19;-4;-20.43;-45.07;430.1;15.40;76216;2835.107;-1758.716;1;40;-70;-61.3;44.5;44.9;-70;-70.4;27.5;0.0;
20/02/2025 11:57:42;100;0;253.49;-4;-20.46;-45.21;433.0;15.30;76203;2835.107;-1758.720;1;47;-70;-66.1;44.5;44.9;-70;-69.9;27.5;0.0;
20/02/2025 11:58:02;100;0;265.96;-4;-20.46;-45.20;435.8;15.30;76194;2835.107;-1758.725;1;53;-70;-62.9;44.5;44.9;-70;-69.9;27.5;0.0;
20/02/2025 11:58:22;100;0;278.86;-4;-20.48;-45.48;438.6;15.30;76192;2835.107;-1758.729;1;60;-70;-61.3;44.5;44.9;-70;-70.4;27.5;0.0;
20/02/2025 11:58:42;100;0;292.51;-4;-20.30;-45.31;441.5;15.30;76182;2835.109;-1758.733;1;66;-70;-61.3;44.5;44.9;-70;-70.4;27.5;0.0;
20/02/2025 11:59:02;100;0;304.31;-4;-20.43;-45.27;444.3;15.20;76175;2835.111;-1758.736;1;73;-70;-61.3;44.5;44.9;-70;-69.9;27.5;0.0;
20/02/2025 11:59:22;100;0;317.36;-4;-20.30;-45.29;447.0;15.20;76174;2835.114;-1758.739;1;79;-70;-61.3;44.5;44.9;-70;-69.9;27.5;0.0;
20/02/2025 11:59:42;100;0;330.19;-4;-20.41;-45.21;449.7;15.20;76167;2835.117;-1758.741;1;85;-70;-61.3;44.5;44.8;-70;-70.4;27.5;0.0;
20/02/2025 12:00:02;100;0;342.63;-4;-20.60;-45.23;452.5;15.10;76163;2835.121;-1758.742;1;91;-70;-61.3;44.5;44.9;-70;-69.9;27.5;0.0;
20/02/2025 12:00:22;100;0;354.80;-4;-20.55;-45.30;455.2;15.10;76161;2835.124;-1758.743;1;97;-70;-62.9;44.5;44.9;-70;-69.9;27.5;0.0;
20/02/2025 12:00:42;100;0;9.25;-4;-19.96;-45.43;458.0;15.10;76140;2835.128;-1758.742;1;104;-70;-62.9;44.5;44.9;-70;-69.9;27.5;0.0;
20/02/2025 12:01:02;100;0;22.30;-4;-20.14;-45.30;460.6;15.10;76137;2835.131;-1758.741;1;110;-70;-61.3;44.5;44.9;-70;-69.9;27.5;0.0;
20/02/2025 12:01:22;100;0;34.60;-4;-20.31;-45.24;463.1;15.00;76139;2835.134;-1758.739;1;115;-70;-61.3;44.5;44.9;-70;-69.9;27.5;0.0;
20/02/2025 12:01:42;100;0;46.61;-4;-20.08;-45.19;465.6;15.00;76135;2835.137;-1758.736;1;121;-70;-61.3;44.5;44.8;-70;-69.9;27.5;0.0;
20/02/2025 12:02:02;100;0;58.47;-4;-20.36;-45.18;468.3;15.00;76116;2835.139;-1758.733;1;126;-70;-61.3;44.5;44.9;-70;-69.9;27.5;0.0;
20/02/2025 12:02:22;100;0;71.07;-4;-20.23;-45.21;470.8;14.90;76126;2835.140;-1758.730;1;132;-70;-61.3;44.5;44.9;-64;-63.6;27.5;0.0;
20/02/2025 12:02:42;100;0;82.98;-4;-20.08;-41.77;473.2;14.90;76116;2835.141;-1758.726;1;137;-70;-59.7;44.5;44.9;-56;-56.0;27.5;0.0;
20/02/2025 12:03:02;100;0;94.51;-4;-20.08;-37.99;475.6;14.90;76120;2835.141;-1758.723;1;141;-70;-61.3;44.5;44.9;-45;-44.7;27.5;0.0;
20/02/2025 12:03:22;100;0;105.67;-4;-20.39;-32.60;478.1;14.90;76124;2835.140;-1758.719;1;146;-70;-61.3;44.5;44.9;-38;-37.9;27.5;0.0;
20/02/2025 12:03:42;100;0;118.02;-4;-20.11;-29.16;480.6;14.80;76103;2835.139;-1758.716;1;150;-70;-61.3;44.5;44.9;-26;-26.2;27.5;0.0;
20/02/2025 12:04:02;100;0;128.80;-4;-20.58;-23.30;483.2;14.80;76094;2835.137;-1758.714;1;154;-70;-62.9;44.5;44.9;-14;-13.5;27.5;0.0;
20/02/2025 12:04:22;100;0;137.42;-4;-20.80;-17.37;485.8;14.80;76093;2835.135;-1758.711;1;157;-70;-61.3;44.5;44.9;-5;-5.0;27.5;0.0;
20/02/2025 12:04:42;100;0;143.55;-4;-21.00;-13.53;488.5;14.70;76085;2835.132;-1758.709;1;160;-70;-62.9;44.5;44.9;1;0.9;27.5;0.0;
20/02/2025 12:05:02;100;0;148.03;-4;-21.25;-10.70;491.2;14.70;76082;2835.130;-1758.707;1;164;-70;-61.3;44.5;44.9;1;1.4;27.5;0.0;
20/02/2025 12:05:22;100;0;151.85;-4;-21.36;-10.68;493.8;14.70;76080;2835.127;-1758.705;1;170;-70;-61.3;44.5;44.9;-1;-1.4;27.5;0.0;
20/02/2025 12:05:42;100;0;155.19;-4;-20.96;-12.38;496.4;14.60;76070;2835.125;-1758.704;1;180;-70;-61.3;44.5;44.9;-12;-12.2;27.5;0.0;
20/02/2025 12:06:02;100;0;163.21;-4;-20.58;-17.88;499.1;14.60;76071;2835.122;-1758.703;1;208;-70;-62.9;44.5;44.9;-38;-37.9;27.5;0.0;
20/02/2025 12:06:22;100;0;174.16;-4;-20.39;-30.07;501.6;14.60;76056;2835.119;-1758.703;1;321;-70;-61.3;44.5;44.9;-70;-69.9;27.5;0.0;
20/02/2025 12:06:42;100;0;186.69;-4;-20.22;-45.55;504.2;14.60;76055;2835.116;-1758.703;1;352;-70;-61.3;44.5;44.9;-70;-70.4;27.5;0.0;
20/02/2025 12:07:02;100;0;199.67;-4;-20.28;-45.53;507.0;14.50;76040;2835.112;-1758.705;1;5;-70;-61.3;44.5;44.9;-70;-70.4;27.5;0.0;
20/02/2025 12:07:22;100;0;212.45;-4;-20.77;-45.43;509.7;14.50;76035;2835.110;-1758.707;1;14;-70;-61.3;44.5;44.9;-70;-70.4;27.5;0.0;
20/02/2025 12:07:42;100;0;226.49;-4;-19.95;-45.31;512.5;14.50;76041;2835.108;-1758.710;1;23;-70;-61.3;44.5;44.9;-70;-70.4;27.5;0.0;
20/02/2025 12:08:02;100;0;239.01;-4;-20.31;-45.59;515.1;14.50;76028;2835.106;-1758.713;1;31;-70;-61.3;44.5;44.9;-70;-70.4;27.5;0.0;
20/02/2025 12:08:22;100;0;252.93;-4;-20.09;-45.22;517.8;14.50;76024;2835.105;-1758.717;1;38;-70;-61.3;44.5;45.1;-70;-70.4;27.5;0.0;
20/02/2025 12:08:42;100;0;265.35;-4;-20.31;-45.30;520.3;14.40;76022;2835.105;-1758.721;1;45;-70;-61.3;44.5;44.9;-70;-70.4;27.5;0.0;
20/02/2025 12:09:02;100;0;276.77;-4;-20.53;-45.29;522.9;14.40;76015;2835.106;-1758.725;1;52;-70;-61.3;44.5;44.8;-70;-70.4;27.5;0.0;
20/02/2025 12:09:22;100;0;288.37;-4;-20.26;-45.30;525.6;14.40;76019;2835.107;-1758.728;1;59;-70;-62.9;44.5;44.9;-70;-70.4;27.5;0.0;
20/02/2025 12:09:42;100;0;300.48;-4;-20.65;-45.37;528.2;14.40;76015;2835.109;-1758.732;1;66;-70;-61.3;44.5;44.9;-70;-70.4;27.5;0.0;
20/02/2025 12:10:02;100;0;312.89;-4;-20.47;-45.34;530.9;14.30;76014;2835.112;-1758.735;1;73;-70;-61.3;44.5;44.9;-70;-70.4;27.5;0.0;
20/02/2025 12:10:22;100;0;325.02;-4;-20.37;-45.38;533.5;14.30;76006;2835.115;-1758.737;1;80;-70;-61.3;44.5;44.9;-70;-70.4;27.5;0.0;
20/02/2025 12:10:42;100;0;338.81;-4;-20.25;-45.34;536.1;14.30;75999;2835.118;-1758.738;1;86;-70;-61.3;44.5;44.9;-70;-70.4;27.5;0.0;
20/02/2025 12:11:02;100;0;351.31;-4;-20.33;-45.36;538.8;14.30;75993;2835.122;-1758.739;1;93;-70;-61.3;44.5;44.9;-70;-70.4;27.5;0.0;
20/02/2025 12:11:22;100;0;4.72;-4;-20.39;-45.56;541.3;14.20;75998;2835.125;-1758.739;1;100;-70;-64.5;44.5;44.9;-70;-70.4;27.5;0.0;
20/02/2025 12:11:42;100;0;18.07;-4;-20.42;-45.44;543.9;14.20;75995;2835.129;-1758.738;1;106;-70;-61.3;44.5;44.9;-70;-70.4;27.5;0.0;
20/02/2025 12:12:02;100;0;32.39;-4;-20.02;-45.36;546.6;14.20;75978;2835.132;-1758.736;1;113;-70;-61.3;44.5;44.9;-70;-70.4;27.5;0.0;
20/02/2025 12:12:22;100;0;46.54;-4;-19.50;-45.09;549.1;14.20;75973;2835.134;-1758.733;1;119;-70;-61.3;44.5;44.8;-70;-70.4;27.5;0.0;
20/02/2025 12:12:42;100;0;58.79;-4;-19.84;-45.24;551.4;14.10;75963;2835.136;-1758.730;1;124;-70;-61.3;44.5;44.9;-70;-70.4;27.5;0.0;
20/02/2025 12:13:02;100;0;68.95;-4;-19.98;-45.34;553.9;14.10;75958;2835.137;-1758.727;1;130;-70;-61.3;44.5;44.9;-64;-64.1;27.5;0.0;
20/02/2025 12:13:22;100;0;80.31;-4;-20.09;-41.84;556.2;14.10;75953;2835.138;-1758.724;1;136;-70;-62.9;44.5;44.9;-58;-58.2;27.5;0.0;
20/02/2025 12:13:42;100;0;92.24;-4;-20.05;-39.16;558.6;14.10;75947;2835.138;-1758.721;1;141;-70;-61.3;44.5;44.9;-49;-49.2;27.5;0.0;
20/02/2025 12:14:02;100;0;105.44;-4;-19.84;-34.76;561.1;14.10;75950;2835.138;-1758.717;1;147;-70;-61.3;44.5;44.9;-39;-38.4;27.5;0.0;
20/02/2025 12:14:22;100;0;116.94;-4;-19.91;-29.54;563.5;14.00;75935;2835.136;-1758.714;1;152;-70;-61.3;44.5;44.9;-31;-31.1;27.5;0.0;
20/02/2025 12:14:42;100;0;128.08;-4;-20.05;-25.84;566.0;14.00;75926;2835.135;-1758.711;1;156;-70;-61.3;44.5;44.9;-19;-19.0;27.5;0.0;
20/02/2025 12:15:02;100;0;137.30;-4;-20.56;-19.76;568.4;14.00;75927;2835.133;-1758.709;1;160;-70;-61.3;44.5;44.9;-10;-9.9;27.5;0.0;
20/02/2025 12:15:22;100;0;145.08;-4;-20.77;-15.78;570.9;13.90;75903;2835.130;-1758.707;1;165;-70;-61.3;44.5;45.1;-5;-5.0;27.5;0.0;
20/02/2025 12:15:42;100;0;151.05;-4;-21.02;-13.48;573.4;13.90;75912;2835.128;-1758.706;1;170;-70;-61.3;44.5;45.1;-2;-1.8;27.5;0.0;
20/02/2025 12:16:02;100;0;153.30;-4;-21.08;-11.78;575.9;13.90;75912;2835.125;-1758.704;1;179;-70;-61.3;44.5;44.9;-14;-14.4;27.5;0.0;
20/02/2025 12:16:22;100;0;158.73;-4;-20.47;-18.48;578.5;13.90;75905;2835.123;-1758.703;1;202;-70;-61.3;44.5;44.2;-37;-37.0;27.5;0.0;
20/02/2025 12:16:43;100;0;167.79;-4;-18.60;-29.15;580.8;13.80;75905;2835.120;-1758.702;1;279;-70;-62.9;44.9;45.4;-70;-69.9;27.5;0.0;
20/02/2025 12:17:03;100;0;176.12;-4;-20.76;-45.24;583.3;13.80;75897;2835.117;-1758.702;1;331;-70;-61.3;44.9;45.4;-70;-70.4;27.5;0.0;
20/02/2025 12:17:23;100;0;188.25;-4;-20.85;-45.21;585.9;13.80;75893;2835.114;-1758.703;1;349;-70;-59.7;44.9;45.2;-70;-70.4;27.5;0.0;
20/02/2025 12:17:43;100;0;199.80;-4;-20.75;-45.28;588.4;13.80;75902;2835.111;-1758.704;1;0;-70;-61.3;44.9;45.2;-70;-69.9;27.5;0.0;
20/02/2025 12:18:03;100;0;208.39;-4;-21.15;-45.03;591.1;13.80;75896;2835.109;-1758.706;1;8;-70;-61.3;44.9;45.4;-70;-70.4;27.5;0.0;
20/02/2025 12:18:23;100;0;218.52;-4;-20.71;-45.13;593.6;13.70;75878;2835.106;-1758.708;1;15;-70;-61.3;44.9;45.2;-70;-70.4;27.5;0.0;
20/02/2025 12:18:43;100;0;228.12;-4;-20.90;-45.39;596.3;13.70;75873;2835.104;-1758.711;1;22;-70;-62.9;44.9;45.2;-70;-70.4;27.5;0.0;
20/02/2025 12:19:03;100;0;241.78;-4;-20.52;-45.38;598.8;13.70;75866;2835.103;-1758.714;1;28;-70;-61.3;44.9;45.4;-70;-70.4;27.5;0.0;
20/02/2025 12:19:23;100;0;255.69;-4;-20.20;-45.33;601.3;13.70;75861;2835.103;-1758.718;1;35;-70;-64.5;44.9;45.2;-70;-69.9;27.5;0.0;
20/02/2025 12:19:43;100;0;268.35;-4;-20.49;-45.25;603.6;13.60;75841;2835.103;-1758.721;1;42;-70;-61.3;44.9;45.2;-70;-69.9;27.5;0.0;
20/02/2025 12:20:03;100;0;280.49;-4;-20.69;-45.25;606.1;13.60;75858;2835.104;-1758.725;1;48;-70;-62.9;44.9;45.2;-70;-69.9;27.5;0.0;
20/02/2025 12:20:23;100;0;290.29;-4;-20.83;-45.19;608.6;13.60;75843;2835.105;-1758.728;1;55;-70;-61.3;44.9;45.2;-70;-69.9;27.5;0.0;
20/02/2025 12:20:43;100;0;300.89;-4;-20.88;-45.21;611.0;13.60;75837;2835.107;-1758.731;1;61;-70;-61.3;44.9;45.2;-70;-69.9;27.5;0.0;
20/02/2025 12:21:03;100;0;312.88;-4;-20.74;-45.24;613.6;13.60;75833;2835.109;-1758.734;1;67;-70;-61.3;44.9;45.2;-70;-70.4;27.5;0.0;
20/02/2025 12:21:23;100;0;324.70;-4;-20.87;-45.38;616.2;13.50;75821;2835.112;-1758.736;1;74;-70;-62.9;44.9;45.2;-70;-69.9;27.5;0.0;
20/02/2025 12:21:43;100;0;335.39;-4;-21.02;-45.52;618.8;13.50;75818;2835.115;-1758.738;1;81;-70;-61.3;44.9;45.2;-70;-69.9;27.5;0.0;
20/02/2025 12:22:03;100;0;347.87;-4;-20.69;-45.42;621.4;13.50;75823;2835.118;-1758.739;1;87;-70;-61.3;44.9;45.2;-70;-70.4;27.5;0.0;
20/02/2025 12:22:23;100;0;359.23;-4;-21.40;-45.31;623.9;13.50;75811;2835.122;-1758.739;1;93;-70;-61.3;44.9;45.2;-70;-70.4;27.5;0.0;
20/02/2025 12:22:43;100;0;12.81;-4;-20.42;-45.41;626.6;13.40;75806;2835.125;-1758.738;1;100;-70;-61.3;44.9;45.2;-70;-69.9;27.5;0.0;
20/02/2025 12:23:03;100;0;25.82;-4;-20.58;-45.50;629.2;13.40;75813;2835.128;-1758.737;1;106;-70;-61.3;44.9;45.2;-70;-70.4;27.5;0.0;
20/02/2025 12:23:23;100;0;39.94;-4;-20.62;-45.54;631.8;13.40;75808;2835.131;-1758.734;1;113;-70;-61.3;44.9;45.2;-70;-69.9;27.5;0.0;
20/02/2025 12:23:43;100;0;53.88;-4;-20.47;-45.55;634.4;13.40;75803;2835.133;-1758.731;1;119;-70;-62.9;44.9;45.2;-70;-70.4;27.5;0.0;
20/02/2025 12:24:03;100;0;67.36;-4;-20.34;-45.36;637.0;13.40;75785;2835.135;-1758.728;1;125;-70;-62.9;44.9;45.2;-60;-60.0;27.5;0.0;
20/02/2025 12:24:23;100;0;81.71;-4;-19.95;-40.07;639.6;13.30;75783;2835.136;-1758.724;1;131;-70;-61.3;44.9;45.4;-50;-50.1;27.5;0.0;
20/02/2025 12:24:43;100;0;91.40;-4;-20.27;-35.21;642.1;13.30;75778;2835.136;-1758.721;1;137;-70;-61.3;44.9;45.4;-46;-46.0;27.5;0.0;
20/02/2025 12:25:03;100;0;101.88;-4;-20.30;-33.03;644.7;13.30;75771;2835.135;-1758.717;1;143;-70;-61.3;44.9;45.2;-39;-38.8;27.5;0.0;
20/02/2025 12:25:23;100;0;111.19;-4;-20.30;-29.67;647.1;13.30;75756;2835.134;-1758.714;1;149;-70;-61.3;44.9;45.4;-35;-35.2;27.5;0.0;
20/02/2025 12:25:43;100;0;121.43;-4;-20.40;-27.97;649.5;13.20;75748;2835.133;-1758.711;1;155;-70;-61.3;44.9;45.4;-28;-28.0;27.5;0.0;
20/02/2025 12:26:03;100;0;130.73;-4;-20.64;-24.27;652.0;13.20;75752;2835.131;-1758.709;1;160;-70;-61.3;44.9;45.4;-21;-21.2;27.5;0.0;
20/02/2025 12:26:23;100;0;138.58;-4;-21.09;-20.92;654.5;13.20;75739;2835.129;-1758.706;1;168;-70;-61.3;44.9;45.4;-21;-20.8;27.5;0.0;
20/02/2025 12:26:43;100;0;145.64;-4;-20.88;-20.97;657.0;13.20;75745;2835.127;-1758.704;1;177;-70;-61.3;44.9;45.4;-23;-23.0;27.5;0.0;
20/02/2025 12:27:03;100;0;152.12;-4;-20.81;-22.27;659.4;13.10;75743;2835.125;-1758.703;1;192;-70;-61.3;44.9;45.4;-32;-32.0;27.5;0.0;
20/02/2025 12:27:23;100;0;161.14;-4;-20.49;-26.76;661.9;13.10;75726;2835.122;-1758.702;1;227;-70;-61.3;44.9;45.4;-63;-63.2;27.5;0.0;
20/02/2025 12:27:43;100;0;172.59;-4;-20.47;-42.01;664.4;13.10;75728;2835.119;-1758.701;1;299;-70;-62.9;44.9;45.4;-70;-69.9;27.5;0.0;
20/02/2025 12:28:03;100;0;184.38;-4;-20.80;-45.37;667.0;13.10;75720;2835.116;-1758.702;1;336;-70;-61.3;44.9;45.4;-70;-70.4;27.5;0.0;
20/02/2025 12:28:23;100;0;196.49;-4;-20.78;-45.42;669.6;13.00;75730;2835.113;-1758.703;1;353;-70;-61.3;44.9;45.4;-70;-70.4;27.5;0.0;
20/02/2025 12:28:43;100;0;209.92;-4;-20.77;-45.58;672.1;13.00;75721;2835.111;-1758.705;1;5;-70;-62.9;44.9;45.5;-70;-70.4;27.5;0.0;
20/02/2025 12:29:03;100;0;222.47;-4;-20.72;-45.38;674.8;13.00;75711;2835.108;-1758.707;1;15;-70;-61.3;44.9;45.4;-70;-70.4;27.5;0.0;
20/02/2025 12:29:23;100;0;233.14;-4;-21.00;-45.40;677.4;13.00;75702;2835.107;-1758.711;1;23;-70;-62.9;44.9;45.4;-70;-70.4;27.5;0.0;
20/02/2025 12:29:43;100;0;245.94;-4;-20.83;-45.50;680.1;13.00;75697;2835.105;-1758.714;1;32;-70;-61.3;44.9;45.2;-70;-70.4;27.5;0.0;
20/02/2025 12:30:03;100;0;256.36;-4;-20.79;-45.20;682.7;13.00;75693;2835.105;-1758.718;1;39;-70;-61.3;44.9;45.4;-70;-70.4;27.5;0.0;
20/02/2025 12:30:23;100;0;267.05;-4;-20.75;-45.34;685.2;12.90;75680;2835.105;-1758.721;1;46;-70;-61.3;44.9;45.4;-70;-70.4;27.5;0.0;
20/02/2025 12:30:43;100;0;278.41;-4;-20.70;-45.30;688.1;12.90;75681;2835.106;-1758.725;1;53;-70;-62.9;44.9;45.4;-70;-70.4;27.5;0.0;
20/02/2025 12:31:03;100;0;290.04;-4;-20.98;-45.46;690.8;12.90;75676;2835.107;-1758.729;1;60;-70;-62.9;44.9;45.4;-70;-70.4;27.5;0.0;
20/02/2025 12:31:23;100;0;301.89;-4;-21.05;-45.52;693.6;12.80;75662;2835.109;-1758.733;1;67;-70;-61.3;44.9;45.4;-70;-70.4;27.5;0.0;
20/02/2025 12:31:43;100;0;313.65;-4;-20.74;-45.29;696.4;12.80;75665;2835.112;-1758.736;1;74;-70;-61.3;44.9;45.4;-70;-70.4;27.5;0.0;
20/02/2025 12:32:03;100;0;324.39;-4;-20.84;-45.33;699.2;12.80;75655;2835.115;-1758.738;1;80;-70;-61.3;44.9;45.4;-70;-70.4;27.5;0.0;
20/02/2025 12:32:23;100;0;335.91;-4;-20.71;-45.20;701.9;12.80;75651;2835.118;-1758.740;1;87;-70;-61.3;44.9;45.4;-70;-70.4;27.5;0.0;
20/02/2025 12:32:43;100;0;347.16;-4;-20.91;-45.39;704.9;12.80;75654;2835.122;-1758.741;1;94;-70;-61.3;44.9;45.2;-70;-70.4;27.5;0.0;
20/02/2025 12:33:03;100;0;0.54;-4;-21.20;-45.46;707.7;12.70;75648;2835.126;-1758.741;1;100;-70;-61.3;44.9;45.4;-70;-70.4;27.5;0.0;
20/02/2025 12:33:23;100;0;12.68;-4;-21.02;-45.51;710.7;12.70;75643;2835.130;-1758.740;1;107;-70;-61.3;44.9;45.4;-70;-70.4;27.5;0.0;
20/02/2025 12:33:43;100;0;25.08;-4;-20.67;-45.38;713.6;12.70;75621;2835.133;-1758.738;1;113;-70;-62.9;44.9;45.4;-70;-70.4;27.5;0.0;
20/02/2025 12:34:03;100;0;37.41;-4;-20.65;-45.30;716.5;12.70;75618;2835.136;-1758.736;1;120;-70;-61.3;44.9;45.4;-70;-70.4;27.5;0.0;
20/02/2025 12:34:23;100;0;50.01;-4;-20.59;-45.40;719.4;12.60;75617;2835.139;-1758.733;1;126;-70;-59.7;44.9;45.4;-70;-70.4;27.5;0.0;
20/02/2025 12:34:43;100;0;63.25;-4;-20.70;-45.35;722.2;12.60;75618;2835.140;-1758.729;1;133;-70;-59.7;44.9;45.4;-70;-70.4;27.5;0.0;
20/02/2025 12:35:03;100;0;77.01;-4;-20.94;-45.77;725.1;12.60;75616;2835.141;-1758.726;1;139;-70;-61.3;44.9;45.4;-64;-64.1;27.5;0.0;
20/02/2025 12:35:23;100;0;89.54;-4;-20.63;-42.14;728.0;12.60;75592;2835.142;-1758.721;1;145;-70;-61.3;44.9;45.5;-57;-56.9;27.5;0.0;
20/02/2025 12:35:43;100;0;102.70;-4;-20.98;-38.44;730.9;12.60;75609;2835.141;-1758.718;1;151;-70;-61.3;44.9;45.4;-48;-47.8;27.5;0.0;
20/02/2025 12:36:03;100;0;116.67;-4;-20.00;-34.24;733.9;12.50;75589;2835.140;-1758.714;1;156;-70;-59.7;44.9;45.4;-36;-36.1;27.5;0.0;
20/02/2025 12:36:23;100;0;131.52;-4;-19.44;-28.70;736.7;12.50;75587;2835.138;-1758.711;1;161;-70;-61.3;44.9;45.4;-22;-22.1;27.5;0.0;
20/02/2025 12:36:43;100;0;143.80;-4;-20.48;-21.53;739.4;12.50;75588;2835.135;-1758.709;1;165;-70;-61.3;44.9;45.4;-8;-8.1;27.5;0.0;
20/02/2025 12:37:03;100;0;151.43;-4;-20.53;-15.30;742.2;12.50;75568;2835.132;-1758.707;1;169;-70;-61.3;44.9;45.5;0;0.0;27.5;0.0;
20/02/2025 12:37:23;100;0;160.64;-4;-20.97;-11.43;745.0;12.40;75563;2835.129;-1758.706;1;172;-70;-61.3;44.9;45.5;8;8.6;27.5;0.0;
20/02/2025 12:37:43;100;0;161.76;-4;-21.27;-7.26;747.7;12.40;75570;2835.126;-1758.704;1;177;-70;-64.5;44.9;45.5;3;3.2;27.5;0.0;
20/02/2025 12:38:03;100;0;163.87;-4;-21.20;-10.44;750.4;12.40;75555;2835.123;-1758.703;1;189;-70;-61.3;44.9;45.5;-11;-10.8;27.5;0.0;
20/02/2025 12:38:23;100;0;168.66;-4;-20.88;-17.20;753.3;12.40;75545;2835.120;-1758.703;1;274;-70;-61.3;44.9;44.6;-70;-69.9;27.5;0.0;
20/02/2025 12:38:43;100;0;177.43;-4;-19.41;-45.31;755.9;12.30;75540;2835.117;-1758.703;1;341;-70;-61.3;44.9;44.6;-70;-70.4;27.5;0.0;
20/02/2025 12:39:03;100;0;188.58;-4;-19.15;-45.37;758.7;12.30;75535;2835.113;-1758.703;1;356;-70;-61.3;44.9;44.5;-70;-70.4;27.5;0.0;
20/02/2025 12:39:23;100;0;200.14;-4;-19.18;-45.40;761.4;12.30;75537;2835.110;-1758.705;1;5;-70;-61.3;44.9;44.6;-70;-69.9;27.5;0.0;
20/02/2025 12:39:43;100;0;212.67;-4;-19.12;-45.52;764.1;12.30;75529;2835.107;-1758.707;1;12;-70;-61.3;44.9;44.5;-70;-70.4;27.5;0.0;
20/02/2025 12:40:03;100;0;224.75;-4;-18.89;-45.57;766.9;12.30;75521;2835.105;-1758.710;1;20;-70;-61.3;45.2;45.4;-70;-70.4;27.5;0.0;
20/02/2025 12:40:23;100;0;236.72;-4;-20.90;-45.35;769.7;12.20;75525;2835.103;-1758.714;1;27;-70;-61.3;45.2;45.5;-70;-70.4;27.5;0.0;
20/02/2025 12:40:43;100;0;248.70;-4;-20.74;-45.40;772.6;12.20;75511;2835.102;-1758.718;1;34;-70;-61.3;45.2;45.5;-70;-70.4;27.5;0.0;
20/02/2025 12:41:03;100;0;261.15;-4;-20.72;-45.26;775.4;12.20;75514;2835.102;-1758.722;1;41;-70;-61.3;45.2;45.5;-70;-69.9;27.5;0.0;
20/02/2025 12:41:23;100;0;275.47;-4;-19.97;-45.28;778.4;12.20;75503;2835.102;-1758.726;1;48;-70;-61.3;45.2;45.5;-70;-70.4;27.5;0.0;
20/02/2025 12:41:43;100;0;287.54;-4;-20.29;-45.22;781.2;12.10;75492;2835.104;-1758.730;1;55;-70;-62.9;45.2;45.5;-70;-70.4;27.5;0.0;
20/02/2025 12:42:03;100;0;299.95;-4;-20.10;-45.33;784.0;12.10;75480;2835.106;-1758.734;1;61;-70;-61.3;45.2;45.5;-70;-70.4;27.5;0.0;
20/02/2025 12:42:23;100;0;313.60;-4;-20.54;-45.35;786.7;12.10;75479;2835.108;-1758.737;1;68;-70;-59.7;45.2;45.5;-70;-69.9;27.5;0.0;
20/02/2025 12:42:43;100;0;327.69;-4;-20.64;-45.48;789.6;12.10;75468;2835.112;-1758.739;1;75;-70;-61.3;45.2;45.5;-70;-70.4;27.5;0.0;
20/02/2025 12:43:03;100;0;340.53;-4;-20.94;-45.44;792.4;12.10;75467;2835.115;-1758.740;1;81;-70;-61.3;45.2;45.5;-70;-70.4;27.5;0.0;
20/02/2025 12:43:23;100;0;353.57;-4;-20.39;-45.31;795.5;12.00;75457;2835.119;-1758.741;1;89;-70;-59.7;45.2;45.5;-70;-70.4;27.5;0.0;
20/02/2025 12:43:43;100;0;5.67;-4;-20.52;-45.28;798.4;12.00;75459;2835.123;-1758.740;1;96;-70;-61.3;45.2;45.5;-70;-69.9;27.5;0.0;
20/02/2025 12:44:03;100;0;17.58;-4;-20.68;-45.27;801.3;12.00;75440;2835.127;-1758.739;1;102;-70;-62.9;45.2;45.5;-70;-69.9;27.5;0.0;
20/02/2025 12:44:23;100;0;30.16;-4;-20.57;-45.30;804.2;11.90;75442;2835.130;-1758.737;1;109;-70;-61.3;45.2;45.5;-70;-70.4;27.5;0.0;
20/02/2025 12:44:43;100;0;42.59;-4;-20.41;-45.40;807.1;11.90;75426;2835.133;-1758.735;1;116;-70;-61.3;45.2;45.5;-70;-69.9;27.5;0.0;
20/02/2025 12:45:03;100;0;56.41;-4;-20.43;-45.31;810.1;11.90;75435;2835.135;-1758.731;1;123;-70;-61.3;45.2;45.5;-70;-69.9;27.5;0.0;
20/02/2025 12:45:23;100;0;68.35;-4;-20.54;-45.27;812.9;11.90;75422;2835.137;-1758.727;1;129;-70;-61.3;45.2;45.5;-64;-64.1;27.5;0.0;
20/02/2025 12:45:43;100;0;81.79;-4;-20.19;-42.13;815.8;11.90;75427;2835.138;-1758.723;1;136;-70;-61.3;45.2;45.5;-56;-56.0;27.5;0.0;
20/02/2025 12:46:03;100;0;95.82;-4;-20.00;-38.17;818.7;11.90;75424;2835.138;-1758.719;1;142;-70;-62.9;45.2;45.7;-45;-45.1;27.5;0.0;
20/02/2025 12:46:23;100;0;109.33;-4;-19.95;-32.70;821.4;11.80;75420;2835.137;-1758.716;1;148;-70;-61.3;45.2;45.5;-36;-36.1;27.5;0.0;
20/02/2025 12:46:43;100;0;120.88;-4;-20.18;-28.39;824.1;11.80;75411;2835.135;-1758.712;1;154;-70;-62.9;45.2;45.7;-27;-27.1;27.5;0.0;
20/02/2025 12:47:03;100;0;131.30;-4;-20.48;-23.88;826.8;11.80;75405;2835.133;-1758.710;1;160;-70;-61.3;45.2;45.7;-20;-19.9;27.5;0.0;
20/02/2025 12:47:23;100;0;140.65;-4;-20.54;-20.40;829.6;11.70;75397;2835.131;-1758.707;1;165;-70;-61.3;45.2;45.7;-13;-13.1;27.5;0.0;
20/02/2025 12:47:43;100;0;147.33;-4;-20.77;-17.27;832.3;11.70;75400;2835.128;-1758.705;1;173;-70;-62.9;45.2;45.7;-13;-13.1;27.5;0.0;
20/02/2025 12:48:03;100;0;152.09;-4;-21.32;-17.10;835.1;11.70;75384;2835.125;-1758.703;1;185;-70;-61.3;45.2;45.7;-24;-24.4;27.5;0.0;
20/02/2025 12:48:23;100;0;159.74;-4;-20.97;-23.03;838.0;11.70;75392;2835.122;-1758.702;1;218;-70;-62.9;45.2;45.7;-55;-55.1;27.5;0.0;
20/02/2025 12:48:43;100;0;168.63;-4;-20.43;-38.04;840.9;11.70;75372;2835.119;-1758.701;1;301;-70;-61.3;45.2;45.7;-70;-69.9;27.5;0.0;
20/02/2025 12:49:03;100;0;178.55;-4;-20.94;-45.17;843.8;11.60;75370;2835.115;-1758.701;1;334;-70;-61.3;45.2;45.7;-70;-70.4;27.5;0.0;
20/02/2025 12:49:23;100;0;188.25;-4;-21.05;-45.08;846.7;11.60;75373;2835.112;-1758.702;1;348;-70;-61.3;45.2;45.7;-70;-69.9;27.5;0.0;
20/02/2025 12:49:43;100;0;198.79;-4;-20.84;-45.11;849.6;11.60;75355;2835.109;-1758.703;1;358;-70;-64.5;45.2;45.7;-70;-69.9;27.5;0.0;
20/02/2025 12:50:03;100;0;209.26;-4;-20.98;-45.24;852.5;11.60;75343;2835.106;-1758.706;1;6;-70;-61.3;45.2;45.7;-70;-69.9;27.5;0.0;
20/02/2025 12:50:23;100;0;220.60;-4;-20.74;-45.16;855.3;11.50;75333;2835.104;-1758.708;1;13;-70;-61.3;45.2;45.7;-70;-69.9;27.5;0.0;
20/02/2025 12:50:43;100;0;232.68;-4;-20.66;-45.18;858.1;11.50;75331;2835.102;-1758.712;1;20;-70;-61.3;45.2;45.7;-70;-69.9;27.5;0.0;
20/02/2025 12:51:03;100;0;244.53;-4;-20.87;-45.24;860.9;11.50;75338;2835.101;-1758.715;1;27;-70;-61.3;45.2;45.7;-70;-69.9;27.5;0.0;
20/02/2025 12:51:23;100;0;256.71;-4;-20.80;-45.19;863.6;11.50;75333;2835.100;-1758.719;1;33;-70;-62.9;45.2;45.7;-70;-69.9;27.5;0.0;
20/02/2025 12:51:44;100;0;268.09;-4;-20.78;-44.97;866.5;11.50;75329;2835.100;-1758.723;1;40;-70;-59.7;45.2;45.7;-70;-70.4;27.5;0.0;
20/02/2025 12:52:04;100;0;283.13;-4;-20.13;-45.26;869.2;11.40;75324;2835.101;-1758.727;1;47;-70;-61.3;45.2;45.7;-70;-69.9;27.5;0.0;
20/02/2025 12:52:24;100;0;297.22;-4;-20.41;-45.25;871.9;11.40;75312;2835.103;-1758.731;1;54;-70;-61.3;45.2;45.7;-70;-70.4;27.5;0.0;
20/02/2025 12:52:44;100;0;309.81;-4;-20.63;-45.27;874.5;11.40;75310;2835.105;-1758.734;1;60;-70;-61.3;45.2;45.7;-70;-70.4;27.5;0.0;
20/02/2025 12:53:04;100;0;322.01;-4;-20.79;-45.21;877.1;11.40;75308;2835.108;-1758.736;1;67;-70;-62.9;45.2;45.7;-70;-69.9;27.5;0.0;
20/02/2025 12:53:24;100;0;335.18;-4;-20.60;-45.23;879.8;11.30;75295;2835.111;-1758.738;1;73;-70;-61.3;45.2;45.7;-70;-70.4;27.5;0.0;
20/02/2025 12:53:44;100;0;348.78;-4;-20.71;-45.31;882.4;11.30;75291;2835.115;-1758.738;1;80;-70;-62.9;45.2;45.7;-70;-70.4;27.5;0.0;
20/02/2025 12:54:04;100;0;1.78;-4;-20.54;-45.29;885.1;11.30;75284;2835.118;-1758.738;1;87;-70;-61.3;45.2;45.7;-70;-69.9;27.5;0.0;
20/02/2025 12:54:24;100;0;12.87;-4;-20.54;-45.23;887.7;11.30;75280;2835.122;-1758.738;1;93;-70;-59.7;45.2;45.7;-70;-69.9;27.5;0.0;
20/02/2025 12:54:44;100;0;24.39;-4;-20.78;-45.22;890.3;11.20;75283;2835.125;-1758.736;1;100;-70;-61.3;45.2;45.7;-70;-70.4;27.5;0.0;
20/02/2025 12:55:04;100;0;37.30;-4;-20.67;-45.38;893.0;11.20;75282;2835.128;-1758.734;1;106;-70;-61.3;45.2;45.7;-70;-69.9;27.5;0.0;
20/02/2025 12:55:24;100;0;50.54;-4;-20.54;-45.27;895.7;11.20;75275;2835.130;-1758.731;1;113;-70;-61.3;45.2;45.7;-68;-68.1;27.5;0.0;
20/02/2025 12:55:44;100;0;63.89;-4;-20.52;-43.95;898.2;11.20;75276;2835.132;-1758.728;1;119;-70;-61.3;45.2;45.7;-59;-59.1;27.5;0.0;
20/02/2025 12:56:04;100;0;76.51;-4;-20.24;-39.74;900.9;11.20;75263;2835.133;-1758.724;1;125;-70;-61.3;45.2;45.7;-51;-50.5;27.5;0.0;
20/02/2025 12:56:24;100;0;88.66;-4;-20.11;-35.56;903.5;11.10;75267;2835.133;-1758.721;1;131;-70;-61.3;45.2;45.7;-42;-42.0;27.5;0.0;
20/02/2025 12:56:44;100;0;99.57;-4;-20.12;-31.28;906.0;11.10;75262;2835.133;-1758.717;1;137;-70;-61.3;45.2;45.7;-36;-36.1;27.5;0.0;
20/02/2025 12:57:04;100;0;111.02;-4;-20.35;-28.37;908.5;11.10;75251;2835.132;-1758.714;1;143;-70;-61.3;45.2;45.7;-27;-27.1;27.5;0.0;
20/02/2025 12:57:24;100;0;121.66;-4;-20.48;-23.84;911.1;11.10;75255;2835.130;-1758.711;1;150;-70;-61.3;45.2;45.7;-22;-22.1;27.5;0.0;
20/02/2025 12:57:44;100;0;129.90;-4;-20.37;-21.41;913.7;11.10;75258;2835.128;-1758.708;1;157;-70;-61.3;45.2;45.7;-18;-18.1;27.5;0.0;
20/02/2025 12:58:04;100;0;136.48;-4;-20.45;-19.52;916.2;11.00;75248;2835.126;-1758.706;1;168;-70;-59.7;45.2;45.7;-23;-23.0;27.5;0.0;
20/02/2025 12:58:24;100;0;143.48;-4;-20.54;-22.52;918.8;11.00;75250;2835.124;-1758.703;1;187;-70;-62.9;45.2;45.7;-39;-38.8;27.5;0.0;
20/02/2025 12:58:44;100;0;151.96;-4;-20.16;-30.33;921.3;11.00;75237;2835.121;-1758.702;1;237;-70;-61.3;45.2;45.7;-70;-69.9;27.5;0.0;
20/02/2025 12:59:04;100;0;161.92;-4;-20.58;-45.19;923.9;11.00;75237;2835.118;-1758.701;1;298;-70;-62.9;45.2;45.7;-70;-70.4;27.5;0.0;
20/02/2025 12:59:24;100;0;172.60;-4;-20.55;-45.22;926.5;11.00;75232;2835.116;-1758.700;1;325;-70;-61.3;45.2;45.7;-70;-69.9;27.5;0.0;
20/02/2025 12:59:44;100;0;183.15;-4;-20.67;-45.26;929.0;10.90;75223;2835.113;-1758.701;1;339;-70;-61.3;45.2;45.7;-70;-69.9;27.5;0.0;
20/02/2025 13:00:04;100;0;194.46;-4;-20.42;-45.33;931.7;10.90;75220;2835.110;-1758.702;1;349;-70;-64.5;45.2;45.8;-70;-69.9;27.5;0.0;
20/02/2025 13:00:24;100;0;206.08;-4;-20.62;-45.26;934.2;10.90;75215;2835.107;-1758.703;1;358;-70;-61.3;45.2;45.7;-70;-69.9;27.5;0.0;
20/02/2025 13:00:44;100;0;219.44;-4;-20.58;-45.49;936.7;10.90;75205;2835.105;-1758.706;1;6;-70;-61.3;45.2;45.7;-70;-69.9;27.5;0.0;
20/02/2025 13:01:04;100;0;232.04;-4;-20.45;-45.28;939.3;10.80;75203;2835.103;-1758.709;1;14;-70;-61.3;45.2;45.7;-70;-70.4;27.5;0.0;
20/02/2025 13:01:24;100;0;244.08;-4;-20.70;-45.39;941.8;10.80;75198;2835.102;-1758.712;1;22;-70;-61.3;45.2;45.7;-70;-69.9;27.5;0.0;
20/02/2025 13:01:44;100;0;257.18;-4;-20.53;-45.38;944.5;10.80;75193;2835.101;-1758.716;1;29;-70;-61.3;45.2;45.7;-70;-69.9;27.5;0.0;
20/02/2025 13:02:04;100;0;268.68;-4;-20.49;-45.13;947.1;10.80;75193;2835.102;-1758.720;1;37;-70;-62.9;45.2;45.7;-70;-69.9;27.5;0.0;
20/02/2025 13:02:24;100;0;281.37;-4;-20.41;-45.39;949.6;10.80;75189;2835.102;-1758.724;1;44;-70;-61.3;45.2;45.7;-70;-70.4;27.5;0.0;
20/02/2025 13:02:44;100;0;290.43;-4;-20.94;-45.22;952.0;10.80;75189;2835.104;-1758.727;1;51;-70;-61.3;45.2;45.7;-70;-69.9;27.5;0.0;
20/02/2025 13:03:04;100;0;302.25;-4;-20.92;-45.20;954.4;10.70;75176;2835.106;-1758.730;1;57;-70;-61.3;45.2;45.7;-70;-70.4;27.5;0.0;
20/02/2025 13:03:24;100;0;314.56;-4;-21.50;-45.25;957.1;10.70;75177;2835.108;-1758.732;1;64;-70;-61.3;45.2;45.7;-70;-70.4;27.5;0.0;
20/02/2025 13:03:44;100;0;330.11;-4;-20.01;-45.50;959.7;10.70;75174;2835.111;-1758.734;1;72;-70;-61.3;45.2;45.7;-70;-69.9;27.5;0.0;
20/02/2025 13:04:04;100;0;342.94;-4;-20.55;-45.43;962.2;10.70;75165;2835.114;-1758.736;1;78;-70;-61.3;45.2;45.7;-70;-69.9;27.5;0.0;
20/02/2025 13:04:24;100;0;355.55;-4;-20.49;-45.36;964.7;10.70;75172;2835.118;-1758.736;1;85;-70;-61.3;45.2;45.7;-70;-70.4;27.5;0.0;
20/02/2025 13:04:44;100;0;6.81;-4;-20.85;-45.21;967.2;10.60;75167;2835.121;-1758.736;1;92;-70;-61.3;45.2;45.7;-70;-69.9;27.5;0.0;
20/02/2025 13:05:04;100;0;18.46;-4;-20.67;-45.37;969.8;10.60;75160;2835.124;-1758.735;1;99;-70;-61.3;45.2;45.7;-70;-69.9;27.5;0.0;
20/02/2025 13:05:24;100;0;30.88;-4;-20.62;-45.32;972.4;10.60;75161;2835.127;-1758.733;1;106;-70;-64.5;45.2;45.7;-70;-70.4;27.5;0.0;
20/02/2025 13:05:44;100;0;42.84;-4;-20.46;-45.39;975.1;10.60;75157;2835.130;-1758.730;1;114;-70;-61.3;45.2;45.7;-70;-69.9;27.5;0.0;
20/02/2025 13:06:04;100;0;55.09;-4;-20.74;-45.33;977.6;10.50;75153;2835.132;-1758.727;1;121;-70;-61.3;45.2;45.7;-70;-70.4;27.5;0.0;
20/02/2025 13:06:24;100;0;67.33;-4;-20.63;-45.31;980.3;10.50;75148;2835.134;-1758.724;1;128;-70;-61.3;45.2;45.7;-64;-64.1;27.5;0.0;
20/02/2025 13:06:44;100;0;80.56;-4;-20.35;-42.22;983.1;10.50;75144;2835.134;-1758.720;1;136;-70;-64.5;45.2;45.7;-58;-58.2;27.5;0.0;
20/02/2025 13:07:04;100;0;93.12;-4;-20.22;-39.41;985.9;10.50;75150;2835.134;-1758.716;1;144;-70;-61.3;45.2;45.5;-51;-51.0;27.5;0.0;
20/02/2025 13:07:24;100;0;107.09;-4;-19.93;-35.90;988.6;10.50;75146;2835.134;-1758.712;1;152;-70;-61.3;45.2;45.7;-44;-44.2;27.5;0.0;
20/02/2025 13:07:44;100;0;121.25;-4;-20.17;-32.56;991.5;10.40;75133;2835.132;-1758.709;1;161;-70;-61.3;45.2;45.7;-36;-36.1;27.5;0.0;
20/02/2025 13:08:04;100;0;134.38;-4;-19.98;-28.48;994.4;10.40;75137;2835.130;-1758.706;1;170;-70;-61.3;45.2;45.7;-29;-28.9;27.5;0.0;
20/02/2025 13:08:24;100;0;143.27;-4;-19.98;-24.83;997.4;10.40;75132;2835.127;-1758.703;1;185;-70;-64.5;45.2;45.7;-36;-36.1;27.5;0.0;
20/02/2025 13:08:35;118;0;148.45;-4;-19.67;-28.85;999.0;10.40;75128;2835.125;-1758.702;1;197;230;-58.1;27.9;27.7;9;9.5;27.5;0.0;
20/02/2025 13:08:45;118;0;125.37;-4;-7.39;-7.65;1000.1;10.40;75114;2835.124;-1758.701;1;216;230;67.7;27.9;27.4;9;9.5;26.2;-1.0;
20/02/2025 13:08:55;118;0;106.61;-4;13.45;-7.56;1000.6;10.40;74850;2835.124;-1758.700;1;223;230;193.5;27.9;27.2;9;9.5;26.1;-1.0;
20/02/2025 13:09:05;118;0;104.09;-4;18.21;-7.76;1000.3;10.40;74595;2835.124;-1758.699;1;226;230;233.9;27.9;27.8;9;9.5;26.1;-1.0;
20/02/2025 13:09:15;118;0;150.12;-4;16.64;-7.44;999.7;10.40;74541;2835.123;-1758.699;1;233;230;233.9;27.9;28.0;9;9.5;27.5;-1.0;
20/02/2025 13:09:35;117;0;144.72;-4;15.68;-7.40;998.6;10.40;74533;2835.122;-1758.698;1;247;230;232.3;27.9;28.1;9;9.5;27.5;-1.0;
20/02/2025 13:09:55;117;0;139.67;-4;15.52;-7.37;997.4;10.40;74533;2835.121;-1758.697;1;258;230;232.3;26.5;26.4;70;69.9;27.5;-1.0;
20/02/2025 13:10:15;117;0;145.73;-4;21.65;24.70;996.0;10.40;74525;2835.120;-1758.696;1;269;230;232.3;26.5;25.9;70;70.4;27.5;-1.0;
20/02/2025 13:10:35;117;0;153.23;-4;23.56;24.91;994.0;10.40;74531;2835.118;-1758.695;1;281;230;232.3;27.6;27.5;70;70.4;27.5;-1.0;
20/02/2025 13:10:55;117;0;161.23;-4;20.90;25.04;991.9;10.40;74529;2835.116;-1758.694;1;293;230;232.3;27.6;27.7;70;69.9;27.5;-1.0;
20/02/2025 13:11:15;117;0;169.50;-4;20.01;25.07;990.0;10.40;74531;2835.114;-1758.693;1;303;230;232.3;27.6;27.7;70;70.4;27.5;-1.0;
20/02/2025 13:11:35;117;0;177.71;-4;19.68;25.05;987.9;10.30;74524;2835.112;-1758.693;1;312;230;229.0;27.6;27.7;70;70.4;27.5;-1.0;
20/02/2025 13:11:55;117;0;184.96;-4;19.70;25.07;986.0;10.30;74507;2835.109;-1758.694;1;319;230;232.3;27.6;27.7;70;70.4;27.5;-1.0;
20/02/2025 13:12:15;117;0;194.23;-4;20.02;25.05;984.0;10.30;74519;2835.107;-1758.695;1;327;230;232.3;27.6;27.7;70;70.4;27.5;-1.0;
20/02/2025 13:12:35;117;0;202.94;-4;19.93;24.95;982.0;10.30;74511;2835.105;-1758.696;1;334;230;232.3;27.6;27.7;70;69.9;27.5;-1.0;
20/02/2025 13:12:55;117;0;212.03;-4;19.81;25.03;979.8;10.30;74517;2835.103;-1758.698;1;342;230;232.3;27.6;27.7;70;70.4;27.5;-1.0;
20/02/2025 13:13:15;117;0;221.10;-4;19.69;24.97;977.8;10.20;74510;2835.101;-1758.700;1;348;230;230.6;27.6;27.7;70;70.4;27.5;-1.0;
20/02/2025 13:13:35;117;0;230.09;-4;19.73;25.00;975.6;10.20;74512;2835.100;-1758.702;1;355;230;230.6;27.6;27.7;70;70.4;27.5;-1.0;
20/02/2025 13:13:55;117;0;239.79;-4;19.38;24.99;973.4;10.20;74508;2835.098;-1758.705;1;2;230;232.3;27.6;27.7;70;70.4;27.5;-1.0;
20/02/2025 13:14:15;117;0;249.34;-4;19.56;25.01;971.4;10.20;74503;2835.098;-1758.708;1;9;230;232.3;27.6;27.7;70;69.9;27.5;-1.0;
20/02/2025 13:14:35;117;0;258.68;-4;19.69;25.00;969.3;10.20;74503;2835.097;-1758.711;1;15;230;232.3;27.6;27.7;70;70.4;27.5;-1.0;
20/02/2025 13:14:55;117;0;267.56;-4;19.78;25.10;967.2;10.20;74501;2835.098;-1758.714;1;22;230;229.0;27.6;27.7;70;69.9;27.5;-1.0;
20/02/2025 13:15:15;117;0;277.03;-4;20.06;24.86;964.9;10.10;74489;2835.098;-1758.718;1;29;230;232.3;27.6;27.7;70;70.4;27.5;-1.0;
20/02/2025 13:15:35;117;0;285.48;-4;20.15;25.09;962.8;10.10;74480;2835.099;-1758.721;1;35;230;232.3;27.6;27.7;70;70.4;27.5;-1.0;
20/02/2025 13:15:55;117;0;294.35;-4;19.75;24.94;960.5;10.10;74480;2835.100;-1758.724;1;42;230;230.6;27.6;27.7;70;70.4;27.5;-1.0;
20/02/2025 13:16:15;117;0;302.53;-4;19.78;25.06;958.4;10.10;74475;2835.102;-1758.727;1;48;230;232.3;27.6;27.7;70;69.9;27.5;-1.0;
20/02/2025 13:16:35;117;0;311.55;-4;19.68;24.99;956.1;10.10;74475;2835.104;-1758.729;1;55;230;232.3;27.6;27.7;70;70.4;27.5;-1.0;
20/02/2025 13:16:55;117;0;320.02;-4;19.69;24.94;953.8;10.10;74473;2835.107;-1758.731;1;61;230;232.3;27.6;27.7;70;70.4;27.5;-1.0;
20/02/2025 13:17:15;117;0;328.13;-4;19.73;24.85;951.5;10.10;74473;2835.110;-1758.733;1;68;230;232.3;27.6;27.7;70;70.4;27.5;-1.0;
20/02/2025 13:17:35;117;0;335.23;-4;19.69;25.05;949.2;10.00;74466;2835.112;-1758.735;1;74;230;232.3;27.6;27.7;70;70.4;27.5;-1.0;
20/02/2025 13:17:55;117;0;343.23;-4;20.07;25.04;947.0;10.00;74471;2835.116;-1758.736;1;81;230;232.3;27.6;27.8;70;70.4;27.5;-1.0;
20/02/2025 13:18:15;117;0;351.43;-4;19.60;24.98;944.6;10.00;74471;2835.119;-1758.736;1;88;230;232.3;27.6;27.7;70;70.4;27.5;-1.0;
20/02/2025 13:18:35;117;0;359.57;-4;19.60;25.06;942.3;10.00;74451;2835.122;-1758.737;1;94;230;232.3;27.6;27.7;70;70.4;27.5;-1.0;
20/02/2025 13:18:55;117;0;8.61;-4;19.70;25.12;939.9;10.00;74477;2835.125;-1758.736;1;100;230;232.3;27.6;27.7;70;69.9;27.5;-1.0;
20/02/2025 13:19:15;117;0;17.76;-4;20.04;25.18;937.5;10.00;74470;2835.128;-1758.735;1;107;230;230.6;27.6;27.7;70;70.4;27.5;-1.0;
20/02/2025 13:19:35;117;0;25.94;-4;19.83;25.06;935.1;10.00;74459;2835.131;-1758.734;1;114;230;232.3;27.6;27.7;70;70.4;27.5;-1.0;
20/02/2025 13:19:55;117;0;34.43;-4;19.80;25.07;932.6;9.90;74465;2835.134;-1758.732;1;120;230;232.3;27.6;27.7;70;70.4;27.5;-1.0;
20/02/2025 13:20:15;117;0;42.25;-4;19.66;25.10;930.2;9.90;74455;2835.137;-1758.729;1;127;230;232.3;27.6;27.7;70;70.4;27.5;-1.0;
20/02/2025 13:20:35;117;0;50.46;-4;19.57;25.00;927.8;9.90;74450;2835.139;-1758.727;1;133;230;232.3;27.6;27.7;70;70.4;27.5;-1.0;
20/02/2025 13:20:55;117;0;58.40;-4;19.53;25.02;925.3;9.90;74451;2835.141;-1758.724;1;140;230;232.3;27.6;27.7;70;70.4;27.5;-1.0;
20/02/2025 13:21:15;117;0;67.06;-4;19.67;25.08;922.8;9.90;74451;2835.142;-1758.721;1;147;230;232.3;27.6;27.7;70;70.4;27.5;-1.0;
20/02/2025 13:21:35;117;0;76.01;-4;19.70;25.08;920.4;9.90;74445;2835.143;-1758.717;1;154;230;233.9;27.6;27.7;70;70.4;27.5;-1.0;
20/02/2025 13:21:55;117;0;85.91;-4;19.84;25.14;917.9;9.90;74442;2835.144;-1758.714;1;160;230;232.3;27.6;27.7;70;70.4;27.5;-1.0;
20/02/2025 13:22:15;117;0;93.51;-4;19.72;24.94;915.3;9.90;74446;2835.144;-1758.710;1;167;230;232.3;27.6;27.7;70;70.4;27.5;-1.0;
20/02/2025 13:22:35;117;0;101.61;-4;19.55;24.98;912.7;9.90;74433;2835.143;-1758.706;1;175;230;232.3;27.6;27.7;70;69.9;27.5;-1.0;
20/02/2025 13:22:55;117;0;109.19;-4;19.42;25.03;910.1;9.90;74438;2835.142;-1758.703;1;183;230;232.3;27.6;27.7;70;70.4;27.5;-1.0;
20/02/2025 13:23:15;117;0;117.80;-4;19.46;25.03;907.6;9.80;74423;2835.141;-1758.700;1;191;230;232.3;27.6;27.7;70;70.4;27.5;-1.0;
20/02/2025 13:23:35;117;0;127.16;-4;19.35;25.16;904.9;9.80;74432;2835.139;-1758.696;1;199;230;229.0;27.6;27.7;70;69.9;27.5;-1.0;
20/02/2025 13:23:55;117;0;135.70;-4;19.25;25.07;902.3;9.80;74432;2835.137;-1758.694;1;208;230;232.3;27.6;27.7;70;70.4;27.5;-1.0;
20/02/2025 13:24:15;117;0;145.69;-4;19.25;25.06;899.7;9.80;74432;2835.134;-1758.692;1;217;230;232.3;27.6;27.7;70;70.4;27.5;-1.0;
20/02/2025 13:24:35;117;0;154.75;-4;19.56;25.06;897.2;9.80;74440;2835.132;-1758.690;1;226;230;230.6;27.6;27.7;70;70.4;27.5;-1.0;
20/02/2025 13:24:55;117;0;163.54;-4;19.36;24.91;894.6;9.80;74437;2835.129;-1758.689;1;237;230;232.3;27.6;27.7;70;70.4;27.5;-1.0;
20/02/2025 13:25:15;117;0;170.98;-4;19.24;25.02;892.1;9.80;74437;2835.126;-1758.689;1;247;230;232.3;27.6;27.7;70;70.4;27.5;-1.0;
20/02/2025 13:25:35;117;0;180.90;-4;19.28;25.17;889.6;9.80;74431;2835.122;-1758.689;1;259;230;232.3;27.6;27.7;70;69.9;27.5;-1.0;
20/02/2025 13:25:55;117;0;191.40;-4;19.44;25.06;887.1;9.80;74428;2835.119;-1758.690;1;272;230;232.3;27.6;27.7;70;70.4;27.4;-1.0;
20/02/2025 13:26:15;117;0;200.67;-4;19.47;25.08;884.5;9.80;74433;2835.116;-1758.691;1;287;230;232.3;27.6;27.7;70;70.4;27.5;-1.0;
20/02/2025 13:26:36;117;0;210.08;-4;19.36;25.06;882.0;9.80;74428;2835.114;-1758.693;1;303;230;232.3;27.6;27.7;70;70.4;27.5;-1.0;
20/02/2025 13:26:56;117;0;219.10;-4;19.43;25.13;879.5;9.80;74430;2835.111;-1758.696;1;319;230;232.3;27.6;27.7;70;70.4;27.5;-1.0;
20/02/2025 13:27:16;117;0;228.84;-4;19.29;25.08;876.9;9.80;74433;2835.109;-1758.699;1;336;230;232.3;27.6;27.7;70;70.4;27.5;-1.0;
20/02/2025 13:27:36;117;0;239.28;-4;19.10;25.07;874.5;9.80;74424;2835.108;-1758.702;1;351;230;232.3;27.6;27.7;70;70.4;27.5;-1.0;
20/02/2025 13:27:56;117;0;247.53;-4;19.05;25.05;872.2;9.80;74421;2835.107;-1758.705;1;5;230;233.9;27.6;27.7;70;70.4;27.5;-1.0;
20/02/2025 13:28:16;117;0;257.13;-4;18.94;24.90;869.9;9.80;74422;2835.107;-1758.709;1;17;230;232.3;27.3;27.2;70;70.4;27.5;-1.0;
20/02/2025 13:28:36;117;0;265.94;-4;18.97;24.83;867.7;9.80;74422;2835.107;-1758.712;1;28;230;232.3;26.9;26.8;70;70.4;27.5;-1.0;
20/02/2025 13:28:56;117;0;274.84;-4;21.61;24.80;865.4;9.70;74422;2835.107;-1758.715;1;38;230;232.3;26.9;26.2;70;70.4;27.5;-1.0;
20/02/2025 13:29:16;117;0;282.04;-4;22.06;25.00;863.0;9.70;74422;2835.108;-1758.719;1;47;230;232.3;27.6;27.5;70;70.4;27.5;-1.0;
20/02/2025 13:29:36;117;0;291.46;-4;19.71;24.95;860.7;9.70;74417;2835.109;-1758.722;1;56;230;233.9;27.6;27.7;70;70.4;27.5;-1.0;
20/02/2025 13:29:56;117;0;300.40;-4;19.08;25.01;858.8;9.70;74417;2835.111;-1758.724;1;63;250;251.6;27.6;27.5;70;70.4;27.5;-1.0;
20/02/2025 13:30:16;117;0;308.55;-4;18.69;24.98;856.7;9.70;74372;2835.113;-1758.727;1;70;250;251.6;27.2;27.2;70;70.4;27.5;-1.0;
20/02/2025 13:30:36;117;0;317.37;-4;18.51;24.85;854.7;9.70;74370;2835.115;-1758.729;1;77;270;271.0;26.7;26.5;70;70.4;27.5;-1.0;
20/02/2025 13:30:56;117;0;327.24;-4;20.14;24.85;852.6;9.70;74323;2835.117;-1758.731;1;84;270;271.0;26.7;26.4;70;70.4;27.5;-1.0;
20/02/2025 13:31:16;117;0;336.27;-4;20.17;25.02;850.3;9.70;74336;2835.120;-1758.732;1;91;270;271.0;26.7;26.4;70;70.4;27.5;-1.0;
20/02/2025 13:31:36;117;0;346.73;-4;20.05;25.06;848.1;9.70;74332;2835.123;-1758.733;1;97;270;271.0;26.7;26.2;70;69.9;27.5;-1.0;
20/02/2025 13:31:56;117;0;356.40;-4;20.35;24.94;845.9;9.70;74331;2835.126;-1758.733;1;104;270;271.0;26.7;26.2;70;70.4;27.5;-1.0;
20/02/2025 13:32:16;117;0;5.66;-4;20.24;24.77;843.8;9.70;74318;2835.129;-1758.733;1;110;270;271.0;26.7;26.2;70;70.4;27.5;-1.0;
20/02/2025 13:32:36;117;0;13.57;-4;20.27;24.75;841.6;9.70;74341;2835.132;-1758.733;1;116;270;271.0;26.7;26.2;70;70.4;27.5;-1.0;
