Timestamp;NavState;SecurityLevel;Heading;Declination;Pitch;Roll;Depth;Temperature;Pa;Lat;Lon;DeadReckoning;DesiredH;BallastCmd;BallastPos;LinCmd;LinPos;AngCmd;AngPos;Voltage;Altitude;
27/02/2025 21:17:24;119;0;350.40;-4;-45.55;-15.19;-0.2;16.80;75588;2837.236;-1801.040;0;317;500;506.5;100.0;100.6;0;-0.5;25.7;-1.0;
27/02/2025 21:17:34;116;0;345.26;-4;-53.66;-14.79;-0.2;16.90;75581;2837.244;-1801.043;0;317;500;508.1;100.0;100.6;0;0.0;25.7;-1.0;
27/02/2025 21:17:59;116;0;343.37;-4;-52.38;-9.67;-0.1;16.90;75590;2837.244;-1801.045;0;317;500;506.5;100.0;100.7;0;-0.5;25.7;-1.0;
27/02/2025 21:18:09;116;0;328.65;-4;-42.93;-11.89;-0.2;17.00;75592;2837.245;-1801.049;0;317;500;506.5;100.0;100.6;0;-0.5;25.7;-1.0;
27/02/2025 21:18:29;116;0;348.03;-4;-53.57;-12.73;-0.3;17.00;75603;2837.240;-1801.051;0;317;500;506.5;100.0;100.6;0;-0.5;25.7;-1.0;
27/02/2025 21:18:49;116;0;321.78;-4;-54.72;-11.64;-0.3;17.10;75603;2837.245;-1801.053;0;318;500;506.5;100.0;100.6;0;-0.5;25.7;-1.0;
27/02/2025 21:19:00;116;0;332.46;-4;-47.71;-12.80;-0.2;17.10;75613;2837.246;-1801.054;0;318;500;504.8;100.0;100.6;0;-0.5;25.7;-1.0;
27/02/2025 21:20:03;116;0;338.96;-4;-51.57;-11.73;-0.1;17.30;75634;2837.257;-1801.061;0;318;500;508.1;100.0;100.6;0;-0.5;25.7;-1.0;
27/02/2025 21:21:21;116;0;325.19;-4;-49.49;-6.19;-0.4;17.60;75659;2837.273;-1801.068;0;318;500;506.5;100.0;100.6;0;-0.5;25.7;-1.0;
27/02/2025 21:22:30;116;0;349.62;-4;-40.57;-11.93;-0.4;18.00;75687;2837.287;-1801.075;0;318;500;508.1;100.0;100.6;0;0.0;25.7;-1.0;
27/02/2025 21:22:44;116;0;353.93;-4;-52.31;-15.96;-0.2;18.00;75692;2837.289;-1801.076;0;318;500;506.5;100.0;100.6;0;-0.5;25.7;-1.0;
27/02/2025 21:23:04;110;0;342.44;-4;-52.05;-9.03;0.1;18.10;75693;2837.289;-1801.076;0;318;-90;383.9;100.0;99.9;-6;-6.3;25.7;-1.0;
27/02/2025 21:23:14;110;0;345.59;-4;-44.60;-17.06;0.1;18.20;76064;2837.289;-1801.076;1;318;-90;243.5;100.0;99.7;-6;-6.3;25.7;-1.0;
27/02/2025 21:23:24;110;0;349.32;-4;-53.11;-17.93;0.3;18.20;76288;2837.290;-1801.076;1;318;-90;88.7;100.0;99.7;-6;-6.3;25.7;-1.0;
27/02/2025 21:23:34;110;0;328.79;-4;-71.01;-11.12;0.9;18.20;76612;2837.290;-1801.077;1;318;-90;-74.2;100.0;99.7;-6;-6.3;25.7;-1.0;
27/02/2025 21:23:44;110;0;316.33;-4;-68.64;-6.24;1.4;18.30;76952;2837.291;-1801.077;1;318;-90;-88.7;42.1;52.0;-6;-6.3;25.7;-1.0;
27/02/2025 21:23:54;110;0;318.83;-4;-51.99;-14.68;2.5;18.30;76946;2837.291;-1801.078;1;318;-90;-90.3;42.1;42.0;-6;-6.3;25.7;-1.0;
27/02/2025 21:24:14;100;0;334.13;-4;-19.33;-14.77;5.2;18.40;76944;2837.295;-1801.080;1;318;-90;-83.9;42.1;41.7;-6;-6.3;25.7;-1.0;
27/02/2025 21:24:34;100;0;344.88;-4;-17.04;-14.98;7.8;18.40;76960;2837.299;-1801.082;1;318;-90;-82.3;43.0;43.3;47;46.9;25.7;-1.0;
27/02/2025 21:24:54;100;0;344.51;-4;-22.37;12.21;10.0;18.50;76962;2837.302;-1801.083;1;318;-90;-80.6;42.3;42.3;47;46.9;25.8;-1.0;
27/02/2025 21:25:14;100;0;337.43;-4;-21.73;12.05;12.6;18.50;76970;2837.306;-1801.085;1;318;-90;-82.3;42.3;42.1;35;34.3;25.7;-1.0;
27/02/2025 21:25:34;100;0;333.84;-4;-20.54;5.41;14.9;18.50;76966;2837.309;-1801.086;1;318;-90;-82.3;42.3;42.0;29;28.9;25.7;0.0;
27/02/2025 21:25:54;100;0;329.99;-4;-20.82;1.70;17.1;18.50;76981;2837.312;-1801.088;1;318;-90;-83.9;42.3;42.1;23;23.0;25.7;0.0;
27/02/2025 21:26:14;100;0;335.24;-4;-19.28;-0.49;19.5;18.50;76986;2837.315;-1801.090;1;318;-90;-80.6;42.3;42.0;31;31.1;25.7;0.0;
27/02/2025 21:26:34;100;0;333.05;-4;-20.83;4.10;21.8;18.60;76980;2837.318;-1801.092;1;318;-90;-82.3;42.3;42.0;27;27.1;25.7;0.0;
27/02/2025 21:26:54;100;0;328.97;-4;-20.59;1.52;24.2;18.60;76980;2837.321;-1801.094;1;318;-90;-80.6;42.3;42.0;22;22.1;25.7;0.0;
27/02/2025 21:27:14;100;0;325.83;-4;-20.25;-0.87;26.6;18.60;76989;2837.324;-1801.097;1;318;-90;-82.3;42.3;42.0;19;19.0;25.7;0.0;
27/02/2025 21:27:34;100;0;323.73;-4;-20.15;-2.45;29.0;18.60;76991;2837.327;-1801.099;1;318;-90;-82.3;42.3;42.0;17;17.1;25.7;0.0;
27/02/2025 21:27:54;100;0;322.00;-4;-20.00;-3.53;31.4;18.60;76994;2837.330;-1801.102;1;318;-90;-80.6;42.3;42.0;17;16.7;25.7;0.0;
27/02/2025 21:28:14;100;0;320.87;-4;-19.65;-3.46;33.7;18.70;77014;2837.333;-1801.104;1;318;-90;-82.3;42.3;42.0;17;16.7;25.7;0.0;
27/02/2025 21:28:34;100;0;319.85;-4;-19.87;-3.54;36.2;18.70;77006;2837.336;-1801.107;1;318;-90;-82.3;42.3;42.0;17;16.7;25.7;0.0;
27/02/2025 21:28:54;100;0;319.70;-4;-19.83;-3.47;38.5;18.70;77003;2837.339;-1801.109;1;318;-90;-83.9;42.3;42.0;17;16.7;25.7;0.0;
27/02/2025 21:29:14;100;0;320.36;-4;-19.67;-3.50;40.8;18.70;77011;2837.342;-1801.112;1;318;-90;-80.6;42.3;42.0;17;16.7;25.7;0.0;
27/02/2025 21:29:34;100;0;320.92;-4;-19.95;-3.48;43.3;18.70;77011;2837.345;-1801.115;1;318;-90;-82.3;42.3;42.0;17;16.7;25.7;0.0;
27/02/2025 21:29:54;100;0;321.95;-4;-19.90;-3.48;45.6;18.70;77023;2837.347;-1801.117;1;318;-90;-82.3;42.3;42.0;17;16.7;25.7;0.0;
27/02/2025 21:30:14;100;0;321.41;-4;-19.75;-3.49;48.1;18.70;77018;2837.351;-1801.120;1;318;-90;-82.3;42.3;42.0;17;16.7;25.7;0.0;
27/02/2025 21:30:34;100;0;319.75;-4;-19.63;-3.42;50.5;18.70;77018;2837.353;-1801.122;1;318;-90;-82.3;42.3;42.0;17;16.7;25.7;0.0;
27/02/2025 21:30:54;100;0;318.64;-4;-19.60;-3.32;52.9;18.70;77030;2837.356;-1801.125;1;318;-90;-82.3;42.3;42.1;17;16.7;25.7;0.0;
27/02/2025 21:31:14;100;0;317.69;-4;-19.80;-3.49;55.1;18.70;77038;2837.359;-1801.128;1;318;-90;-82.3;42.3;42.1;17;16.7;25.7;0.0;
27/02/2025 21:31:34;100;0;318.25;-4;-19.51;-3.46;57.6;18.80;77037;2837.362;-1801.131;1;318;-90;-82.3;42.3;42.1;17;16.7;25.7;0.0;
27/02/2025 21:31:54;100;0;316.99;-4;-19.58;-3.49;60.1;18.80;77042;2837.365;-1801.133;1;318;-90;-82.3;42.3;42.0;17;16.7;25.7;0.0;
27/02/2025 21:32:14;100;0;316.17;-4;-19.66;-3.47;62.2;18.80;77042;2837.367;-1801.136;1;318;-90;-82.3;42.3;42.0;17;16.7;25.7;0.0;
27/02/2025 21:32:34;100;0;316.47;-4;-19.99;-3.59;64.5;18.80;77044;2837.370;-1801.139;1;318;-90;-80.6;42.3;42.0;17;16.7;25.7;0.0;
27/02/2025 21:32:54;100;0;316.82;-4;-20.02;-3.56;67.0;18.80;77039;2837.373;-1801.142;1;318;-90;-82.3;42.3;42.0;17;16.7;25.7;0.0;
27/02/2025 21:33:14;100;0;312.44;-4;-19.07;-3.47;69.4;18.80;77040;2837.375;-1801.145;1;318;-90;-82.3;42.3;42.0;17;16.7;25.7;0.0;
27/02/2025 21:33:34;100;0;308.94;-4;-19.20;-3.49;71.6;18.80;77029;2837.378;-1801.148;1;318;-90;-82.3;42.3;42.0;15;14.9;25.7;0.0;
27/02/2025 21:33:54;100;0;309.05;-4;-19.88;-4.62;74.0;18.80;77029;2837.380;-1801.151;1;318;-90;-80.6;42.3;42.0;15;14.4;25.7;0.0;
27/02/2025 21:34:14;100;0;303.48;-4;-19.67;-4.60;76.3;18.80;77024;2837.382;-1801.154;1;318;-90;-82.3;42.3;42.0;10;9.9;25.7;0.0;
27/02/2025 21:34:34;100;0;297.69;-4;-19.38;-7.14;78.6;18.80;77023;2837.384;-1801.157;1;318;-90;-82.3;42.3;42.0;2;1.4;25.7;0.0;
27/02/2025 21:34:54;100;0;296.34;-4;-18.68;-11.20;80.9;18.80;77007;2837.386;-1801.161;1;318;-90;-82.3;42.7;42.7;0;0.0;25.7;0.0;
27/02/2025 21:35:14;100;0;299.04;-4;-19.22;-11.87;83.3;18.80;77002;2837.388;-1801.164;1;318;-90;-82.3;42.7;43.0;4;4.1;25.7;0.0;
27/02/2025 21:35:34;100;0;299.51;-4;-19.70;-9.58;85.4;18.80;76978;2837.390;-1801.168;1;318;-90;-82.3;42.7;43.0;4;4.1;25.7;0.0;
27/02/2025 21:35:54;100;0;302.80;-4;-20.02;-9.61;87.8;18.80;76976;2837.392;-1801.171;1;318;-90;-82.3;42.7;43.0;9;9.0;25.7;0.0;
27/02/2025 21:36:14;100;0;305.21;-4;-20.26;-6.82;90.1;18.80;76974;2837.395;-1801.174;1;318;-90;-82.3;42.7;43.0;12;12.2;25.7;0.0;
27/02/2025 21:36:34;100;0;307.23;-4;-20.52;-5.38;92.5;18.80;76965;2837.397;-1801.177;1;318;-90;-83.9;42.7;43.0;12;12.6;25.7;0.0;
27/02/2025 21:36:54;100;0;306.27;-4;-20.38;-5.37;95.0;18.70;76950;2837.399;-1801.180;1;318;-90;-82.3;42.7;43.0;12;12.6;25.7;0.0;
27/02/2025 21:37:14;100;0;306.57;-4;-20.16;-5.42;97.3;18.70;76936;2837.402;-1801.184;1;318;-90;-80.6;42.7;43.0;12;12.6;25.7;0.0;
27/02/2025 21:37:34;100;0;304.71;-4;-20.05;-5.43;99.7;18.70;76922;2837.404;-1801.187;1;318;-90;-82.3;42.7;43.0;12;12.6;25.7;0.0;
27/02/2025 21:37:54;100;0;307.21;-4;-20.82;-5.32;101.9;18.70;76915;2837.406;-1801.190;1;318;-90;-82.3;42.7;43.0;12;12.2;25.7;0.0;
27/02/2025 21:38:14;100;0;310.60;-4;-20.37;-5.34;104.1;18.60;76910;2837.408;-1801.193;1;318;-90;-82.3;42.7;43.0;15;15.3;25.7;0.0;
27/02/2025 21:38:34;100;0;315.24;-4;-20.40;-3.85;106.7;18.60;76899;2837.411;-1801.196;1;318;-90;-82.3;42.7;43.0;15;15.3;25.7;0.0;
27/02/2025 21:38:54;100;0;316.86;-4;-20.59;-3.88;109.1;18.60;76900;2837.414;-1801.198;1;318;-90;-82.3;42.7;43.0;15;15.3;25.7;0.0;
27/02/2025 21:39:14;100;0;314.23;-4;-20.74;-3.94;111.4;18.60;76879;2837.417;-1801.201;1;318;-90;-82.3;42.7;43.0;15;15.3;25.7;0.0;
27/02/2025 21:39:34;100;0;311.47;-4;-20.64;-3.91;113.9;18.60;76872;2837.419;-1801.204;1;318;-90;-82.3;42.7;43.0;15;15.3;25.7;0.0;
27/02/2025 21:39:54;100;0;311.78;-4;-20.65;-3.89;116.2;18.50;76870;2837.422;-1801.207;1;318;-90;-82.3;42.7;43.0;15;15.3;25.7;0.0;
27/02/2025 21:40:14;100;0;311.96;-4;-20.60;-3.86;118.5;18.50;76852;2837.424;-1801.210;1;318;-90;-82.3;42.7;43.2;15;15.3;25.7;0.0;
27/02/2025 21:40:34;100;0;311.67;-4;-20.13;-3.90;121.0;18.50;76842;2837.427;-1801.213;1;318;-90;-82.3;42.7;43.0;15;15.3;25.7;0.0;
27/02/2025 21:40:54;100;0;306.64;-4;-19.82;-3.93;123.0;18.50;76834;2837.429;-1801.215;1;318;-110;-109.7;42.7;43.0;13;13.1;25.7;0.0;
27/02/2025 21:41:14;100;0;306.72;-4;-19.50;-5.34;125.4;18.40;76903;2837.431;-1801.219;1;318;-110;-111.3;42.7;43.0;13;12.6;25.7;0.0;
27/02/2025 21:41:34;100;0;305.88;-4;-19.39;-5.48;127.7;18.40;76893;2837.434;-1801.222;1;318;-110;-111.3;42.7;43.0;13;12.6;25.7;0.0;
27/02/2025 21:41:54;100;0;305.43;-4;-18.97;-5.39;130.1;18.40;76894;2837.436;-1801.225;1;318;-110;-111.3;43.0;43.0;13;12.6;25.7;0.0;
27/02/2025 21:42:14;100;0;306.97;-4;-19.82;-5.07;132.5;18.40;76878;2837.438;-1801.229;1;318;-110;-111.3;43.0;43.0;13;12.6;25.7;0.0;
27/02/2025 21:42:34;100;0;307.74;-4;-19.38;-5.54;135.1;18.30;76882;2837.441;-1801.232;1;318;-110;-111.3;43.0;43.0;13;12.6;25.7;0.0;
27/02/2025 21:42:54;100;0;309.05;-4;-19.95;-5.15;137.5;18.30;76883;2837.443;-1801.235;1;318;-110;-111.3;43.0;43.0;13;12.6;25.7;0.0;
27/02/2025 21:43:14;100;0;310.75;-4;-19.46;-5.18;140.0;18.30;76871;2837.446;-1801.238;1;318;-110;-111.3;43.0;43.0;13;12.6;25.7;0.0;
27/02/2025 21:43:34;100;0;307.94;-4;-19.51;-5.31;142.7;18.30;76875;2837.449;-1801.242;1;318;-110;-112.9;43.0;43.2;13;12.6;25.7;0.0;
27/02/2025 21:43:54;100;0;304.95;-4;-19.24;-5.28;145.3;18.20;76868;2837.451;-1801.245;1;318;-110;-111.3;43.0;43.0;11;10.4;25.7;0.0;
27/02/2025 21:44:14;100;0;306.87;-4;-20.15;-6.54;147.6;18.20;76861;2837.454;-1801.249;1;318;-110;-111.3;43.0;43.0;11;9.9;25.7;0.0;
27/02/2025 21:44:34;100;0;310.69;-4;-19.69;-6.41;150.7;18.20;76846;2837.457;-1801.252;1;318;-110;-109.7;43.0;43.0;14;14.0;25.7;0.0;
27/02/2025 21:44:54;100;0;312.09;-4;-19.66;-4.43;153.4;18.20;76837;2837.460;-1801.256;1;318;-110;-112.9;43.0;43.0;14;14.0;25.7;0.0;
27/02/2025 21:45:14;100;0;312.68;-4;-19.62;-4.50;156.3;18.10;76839;2837.463;-1801.259;1;318;-110;-111.3;43.0;43.0;14;14.0;25.8;0.0;
27/02/2025 21:45:34;100;0;314.19;-4;-19.75;-4.44;159.1;18.10;76826;2837.466;-1801.263;1;318;-110;-111.3;43.0;43.0;14;14.0;25.7;0.0;
27/02/2025 21:45:54;100;0;315.93;-4;-19.72;-4.50;162.0;18.10;76822;2837.469;-1801.266;1;318;-110;-111.3;43.0;43.0;14;14.0;25.7;0.0;
27/02/2025 21:46:14;100;0;317.23;-4;-19.41;-4.50;164.7;18.10;76817;2837.472;-1801.269;1;318;-110;-111.3;43.0;43.0;14;14.0;25.7;0.0;
27/02/2025 21:46:34;100;0;318.67;-4;-19.64;-4.43;167.5;18.00;76802;2837.475;-1801.272;1;318;-110;-111.3;43.0;43.0;14;14.4;25.7;0.0;
27/02/2025 21:46:54;100;0;321.28;-4;-19.63;-4.56;170.6;18.00;76789;2837.479;-1801.275;1;318;-110;-109.7;43.0;43.0;14;14.0;25.7;0.0;
27/02/2025 21:47:14;100;0;323.56;-4;-19.63;-4.60;173.4;18.00;76780;2837.482;-1801.278;1;318;-110;-111.3;43.0;43.0;16;15.8;25.7;0.0;
27/02/2025 21:47:34;100;0;325.05;-4;-19.63;-3.44;176.6;17.90;76781;2837.486;-1801.281;1;318;-110;-111.3;43.0;43.0;16;15.8;25.7;0.0;
27/02/2025 21:47:54;100;0;325.51;-4;-19.80;-3.52;179.6;17.90;76772;2837.490;-1801.284;1;318;-110;-111.3;43.0;43.0;16;15.8;25.7;0.0;
27/02/2025 21:48:14;100;0;324.30;-4;-19.74;-3.47;182.7;17.90;76758;2837.494;-1801.287;1;318;-110;-111.3;43.0;43.0;16;16.2;25.7;0.0;
27/02/2025 21:48:34;100;0;324.59;-4;-19.78;-3.50;185.8;17.80;76753;2837.497;-1801.290;1;318;-110;-111.3;43.0;43.2;16;16.2;25.7;0.0;
27/02/2025 21:48:54;100;0;320.57;-4;-20.00;-3.56;188.6;17.80;76741;2837.501;-1801.293;1;318;-110;-111.3;43.0;43.0;16;16.2;25.7;0.0;
27/02/2025 21:49:14;100;0;318.44;-4;-19.99;-3.44;191.9;17.80;76737;2837.504;-1801.297;1;318;-110;-111.3;43.0;43.0;16;16.2;25.8;0.0;
27/02/2025 21:49:34;100;0;313.64;-4;-19.68;-3.62;195.0;17.70;76721;2837.508;-1801.300;1;318;-110;-111.3;43.0;43.0;16;16.2;25.7;0.0;
27/02/2025 21:49:54;100;0;310.70;-4;-19.74;-3.57;198.2;17.70;76720;2837.511;-1801.304;1;318;-110;-111.3;43.0;43.0;14;14.0;25.7;0.0;
27/02/2025 21:50:14;100;0;307.46;-4;-19.33;-4.88;201.2;17.70;76718;2837.514;-1801.308;1;318;-110;-111.3;43.0;43.0;12;12.2;25.7;0.0;
27/02/2025 21:50:34;100;0;309.98;-4;-19.14;-5.66;204.0;17.70;76716;2837.517;-1801.312;1;318;-110;-111.3;43.0;43.0;14;14.0;25.7;0.0;
27/02/2025 21:50:54;100;0;308.25;-4;-19.42;-4.42;206.8;17.60;76705;2837.520;-1801.316;1;318;-110;-109.7;43.0;43.0;14;14.4;25.7;0.0;
27/02/2025 21:51:14;100;0;306.51;-4;-19.21;-4.42;209.5;17.60;76692;2837.522;-1801.319;1;318;-110;-111.3;43.0;43.0;12;11.7;25.7;0.0;
27/02/2025 21:51:34;100;0;305.09;-4;-19.10;-5.77;212.4;17.60;76690;2837.525;-1801.323;1;318;-110;-111.3;43.0;43.0;10;9.9;25.7;0.0;
27/02/2025 21:51:54;100;0;305.82;-4;-18.86;-6.76;215.2;17.50;76687;2837.528;-1801.327;1;318;-110;-111.3;43.3;43.6;12;12.2;25.7;0.0;
27/02/2025 21:52:14;100;0;305.30;-4;-20.21;-5.21;217.9;17.50;76679;2837.530;-1801.331;1;318;-110;-111.3;43.3;43.6;12;12.6;25.7;0.0;
27/02/2025 21:52:34;100;0;301.91;-4;-20.26;-5.21;220.8;17.50;76669;2837.533;-1801.335;1;318;-110;-109.7;43.3;43.6;6;5.9;25.7;0.0;
27/02/2025 21:52:54;100;0;303.85;-4;-20.21;-8.53;223.5;17.40;76671;2837.535;-1801.338;1;318;-110;-109.7;43.3;43.6;9;9.0;25.7;0.0;
27/02/2025 21:53:14;100;0;303.54;-4;-20.04;-6.86;226.2;17.40;76655;2837.538;-1801.342;1;318;-110;-111.3;43.3;43.6;9;9.0;25.7;0.0;
27/02/2025 21:53:34;100;0;303.51;-4;-20.42;-6.89;228.9;17.40;76637;2837.540;-1801.346;1;318;-110;-111.3;43.3;43.6;9;9.5;25.7;0.0;
27/02/2025 21:53:54;100;0;302.00;-4;-20.23;-6.93;231.7;17.30;76639;2837.542;-1801.350;1;318;-110;-111.3;43.3;43.6;7;7.2;25.7;0.0;
27/02/2025 21:54:14;100;0;305.19;-4;-20.00;-8.21;234.1;17.30;76621;2837.545;-1801.353;1;318;-110;-111.3;43.3;43.6;11;10.8;25.7;0.0;
27/02/2025 21:54:34;100;0;307.67;-4;-20.01;-5.74;236.9;17.30;76617;2837.548;-1801.357;1;318;-110;-111.3;43.3;43.6;13;13.1;25.7;0.0;
27/02/2025 21:54:54;100;0;308.64;-4;-20.29;-4.82;239.3;17.20;76624;2837.550;-1801.360;1;318;-110;-109.7;43.3;43.6;13;13.5;25.7;0.0;
27/02/2025 21:55:15;100;0;309.06;-4;-20.32;-4.85;241.8;17.20;76604;2837.553;-1801.363;1;318;-110;-112.9;43.3;43.6;13;13.5;25.7;0.0;
27/02/2025 21:55:35;100;0;310.38;-4;-20.32;-4.78;244.2;17.20;76606;2837.555;-1801.366;1;318;-110;-111.3;43.3;43.6;13;13.5;25.7;0.0;
27/02/2025 21:55:55;100;0;310.45;-4;-20.30;-4.77;246.6;17.10;76594;2837.558;-1801.369;1;318;-110;-111.3;43.3;43.6;13;13.5;25.7;0.0;
27/02/2025 21:56:15;100;0;307.63;-4;-20.10;-4.90;249.0;17.10;76586;2837.560;-1801.372;1;318;-110;-111.3;43.3;43.6;13;13.5;25.7;0.0;
27/02/2025 21:56:35;100;0;305.02;-4;-20.20;-4.90;251.2;17.10;76585;2837.562;-1801.375;1;318;-110;-111.3;43.3;43.6;10;9.9;25.7;0.0;
27/02/2025 21:56:55;100;0;302.68;-4;-20.59;-6.53;253.5;17.10;76589;2837.564;-1801.378;1;318;-110;-111.3;43.3;43.6;8;8.1;25.7;0.0;
27/02/2025 21:57:15;100;0;302.74;-4;-20.15;-7.64;255.8;17.00;76577;2837.566;-1801.382;1;318;-110;-111.3;43.3;43.6;8;7.7;25.7;0.0;
27/02/2025 21:57:35;100;0;304.11;-4;-20.24;-7.70;257.9;17.00;76575;2837.568;-1801.385;1;318;-110;-111.3;43.3;43.6;8;7.7;25.7;0.0;
27/02/2025 21:57:55;100;0;306.82;-4;-20.30;-7.63;260.0;17.00;76576;2837.571;-1801.387;1;318;-110;-111.3;43.3;43.6;12;12.2;25.7;0.0;
27/02/2025 21:58:15;100;0;306.68;-4;-20.52;-5.17;262.5;16.90;76563;2837.573;-1801.391;1;318;-110;-111.3;43.3;43.6;12;12.6;25.7;0.0;
27/02/2025 21:58:35;100;0;307.74;-4;-20.29;-5.17;264.6;16.90;76554;2837.575;-1801.393;1;318;-110;-111.3;43.3;43.6;12;12.6;25.7;0.0;
27/02/2025 21:58:55;100;0;306.84;-4;-20.20;-5.24;266.8;16.90;76550;2837.577;-1801.396;1;318;-110;-111.3;43.3;43.6;12;12.6;25.7;0.0;
27/02/2025 21:59:15;100;0;307.82;-4;-20.03;-5.23;268.7;16.80;76551;2837.579;-1801.399;1;318;-130;-130.6;43.3;43.6;12;12.6;25.7;0.0;
27/02/2025 21:59:35;100;0;307.52;-4;-20.00;-5.13;270.8;16.80;76584;2837.581;-1801.402;1;318;-130;-132.3;43.3;43.6;12;12.6;25.7;0.0;
27/02/2025 21:59:55;100;0;306.67;-4;-20.03;-5.09;273.0;16.80;76583;2837.584;-1801.405;1;318;-130;-132.3;43.3;43.7;12;12.6;25.7;0.0;
27/02/2025 22:00:15;100;0;306.68;-4;-20.19;-5.11;275.1;16.70;76576;2837.586;-1801.408;1;318;-130;-132.3;43.3;43.6;12;12.6;25.7;0.0;
27/02/2025 22:00:35;100;0;304.06;-4;-20.24;-5.19;277.5;16.70;76576;2837.588;-1801.411;1;318;-130;-132.3;43.3;43.6;9;9.0;25.7;0.0;
27/02/2025 22:00:55;100;0;304.06;-4;-20.07;-7.13;279.5;16.70;76562;2837.590;-1801.414;1;318;-130;-132.3;43.3;43.6;9;8.6;25.7;0.0;
27/02/2025 22:01:15;100;0;305.66;-4;-19.94;-7.09;281.9;16.60;76553;2837.592;-1801.417;1;318;-130;-132.3;43.3;43.6;9;8.6;25.7;0.0;
27/02/2025 22:01:35;100;0;307.68;-4;-19.80;-7.12;284.1;16.60;76549;2837.595;-1801.420;1;318;-130;-132.3;43.3;43.6;12;12.2;25.7;0.0;
27/02/2025 22:01:55;100;0;308.02;-4;-19.95;-5.14;286.3;16.60;76550;2837.597;-1801.423;1;318;-130;-132.3;43.3;43.6;12;12.6;25.7;0.0;
27/02/2025 22:02:15;100;0;308.41;-4;-20.02;-5.17;288.5;16.60;76545;2837.599;-1801.426;1;318;-130;-132.3;43.3;43.6;12;12.6;25.7;0.0;
27/02/2025 22:02:35;100;0;308.24;-4;-20.09;-5.15;290.8;16.50;76541;2837.602;-1801.429;1;318;-130;-130.6;43.3;43.6;12;12.6;25.7;0.0;
27/02/2025 22:02:55;100;0;304.96;-4;-20.60;-5.16;293.1;16.50;76542;2837.604;-1801.432;1;318;-130;-132.3;43.3;43.6;10;9.5;25.7;0.0;
27/02/2025 22:03:15;100;0;308.61;-4;-19.97;-6.69;295.3;16.50;76527;2837.606;-1801.435;1;318;-130;-135.5;43.3;43.6;12;12.2;25.7;0.0;
27/02/2025 22:03:35;100;0;310.51;-4;-19.93;-5.26;297.9;16.50;76517;2837.609;-1801.438;1;318;-130;-132.3;43.3;43.7;12;12.2;25.7;0.0;
27/02/2025 22:03:55;100;0;311.64;-4;-19.75;-5.26;300.2;16.40;76510;2837.611;-1801.441;1;318;-130;-132.3;43.3;43.6;12;12.2;25.7;0.0;
27/02/2025 22:04:15;100;0;315.88;-4;-19.59;-5.35;302.6;16.40;76507;2837.614;-1801.444;1;318;-130;-132.3;43.3;43.6;14;14.4;25.7;0.0;
27/02/2025 22:04:35;100;0;318.23;-4;-19.57;-4.13;304.9;16.40;76490;2837.617;-1801.446;1;318;-130;-132.3;43.3;43.6;14;14.9;25.7;0.0;
27/02/2025 22:04:55;100;0;320.10;-4;-19.65;-4.12;307.1;16.30;76491;2837.619;-1801.449;1;318;-130;-132.3;43.3;43.6;14;14.9;25.7;0.0;
27/02/2025 22:05:15;100;0;322.55;-4;-19.70;-4.10;309.4;16.30;76489;2837.622;-1801.451;1;318;-130;-135.5;43.3;43.6;14;14.9;25.7;0.0;
27/02/2025 22:05:35;100;0;322.66;-4;-19.89;-4.11;311.7;16.30;76463;2837.625;-1801.454;1;318;-130;-133.9;43.3;43.6;14;14.4;25.7;0.0;
27/02/2025 22:05:55;100;0;321.46;-4;-19.93;-4.07;314.1;16.30;76470;2837.628;-1801.456;1;318;-130;-132.3;43.3;43.6;14;14.4;25.7;0.0;
27/02/2025 22:06:15;100;0;319.85;-4;-20.34;-4.17;316.7;16.20;76468;2837.631;-1801.459;1;318;-130;-132.3;43.3;43.6;14;14.9;25.7;0.0;
27/02/2025 22:06:35;100;0;319.17;-4;-19.84;-4.14;319.5;16.20;76453;2837.634;-1801.462;1;318;-130;-132.3;43.3;43.7;14;14.9;25.7;0.0;
27/02/2025 22:06:55;100;0;317.94;-4;-19.59;-4.09;321.9;16.10;76446;2837.637;-1801.465;1;318;-130;-132.3;43.3;43.7;14;14.4;25.7;0.0;
27/02/2025 22:07:15;100;0;318.23;-4;-19.18;-4.08;324.5;16.10;76437;2837.640;-1801.468;1;318;-130;-132.3;43.3;43.6;14;14.9;25.7;0.0;
27/02/2025 22:07:35;100;0;318.10;-4;-19.86;-4.11;327.0;16.10;76441;2837.643;-1801.471;1;318;-130;-132.3;43.3;43.6;14;14.9;25.7;0.0;
27/02/2025 22:07:55;100;0;317.42;-4;-19.71;-4.05;329.5;16.10;76434;2837.646;-1801.474;1;318;-130;-133.9;43.3;43.6;14;14.9;25.7;0.0;
27/02/2025 22:08:15;100;0;317.25;-4;-19.72;-4.00;332.3;16.00;76424;2837.649;-1801.477;1;318;-130;-133.9;43.3;43.6;14;14.4;25.7;0.0;
27/02/2025 22:08:35;100;0;317.72;-4;-20.25;-3.95;335.1;16.00;76430;2837.652;-1801.480;1;318;-130;-132.3;43.3;43.6;14;14.9;25.7;0.0;
27/02/2025 22:08:55;100;0;318.71;-4;-20.47;-4.01;338.0;16.00;76424;2837.656;-1801.483;1;318;-130;-132.3;43.3;43.6;14;14.4;25.7;0.0;
27/02/2025 22:09:15;100;0;319.24;-4;-20.25;-4.06;341.0;16.00;76416;2837.659;-1801.486;1;318;-130;-132.3;43.3;43.6;14;14.4;25.8;0.0;
27/02/2025 22:09:35;100;0;319.27;-4;-20.26;-4.02;344.0;15.90;76404;2837.663;-1801.490;1;318;-130;-135.5;43.3;43.6;14;14.9;25.7;0.0;
27/02/2025 22:09:55;100;0;321.66;-4;-20.18;-4.03;347.0;15.90;76394;2837.666;-1801.493;1;318;-130;-132.3;43.3;43.6;14;14.9;25.7;0.0;
27/02/2025 22:10:15;100;0;323.04;-4;-19.82;-4.09;350.0;15.90;76387;2837.670;-1801.496;1;318;-130;-132.3;43.3;43.6;14;14.9;25.7;0.0;
27/02/2025 22:10:35;100;0;321.98;-4;-19.67;-4.13;352.9;15.80;76395;2837.673;-1801.499;1;318;-130;-132.3;43.3;43.7;14;14.9;25.7;0.0;
27/02/2025 22:10:55;100;0;321.43;-4;-20.00;-4.13;355.7;15.80;76378;2837.677;-1801.502;1;318;-130;-132.3;43.3;43.6;14;14.9;25.7;0.0;
27/02/2025 22:11:15;100;0;320.92;-4;-20.11;-4.06;358.8;15.80;76373;2837.680;-1801.505;1;318;-130;-132.3;43.3;43.6;14;14.9;25.7;0.0;
27/02/2025 22:11:35;100;0;319.97;-4;-19.91;-4.07;361.8;15.70;76364;2837.684;-1801.508;1;318;-130;-132.3;43.3;43.6;14;14.9;25.7;0.0;
27/02/2025 22:11:55;100;0;320.13;-4;-19.92;-4.09;365.1;15.70;76367;2837.688;-1801.512;1;318;-130;-130.6;43.3;43.6;14;14.9;25.7;0.0;
27/02/2025 22:12:15;100;0;320.99;-4;-19.92;-4.09;368.1;15.70;76361;2837.691;-1801.515;1;318;-130;-132.3;43.3;43.6;14;14.9;25.7;0.0;
27/02/2025 22:12:35;100;0;320.99;-4;-19.93;-4.02;371.4;15.70;76356;2837.695;-1801.518;1;318;-130;-133.9;43.3;43.6;14;14.9;25.7;0.0;
27/02/2025 22:12:55;100;0;316.53;-4;-20.24;-4.10;374.6;15.60;76345;2837.698;-1801.522;1;318;-130;-130.6;43.3;43.6;14;14.9;25.7;0.0;
27/02/2025 22:13:15;100;0;312.68;-4;-19.97;-4.03;377.9;15.60;76337;2837.702;-1801.526;1;318;-130;-132.3;43.3;43.6;14;14.9;25.7;0.0;
27/02/2025 22:13:35;100;0;310.68;-4;-19.21;-3.82;381.1;15.60;76341;2837.705;-1801.530;1;318;-130;-132.3;43.3;43.6;14;14.4;25.7;0.0;
27/02/2025 22:13:55;100;0;309.43;-4;-19.74;-3.81;384.6;15.50;76337;2837.708;-1801.534;1;318;-130;-133.9;43.3;43.6;12;12.2;25.7;0.0;
27/02/2025 22:14:15;100;0;307.81;-4;-19.67;-5.44;387.9;15.50;76325;2837.712;-1801.538;1;318;-130;-132.3;43.3;43.6;12;12.2;25.7;0.0;
27/02/2025 22:14:35;100;0;308.19;-4;-19.53;-5.37;391.3;15.50;76317;2837.715;-1801.543;1;318;-130;-132.3;43.3;43.6;12;12.2;25.7;0.0;
27/02/2025 22:14:55;100;0;308.85;-4;-19.79;-5.35;394.6;15.40;76319;2837.718;-1801.547;1;318;-130;-130.6;43.3;43.6;12;12.2;25.7;0.0;
27/02/2025 22:15:15;100;0;312.21;-4;-19.98;-5.44;397.9;15.40;76314;2837.721;-1801.551;1;318;-130;-132.3;43.3;43.6;12;12.2;25.7;0.0;
27/02/2025 22:15:35;100;0;313.64;-4;-19.43;-5.35;401.5;15.40;76305;2837.725;-1801.555;1;318;-130;-132.3;43.3;43.6;14;14.0;25.7;0.0;
27/02/2025 22:15:55;100;0;314.95;-4;-19.54;-4.18;404.8;15.40;76289;2837.729;-1801.559;1;318;-130;-132.3;43.3;43.6;14;14.4;25.7;0.0;
27/02/2025 22:16:15;100;0;314.88;-4;-19.33;-4.22;408.3;15.30;76289;2837.733;-1801.563;1;318;-130;-132.3;43.3;43.6;14;14.9;25.7;0.0;
27/02/2025 22:16:35;100;0;311.04;-4;-19.51;-4.22;411.7;15.30;76286;2837.736;-1801.567;1;318;-130;-132.3;43.3;43.6;14;14.4;25.7;0.0;
27/02/2025 22:16:55;100;0;309.71;-4;-19.66;-4.09;414.8;15.30;76285;2837.739;-1801.571;1;318;-130;-132.3;43.3;43.6;12;12.2;25.7;0.0;
27/02/2025 22:17:15;100;0;309.90;-4;-19.45;-5.64;418.0;15.20;76266;2837.742;-1801.575;1;318;-130;-132.3;43.3;43.4;12;12.2;25.7;0.0;
27/02/2025 22:17:35;100;0;308.67;-4;-19.28;-5.55;421.0;15.20;76262;2837.745;-1801.579;1;318;-130;-132.3;43.3;43.6;12;11.7;25.7;0.0;
27/02/2025 22:17:55;100;0;307.01;-4;-19.32;-5.57;424.1;15.20;76261;2837.748;-1801.583;1;318;-130;-132.3;43.3;43.6;10;9.9;25.7;0.0;
27/02/2025 22:18:15;100;0;306.37;-4;-19.03;-6.76;427.0;15.20;76256;2837.751;-1801.587;1;318;-130;-132.3;43.3;43.6;10;9.5;25.7;0.0;
27/02/2025 22:18:35;100;0;310.66;-4;-19.22;-6.78;429.7;15.10;76250;2837.754;-1801.591;1;318;-130;-133.9;43.3;43.6;13;13.1;25.7;0.0;
27/02/2025 22:18:55;100;0;311.18;-4;-19.37;-4.61;432.6;15.10;76238;2837.757;-1801.594;1;318;-130;-132.3;43.3;43.6;13;14.0;25.7;0.0;
27/02/2025 22:19:15;100;0;310.80;-4;-19.41;-4.56;435.2;15.10;76231;2837.760;-1801.598;1;318;-130;-132.3;43.3;43.6;13;14.0;25.7;0.0;
27/02/2025 22:19:35;100;0;309.04;-4;-19.36;-4.68;437.9;15.00;76228;2837.763;-1801.601;1;318;-130;-133.9;43.3;43.6;13;13.5;25.7;0.0;
27/02/2025 22:19:55;100;0;308.97;-4;-19.36;-4.63;440.5;15.00;76219;2837.765;-1801.605;1;318;-130;-132.3;43.3;43.6;13;14.0;25.7;0.0;
27/02/2025 22:20:15;100;0;312.47;-4;-19.22;-4.63;443.0;15.00;76218;2837.768;-1801.608;1;318;-130;-133.9;43.3;43.6;13;13.5;25.7;0.0;
27/02/2025 22:20:35;100;0;314.27;-4;-19.24;-4.58;445.3;15.00;76212;2837.771;-1801.611;1;318;-130;-132.3;43.3;43.6;13;13.5;25.7;0.0;
27/02/2025 22:20:55;100;0;315.08;-4;-19.17;-4.62;447.7;14.90;76207;2837.774;-1801.614;1;318;-130;-133.9;43.3;43.6;13;13.5;25.7;0.0;
27/02/2025 22:21:15;100;0;316.42;-4;-19.46;-4.63;449.7;14.90;76198;2837.776;-1801.616;1;318;-130;-132.3;43.3;43.6;13;14.0;25.7;0.0;
27/02/2025 22:21:35;100;0;317.93;-4;-19.19;-4.55;451.9;14.90;76201;2837.779;-1801.619;1;318;-130;-132.3;43.3;43.6;13;14.0;25.7;0.0;
27/02/2025 22:21:55;100;0;318.81;-4;-19.32;-4.58;454.0;14.90;76191;2837.781;-1801.621;1;318;-130;-132.3;43.3;43.7;13;14.0;25.7;0.0;
27/02/2025 22:22:15;100;0;317.59;-4;-19.31;-4.60;456.1;14.80;76179;2837.784;-1801.624;1;318;-130;-132.3;43.3;43.6;13;13.5;25.7;0.0;
27/02/2025 22:22:35;100;0;317.54;-4;-19.27;-4.57;458.2;14.80;76167;2837.787;-1801.627;1;318;-130;-132.3;43.3;43.6;13;14.0;25.7;0.0;
27/02/2025 22:22:55;100;0;319.58;-4;-19.58;-4.51;460.4;14.80;76168;2837.789;-1801.629;1;318;-130;-133.9;43.3;43.6;13;13.5;25.7;0.0;
27/02/2025 22:23:15;100;0;322.20;-4;-19.36;-4.49;462.3;14.70;76155;2837.792;-1801.631;1;318;-150;-150.0;43.3;43.6;13;14.0;25.7;0.0;
27/02/2025 22:23:35;100;0;325.38;-4;-19.05;-4.48;464.2;14.70;76202;2837.794;-1801.633;1;318;-170;-169.4;43.3;43.6;16;15.8;25.7;0.0;
27/02/2025 22:23:55;100;0;327.10;-4;-19.06;-3.25;466.5;14.70;76240;2837.797;-1801.635;1;318;-170;-172.6;43.3;43.6;18;18.1;25.7;0.0;
27/02/2025 22:24:15;100;0;324.09;-4;-19.26;-2.17;468.7;14.70;76231;2837.800;-1801.638;1;318;-170;-172.6;43.3;43.6;15;14.9;25.7;0.0;
27/02/2025 22:24:35;100;0;320.50;-4;-19.14;-3.98;471.0;14.60;76220;2837.803;-1801.640;1;318;-170;-172.6;43.3;43.6;15;14.9;25.7;0.0;
27/02/2025 22:24:55;100;0;319.24;-4;-19.28;-3.99;473.3;14.60;76214;2837.806;-1801.643;1;318;-170;-171.0;43.3;43.6;15;14.9;25.7;0.0;
27/02/2025 22:25:15;100;0;318.86;-4;-19.69;-3.86;475.7;14.60;76210;2837.809;-1801.646;1;318;-170;-172.6;43.3;43.6;15;14.4;25.7;0.0;
27/02/2025 22:25:35;100;0;318.28;-4;-19.10;-3.97;478.2;14.60;76216;2837.812;-1801.649;1;318;-170;-172.6;43.3;43.6;15;14.9;25.7;0.0;
27/02/2025 22:25:55;100;0;313.49;-4;-18.94;-4.01;480.5;14.50;76192;2837.815;-1801.652;1;318;-170;-172.6;43.6;43.6;15;14.4;25.7;0.0;
27/02/2025 22:26:15;100;0;313.84;-4;-18.56;-3.98;482.8;14.50;76180;2837.817;-1801.655;1;318;-170;-172.6;44.1;44.2;15;14.9;25.7;0.0;
27/02/2025 22:26:35;100;0;314.58;-4;-19.85;-4.02;485.1;14.50;76187;2837.820;-1801.657;1;318;-170;-172.6;44.1;44.3;15;14.4;25.7;0.0;
27/02/2025 22:26:55;100;0;316.70;-4;-20.19;-3.99;487.7;14.40;76177;2837.823;-1801.660;1;318;-170;-172.6;44.1;44.3;15;14.4;25.7;0.0;
27/02/2025 22:27:15;100;0;318.59;-4;-20.35;-3.89;490.2;14.40;76156;2837.826;-1801.663;1;318;-170;-172.6;44.1;44.3;15;14.9;25.7;0.0;
27/02/2025 22:27:35;100;0;319.49;-4;-20.04;-3.87;493.0;14.40;76170;2837.829;-1801.666;1;318;-170;-172.6;44.1;44.3;15;14.4;25.7;0.0;
27/02/2025 22:27:55;100;0;319.56;-4;-19.92;-4.07;495.6;14.40;76156;2837.832;-1801.669;1;318;-170;-172.6;44.1;44.3;15;14.9;25.7;0.0;
27/02/2025 22:28:15;100;0;318.33;-4;-20.46;-3.93;498.5;14.30;76149;2837.835;-1801.672;1;318;-170;-172.6;44.1;44.2;15;14.9;25.7;0.0;
27/02/2025 22:28:35;100;0;316.83;-4;-20.77;-3.84;501.6;14.30;76146;2837.839;-1801.676;1;318;-170;-172.6;44.1;44.3;15;14.9;25.7;0.0;
27/02/2025 22:28:55;100;0;316.77;-4;-20.13;-3.92;504.8;14.30;76135;2837.842;-1801.679;1;318;-170;-172.6;44.1;44.2;15;14.9;25.7;0.0;
27/02/2025 22:29:15;100;0;316.78;-4;-20.13;-4.07;508.1;14.20;76123;2837.846;-1801.683;1;318;-170;-172.6;44.1;44.3;15;14.4;25.7;0.0;
27/02/2025 22:29:35;100;0;317.30;-4;-20.26;-4.03;511.3;14.20;76122;2837.849;-1801.686;1;318;-170;-172.6;44.1;44.3;15;14.9;25.7;0.0;
27/02/2025 22:29:55;100;0;312.08;-4;-20.48;-3.96;514.8;14.20;76123;2837.853;-1801.691;1;318;-170;-172.6;44.1;44.3;13;13.1;25.7;0.0;
27/02/2025 22:30:16;100;0;310.29;-4;-20.33;-4.95;518.3;14.20;76102;2837.856;-1801.695;1;318;-170;-172.6;44.1;44.3;13;12.6;25.7;0.0;
27/02/2025 22:30:36;100;0;310.38;-4;-20.35;-4.90;521.9;14.10;76106;2837.860;-1801.699;1;318;-170;-171.0;44.1;44.3;13;12.6;25.7;0.0;
27/02/2025 22:30:56;100;0;313.35;-4;-20.33;-4.85;525.4;14.10;76101;2837.863;-1801.703;1;318;-170;-172.6;44.1;44.3;13;12.6;25.7;0.0;
27/02/2025 22:31:16;100;0;313.74;-4;-20.28;-4.95;529.0;14.10;76095;2837.867;-1801.708;1;318;-170;-172.6;44.1;44.3;13;12.6;25.7;0.0;
27/02/2025 22:31:36;100;0;313.64;-4;-20.27;-4.82;532.7;14.10;76095;2837.871;-1801.712;1;318;-170;-174.2;44.1;44.3;13;12.6;25.7;0.0;
27/02/2025 22:31:56;100;0;313.82;-4;-20.14;-4.80;536.2;14.00;76084;2837.875;-1801.716;1;318;-170;-174.2;44.1;44.3;13;12.6;25.7;0.0;
27/02/2025 22:32:16;100;0;312.81;-4;-20.16;-4.94;539.8;14.00;76088;2837.878;-1801.720;1;318;-170;-172.6;44.1;44.3;13;12.6;25.7;0.0;
27/02/2025 22:32:36;100;0;313.28;-4;-20.22;-4.92;543.3;14.00;76076;2837.882;-1801.724;1;318;-170;-172.6;44.1;44.3;13;12.6;25.7;0.0;
27/02/2025 22:32:56;100;0;314.99;-4;-20.18;-4.81;546.7;13.90;76066;2837.886;-1801.728;1;318;-170;-174.2;44.1;44.3;13;12.6;25.7;0.0;
27/02/2025 22:33:16;100;0;316.00;-4;-20.28;-5.05;550.2;13.90;76072;2837.889;-1801.732;1;318;-170;-172.6;44.1;44.3;13;12.6;25.7;0.0;
27/02/2025 22:33:36;100;0;316.92;-4;-20.17;-4.84;553.5;13.90;76068;2837.893;-1801.736;1;318;-170;-172.6;44.1;44.3;13;12.6;25.7;0.0;
27/02/2025 22:33:56;100;0;320.62;-4;-19.97;-4.90;556.9;13.90;76058;2837.897;-1801.739;1;318;-170;-172.6;44.1;44.3;13;12.6;25.7;0.0;
27/02/2025 22:34:16;100;0;322.94;-4;-20.20;-4.86;560.2;13.80;76043;2837.901;-1801.743;1;318;-170;-172.6;44.1;44.3;13;12.6;25.7;0.0;
27/02/2025 22:34:36;100;0;323.89;-4;-20.26;-4.85;563.4;13.80;76046;2837.905;-1801.746;1;318;-170;-171.0;44.1;44.3;15;15.3;25.7;0.0;
27/02/2025 22:34:56;100;0;323.40;-4;-20.40;-3.58;566.7;13.80;76038;2837.908;-1801.749;1;318;-170;-172.6;44.1;44.3;15;15.3;25.7;0.0;
27/02/2025 22:35:16;100;0;322.48;-4;-20.64;-3.51;569.8;13.80;76038;2837.912;-1801.752;1;318;-170;-172.6;44.1;44.3;15;15.3;25.7;0.0;
27/02/2025 22:35:36;100;0;321.03;-4;-20.55;-3.52;573.0;13.70;76034;2837.916;-1801.755;1;318;-170;-174.2;44.1;44.3;15;15.3;25.7;0.0;
27/02/2025 22:35:56;100;0;321.29;-4;-20.18;-3.59;576.1;13.70;76021;2837.919;-1801.759;1;318;-170;-172.6;44.1;44.3;15;15.3;25.7;0.0;
27/02/2025 22:36:16;100;0;322.50;-4;-19.76;-3.59;579.1;13.70;76014;2837.923;-1801.762;1;318;-170;-172.6;44.1;44.3;15;15.8;25.7;0.0;
27/02/2025 22:36:36;100;0;322.85;-4;-19.87;-3.59;581.9;13.70;76026;2837.926;-1801.765;1;318;-170;-171.0;44.1;44.3;15;15.3;25.7;0.0;
27/02/2025 22:36:56;100;0;322.66;-4;-20.02;-3.54;584.8;13.60;76019;2837.930;-1801.768;1;318;-170;-172.6;44.1;44.3;15;15.3;25.7;0.0;
27/02/2025 22:37:16;100;0;322.09;-4;-20.01;-3.58;587.7;13.60;76004;2837.933;-1801.771;1;318;-170;-172.6;44.1;44.3;15;15.8;25.7;0.0;
27/02/2025 22:37:36;100;0;320.04;-4;-19.88;-3.72;590.6;13.60;75997;2837.937;-1801.774;1;318;-170;-172.6;44.1;44.3;15;15.3;25.7;0.0;
27/02/2025 22:37:56;100;0;317.64;-4;-20.00;-3.46;593.6;13.60;75997;2837.940;-1801.777;1;318;-170;-171.0;44.1;44.3;15;15.3;25.7;0.0;
27/02/2025 22:38:16;100;0;316.01;-4;-19.86;-3.62;596.5;13.50;75996;2837.943;-1801.780;1;318;-170;-174.2;44.1;44.3;15;15.3;25.7;0.0;
27/02/2025 22:38:36;100;0;312.64;-4;-19.84;-3.64;599.2;13.50;75995;2837.946;-1801.784;1;318;-170;-172.6;44.1;44.3;15;15.3;25.7;0.0;
27/02/2025 22:38:56;100;0;310.87;-4;-19.99;-3.61;602.3;13.50;75978;2837.949;-1801.787;1;318;-170;-175.8;44.1;44.3;13;13.1;25.7;0.0;
27/02/2025 22:39:16;100;0;312.08;-4;-19.71;-4.80;605.1;13.40;75969;2837.952;-1801.791;1;318;-170;-172.6;44.1;44.3;13;13.1;25.7;0.0;
27/02/2025 22:39:36;100;0;312.54;-4;-19.59;-4.98;608.2;13.40;75964;2837.955;-1801.795;1;318;-170;-172.6;44.1;44.3;13;13.1;25.7;0.0;
27/02/2025 22:39:56;100;0;313.21;-4;-19.43;-4.82;611.2;13.40;75969;2837.959;-1801.798;1;318;-170;-172.6;44.1;44.3;13;13.1;25.7;0.0;
27/02/2025 22:40:16;100;0;313.54;-4;-19.60;-4.84;614.0;13.40;75952;2837.962;-1801.802;1;318;-170;-174.2;44.1;44.3;13;13.1;25.7;0.0;
27/02/2025 22:40:36;100;0;312.37;-4;-19.76;-4.85;616.8;13.30;75946;2837.965;-1801.805;1;318;-170;-174.2;44.1;44.3;13;13.1;25.7;0.0;
27/02/2025 22:40:56;100;0;311.86;-4;-19.42;-4.76;619.8;13.30;75941;2837.968;-1801.809;1;318;-170;-172.6;44.1;44.3;13;12.6;25.7;0.0;
27/02/2025 22:41:16;100;0;312.58;-4;-19.68;-4.87;622.5;13.30;75944;2837.971;-1801.812;1;318;-170;-172.6;44.1;44.3;13;13.1;25.7;0.0;
27/02/2025 22:41:36;100;0;312.03;-4;-19.65;-4.76;625.3;13.30;75933;2837.974;-1801.816;1;318;-170;-172.6;44.1;44.3;13;12.6;25.7;0.0;
27/02/2025 22:41:56;100;0;310.61;-4;-19.72;-4.75;628.2;13.30;75933;2837.976;-1801.819;1;318;-170;-172.6;44.1;44.3;13;13.1;25.7;0.0;
27/02/2025 22:42:16;100;0;316.26;-4;-19.66;-4.75;631.0;13.20;75927;2837.980;-1801.822;1;318;-170;-172.6;44.1;44.3;13;13.1;25.7;0.0;
27/02/2025 22:42:36;100;0;317.41;-4;-19.95;-4.78;633.8;13.20;75922;2837.983;-1801.826;1;318;-170;-172.6;44.1;44.5;13;13.1;25.7;0.0;
27/02/2025 22:42:56;100;0;320.14;-4;-19.73;-4.82;636.7;13.20;75920;2837.986;-1801.829;1;318;-170;-172.6;44.1;44.3;13;13.1;25.7;0.0;
27/02/2025 22:43:16;100;0;321.57;-4;-19.54;-4.83;639.4;13.20;75911;2837.989;-1801.832;1;318;-170;-172.6;44.1;44.3;13;13.1;25.7;0.0;
27/02/2025 22:43:36;100;0;322.21;-4;-19.57;-4.88;642.2;13.10;75907;2837.993;-1801.834;1;318;-170;-172.6;44.1;44.3;13;13.1;25.7;0.0;
27/02/2025 22:43:56;100;0;321.28;-4;-19.50;-4.84;645.0;13.10;75894;2837.996;-1801.837;1;318;-170;-172.6;44.1;44.3;13;13.1;25.7;0.0;
27/02/2025 22:44:16;100;0;320.98;-4;-20.01;-4.87;647.9;13.10;75889;2838.000;-1801.840;1;318;-170;-172.6;44.1;44.5;13;13.1;25.7;0.0;
27/02/2025 22:44:36;100;0;321.72;-4;-20.08;-4.85;650.9;13.10;75888;2838.003;-1801.844;1;318;-170;-174.2;44.1;44.3;13;13.1;25.7;0.0;
27/02/2025 22:44:56;100;0;322.85;-4;-20.29;-4.73;654.0;13.00;75873;2838.007;-1801.847;1;318;-170;-174.2;44.1;44.3;13;13.1;25.7;0.0;
27/02/2025 22:45:16;100;0;322.49;-4;-20.07;-4.86;657.2;13.00;75874;2838.011;-1801.850;1;318;-170;-175.8;44.1;44.5;13;13.1;25.7;0.0;
27/02/2025 22:45:36;100;0;322.25;-4;-20.00;-4.82;660.5;13.00;75870;2838.014;-1801.853;1;318;-170;-172.6;44.1;44.3;13;13.1;25.7;0.0;
27/02/2025 22:45:56;100;0;320.36;-4;-20.10;-4.86;663.7;12.90;75850;2838.018;-1801.857;1;318;-170;-174.2;44.1;44.3;13;13.1;25.7;0.0;
27/02/2025 22:46:16;100;0;319.96;-4;-19.84;-4.78;666.9;12.90;75848;2838.022;-1801.860;1;318;-170;-172.6;44.1;44.3;13;13.1;25.7;0.0;
27/02/2025 22:46:36;100;0;318.26;-4;-19.33;-4.85;670.0;12.90;75846;2838.025;-1801.864;1;318;-170;-171.0;44.1;44.3;13;13.1;25.7;0.0;
27/02/2025 22:46:56;100;0;317.48;-4;-19.42;-4.87;673.1;12.90;75836;2838.029;-1801.867;1;318;-170;-172.6;44.1;44.3;13;13.1;25.7;0.0;
27/02/2025 22:47:16;100;0;316.11;-4;-19.97;-4.98;675.8;12.80;75819;2838.032;-1801.870;1;318;-170;-172.6;44.1;44.3;13;13.1;25.7;0.0;
27/02/2025 22:47:36;100;0;315.31;-4;-19.78;-4.90;678.9;12.80;75836;2838.035;-1801.874;1;318;-170;-172.6;44.1;44.3;13;13.1;25.7;0.0;
27/02/2025 22:47:56;100;0;315.31;-4;-20.07;-4.70;681.9;12.80;75826;2838.039;-1801.877;1;318;-170;-172.6;44.1;44.3;13;13.1;25.7;0.0;
27/02/2025 22:48:16;100;0;312.19;-4;-20.14;-4.61;685.1;12.80;75805;2838.042;-1801.881;1;318;-170;-172.6;44.1;44.3;13;13.1;25.7;0.0;
27/02/2025 22:48:36;100;0;312.23;-4;-19.67;-4.77;688.3;12.70;75812;2838.045;-1801.885;1;318;-170;-172.6;44.1;44.3;13;13.1;25.7;0.0;
27/02/2025 22:48:56;100;0;312.28;-4;-19.38;-4.86;691.4;12.70;75796;2838.048;-1801.889;1;318;-170;-172.6;44.1;44.3;13;13.1;25.7;0.0;
27/02/2025 22:49:16;100;0;314.30;-4;-19.31;-4.93;694.2;12.70;75792;2838.052;-1801.892;1;318;-170;-172.6;44.1;44.3;13;13.1;25.7;0.0;
27/02/2025 22:49:36;100;0;315.42;-4;-18.97;-5.01;697.1;12.70;75783;2838.055;-1801.896;1;318;-170;-172.6;44.4;44.3;13;13.1;25.7;0.0;
27/02/2025 22:49:56;100;0;315.91;-4;-19.10;-4.84;700.0;12.60;75778;2838.058;-1801.899;1;318;-170;-172.6;44.4;44.3;13;13.1;25.7;0.0;
27/02/2025 22:50:16;100;0;318.93;-4;-19.00;-4.74;702.9;12.60;75769;2838.062;-1801.903;1;318;-170;-172.6;44.7;44.6;13;13.1;25.7;0.0;
27/02/2025 22:50:36;100;0;320.42;-4;-19.96;-4.99;705.9;12.60;75767;2838.065;-1801.906;1;318;-170;-172.6;44.7;44.8;13;13.1;25.7;0.0;
27/02/2025 22:50:56;100;0;320.38;-4;-20.56;-4.89;708.9;12.60;75757;2838.069;-1801.909;1;318;-170;-172.6;44.7;44.8;13;13.1;25.7;0.0;
27/02/2025 22:51:16;100;0;318.72;-4;-20.12;-5.00;711.9;12.50;75758;2838.072;-1801.912;1;318;-170;-172.6;44.7;44.8;13;13.1;25.7;0.0;
27/02/2025 22:51:36;100;0;318.11;-4;-20.20;-4.89;715.0;12.50;75757;2838.076;-1801.916;1;318;-170;-174.2;44.7;44.8;13;13.1;25.7;0.0;
27/02/2025 22:51:56;100;0;320.40;-4;-20.31;-4.82;718.1;12.50;75746;2838.079;-1801.919;1;318;-170;-174.2;44.7;44.8;13;13.1;25.7;0.0;
27/02/2025 22:52:16;100;0;321.42;-4;-20.27;-4.87;721.3;12.50;75749;2838.083;-1801.922;1;318;-170;-175.8;44.7;44.9;13;13.1;25.7;0.0;
27/02/2025 22:52:36;100;0;322.31;-4;-20.27;-4.88;724.4;12.40;75737;2838.086;-1801.925;1;318;-170;-172.6;44.7;44.9;13;13.1;25.7;0.0;
27/02/2025 22:52:56;100;0;323.31;-4;-20.26;-4.88;727.5;12.40;75735;2838.090;-1801.928;1;318;-170;-172.6;44.7;44.8;15;14.9;25.7;0.0;
27/02/2025 22:53:16;100;0;324.38;-4;-20.55;-3.72;730.8;12.40;75729;2838.094;-1801.931;1;318;-170;-174.2;44.7;44.9;15;14.9;25.7;0.0;
27/02/2025 22:53:36;100;0;325.15;-4;-20.85;-3.66;734.0;12.40;75721;2838.098;-1801.934;1;318;-170;-172.6;44.7;44.9;15;14.9;25.7;0.0;
27/02/2025 22:53:56;100;0;325.28;-4;-21.06;-3.84;737.3;12.30;75719;2838.102;-1801.937;1;318;-170;-172.6;44.7;44.9;15;14.9;25.7;0.0;
27/02/2025 22:54:16;100;0;325.90;-4;-21.18;-3.65;740.7;12.30;75712;2838.106;-1801.940;1;318;-170;-172.6;44.7;44.9;15;14.9;25.7;0.0;
27/02/2025 22:54:36;100;0;323.79;-4;-21.06;-3.76;744.1;12.30;75703;2838.110;-1801.944;1;318;-170;-172.6;44.7;44.9;15;14.9;25.7;0.0;
27/02/2025 22:54:56;100;0;323.54;-4;-20.99;-3.76;747.4;12.20;75688;2838.113;-1801.947;1;318;-170;-172.6;44.7;44.9;15;14.9;25.7;0.0;
27/02/2025 22:55:16;100;0;324.15;-4;-20.59;-3.68;750.7;12.20;75680;2838.117;-1801.950;1;318;-170;-172.6;44.7;44.9;15;15.3;25.7;0.0;
27/02/2025 22:55:36;100;0;322.00;-4;-20.48;-3.79;754.0;12.20;75674;2838.121;-1801.953;1;318;-170;-172.6;44.7;44.9;15;14.9;25.7;0.0;
27/02/2025 22:55:56;100;0;320.82;-4;-20.31;-3.78;757.2;12.20;75665;2838.125;-1801.957;1;318;-170;-172.6;44.7;44.9;15;14.9;25.7;0.0;
27/02/2025 22:56:16;100;0;319.32;-4;-20.86;-3.72;760.2;12.10;75674;2838.128;-1801.960;1;318;-170;-171.0;44.7;44.9;15;14.9;25.7;0.0;
27/02/2025 22:56:36;100;0;317.46;-4;-20.44;-3.89;763.4;12.10;75660;2838.132;-1801.963;1;318;-170;-174.2;44.7;44.9;15;14.9;25.7;0.0;
27/02/2025 22:56:56;100;0;314.66;-4;-20.37;-3.75;766.5;12.10;75657;2838.135;-1801.967;1;318;-170;-172.6;44.7;44.9;15;14.9;25.7;0.0;
27/02/2025 22:57:16;100;0;312.90;-4;-20.70;-3.67;769.6;12.10;75652;2838.138;-1801.971;1;318;-170;-172.6;44.7;44.9;15;14.9;25.7;0.0;
27/02/2025 22:57:36;100;0;309.32;-4;-20.17;-3.76;772.7;12.00;75634;2838.141;-1801.974;1;318;-170;-172.6;44.7;44.9;13;13.1;25.7;0.0;
27/02/2025 22:57:56;100;0;307.76;-4;-19.98;-4.97;775.7;12.00;75627;2838.144;-1801.978;1;318;-170;-172.6;44.7;44.9;13;12.6;25.7;0.0;
27/02/2025 22:58:16;100;0;306.38;-4;-20.45;-5.02;778.6;12.00;75610;2838.147;-1801.982;1;318;-170;-172.6;44.7;45.1;11;10.8;25.7;0.0;
27/02/2025 22:58:36;100;0;307.61;-4;-20.77;-6.15;781.5;11.90;75596;2838.150;-1801.986;1;318;-170;-172.6;44.7;44.9;11;10.4;25.7;0.0;
27/02/2025 22:58:56;100;0;308.65;-4;-20.73;-6.21;784.7;11.90;75591;2838.153;-1801.990;1;318;-170;-172.6;44.7;44.9;11;10.4;25.7;0.0;
27/02/2025 22:59:16;100;0;307.72;-4;-18.61;-6.10;787.6;11.90;75583;2838.156;-1801.994;1;318;-170;-172.6;45.1;45.1;11;10.4;25.7;0.0;
27/02/2025 22:59:36;100;0;307.93;-4;-20.47;-5.88;790.2;11.90;75583;2838.158;-1801.997;1;318;-170;-172.6;45.1;45.2;11;10.4;25.7;0.0;
27/02/2025 22:59:56;100;0;310.15;-4;-20.87;-6.26;793.2;11.80;75568;2838.161;-1802.001;1;318;-170;-172.6;45.1;45.2;13;13.1;25.7;0.0;
27/02/2025 23:00:16;100;0;311.87;-4;-21.55;-4.57;796.6;11.80;75566;2838.164;-1802.004;1;318;-170;-172.6;45.1;45.4;13;13.5;25.7;0.0;
27/02/2025 23:00:36;100;0;312.76;-4;-21.20;-4.58;800.0;11.80;75559;2838.168;-1802.008;1;318;-170;-172.6;45.1;45.2;13;13.5;25.7;0.0;
27/02/2025 23:00:56;100;0;315.56;-4;-22.37;-4.82;803.7;11.80;75554;2838.171;-1802.012;1;318;-170;-172.6;44.4;44.3;13;13.5;25.7;0.0;
27/02/2025 23:01:16;100;0;318.09;-4;-20.07;-4.34;807.5;11.70;75547;2838.176;-1802.016;1;318;-170;-172.6;44.4;44.2;13;13.5;25.7;0.0;
27/02/2025 23:01:36;100;0;317.10;-4;-19.69;-4.23;811.3;11.70;75540;2838.180;-1802.020;1;318;-170;-174.2;44.4;44.2;13;13.5;25.7;0.0;
27/02/2025 23:01:56;100;0;317.46;-4;-20.16;-4.38;815.3;11.70;75535;2838.184;-1802.025;1;318;-170;-172.6;44.4;44.2;13;13.5;25.7;0.0;
27/02/2025 23:02:16;100;0;319.18;-4;-18.89;-4.60;819.4;11.60;75522;2838.189;-1802.029;1;318;-170;-174.2;44.7;44.8;13;13.5;25.7;0.0;
27/02/2025 23:02:36;100;0;319.63;-4;-19.54;-4.55;823.3;11.60;75520;2838.193;-1802.033;1;318;-170;-172.6;44.7;44.9;13;13.5;25.7;0.0;
27/02/2025 23:02:56;100;0;320.22;-4;-20.55;-4.90;827.4;11.60;75527;2838.197;-1802.037;1;318;-170;-172.6;44.7;44.9;13;13.5;25.7;0.0;
27/02/2025 23:03:16;100;0;320.82;-4;-20.88;-4.32;831.6;11.60;75522;2838.202;-1802.042;1;318;-170;-172.6;44.7;45.1;13;13.5;25.7;0.0;
27/02/2025 23:03:36;100;0;321.73;-4;-21.14;-4.11;836.2;11.50;75510;2838.207;-1802.046;1;318;-170;-172.6;44.7;45.1;13;13.5;25.7;0.0;
27/02/2025 23:03:56;100;0;320.26;-4;-20.57;-4.68;841.0;11.50;75516;2838.212;-1802.051;1;318;-170;-172.6;44.7;44.9;13;13.5;25.7;0.0;
27/02/2025 23:04:16;100;0;320.98;-4;-19.87;-4.53;845.4;11.50;75515;2838.217;-1802.055;1;318;-170;-172.6;44.7;45.1;13;13.5;25.7;0.0;
27/02/2025 23:04:37;100;0;320.24;-4;-21.34;-4.24;849.7;11.50;75510;2838.221;-1802.059;1;318;-170;-172.6;44.7;44.9;13;13.5;25.7;0.0;
27/02/2025 23:04:57;100;0;319.06;-4;-20.32;-4.90;854.2;11.40;75507;2838.226;-1802.064;1;318;-170;-172.6;44.7;45.1;13;13.5;25.7;0.0;
27/02/2025 23:05:17;100;0;319.52;-4;-19.13;-4.35;858.6;11.40;75504;2838.231;-1802.069;1;318;-170;-171.0;44.7;45.1;13;13.5;25.7;0.0;
27/02/2025 23:05:37;100;0;324.53;-4;-20.30;-4.66;863.1;11.40;75497;2838.236;-1802.073;1;318;-170;-171.0;44.7;44.9;15;15.3;25.7;0.0;
27/02/2025 23:05:57;100;0;324.37;-4;-20.27;-3.63;867.2;11.40;75493;2838.241;-1802.077;1;318;-170;-174.2;44.7;45.1;15;15.8;25.7;0.0;
27/02/2025 23:06:17;100;0;327.26;-4;-19.94;-3.50;871.3;11.30;75499;2838.246;-1802.081;1;318;-170;-174.2;44.7;45.1;17;17.1;25.7;0.0;
27/02/2025 23:06:37;100;0;328.31;-4;-20.18;-2.67;875.1;11.30;75498;2838.251;-1802.084;1;318;-170;-172.6;44.7;45.1;17;17.1;25.7;0.0;
27/02/2025 23:06:57;100;0;326.17;-4;-20.39;-2.88;878.7;11.30;75482;2838.255;-1802.087;1;318;-170;-172.6;44.7;45.1;17;17.1;25.7;0.0;
27/02/2025 23:07:17;100;0;325.33;-4;-20.67;-3.16;882.0;11.30;75484;2838.259;-1802.090;1;318;-170;-172.6;44.7;45.1;17;17.1;25.7;0.0;
27/02/2025 23:07:37;100;0;323.52;-4;-20.80;-2.55;885.5;11.20;75474;2838.263;-1802.093;1;318;-170;-172.6;44.7;45.1;15;14.4;25.7;0.0;
27/02/2025 23:07:57;100;0;319.11;-4;-20.67;-4.87;888.6;11.20;75453;2838.267;-1802.097;1;318;-170;-172.6;44.7;45.1;15;14.4;25.7;0.0;
27/02/2025 23:08:17;100;0;320.47;-4;-20.00;-4.28;891.5;11.20;75455;2838.270;-1802.100;1;318;-170;-172.6;44.7;45.1;15;14.4;25.7;0.0;
27/02/2025 23:08:37;100;0;322.36;-4;-22.23;-4.45;894.3;11.20;75448;2838.273;-1802.103;1;318;-170;-172.6;44.0;44.0;15;14.4;25.7;0.0;
27/02/2025 23:08:57;100;0;322.07;-4;-19.81;-4.13;897.5;11.10;75444;2838.277;-1802.106;1;318;-170;-172.6;44.0;43.7;15;14.4;25.7;0.0;
27/02/2025 23:09:17;100;0;318.91;-4;-17.58;-4.05;900.4;11.10;75450;2838.281;-1802.109;1;318;-170;-174.2;44.8;44.8;15;14.4;25.7;0.0;
27/02/2025 23:09:37;100;0;320.52;-4;-19.27;-3.81;903.1;11.10;75438;2838.284;-1802.112;1;318;-170;-172.6;44.8;45.1;15;14.4;25.7;0.0;
27/02/2025 23:09:57;100;0;320.51;-4;-20.35;-4.07;906.0;11.10;75444;2838.287;-1802.115;1;318;-170;-172.6;44.8;45.1;15;14.4;25.7;0.0;
27/02/2025 23:10:17;100;0;318.07;-4;-19.93;-4.38;909.2;11.00;75429;2838.291;-1802.119;1;318;-170;-174.2;44.8;44.9;15;14.4;25.7;0.0;
27/02/2025 23:10:37;100;0;317.44;-4;-19.13;-4.18;912.0;11.00;75436;2838.294;-1802.122;1;318;-170;-172.6;44.8;44.9;15;14.4;25.7;0.0;
27/02/2025 23:10:57;100;0;316.57;-4;-20.42;-4.18;914.9;11.00;75431;2838.297;-1802.125;1;318;-170;-172.6;44.8;44.9;15;14.4;25.7;0.0;
27/02/2025 23:11:17;100;0;320.20;-4;-19.48;-4.50;917.6;11.00;75407;2838.301;-1802.128;1;318;-170;-172.6;44.8;44.9;15;14.4;25.7;0.0;
27/02/2025 23:11:37;100;0;319.80;-4;-20.55;-4.20;920.1;11.00;75419;2838.304;-1802.131;1;318;-170;-172.6;44.8;45.1;15;14.4;25.7;0.0;
27/02/2025 23:11:57;100;0;316.11;-4;-21.85;-4.79;922.9;11.00;75419;2838.306;-1802.134;1;318;-170;-172.6;44.8;44.9;15;14.4;25.7;0.0;
27/02/2025 23:12:17;100;0;321.40;-4;-19.81;-4.49;926.0;10.90;75420;2838.310;-1802.137;1;318;-170;-172.6;44.8;44.9;15;14.4;25.7;0.0;
27/02/2025 23:12:37;100;0;324.20;-4;-20.56;-4.13;929.0;10.90;75414;2838.314;-1802.140;1;318;-170;-172.6;44.8;44.9;15;14.4;25.7;0.0;
27/02/2025 23:12:57;100;0;326.14;-4;-20.34;-4.51;932.5;10.90;75412;2838.318;-1802.143;1;318;-170;-172.6;44.8;45.1;17;17.1;25.7;0.0;
27/02/2025 23:13:17;100;0;323.82;-4;-20.70;-2.77;936.3;10.90;75407;2838.322;-1802.147;1;318;-170;-172.6;44.8;45.1;17;17.6;25.7;0.0;
27/02/2025 23:13:37;100;0;322.21;-4;-21.70;-2.53;940.2;10.80;75412;2838.326;-1802.151;1;318;-170;-171.0;44.8;45.1;15;14.9;25.7;0.0;
27/02/2025 23:13:57;100;0;321.08;-4;-20.35;-4.26;944.2;10.80;75410;2838.331;-1802.155;1;318;-170;-172.6;44.8;45.1;15;14.4;25.7;0.0;
27/02/2025 23:14:17;100;0;324.94;-4;-21.25;-4.61;948.4;10.80;75406;2838.336;-1802.158;1;318;-170;-172.6;44.8;45.1;15;14.4;25.7;0.0;
27/02/2025 23:14:37;100;0;322.89;-4;-20.90;-3.42;952.7;10.80;75400;2838.340;-1802.163;1;318;-170;-172.6;44.8;45.1;15;14.4;25.7;0.0;
27/02/2025 23:14:57;100;0;317.73;-4;-20.94;-4.30;956.6;10.80;75389;2838.345;-1802.167;1;318;-170;-172.6;44.8;45.1;15;14.4;25.7;0.0;
27/02/2025 23:15:17;100;0;312.69;-4;-20.04;-3.76;961.5;10.70;75396;2838.349;-1802.172;1;318;-170;-172.6;44.8;44.9;15;14.4;25.7;0.0;
27/02/2025 23:15:37;100;0;312.31;-4;-19.54;-5.15;965.9;10.70;75384;2838.354;-1802.177;1;318;-170;-172.6;44.8;45.1;15;14.4;25.7;0.0;
27/02/2025 23:15:57;100;0;313.25;-4;-16.19;-4.12;969.0;10.70;75379;2838.357;-1802.181;1;318;-170;-172.6;45.9;45.9;15;14.4;25.7;0.0;
27/02/2025 23:16:17;100;0;313.51;-4;-20.28;-4.78;971.0;10.70;75381;2838.360;-1802.184;1;318;-170;-172.6;45.9;46.2;15;14.9;25.7;0.0;
27/02/2025 23:16:37;100;0;306.15;-4;-22.38;-4.32;973.9;10.70;75391;2838.362;-1802.188;1;318;-170;-172.6;45.2;45.1;12;11.7;25.7;40.5;
27/02/2025 23:16:57;100;0;310.49;-4;-22.22;-5.24;977.0;10.60;75379;2838.365;-1802.191;1;318;-170;-172.6;44.5;44.2;14;14.0;25.7;39.4;
27/02/2025 23:17:17;100;0;309.21;-4;-21.67;-4.68;979.9;10.60;75388;2838.368;-1802.195;1;318;-170;-172.6;44.5;44.2;14;14.4;25.7;0.0;
27/02/2025 23:17:37;100;0;306.64;-4;-19.63;-5.53;983.9;10.60;75372;2838.371;-1802.200;1;318;-170;-171.0;44.5;44.2;11;10.8;25.7;0.0;
27/02/2025 23:17:57;100;0;311.23;-4;-16.23;-6.39;987.8;10.60;75373;2838.376;-1802.205;1;318;-170;-172.6;45.7;45.7;14;14.0;25.7;0.0;
27/02/2025 23:18:17;100;0;314.22;-4;-20.52;-4.41;991.1;10.60;75376;2838.379;-1802.209;1;318;-170;-172.6;45.7;45.9;14;14.0;25.7;0.0;
27/02/2025 23:18:37;100;0;317.06;-4;-21.59;-4.19;993.9;10.60;75375;2838.382;-1802.212;1;318;-170;-172.6;45.7;45.9;14;14.0;25.7;0.0;
27/02/2025 23:18:57;100;0;304.90;-4;-22.31;-4.68;996.6;10.50;75366;2838.384;-1802.215;1;318;-170;-172.6;45.0;44.8;10;9.9;25.7;0.0;
27/02/2025 23:19:11;118;0;315.98;-4;-23.70;-6.85;999.0;10.50;75366;2838.387;-1802.217;1;318;450;-169.4;21.6;21.6;7;7.2;25.7;0.0;
27/02/2025 23:19:21;118;0;50.54;-4;-6.40;-8.82;1000.3;10.50;75346;2838.388;-1802.216;1;318;450;-43.5;21.6;21.4;7;6.8;24.1;-1.0;
27/02/2025 23:19:31;118;0;41.28;-4;21.43;-8.22;1000.2;10.50;75080;2838.389;-1802.216;1;318;450;82.3;21.6;21.6;7;6.8;24.0;-1.0;
27/02/2025 23:19:41;118;0;34.28;-4;29.29;-9.19;999.3;10.50;74823;2838.389;-1802.216;1;318;450;204.8;21.6;21.6;7;6.8;24.2;-1.0;
27/02/2025 23:19:51;118;0;35.16;-4;29.04;-9.66;998.1;10.50;74577;2838.391;-1802.215;1;318;450;327.4;21.6;21.6;7;6.8;24.0;-1.0;
27/02/2025 23:20:01;118;0;37.01;-4;24.46;-7.34;996.9;10.50;74339;2838.392;-1802.214;1;318;450;440.3;21.6;21.8;7;6.8;24.3;-1.0;
27/02/2025 23:20:11;118;0;38.06;-4;25.18;-7.86;995.5;10.50;74097;2838.393;-1802.214;1;318;450;451.6;21.6;21.6;7;6.8;24.0;-1.0;
27/02/2025 23:20:21;118;0;302.53;-4;23.87;-8.67;993.6;10.60;74081;2838.395;-1802.216;1;318;450;451.6;21.6;21.6;7;6.8;25.7;-1.0;
27/02/2025 23:20:41;117;0;293.08;-4;21.14;-8.48;989.9;10.60;74081;2838.397;-1802.221;1;318;450;450.0;21.6;21.6;7;6.8;25.7;-1.0;
27/02/2025 23:21:01;117;0;277.71;-4;23.15;-7.73;986.2;10.70;74077;2838.398;-1802.226;1;318;450;451.6;22.5;22.7;70;69.9;25.7;-1.0;
27/02/2025 23:21:21;117;0;287.41;-4;19.72;25.59;981.5;10.70;74082;2838.401;-1802.233;1;318;450;451.6;22.5;22.7;61;60.5;25.7;-1.0;
27/02/2025 23:21:41;117;0;300.94;-4;16.77;19.08;977.7;10.70;74079;2838.404;-1802.239;1;318;450;451.6;21.6;21.4;38;37.9;25.7;-1.0;
27/02/2025 23:22:01;117;0;305.72;-4;23.54;8.01;975.0;10.70;74063;2838.406;-1802.242;1;318;450;450.0;22.6;22.7;31;31.1;25.7;-1.0;
27/02/2025 23:22:21;117;0;310.32;-4;20.32;5.95;971.1;10.70;74058;2838.410;-1802.247;1;318;450;453.2;22.6;23.0;29;28.9;25.7;-1.0;
27/02/2025 23:22:41;117;0;309.99;-4;20.89;4.48;967.8;10.70;74063;2838.413;-1802.251;1;318;450;453.2;22.6;22.8;29;28.4;25.7;-1.0;
27/02/2025 23:23:01;117;0;314.18;-4;20.32;3.56;964.1;10.70;74054;2838.417;-1802.255;1;318;450;451.6;22.6;22.8;29;28.4;25.7;-1.0;
27/02/2025 23:23:21;117;0;315.15;-4;19.86;2.75;960.5;10.70;74052;2838.421;-1802.259;1;318;450;451.6;22.6;22.8;29;28.4;25.7;-1.0;
27/02/2025 23:23:41;117;0;314.76;-4;19.07;2.81;957.3;10.60;74055;2838.424;-1802.263;1;318;450;451.6;22.6;22.8;29;28.4;25.7;-1.0;
27/02/2025 23:24:01;117;0;317.72;-4;19.13;2.94;954.6;10.60;74048;2838.427;-1802.266;1;318;450;451.6;22.6;22.8;29;28.4;25.7;-1.0;
27/02/2025 23:24:21;117;0;318.06;-4;20.65;3.23;951.4;10.60;74038;2838.431;-1802.269;1;318;450;451.6;22.6;22.8;29;28.4;25.7;-1.0;
27/02/2025 23:24:41;117;0;318.22;-4;19.91;3.12;948.3;10.60;74030;2838.434;-1802.273;1;318;450;453.2;22.6;22.8;29;28.4;25.7;-1.0;
27/02/2025 23:25:01;117;0;319.12;-4;19.57;3.22;945.4;10.60;74037;2838.438;-1802.276;1;318;450;451.6;22.6;22.8;29;28.4;25.7;-1.0;
27/02/2025 23:25:21;117;0;319.30;-4;19.24;3.34;942.6;10.50;74032;2838.441;-1802.279;1;318;450;451.6;22.6;22.8;29;28.4;25.7;-1.0;
27/02/2025 23:25:41;117;0;319.66;-4;19.70;3.10;939.7;10.50;74030;2838.445;-1802.282;1;318;450;453.2;22.6;22.8;29;28.4;25.7;-1.0;
27/02/2025 23:26:01;117;0;318.00;-4;19.82;3.19;937.0;10.50;74026;2838.448;-1802.285;1;318;450;453.2;22.6;22.8;29;28.4;25.7;-1.0;
27/02/2025 23:26:21;117;0;318.50;-4;19.99;3.28;933.8;10.50;74021;2838.451;-1802.289;1;318;450;451.6;22.6;22.8;29;28.4;25.7;-1.0;
27/02/2025 23:26:41;117;0;318.58;-4;19.82;3.18;930.8;10.50;74015;2838.455;-1802.292;1;318;450;453.2;22.6;22.8;29;28.4;25.7;-1.0;
27/02/2025 23:27:01;117;0;317.45;-4;19.54;3.07;927.8;10.40;74010;2838.458;-1802.295;1;318;450;453.2;22.6;22.8;29;28.4;25.7;-1.0;
27/02/2025 23:27:21;117;0;316.91;-4;19.59;3.18;925.1;10.40;74016;2838.461;-1802.298;1;318;450;451.6;22.6;22.8;29;28.4;25.7;-1.0;
27/02/2025 23:27:41;117;0;317.59;-4;20.29;3.35;922.0;10.40;74014;2838.464;-1802.302;1;318;450;451.6;22.6;22.8;29;28.4;25.7;-1.0;
27/02/2025 23:28:01;117;0;318.91;-4;19.79;2.96;918.9;10.40;74011;2838.468;-1802.305;1;318;450;451.6;22.6;22.8;29;28.4;25.7;-1.0;
27/02/2025 23:28:21;117;0;318.50;-4;19.93;3.37;915.8;10.40;74014;2838.472;-1802.309;1;318;450;451.6;22.6;22.8;29;28.4;25.7;-1.0;
27/02/2025 23:28:41;117;0;318.60;-4;19.42;3.32;912.7;10.40;74003;2838.475;-1802.312;1;318;450;451.6;22.6;22.8;29;28.4;25.7;-1.0;
27/02/2025 23:29:01;117;0;319.58;-4;18.97;3.41;909.8;10.40;74004;2838.479;-1802.315;1;318;450;451.6;22.3;22.4;29;28.0;25.7;-1.0;
27/02/2025 23:29:21;117;0;320.07;-4;19.47;2.98;907.2;10.30;74002;2838.482;-1802.318;1;318;450;453.2;22.3;22.4;27;27.1;25.7;-1.0;
27/02/2025 23:29:41;117;0;320.44;-4;20.24;2.50;904.5;10.30;74000;2838.485;-1802.321;1;318;450;453.2;22.3;22.2;27;27.1;25.7;-1.0;
27/02/2025 23:30:01;117;0;320.32;-4;20.60;2.40;901.4;10.30;73997;2838.488;-1802.324;1;318;450;453.2;22.3;22.2;27;27.1;25.7;-1.0;
27/02/2025 23:30:21;117;0;320.95;-4;20.00;2.33;898.5;10.30;74000;2838.492;-1802.327;1;318;450;453.2;22.3;22.2;27;27.1;25.7;-1.0;
27/02/2025 23:30:41;117;0;319.68;-4;20.64;2.41;895.7;10.30;73982;2838.495;-1802.330;1;318;450;451.6;22.3;22.2;27;27.1;25.7;-1.0;
27/02/2025 23:31:01;117;0;319.98;-4;20.84;2.59;892.7;10.30;73983;2838.498;-1802.333;1;318;450;451.6;22.3;22.2;27;27.1;25.7;-1.0;
27/02/2025 23:31:21;117;0;321.19;-4;20.17;2.35;889.4;10.30;73984;2838.502;-1802.337;1;318;450;450.0;22.3;22.2;27;27.1;25.7;-1.0;
27/02/2025 23:31:41;117;0;319.43;-4;19.54;2.47;886.4;10.30;73981;2838.506;-1802.340;1;318;450;451.6;22.3;22.4;27;27.1;25.7;-1.0;
27/02/2025 23:32:01;117;0;319.36;-4;19.99;2.27;884.0;10.20;73982;2838.509;-1802.343;1;318;450;453.2;22.3;22.2;27;27.1;25.7;-1.0;
27/02/2025 23:32:21;117;0;318.57;-4;20.39;2.38;881.1;10.20;73977;2838.512;-1802.346;1;318;450;453.2;22.3;22.2;27;27.1;25.7;-1.0;
27/02/2025 23:32:41;117;0;314.99;-4;19.38;2.99;878.3;10.20;73983;2838.515;-1802.349;1;318;450;453.2;22.3;22.2;27;27.1;25.7;-1.0;
27/02/2025 23:33:01;117;0;315.48;-4;20.20;2.59;875.8;10.20;73974;2838.518;-1802.352;1;318;450;453.2;22.3;22.2;27;27.1;25.7;-1.0;
27/02/2025 23:33:21;117;0;315.31;-4;20.17;2.64;873.0;10.20;73974;2838.521;-1802.356;1;318;450;453.2;22.3;22.2;27;27.1;25.7;-1.0;
27/02/2025 23:33:41;117;0;314.82;-4;20.65;2.55;870.1;10.20;73974;2838.524;-1802.359;1;318;450;453.2;22.3;22.2;27;27.1;25.7;-1.0;
27/02/2025 23:34:01;117;0;313.27;-4;20.85;2.57;866.9;10.20;73982;2838.527;-1802.363;1;318;450;453.2;22.3;22.2;27;26.6;25.7;-1.0;
27/02/2025 23:34:21;117;0;310.34;-4;19.40;2.61;863.9;10.20;73977;2838.530;-1802.366;1;318;450;450.0;22.3;22.2;29;28.9;25.7;-1.0;
27/02/2025 23:34:41;117;0;310.13;-4;20.60;3.33;860.8;10.20;73967;2838.533;-1802.370;1;318;450;451.6;22.3;22.2;29;28.9;25.7;-1.0;
27/02/2025 23:35:01;117;0;310.88;-4;19.98;3.41;857.9;10.10;73969;2838.536;-1802.374;1;318;450;453.2;22.3;22.2;29;28.9;25.7;-1.0;
27/02/2025 23:35:21;117;0;310.30;-4;19.93;3.52;854.8;10.20;73973;2838.539;-1802.378;1;318;450;453.2;22.3;22.2;29;28.9;25.7;-1.0;
27/02/2025 23:35:41;117;0;309.92;-4;20.45;3.32;851.9;10.10;73969;2838.542;-1802.381;1;318;450;453.2;22.3;22.2;29;28.9;25.7;-1.0;
27/02/2025 23:36:01;117;0;310.12;-4;20.56;3.60;848.8;10.10;73964;2838.545;-1802.385;1;318;450;453.2;22.3;22.2;29;28.9;25.7;-1.0;
27/02/2025 23:36:21;117;0;311.63;-4;20.67;3.65;845.6;10.10;73963;2838.549;-1802.389;1;318;450;450.0;22.3;22.2;29;28.9;25.7;-1.0;
27/02/2025 23:36:41;117;0;311.83;-4;20.39;3.54;842.0;10.10;73965;2838.552;-1802.393;1;318;450;453.2;22.3;22.2;29;28.9;25.7;-1.0;
27/02/2025 23:37:01;117;0;310.59;-4;20.27;3.54;838.7;10.10;73952;2838.555;-1802.397;1;318;450;453.2;22.3;22.2;29;28.9;25.7;-1.0;
27/02/2025 23:37:21;117;0;309.63;-4;20.37;3.75;835.3;10.10;73955;2838.559;-1802.401;1;318;450;451.6;22.3;22.2;29;28.9;25.7;-1.0;
27/02/2025 23:37:41;117;0;309.91;-4;20.13;3.68;831.9;10.10;73963;2838.562;-1802.406;1;318;450;451.6;22.3;22.2;29;28.9;25.7;-1.0;
27/02/2025 23:38:01;117;0;310.36;-4;20.56;3.58;828.2;10.10;73958;2838.566;-1802.410;1;318;450;453.2;22.3;22.2;29;28.9;25.7;-1.0;
27/02/2025 23:38:22;117;0;310.59;-4;20.65;3.43;824.7;10.10;73953;2838.569;-1802.414;1;318;450;453.2;22.3;22.2;29;28.9;25.7;-1.0;
27/02/2025 23:38:42;117;0;310.67;-4;19.95;3.59;821.1;10.10;73955;2838.572;-1802.418;1;318;450;453.2;22.3;22.4;29;28.9;25.7;-1.0;
27/02/2025 23:39:02;117;0;311.02;-4;20.55;3.56;817.7;10.10;73953;2838.576;-1802.422;1;318;450;453.2;22.3;22.2;29;28.9;25.7;-1.0;
27/02/2025 23:39:22;117;0;311.38;-4;20.00;3.56;814.0;10.10;73953;2838.579;-1802.427;1;318;450;451.6;22.3;22.2;29;28.9;25.7;-1.0;
27/02/2025 23:39:42;117;0;310.17;-4;19.81;3.65;810.6;10.00;73940;2838.583;-1802.431;1;318;450;453.2;22.3;22.2;29;28.9;25.7;-1.0;
27/02/2025 23:40:02;117;0;309.56;-4;19.04;3.95;807.2;10.00;73937;2838.586;-1802.435;1;318;450;451.6;22.3;22.2;29;28.9;25.7;-1.0;
27/02/2025 23:40:22;117;0;311.96;-4;20.61;2.71;804.1;10.00;73937;2838.589;-1802.439;1;318;450;454.8;22.3;22.2;29;28.9;25.7;-1.0;
27/02/2025 23:40:42;117;0;313.26;-4;19.38;3.40;801.0;10.00;73935;2838.593;-1802.443;1;318;450;453.2;22.3;22.2;29;29.3;25.7;-1.0;
27/02/2025 23:41:02;117;0;313.12;-4;20.20;3.60;797.8;10.00;73937;2838.596;-1802.447;1;318;450;454.8;22.3;22.2;29;28.9;25.7;-1.0;
27/02/2025 23:41:22;117;0;316.46;-4;20.66;3.47;794.7;10.00;73953;2838.599;-1802.450;1;318;450;453.2;22.3;22.2;29;29.3;25.7;-1.0;
27/02/2025 23:41:42;117;0;316.90;-4;19.65;3.57;791.5;10.00;73945;2838.603;-1802.454;1;318;450;451.6;22.3;22.2;29;28.9;25.7;-1.0;
27/02/2025 23:42:02;117;0;317.96;-4;19.89;3.27;788.2;10.00;73943;2838.606;-1802.457;1;318;450;453.2;22.3;22.4;29;28.9;25.7;-1.0;
27/02/2025 23:42:22;117;0;320.39;-4;19.24;3.77;785.1;10.00;73951;2838.610;-1802.461;1;318;450;451.6;22.3;22.2;29;28.9;25.7;-1.0;
27/02/2025 23:42:42;117;0;323.80;-4;20.23;3.22;782.1;10.00;73955;2838.614;-1802.464;1;318;450;451.6;22.3;22.2;27;26.6;25.7;-1.0;
27/02/2025 23:43:02;117;0;325.98;-4;19.95;1.81;779.1;10.00;73966;2838.618;-1802.467;1;318;450;453.2;22.3;22.2;27;26.6;25.7;-1.0;
27/02/2025 23:43:22;117;0;326.31;-4;20.31;2.21;775.8;10.00;73976;2838.621;-1802.470;1;318;450;453.2;22.3;22.2;25;24.8;25.7;-1.0;
27/02/2025 23:43:42;117;0;325.10;-4;20.24;1.12;772.5;10.00;73978;2838.626;-1802.473;1;318;450;450.0;22.3;22.1;25;24.8;25.7;-1.0;
27/02/2025 23:44:02;117;0;323.83;-4;19.86;1.16;769.2;10.00;73972;2838.630;-1802.476;1;318;450;453.2;22.3;22.2;27;27.1;25.7;-1.0;
27/02/2025 23:44:22;117;0;324.11;-4;19.83;2.81;765.9;10.00;73990;2838.633;-1802.479;1;318;450;453.2;22.3;22.4;27;27.5;25.7;-1.0;
27/02/2025 23:44:42;117;0;323.87;-4;19.94;2.80;762.8;10.00;73990;2838.637;-1802.482;1;318;450;453.2;22.3;22.2;27;27.5;25.7;-1.0;
27/02/2025 23:45:02;117;0;324.08;-4;19.92;2.73;759.5;10.00;73983;2838.641;-1802.485;1;318;450;453.2;22.3;22.2;27;27.5;25.7;-1.0;
27/02/2025 23:45:22;117;0;323.71;-4;19.88;2.80;756.3;10.00;73981;2838.645;-1802.489;1;318;450;453.2;22.3;22.2;27;27.5;25.7;-1.0;
27/02/2025 23:45:42;117;0;323.20;-4;19.96;2.75;753.2;10.00;73983;2838.649;-1802.492;1;318;450;453.2;22.3;22.2;27;27.5;25.7;-1.0;
27/02/2025 23:46:02;117;0;322.24;-4;19.93;2.82;750.0;10.00;73992;2838.652;-1802.495;1;318;450;450.0;22.3;22.2;27;27.5;25.7;-1.0;
27/02/2025 23:46:22;117;0;321.83;-4;19.85;2.75;746.8;10.00;73986;2838.656;-1802.498;1;318;450;453.2;22.3;22.2;27;27.5;25.7;-1.0;
27/02/2025 23:46:42;117;0;321.23;-4;19.79;2.72;743.8;10.00;73991;2838.660;-1802.501;1;318;450;453.2;22.3;22.2;27;27.5;25.7;-1.0;
27/02/2025 23:47:02;117;0;320.76;-4;20.09;2.74;740.8;10.10;73995;2838.663;-1802.505;1;318;450;453.2;22.3;22.2;27;27.5;25.7;-1.0;
27/02/2025 23:47:22;117;0;320.18;-4;19.79;2.81;737.8;10.00;73997;2838.667;-1802.508;1;318;450;453.2;22.3;22.2;27;27.5;25.7;-1.0;
27/02/2025 23:47:42;117;0;319.52;-4;19.70;2.76;734.9;10.10;74006;2838.670;-1802.511;1;318;450;453.2;22.3;22.2;27;27.5;25.7;-1.0;
27/02/2025 23:48:02;117;0;318.93;-4;19.80;2.81;732.1;10.10;74004;2838.673;-1802.514;1;318;450;453.2;22.3;22.2;27;27.5;25.7;-1.0;
27/02/2025 23:48:22;117;0;319.84;-4;20.03;2.74;729.2;10.10;74006;2838.677;-1802.517;1;318;450;453.2;22.3;22.2;27;27.5;25.7;-1.0;
27/02/2025 23:48:42;117;0;320.64;-4;20.01;2.76;726.0;10.10;74006;2838.680;-1802.520;1;318;450;454.8;22.3;22.2;27;27.5;25.7;-1.0;
27/02/2025 23:49:02;117;0;321.13;-4;20.23;2.73;723.0;10.10;74009;2838.684;-1802.524;1;318;450;453.2;22.3;22.2;27;27.5;25.7;-1.0;
