Timestamp;NavState;SecurityLevel;Heading;Declination;Pitch;Roll;Depth;Temperature;Pa;Lat;Lon;DeadReckoning;DesiredH;BallastCmd;BallastPos;LinCmd;LinPos;AngCmd;AngPos;Voltage;Altitude;
12/02/2025 16:00:30;119;0;210.26;-4;-57.34;-16.19;-0.2;18.30;76315;2835.351;-1758.280;0;238;500;509.7;100.0;100.7;0;-0.9;29.1;-1.0;
12/02/2025 16:00:40;116;0;207.28;-4;-49.03;-8.86;-0.2;18.40;76325;2835.354;-1758.278;0;238;500;508.1;100.0;100.7;0;-0.9;29.0;-1.0;
12/02/2025 16:01:07;116;0;216.72;-4;-53.99;-7.51;-0.1;18.50;76334;2835.355;-1758.277;0;238;500;511.3;100.0;100.7;0;-0.5;29.1;-1.0;
12/02/2025 16:01:33;116;0;231.48;-4;-53.29;-15.82;-0.1;18.60;76353;2835.355;-1758.275;0;238;500;511.3;100.0;100.7;0;-0.5;29.1;-1.0;
12/02/2025 16:01:49;116;0;226.70;-4;-50.93;-7.50;-0.1;18.70;76363;2835.355;-1758.273;0;238;500;511.3;100.0;100.7;0;-0.9;29.0;-1.0;
12/02/2025 16:02:52;116;0;231.75;-4;-52.54;-9.12;0.1;19.00;76389;2835.358;-1758.274;0;238;500;509.7;100.0;100.7;0;-0.9;29.1;-1.0;
12/02/2025 16:02:57;116;0;231.18;-4;-53.63;-11.89;0.2;19.10;76398;2835.359;-1758.273;0;238;500;509.7;100.0;100.7;0;-0.9;29.0;-1.0;
12/02/2025 16:03:58;116;0;231.29;-4;-51.11;-14.96;0.1;19.50;76418;2835.362;-1758.271;0;238;500;509.7;100.0;100.7;0;-0.9;29.1;-1.0;
12/02/2025 16:04:46;116;0;219.71;-4;-51.22;-11.64;0.1;19.90;76440;2835.364;-1758.268;0;238;500;511.3;100.0;100.7;0;-0.9;29.1;-1.0;
12/02/2025 16:04:57;116;0;229.01;-4;-54.16;-10.60;0.1;19.90;76440;2835.365;-1758.268;0;237;500;509.7;100.0;100.7;0;-0.9;29.1;-1.0;
12/02/2025 16:05:17;116;0;228.39;-4;-56.78;-11.69;0.1;20.10;76454;2835.366;-1758.268;0;237;500;509.7;100.0;100.7;0;-0.9;29.1;-1.0;
12/02/2025 16:05:30;116;0;217.57;-4;-53.56;-17.43;0.1;20.10;76456;2835.368;-1758.266;0;237;500;509.7;100.0;100.7;0;-0.9;29.1;-1.0;
12/02/2025 16:05:50;110;0;222.29;-4;-56.16;-18.91;-0.0;20.20;76465;2835.368;-1758.266;0;237;-100;395.2;100.0;100.0;2;1.8;29.1;-1.0;
12/02/2025 16:06:00;110;0;223.95;-4;-53.50;-20.77;0.1;20.30;76822;2835.367;-1758.265;1;237;-100;246.8;100.0;99.9;2;2.3;29.0;-1.0;
12/02/2025 16:06:10;110;0;212.33;-4;-51.58;-13.90;0.7;20.30;77062;2835.367;-1758.265;1;237;-100;88.7;100.0;99.9;2;2.3;29.0;-1.0;
12/02/2025 16:06:20;110;0;220.27;-4;-61.65;-7.44;0.8;20.40;77387;2835.366;-1758.265;1;237;-100;-66.1;100.0;100.0;2;2.3;29.0;-1.0;
12/02/2025 16:06:30;110;0;227.46;-4;-63.83;-12.65;1.0;20.40;77729;2835.366;-1758.264;1;237;-100;-100.0;50.0;49.9;2;2.3;29.0;-1.0;
12/02/2025 16:06:40;110;0;223.00;-4;-52.98;-8.71;2.4;20.40;77751;2835.365;-1758.265;1;238;-100;-101.6;50.0;49.8;2;2.3;29.0;-1.0;
12/02/2025 16:07:00;100;0;229.81;-4;-32.55;-10.52;6.1;20.50;77731;2835.363;-1758.267;1;238;-100;-98.4;50.0;49.6;2;1.8;29.0;-1.0;
12/02/2025 16:07:20;100;0;233.84;-4;-32.59;-10.83;10.9;20.50;77722;2835.360;-1758.269;1;238;-100;-98.4;49.2;49.0;-7;-7.2;29.1;-1.0;
12/02/2025 16:07:40;100;0;238.62;-4;-30.50;-15.19;15.4;20.50;77729;2835.357;-1758.272;1;238;-100;-98.4;49.2;48.9;1;0.9;29.1;0.0;
12/02/2025 16:08:00;100;0;241.73;-4;-31.00;-10.89;19.8;20.50;77718;2835.355;-1758.275;1;238;-100;-98.4;49.2;48.9;4;4.5;29.1;0.0;
12/02/2025 16:08:20;100;0;243.54;-4;-31.33;-9.21;24.4;20.50;77724;2835.353;-1758.279;1;238;-100;-98.4;49.2;49.0;6;5.9;29.1;0.0;
12/02/2025 16:08:40;100;0;246.62;-4;-31.52;-8.39;29.0;20.50;77722;2835.351;-1758.282;1;238;-100;-98.4;49.2;48.9;6;6.3;29.1;0.0;
12/02/2025 16:09:00;100;0;248.70;-4;-31.97;-8.40;33.8;20.50;77719;2835.349;-1758.285;1;238;-100;-98.4;49.2;49.0;6;6.3;29.1;0.0;
12/02/2025 16:09:20;100;0;252.70;-4;-31.77;-8.25;38.7;20.50;77716;2835.347;-1758.289;1;238;-100;-98.4;49.2;48.9;6;6.3;29.1;0.0;
12/02/2025 16:09:40;100;0;255.62;-4;-31.31;-8.29;43.7;20.50;77711;2835.345;-1758.293;1;238;-100;-98.4;49.2;48.9;8;8.1;29.1;0.0;
12/02/2025 16:10:00;100;0;256.69;-4;-31.26;-7.26;48.5;20.50;77723;2835.344;-1758.297;1;238;-100;-96.8;49.2;48.9;8;8.6;29.1;0.0;
12/02/2025 16:10:20;100;0;256.11;-4;-31.48;-7.26;53.2;20.50;77718;2835.342;-1758.300;1;238;-100;-98.4;49.2;48.9;8;8.6;29.1;0.0;
12/02/2025 16:10:40;100;0;254.45;-4;-31.88;-7.27;58.0;20.40;77719;2835.340;-1758.304;1;238;-100;-98.4;49.2;48.9;8;8.6;29.1;0.0;
12/02/2025 16:11:00;100;0;255.22;-4;-31.54;-7.19;62.9;20.40;77725;2835.339;-1758.308;1;238;-100;-98.4;49.2;49.0;8;8.6;29.1;0.0;
12/02/2025 16:11:20;100;0;255.40;-4;-31.28;-7.19;67.7;20.40;77717;2835.337;-1758.312;1;238;-100;-98.4;49.2;48.9;8;8.6;29.1;0.0;
12/02/2025 16:11:40;100;0;255.33;-4;-31.28;-7.22;72.6;20.40;77718;2835.336;-1758.315;1;238;-100;-98.4;49.2;49.0;8;8.6;29.1;0.0;
12/02/2025 16:12:00;100;0;254.94;-4;-31.15;-7.22;77.3;20.40;77716;2835.334;-1758.319;1;238;-100;-98.4;49.2;48.9;8;8.6;29.1;0.0;
12/02/2025 16:12:20;100;0;254.72;-4;-30.98;-7.29;82.0;20.40;77720;2835.332;-1758.323;1;238;-100;-98.4;49.2;48.9;8;8.6;29.1;0.0;
12/02/2025 16:12:40;100;0;255.06;-4;-31.07;-7.31;86.7;20.40;77720;2835.331;-1758.326;1;238;-100;-98.4;49.2;49.0;8;8.6;29.1;0.0;
12/02/2025 16:13:00;100;0;255.57;-4;-31.03;-7.30;91.4;20.40;77723;2835.329;-1758.330;1;237;-100;-100.0;49.2;48.9;8;8.6;29.0;0.0;
12/02/2025 16:13:20;100;0;256.32;-4;-31.21;-7.22;96.1;20.30;77723;2835.328;-1758.334;1;237;-100;-98.4;49.2;48.9;8;8.6;29.1;0.0;
12/02/2025 16:13:40;100;0;257.29;-4;-31.07;-7.27;100.8;20.30;77710;2835.326;-1758.338;1;237;-100;-98.4;49.2;48.9;8;8.6;29.1;0.0;
12/02/2025 16:14:00;100;0;257.82;-4;-31.08;-7.19;105.6;20.30;77720;2835.325;-1758.341;1;237;-100;-98.4;49.2;48.9;8;8.6;29.1;0.0;
12/02/2025 16:14:20;100;0;258.83;-4;-31.39;-7.21;110.4;20.30;77714;2835.323;-1758.345;1;237;-100;-98.4;49.2;48.9;10;9.9;29.0;0.0;
12/02/2025 16:14:40;100;0;258.27;-4;-31.57;-6.44;115.2;20.30;77726;2835.322;-1758.349;1;237;-100;-98.4;49.2;48.9;10;10.4;29.0;0.0;
12/02/2025 16:15:00;100;0;262.01;-4;-30.31;-6.51;120.0;20.30;77719;2835.321;-1758.353;1;237;-100;-96.8;49.2;49.0;14;14.0;29.1;0.0;
12/02/2025 16:15:20;100;0;261.74;-4;-31.29;-4.31;124.6;20.30;77704;2835.320;-1758.357;1;237;-100;-98.4;49.2;48.9;14;14.4;29.0;0.0;
12/02/2025 16:15:40;100;0;263.34;-4;-31.29;-4.34;129.1;20.20;77683;2835.319;-1758.360;1;237;-100;-98.4;49.2;49.0;14;14.4;29.1;0.0;
12/02/2025 16:16:00;100;0;264.99;-4;-30.56;-4.38;133.7;20.20;77655;2835.318;-1758.364;1;236;-100;-98.4;49.2;48.9;19;19.0;29.0;0.0;
12/02/2025 16:16:20;100;0;264.99;-4;-30.60;-1.96;138.1;20.20;77645;2835.317;-1758.368;1;236;-100;-98.4;49.2;48.9;17;16.7;29.1;0.0;
12/02/2025 16:16:40;100;0;265.84;-4;-31.49;-3.50;142.4;20.20;77623;2835.316;-1758.371;1;236;-100;-98.4;49.2;49.0;19;19.0;29.0;0.0;
12/02/2025 16:17:00;100;0;260.01;-4;-32.62;-1.91;147.0;20.10;77616;2835.315;-1758.374;1;236;-100;-96.8;48.4;48.3;11;10.8;29.0;0.0;
12/02/2025 16:17:20;100;0;254.37;-4;-30.12;-6.46;151.7;20.10;77587;2835.313;-1758.378;1;236;-100;-98.4;48.4;48.2;9;9.0;29.1;0.0;
12/02/2025 16:17:40;100;0;250.60;-4;-29.54;-7.43;156.0;20.10;77575;2835.311;-1758.382;1;236;-100;-98.4;48.4;48.2;7;7.2;29.0;0.0;
12/02/2025 16:18:00;100;0;244.93;-4;-29.88;-8.15;160.4;20.00;77557;2835.309;-1758.385;1;236;-100;-98.4;48.4;48.2;7;6.8;29.0;0.0;
12/02/2025 16:18:20;100;0;234.44;-4;-29.26;-8.23;165.0;20.00;77546;2835.306;-1758.388;1;236;-100;-98.4;48.4;48.3;2;1.4;29.1;0.0;
12/02/2025 16:18:40;100;0;240.40;-4;-28.42;-11.08;169.3;20.00;77518;2835.303;-1758.391;1;236;-100;-98.4;48.9;49.2;6;5.9;29.0;0.0;
12/02/2025 16:19:00;100;0;238.80;-4;-30.17;-8.34;173.6;19.90;77498;2835.301;-1758.394;1;236;-100;-98.4;48.9;49.3;6;6.3;29.1;0.0;
12/02/2025 16:19:20;100;0;235.46;-4;-30.64;-8.49;178.2;19.80;77472;2835.298;-1758.397;1;237;-100;-98.4;48.9;49.3;0;0.0;29.1;0.0;
12/02/2025 16:19:40;100;0;231.70;-4;-30.39;-11.83;182.8;19.80;77467;2835.295;-1758.400;1;237;-100;-98.4;48.9;49.3;-5;-5.0;29.0;0.0;
12/02/2025 16:20:00;100;0;228.19;-4;-30.35;-14.08;187.3;19.80;77460;2835.292;-1758.403;1;237;-100;-96.8;48.9;49.2;-11;-10.8;29.1;0.0;
12/02/2025 16:20:20;100;0;232.00;-4;-30.79;-16.93;192.0;19.80;77439;2835.289;-1758.406;1;237;-100;-98.4;48.9;49.3;-5;-5.0;29.1;0.0;
12/02/2025 16:20:40;100;0;236.50;-4;-30.34;-13.67;196.8;19.70;77424;2835.286;-1758.409;1;237;-100;-98.4;48.9;49.2;2;1.8;29.1;0.0;
12/02/2025 16:21:00;100;0;238.60;-4;-30.36;-10.58;201.5;19.70;77409;2835.283;-1758.412;1;238;-100;-98.4;48.9;49.3;2;1.8;29.1;0.0;
12/02/2025 16:21:20;100;0;245.93;-4;-29.99;-10.63;206.0;19.60;77389;2835.281;-1758.416;1;238;-100;-98.4;48.9;49.2;7;7.2;29.1;0.0;
12/02/2025 16:21:40;100;0;251.05;-4;-30.06;-7.98;210.5;19.60;77383;2835.279;-1758.419;1;238;-100;-98.4;48.9;49.3;7;7.7;29.1;0.0;
12/02/2025 16:22:00;100;0;252.04;-4;-30.17;-7.73;215.0;19.50;77347;2835.277;-1758.423;1;237;-100;-96.8;48.9;49.3;7;7.2;29.1;0.0;
12/02/2025 16:22:20;100;0;250.81;-4;-30.06;-7.82;219.3;19.50;77354;2835.275;-1758.426;1;237;-100;-98.4;48.9;49.3;7;7.7;29.1;0.0;
12/02/2025 16:22:40;100;0;249.21;-4;-30.05;-7.77;223.6;19.40;77328;2835.273;-1758.430;1;237;-100;-98.4;48.9;49.3;7;7.7;29.1;0.0;
12/02/2025 16:23:00;100;0;244.74;-4;-30.95;-7.72;227.9;19.40;77318;2835.271;-1758.433;1;238;-100;-98.4;48.9;49.2;7;7.7;29.1;0.0;
12/02/2025 16:23:21;100;0;240.34;-4;-31.05;-7.65;232.4;19.30;77295;2835.269;-1758.436;1;238;-100;-96.8;48.9;49.3;4;4.1;29.0;0.0;
12/02/2025 16:23:41;100;0;238.19;-4;-31.64;-9.75;237.0;19.30;77279;2835.266;-1758.439;1;238;-100;-98.4;48.9;49.3;2;1.4;29.0;0.0;
12/02/2025 16:24:01;100;0;237.09;-4;-30.68;-10.83;241.7;19.20;77257;2835.264;-1758.442;1;238;-100;-98.4;48.9;49.2;2;0.9;29.1;0.0;
12/02/2025 16:24:21;100;0;236.44;-4;-30.46;-10.87;246.1;19.10;77234;2835.261;-1758.445;1;238;-100;-98.4;48.9;49.3;0;0.0;29.0;0.0;
12/02/2025 16:24:41;100;0;238.00;-4;-30.81;-11.79;250.6;19.10;77230;2835.258;-1758.448;1;238;-100;-98.4;48.9;49.3;2;1.8;29.0;0.0;
12/02/2025 16:25:01;100;0;238.97;-4;-30.13;-10.16;255.1;19.00;77211;2835.256;-1758.451;1;239;-100;-100.0;48.9;49.3;2;2.3;29.0;0.0;
12/02/2025 16:25:21;100;0;239.97;-4;-29.96;-10.41;259.3;19.00;77191;2835.253;-1758.454;1;239;-100;-98.4;48.9;49.3;2;2.3;29.0;0.0;
12/02/2025 16:25:41;100;0;243.59;-4;-30.80;-10.29;263.7;19.00;77187;2835.251;-1758.457;1;239;-100;-98.4;48.9;49.3;5;5.0;29.1;0.0;
12/02/2025 16:26:01;100;0;246.56;-4;-30.60;-8.93;268.3;18.90;77175;2835.249;-1758.460;1;239;-100;-98.4;48.9;49.3;5;5.4;29.0;0.0;
12/02/2025 16:26:21;100;0;250.17;-4;-29.86;-8.97;272.8;18.80;77146;2835.247;-1758.464;1;239;-100;-96.8;48.9;49.3;7;7.7;29.0;0.0;
12/02/2025 16:26:41;100;0;250.81;-4;-29.76;-7.63;276.9;18.80;77124;2835.245;-1758.467;1;239;-100;-96.8;48.9;49.3;7;7.7;29.0;0.0;
12/02/2025 16:27:01;100;0;251.42;-4;-29.99;-7.71;281.2;18.70;77111;2835.243;-1758.470;1;239;-100;-96.8;48.9;49.3;7;8.1;29.1;0.0;
12/02/2025 16:27:21;100;0;256.41;-4;-30.03;-7.63;285.5;18.70;77102;2835.242;-1758.474;1;239;-100;-96.8;48.9;49.3;7;7.7;29.0;0.0;
12/02/2025 16:27:41;100;0;258.09;-4;-29.77;-7.62;289.7;18.60;77080;2835.240;-1758.477;1;239;-100;-98.4;48.9;49.3;7;7.7;29.1;0.0;
12/02/2025 16:28:01;100;0;255.04;-4;-30.25;-7.64;294.0;18.50;77067;2835.239;-1758.481;1;239;-100;-98.4;48.9;49.3;7;8.1;29.0;0.0;
12/02/2025 16:28:21;100;0;254.68;-4;-30.74;-7.69;298.4;18.50;77049;2835.237;-1758.484;1;239;-100;-96.8;48.9;49.3;7;7.7;29.1;0.0;
12/02/2025 16:28:41;100;0;255.99;-4;-30.41;-7.57;302.9;18.40;77042;2835.236;-1758.488;1;239;-100;-96.8;48.9;49.3;7;7.7;29.0;0.0;
12/02/2025 16:29:01;100;0;255.92;-4;-30.78;-7.59;307.5;18.40;77033;2835.234;-1758.491;1;239;-100;-98.4;48.9;49.3;7;7.7;29.1;0.0;
12/02/2025 16:29:21;100;0;253.73;-4;-30.90;-7.57;312.1;18.30;77004;2835.233;-1758.495;1;238;-100;-98.4;48.9;49.3;7;7.7;29.0;0.0;
12/02/2025 16:29:41;100;0;256.98;-4;-30.90;-7.58;316.8;18.20;76987;2835.231;-1758.499;1;238;-100;-98.4;48.9;49.3;7;8.1;29.1;0.0;
12/02/2025 16:30:01;100;0;258.33;-4;-30.32;-7.65;321.5;18.20;76974;2835.230;-1758.503;1;238;-100;-98.4;48.9;49.3;9;9.0;29.1;0.0;
12/02/2025 16:30:21;100;0;259.40;-4;-30.42;-6.97;326.0;18.10;76957;2835.228;-1758.506;1;238;-100;-98.4;48.9;49.3;9;9.5;29.1;0.0;
12/02/2025 16:30:41;100;0;260.71;-4;-30.42;-6.93;330.6;18.10;76939;2835.227;-1758.510;1;238;-100;-98.4;48.9;49.2;11;11.3;29.0;0.0;
12/02/2025 16:31:01;100;0;261.12;-4;-31.17;-5.82;335.3;18.00;76926;2835.226;-1758.514;1;238;-100;-96.8;48.9;49.3;11;11.7;29.1;0.0;
12/02/2025 16:31:21;100;0;260.45;-4;-30.69;-5.75;340.1;17.90;76917;2835.225;-1758.518;1;237;-100;-98.4;48.9;49.3;11;11.7;29.0;0.0;
12/02/2025 16:31:41;100;0;258.39;-4;-30.61;-5.80;344.8;17.90;76901;2835.223;-1758.522;1;237;-100;-100.0;48.9;49.3;11;11.3;29.0;0.0;
12/02/2025 16:32:01;100;0;255.64;-4;-30.70;-5.80;349.6;17.80;76884;2835.222;-1758.525;1;237;-100;-98.4;48.9;49.3;8;7.7;29.0;0.0;
12/02/2025 16:32:21;100;0;254.45;-4;-30.42;-7.81;354.5;17.80;76889;2835.220;-1758.529;1;237;-100;-98.4;48.9;49.3;8;7.7;29.1;0.0;
12/02/2025 16:32:41;100;0;252.56;-4;-30.33;-7.86;359.3;17.70;76868;2835.218;-1758.533;1;237;-100;-98.4;48.9;49.3;8;7.7;29.0;0.0;
12/02/2025 16:33:01;100;0;250.05;-4;-30.35;-7.86;364.1;17.60;76854;2835.216;-1758.537;1;237;-100;-98.4;48.9;49.3;8;7.7;29.0;0.0;
12/02/2025 16:33:21;100;0;251.39;-4;-30.17;-7.87;368.8;17.60;76838;2835.214;-1758.541;1;237;-100;-98.4;48.9;49.3;8;7.2;29.0;0.0;
12/02/2025 16:33:41;100;0;253.50;-4;-30.74;-7.84;373.7;17.50;76823;2835.213;-1758.545;1;237;-100;-98.4;48.9;49.3;8;7.7;29.0;0.0;
12/02/2025 16:34:01;100;0;252.26;-4;-30.14;-7.86;378.7;17.50;76824;2835.211;-1758.549;1;236;-100;-98.4;48.9;49.3;8;7.7;29.0;0.0;
12/02/2025 16:34:21;100;0;251.25;-4;-30.42;-7.86;383.6;17.40;76803;2835.209;-1758.553;1;236;-100;-98.4;48.9;49.3;8;7.7;29.0;0.0;
12/02/2025 16:34:41;100;0;249.95;-4;-29.55;-7.97;388.5;17.30;76789;2835.207;-1758.557;1;236;-100;-96.8;48.9;49.3;8;7.7;29.1;0.0;
12/02/2025 16:35:01;100;0;254.54;-4;-30.23;-7.99;393.2;17.30;76788;2835.205;-1758.561;1;236;-100;-98.4;48.9;49.3;8;7.7;29.1;0.0;
12/02/2025 16:35:21;100;0;259.49;-4;-29.36;-8.01;398.1;17.20;76777;2835.203;-1758.565;1;236;-100;-96.8;48.9;49.3;13;13.1;29.0;0.0;
12/02/2025 16:35:41;100;0;260.57;-4;-29.32;-4.99;402.7;17.20;76756;2835.202;-1758.569;1;235;-100;-98.4;48.9;49.3;15;15.3;29.0;0.0;
12/02/2025 16:36:01;100;0;258.81;-4;-29.37;-3.75;407.2;17.10;76739;2835.201;-1758.573;1;235;-100;-98.4;48.9;49.3;12;12.2;29.1;0.0;
12/02/2025 16:36:21;100;0;259.61;-4;-29.44;-5.55;411.7;17.10;76733;2835.200;-1758.577;1;235;-100;-96.8;48.9;49.3;12;12.2;29.0;0.0;
12/02/2025 16:36:41;100;0;261.39;-4;-29.72;-5.70;416.2;17.00;76724;2835.198;-1758.580;1;234;-100;-96.8;48.9;49.3;17;17.1;29.0;0.0;
12/02/2025 16:37:01;100;0;263.44;-4;-30.05;-2.97;420.8;16.90;76713;2835.197;-1758.584;1;234;-100;-98.4;48.9;49.3;20;20.3;29.0;0.0;
12/02/2025 16:37:21;100;0;263.11;-4;-30.46;-1.42;425.3;16.90;76694;2835.196;-1758.588;1;233;-100;-96.8;48.9;49.3;20;20.3;29.0;0.0;
12/02/2025 16:37:41;100;0;256.47;-4;-30.77;-1.39;430.0;16.80;76687;2835.195;-1758.592;1;233;-100;-98.4;48.9;49.3;12;12.2;29.0;0.0;
12/02/2025 16:38:01;100;0;251.66;-4;-30.39;-5.69;434.8;16.80;76670;2835.193;-1758.596;1;233;-100;-96.8;48.9;49.3;9;9.0;29.0;0.0;
12/02/2025 16:38:21;100;0;249.84;-4;-30.00;-7.42;439.5;16.70;76659;2835.191;-1758.599;1;232;-100;-98.4;48.9;49.3;9;8.6;29.0;0.0;
12/02/2025 16:38:41;100;0;249.74;-4;-30.40;-7.40;444.1;16.70;76650;2835.189;-1758.603;1;232;-100;-98.4;48.9;49.3;9;8.6;29.0;0.0;
12/02/2025 16:39:01;100;0;250.84;-4;-30.37;-7.33;448.9;16.60;76636;2835.187;-1758.607;1;232;-100;-98.4;48.9;49.3;9;8.6;29.1;0.0;
12/02/2025 16:39:21;100;0;247.94;-4;-30.11;-7.42;453.6;16.60;76638;2835.185;-1758.610;1;232;-100;-98.4;48.9;49.3;9;8.6;29.0;0.0;
12/02/2025 16:39:41;100;0;245.57;-4;-30.33;-7.36;458.2;16.50;76629;2835.182;-1758.614;1;232;-100;-98.4;48.9;49.3;9;8.6;29.0;0.0;
12/02/2025 16:40:01;100;0;242.49;-4;-30.82;-7.45;462.9;16.50;76610;2835.180;-1758.617;1;232;-100;-98.4;48.9;49.3;9;8.6;29.0;0.0;
12/02/2025 16:40:21;100;0;238.89;-4;-30.94;-7.29;467.9;16.40;76603;2835.177;-1758.621;1;232;-100;-98.4;48.9;49.3;7;7.2;29.0;0.0;
12/02/2025 16:40:41;100;0;240.59;-4;-29.48;-8.19;472.7;16.40;76591;2835.175;-1758.624;1;232;-100;-98.4;48.9;49.3;7;6.8;29.0;0.0;
12/02/2025 16:41:01;100;0;246.01;-4;-29.32;-8.28;477.2;16.30;76573;2835.172;-1758.628;1;232;-100;-98.4;48.9;49.3;7;6.8;29.0;0.0;
12/02/2025 16:41:21;100;0;248.75;-4;-29.21;-8.27;481.6;16.30;76567;2835.170;-1758.631;1;232;-100;-98.4;48.9;49.3;7;6.8;29.1;0.0;
12/02/2025 16:41:41;100;0;250.47;-4;-29.09;-8.33;485.8;16.20;76558;2835.168;-1758.635;1;231;-100;-98.4;48.9;49.2;9;9.0;29.0;0.0;
12/02/2025 16:42:01;100;0;255.50;-4;-30.32;-6.71;490.0;16.10;76536;2835.167;-1758.638;1;231;-100;-98.4;48.9;49.3;12;12.2;29.0;0.0;
12/02/2025 16:42:21;100;0;259.63;-4;-30.30;-5.31;494.5;16.10;76524;2835.166;-1758.642;1;230;-100;-98.4;48.9;49.3;21;21.2;29.0;0.0;
12/02/2025 16:42:40;118;0;259.76;-4;-30.75;-0.96;498.9;16.00;76524;2835.164;-1758.646;1;229;100;-90.3;23.6;23.6;-2;-1.8;29.0;0.0;
12/02/2025 16:42:50;118;0;208.19;-4;-17.42;-13.25;500.5;16.00;76482;2835.162;-1758.646;1;230;100;38.7;23.6;23.3;-2;-1.8;28.4;-1.0;
12/02/2025 16:43:00;118;0;311.44;-4;8.05;-13.43;501.2;16.00;76218;2835.163;-1758.647;1;229;100;103.2;23.6;23.0;-2;-1.8;28.3;-1.0;
12/02/2025 16:43:10;118;0;275.91;-4;22.22;-14.49;500.6;16.00;76095;2835.163;-1758.648;1;229;100;103.2;23.6;22.4;-2;-2.3;29.0;-1.0;
12/02/2025 16:43:30;117;0;270.38;-4;29.06;-14.48;498.9;15.90;76086;2835.162;-1758.649;1;229;100;104.8;23.6;22.2;-2;-1.8;29.0;-1.0;
12/02/2025 16:43:50;117;0;261.97;-4;29.49;-14.44;497.2;15.90;76079;2835.161;-1758.650;1;229;100;104.8;23.6;23.7;4;4.1;29.0;-1.0;
12/02/2025 16:44:10;117;0;258.38;-4;27.92;-10.84;495.9;15.90;76059;2835.160;-1758.650;1;229;100;103.2;22.9;22.8;12;12.2;29.0;-1.0;
12/02/2025 16:44:30;117;0;255.68;-4;29.75;-6.56;494.8;15.80;76064;2835.159;-1758.651;1;230;100;106.5;22.9;22.8;19;19.4;29.0;-1.0;
12/02/2025 16:44:50;117;0;251.65;-4;30.47;-2.69;493.5;15.70;76062;2835.159;-1758.651;1;230;100;104.8;22.9;22.8;26;26.2;29.0;-1.0;
12/02/2025 16:45:10;117;0;247.46;-4;30.74;0.90;492.4;15.70;76055;2835.158;-1758.651;1;231;100;106.5;22.9;22.8;35;35.2;29.0;-1.0;
12/02/2025 16:45:30;117;0;242.77;-4;31.83;5.70;491.2;15.70;76057;2835.157;-1758.652;1;231;100;106.5;22.9;22.8;42;42.0;29.0;-1.0;
12/02/2025 16:45:50;117;0;243.09;-4;31.73;9.26;490.0;15.60;76039;2835.156;-1758.652;1;232;100;106.5;22.9;22.8;42;42.0;29.0;-1.0;
12/02/2025 16:46:10;117;0;242.16;-4;32.44;9.37;488.8;15.60;76029;2835.155;-1758.652;1;233;100;101.6;23.7;23.9;46;46.0;29.0;-1.0;
12/02/2025 16:46:30;117;0;239.93;-4;30.70;11.55;487.7;15.50;76034;2835.154;-1758.652;1;233;100;104.8;23.7;24.0;49;49.2;29.0;-1.0;
12/02/2025 16:46:50;117;0;240.48;-4;31.40;13.45;486.6;15.50;76021;2835.152;-1758.653;1;234;100;104.8;23.7;24.0;49;49.6;29.0;-1.0;
12/02/2025 16:47:10;117;0;239.03;-4;31.29;13.58;485.5;15.40;76023;2835.151;-1758.653;1;235;100;106.5;23.7;24.0;53;52.8;29.0;-1.0;
12/02/2025 16:47:30;117;0;239.43;-4;31.66;15.44;484.4;15.40;76022;2835.150;-1758.653;1;236;100;106.5;23.7;24.0;53;53.2;29.0;-1.0;
12/02/2025 16:47:50;117;0;238.94;-4;31.61;15.46;483.2;15.30;76011;2835.149;-1758.653;1;237;100;104.8;23.7;23.9;55;55.1;29.0;-1.0;
12/02/2025 16:48:10;117;0;239.14;-4;31.80;16.52;482.0;15.30;76002;2835.148;-1758.654;1;238;100;104.8;23.7;24.0;55;55.1;29.0;-1.0;
12/02/2025 16:48:30;117;0;239.47;-4;31.62;16.49;480.9;15.30;76004;2835.147;-1758.654;1;238;100;104.8;23.7;24.0;55;55.1;29.0;-1.0;
12/02/2025 16:48:50;117;0;238.06;-4;31.98;16.54;479.7;15.20;75998;2835.146;-1758.654;1;239;100;104.8;23.7;24.0;59;59.1;29.0;-1.0;
12/02/2025 16:49:10;117;0;237.33;-4;32.57;19.05;478.6;15.20;75994;2835.145;-1758.654;1;240;120;122.6;24.4;24.6;61;60.9;29.0;-1.0;
12/02/2025 16:49:30;117;0;237.21;-4;30.00;19.96;477.5;15.20;75959;2835.144;-1758.654;1;241;140;140.3;24.4;24.6;61;61.4;29.0;-1.0;
12/02/2025 16:49:50;117;0;233.16;-4;30.00;19.94;476.2;15.10;75921;2835.143;-1758.655;1;242;160;162.9;24.4;24.6;68;68.1;29.0;-1.0;
12/02/2025 16:50:10;117;0;238.34;-4;30.13;23.87;474.7;15.10;75875;2835.141;-1758.655;1;243;180;183.9;24.4;24.6;52;51.4;29.0;-1.0;
12/02/2025 16:50:30;117;0;245.08;-4;27.52;14.07;472.9;15.10;75824;2835.140;-1758.656;1;244;200;203.2;23.7;23.3;34;33.4;29.0;-1.0;
12/02/2025 16:50:50;117;0;246.88;-4;28.08;4.40;471.0;15.00;75783;2835.139;-1758.657;1;245;220;222.6;23.1;23.0;28;28.0;29.0;-1.0;
12/02/2025 16:51:10;117;0;243.66;-4;27.72;1.56;469.0;15.00;75748;2835.137;-1758.659;1;246;220;222.6;22.4;22.4;32;32.0;29.0;-1.0;
12/02/2025 16:51:30;117;0;246.34;-4;29.24;4.12;466.8;15.00;75750;2835.136;-1758.660;1;248;220;221.0;22.4;22.2;27;27.1;29.0;-1.0;
12/02/2025 16:51:50;117;0;246.52;-4;29.04;1.08;464.5;15.00;75752;2835.135;-1758.661;1;249;220;221.0;22.4;22.2;27;26.6;29.0;-1.0;
12/02/2025 16:52:10;117;0;247.90;-4;28.95;1.00;462.1;15.00;75755;2835.133;-1758.663;1;250;220;222.6;22.1;21.8;24;23.9;29.0;-1.0;
12/02/2025 16:52:30;117;0;248.22;-4;29.60;-0.50;459.6;15.00;75750;2835.132;-1758.665;1;251;220;221.0;22.1;21.8;26;26.2;29.0;-1.0;
12/02/2025 16:52:50;117;0;248.30;-4;29.83;0.98;457.1;15.00;75759;2835.130;-1758.666;1;253;220;222.6;22.1;21.9;26;26.6;29.0;-1.0;
12/02/2025 16:53:10;117;0;246.72;-4;29.90;1.05;454.5;14.90;75748;2835.129;-1758.668;1;254;220;221.0;22.1;21.8;32;32.0;29.0;-1.0;
12/02/2025 16:53:30;117;0;244.47;-4;29.87;4.19;452.1;14.90;75743;2835.127;-1758.669;1;256;220;222.6;22.1;21.8;38;38.4;29.0;-1.0;
12/02/2025 16:53:50;117;0;245.24;-4;30.47;7.43;449.5;14.90;75751;2835.126;-1758.671;1;258;220;222.6;22.1;21.9;38;38.8;29.0;-1.0;
12/02/2025 16:54:10;117;0;246.81;-4;30.42;7.38;446.9;14.90;75745;2835.124;-1758.673;1;261;220;221.0;22.1;21.8;38;38.4;29.0;-1.0;
12/02/2025 16:54:30;117;0;249.05;-4;30.64;7.49;444.4;14.80;75738;2835.123;-1758.674;1;263;220;221.0;22.1;21.8;38;38.4;29.0;-1.0;
12/02/2025 16:54:50;117;0;251.38;-4;30.58;7.56;441.8;14.80;75729;2835.122;-1758.676;1;266;220;221.0;22.1;21.8;38;38.4;29.0;-1.0;
12/02/2025 16:55:10;117;0;256.13;-4;30.31;7.51;439.2;14.80;75735;2835.121;-1758.678;1;268;220;221.0;22.1;21.8;33;32.9;29.0;-1.0;
12/02/2025 16:55:30;117;0;256.85;-4;30.29;4.44;436.7;14.80;75730;2835.120;-1758.679;1;271;220;221.0;22.1;21.8;36;36.1;29.0;-1.0;
12/02/2025 16:55:50;117;0;256.64;-4;30.64;6.45;434.2;14.80;75739;2835.119;-1758.681;1;274;220;221.0;22.1;21.8;40;40.2;29.0;-1.0;
12/02/2025 16:56:10;117;0;254.50;-4;30.99;8.53;431.5;14.80;75740;2835.117;-1758.683;1;278;220;221.0;22.1;21.8;46;46.0;29.0;-1.0;
12/02/2025 16:56:30;117;0;251.83;-4;31.61;11.80;428.7;14.70;75743;2835.116;-1758.685;1;283;220;222.6;22.1;21.8;53;52.8;29.0;-1.0;
12/02/2025 16:56:50;117;0;250.80;-4;32.33;15.57;425.8;14.70;75736;2835.115;-1758.686;1;289;220;222.6;22.8;22.8;59;59.1;29.0;-1.0;
12/02/2025 16:57:11;117;0;249.70;-4;31.40;19.29;422.8;14.70;75750;2835.113;-1758.688;1;296;220;222.6;22.8;23.0;66;65.9;29.0;-1.0;
12/02/2025 16:57:31;117;0;253.83;-4;31.15;23.01;419.9;14.70;75742;2835.112;-1758.690;1;304;220;221.0;22.8;23.0;68;68.1;29.0;-1.0;
12/02/2025 16:57:51;117;0;258.51;-4;31.54;24.50;417.0;14.70;75757;2835.111;-1758.692;1;312;220;222.6;22.8;23.0;68;68.6;29.0;-1.0;
12/02/2025 16:58:11;117;0;263.26;-4;31.52;24.44;414.0;14.70;75754;2835.110;-1758.694;1;320;220;221.0;22.8;22.8;68;68.6;29.0;-1.0;
12/02/2025 16:58:31;117;0;266.73;-4;31.51;24.40;410.9;14.70;75757;2835.109;-1758.697;1;329;220;221.0;22.8;23.0;70;69.9;29.0;-1.0;
12/02/2025 16:58:51;117;0;269.80;-4;31.69;25.46;407.9;14.70;75758;2835.109;-1758.699;1;338;220;222.6;22.8;22.8;70;70.4;29.0;-1.0;
12/02/2025 16:59:11;117;0;274.53;-4;31.68;25.50;404.8;14.70;75769;2835.108;-1758.701;1;347;220;221.0;22.8;23.0;70;70.4;29.0;-1.0;
12/02/2025 16:59:31;117;0;280.61;-4;31.75;25.72;401.8;14.60;75756;2835.108;-1758.703;1;355;220;222.6;22.8;23.0;70;70.4;29.0;-1.0;
12/02/2025 16:59:51;117;0;284.92;-4;31.26;25.39;398.6;14.60;75766;2835.108;-1758.705;1;5;220;221.0;22.8;23.0;70;70.4;29.0;-1.0;
12/02/2025 17:00:11;117;0;290.90;-4;31.22;25.49;395.6;14.60;75755;2835.109;-1758.707;1;14;220;221.0;22.8;23.0;70;70.4;29.0;-1.0;
12/02/2025 17:00:31;117;0;297.90;-4;31.47;25.56;392.6;14.60;75769;2835.109;-1758.709;1;23;220;221.0;22.8;23.0;70;70.4;29.0;-1.0;
12/02/2025 17:00:51;117;0;303.77;-4;31.43;25.50;389.4;14.60;75769;2835.110;-1758.711;1;32;220;222.6;22.8;23.0;70;70.4;29.0;-1.0;
12/02/2025 17:01:11;117;0;307.64;-4;31.50;25.39;386.3;14.60;75760;2835.111;-1758.713;1;41;220;222.6;22.8;23.0;70;70.4;29.0;-1.0;
12/02/2025 17:01:31;117;0;310.87;-4;31.83;25.38;383.2;14.60;75772;2835.112;-1758.714;1;49;220;221.0;22.8;23.0;70;70.4;29.0;-1.0;
12/02/2025 17:01:51;117;0;316.72;-4;31.22;25.44;379.8;14.60;75769;2835.114;-1758.715;1;59;220;221.0;22.8;23.0;70;70.4;29.0;-1.0;
12/02/2025 17:02:11;117;0;323.50;-4;31.27;25.46;376.6;14.60;75767;2835.116;-1758.717;1;68;220;221.0;22.8;23.0;70;70.4;29.0;-1.0;
12/02/2025 17:02:31;117;0;330.73;-4;31.13;25.38;373.3;14.60;75782;2835.117;-1758.718;1;78;220;221.0;22.8;23.0;70;70.4;29.0;-1.0;
12/02/2025 17:02:51;117;0;337.17;-4;31.40;25.51;370.1;14.60;75779;2835.119;-1758.718;1;87;220;221.0;22.8;23.0;70;70.4;29.0;-1.0;
12/02/2025 17:03:11;117;0;342.67;-4;31.54;25.43;366.7;14.60;75789;2835.121;-1758.718;1;97;220;221.0;22.8;23.0;70;70.4;29.0;-1.0;
12/02/2025 17:03:31;117;0;344.05;-4;31.76;25.44;363.4;14.60;75787;2835.124;-1758.718;1;106;220;221.0;22.8;23.0;70;70.4;29.0;-1.0;
12/02/2025 17:03:51;117;0;348.66;-4;31.36;25.46;359.9;14.60;75781;2835.126;-1758.718;1;115;220;222.6;22.8;23.0;70;70.4;29.0;-1.0;
12/02/2025 17:04:11;117;0;352.68;-4;31.27;25.49;356.4;14.60;75782;2835.128;-1758.718;1;124;220;222.6;22.8;23.0;70;70.4;29.0;-1.0;
12/02/2025 17:04:31;117;0;358.40;-4;31.12;25.45;352.9;14.60;75790;2835.131;-1758.717;1;132;220;222.6;22.8;23.0;70;70.4;29.0;-1.0;
12/02/2025 17:04:51;117;0;5.55;-4;31.08;25.48;349.6;14.60;75792;2835.133;-1758.716;1;140;220;221.0;22.8;23.0;70;70.4;29.0;-1.0;
12/02/2025 17:05:11;117;0;8.31;-4;31.29;25.38;346.3;14.60;75787;2835.135;-1758.715;1;147;220;222.6;22.8;23.0;70;70.4;29.0;-1.0;
12/02/2025 17:05:31;117;0;10.80;-4;31.41;25.50;343.1;14.60;75798;2835.137;-1758.714;1;153;220;221.0;22.8;22.8;70;70.4;29.0;-1.0;
12/02/2025 17:05:51;117;0;14.99;-4;30.99;25.41;339.7;14.60;75794;2835.139;-1758.712;1;160;220;222.6;22.8;23.0;70;70.4;29.0;-1.0;
12/02/2025 17:06:11;117;0;20.21;-4;30.95;25.51;336.6;14.60;75797;2835.141;-1758.710;1;165;220;222.6;22.8;23.0;70;70.4;29.0;-1.0;
12/02/2025 17:06:31;117;0;24.90;-4;31.31;25.49;333.4;14.60;75801;2835.143;-1758.708;1;171;220;222.6;22.8;23.0;70;70.4;29.0;-1.0;
12/02/2025 17:06:51;117;0;27.90;-4;30.94;25.34;330.3;14.60;75803;2835.145;-1758.706;1;175;220;222.6;22.8;22.8;70;70.4;29.0;-1.0;
12/02/2025 17:07:11;117;0;30.70;-4;31.29;25.37;327.2;14.60;75806;2835.147;-1758.704;1;180;220;221.0;22.8;23.0;70;70.4;29.0;-1.0;
12/02/2025 17:07:31;117;0;34.99;-4;31.22;25.51;324.2;14.60;75814;2835.148;-1758.702;1;184;220;222.6;22.8;23.0;70;70.4;29.0;-1.0;
12/02/2025 17:07:51;117;0;40.83;-4;31.35;25.53;321.1;14.60;75816;2835.150;-1758.699;1;189;220;217.7;22.8;23.0;70;70.4;29.0;-1.0;
12/02/2025 17:08:11;117;0;46.14;-4;31.58;25.51;317.8;14.60;75810;2835.151;-1758.696;1;193;220;221.0;22.8;23.0;70;70.4;29.0;-1.0;
12/02/2025 17:08:31;117;0;48.55;-4;31.58;25.38;314.5;14.60;75816;2835.152;-1758.693;1;197;220;222.6;22.8;22.8;70;70.4;29.0;-1.0;
12/02/2025 17:08:51;117;0;48.97;-4;31.49;25.40;311.4;14.60;75824;2835.153;-1758.690;1;200;220;221.0;22.8;23.0;70;70.4;29.0;-1.0;
12/02/2025 17:09:11;117;0;52.52;-4;31.22;25.48;308.2;14.60;75835;2835.154;-1758.687;1;204;220;222.6;22.8;23.0;70;70.4;29.0;-1.0;
12/02/2025 17:09:31;117;0;57.85;-4;31.01;25.39;305.0;14.70;75845;2835.155;-1758.683;1;207;220;221.0;22.8;23.0;70;70.4;29.0;-1.0;
12/02/2025 17:09:51;117;0;63.83;-4;31.00;25.51;301.9;14.70;75839;2835.156;-1758.680;1;210;220;222.6;22.8;23.0;70;70.4;29.0;-1.0;
12/02/2025 17:10:11;117;0;69.52;-4;31.21;25.38;298.7;14.70;75842;2835.156;-1758.676;1;214;220;219.4;22.8;23.0;70;70.4;29.0;-1.0;
12/02/2025 17:10:31;117;0;72.56;-4;31.08;25.39;295.7;14.70;75853;2835.156;-1758.673;1;217;220;221.0;22.8;23.0;70;70.4;29.0;-1.0;
12/02/2025 17:10:51;117;0;78.09;-4;31.12;25.54;292.6;14.70;75861;2835.156;-1758.669;1;220;220;221.0;22.8;23.0;70;70.4;29.0;-1.0;
12/02/2025 17:11:11;117;0;85.56;-4;31.32;25.64;289.4;14.70;75863;2835.156;-1758.665;1;223;220;221.0;22.8;23.0;70;70.4;29.0;-1.0;
12/02/2025 17:11:31;117;0;91.30;-4;31.16;25.49;286.3;14.70;75873;2835.155;-1758.662;1;226;220;222.6;22.8;23.0;70;70.4;29.0;-1.0;
12/02/2025 17:11:51;117;0;95.74;-4;30.93;25.38;283.1;14.70;75878;2835.155;-1758.658;1;230;220;221.0;22.8;23.0;70;70.4;29.0;-1.0;
12/02/2025 17:12:11;117;0;100.35;-4;31.05;25.47;280.1;14.80;75888;2835.154;-1758.654;1;232;220;222.6;22.8;23.0;70;70.4;29.0;-1.0;
12/02/2025 17:12:31;117;0;104.61;-4;31.00;25.47;277.0;14.80;75885;2835.152;-1758.651;1;235;220;222.6;22.8;23.0;70;70.4;29.0;-1.0;
12/02/2025 17:12:51;117;0;106.93;-4;31.04;25.32;274.0;14.80;75893;2835.151;-1758.647;1;238;220;221.0;22.8;23.0;70;70.4;29.0;-1.0;
12/02/2025 17:13:11;117;0;112.97;-4;31.02;25.52;271.0;14.80;75895;2835.149;-1758.644;1;241;220;221.0;22.8;23.0;70;70.4;29.0;-1.0;
12/02/2025 17:13:31;117;0;119.55;-4;31.04;25.50;267.9;14.80;75900;2835.148;-1758.640;1;244;220;221.0;22.8;23.1;70;70.4;29.0;-1.0;
12/02/2025 17:13:51;117;0;128.49;-4;31.19;25.83;264.8;14.80;75905;2835.145;-1758.637;1;247;220;221.0;22.8;22.8;70;70.4;29.0;-1.0;
12/02/2025 17:14:11;117;0;137.17;-4;31.06;25.77;261.7;14.80;75912;2835.143;-1758.634;1;250;220;222.6;22.8;23.0;70;70.4;29.0;-1.0;
12/02/2025 17:14:31;117;0;141.13;-4;30.98;25.39;258.6;14.90;75944;2835.140;-1758.632;1;252;220;221.0;22.8;23.0;70;70.4;29.0;-1.0;
12/02/2025 17:14:51;117;0;144.06;-4;30.82;25.25;255.6;14.90;75944;2835.138;-1758.629;1;255;220;221.0;22.8;22.8;70;70.4;29.0;-1.0;
12/02/2025 17:15:11;117;0;149.25;-4;31.14;25.56;252.6;14.90;75949;2835.135;-1758.627;1;258;220;221.0;22.8;23.0;70;70.4;29.0;-1.0;
12/02/2025 17:15:31;117;0;153.87;-4;31.04;25.50;249.6;14.90;75964;2835.132;-1758.625;1;260;220;217.7;22.8;23.0;70;70.4;29.0;-1.0;
12/02/2025 17:15:51;117;0;158.02;-4;30.84;25.40;246.6;14.90;75969;2835.129;-1758.623;1;263;220;221.0;22.8;23.0;70;70.4;29.0;-1.0;
12/02/2025 17:16:11;117;0;162.40;-4;30.97;25.51;243.6;15.00;75976;2835.126;-1758.622;1;265;220;222.6;22.8;22.8;70;70.4;29.0;-1.0;
12/02/2025 17:16:31;117;0;166.61;-4;31.18;25.50;240.6;15.00;75991;2835.123;-1758.620;1;268;220;221.0;22.8;22.8;70;70.4;29.0;-1.0;
12/02/2025 17:16:51;117;0;170.40;-4;31.15;25.51;237.5;15.00;75997;2835.120;-1758.619;1;270;220;221.0;22.8;23.0;70;70.4;29.0;-1.0;
12/02/2025 17:17:11;117;0;174.04;-4;30.81;25.56;234.5;15.00;75997;2835.117;-1758.618;1;273;220;222.6;22.8;23.0;70;70.4;29.0;-1.0;
12/02/2025 17:17:31;117;0;181.83;-4;30.44;25.64;231.6;15.00;76010;2835.113;-1758.617;1;275;220;221.0;22.8;23.0;70;70.4;29.0;-1.0;
12/02/2025 17:17:51;117;0;190.29;-4;30.58;26.01;228.7;15.10;76012;2835.110;-1758.617;1;277;220;221.0;22.8;23.0;70;70.4;29.0;-1.0;
12/02/2025 17:18:11;117;0;197.87;-4;30.77;25.67;225.9;15.10;76016;2835.108;-1758.617;1;279;220;221.0;22.8;22.8;70;70.4;29.0;-1.0;
12/02/2025 17:18:31;117;0;206.90;-4;30.77;25.69;223.2;15.10;76031;2835.105;-1758.618;1;281;220;222.6;22.8;23.0;70;70.4;29.0;-1.0;
12/02/2025 17:18:51;117;0;210.16;-4;31.54;25.46;220.4;15.10;76045;2835.102;-1758.618;1;283;220;222.6;22.8;23.0;70;70.4;29.0;-1.0;
12/02/2025 17:19:11;117;0;212.36;-4;31.15;25.40;217.6;15.20;76050;2835.100;-1758.619;1;285;220;221.0;22.8;23.0;70;70.4;29.0;-1.0;
12/02/2025 17:19:31;117;0;216.98;-4;30.65;25.68;214.9;15.20;76062;2835.097;-1758.620;1;287;220;222.6;22.8;23.0;70;70.4;29.0;-1.0;
12/02/2025 17:19:51;117;0;223.35;-4;30.99;25.45;212.2;15.20;76064;2835.095;-1758.621;1;289;220;221.0;22.8;23.0;70;70.4;29.0;-1.0;
12/02/2025 17:20:11;117;0;225.94;-4;31.16;25.45;209.4;15.20;76082;2835.093;-1758.622;1;291;220;222.6;22.8;22.8;70;70.4;29.0;-1.0;
12/02/2025 17:20:31;117;0;226.79;-4;31.12;25.42;206.5;15.30;76083;2835.091;-1758.624;1;293;220;221.0;22.8;22.8;70;70.4;29.0;-1.0;
12/02/2025 17:20:51;117;0;230.30;-4;30.80;25.48;203.7;15.30;76093;2835.089;-1758.625;1;294;220;222.6;22.8;22.8;70;70.4;29.0;-1.0;
12/02/2025 17:21:11;117;0;237.49;-4;30.80;25.61;200.8;15.30;76100;2835.087;-1758.627;1;296;220;222.6;22.8;23.0;70;70.4;29.0;-1.0;
12/02/2025 17:21:31;117;0;238.94;-4;30.83;25.39;197.9;15.40;76115;2835.085;-1758.628;1;298;220;221.0;22.8;23.0;70;70.4;29.0;-1.0;
12/02/2025 17:21:51;117;0;242.21;-4;30.89;25.50;195.1;15.40;76115;2835.083;-1758.630;1;300;220;222.6;22.8;23.0;70;70.4;29.0;-1.0;
12/02/2025 17:22:11;117;0;246.39;-4;31.08;25.56;192.1;15.40;76133;2835.081;-1758.632;1;301;220;222.6;22.8;23.0;70;70.4;29.0;-1.0;
12/02/2025 17:22:31;117;0;249.73;-4;31.19;25.60;189.1;15.40;76142;2835.080;-1758.634;1;303;220;222.6;22.8;23.0;70;70.4;29.0;-1.0;
12/02/2025 17:22:51;117;0;253.54;-4;30.36;25.47;186.0;15.50;76157;2835.079;-1758.636;1;305;220;222.6;22.8;22.8;68;67.7;29.0;-1.0;
12/02/2025 17:23:11;117;0;257.63;-4;30.18;23.46;183.2;15.50;76142;2835.078;-1758.638;1;306;220;224.2;22.8;22.8;64;64.1;29.0;-1.0;
12/02/2025 17:23:31;117;0;262.97;-4;29.89;21.26;180.2;15.50;76160;2835.077;-1758.640;1;308;220;222.6;22.8;23.0;59;58.7;29.0;-1.0;
12/02/2025 17:23:51;117;0;267.97;-4;29.39;18.08;177.5;15.50;76162;2835.076;-1758.643;1;309;220;222.6;22.8;23.0;54;54.2;29.0;-1.0;
12/02/2025 17:24:11;117;0;272.58;-4;29.12;15.63;174.7;15.60;76170;2835.076;-1758.645;1;310;220;222.6;22.8;22.8;50;49.6;29.0;-1.0;
12/02/2025 17:24:31;117;0;276.71;-4;28.65;13.23;172.1;15.60;76189;2835.075;-1758.647;1;312;220;222.6;22.4;22.2;45;44.7;29.0;-1.0;
12/02/2025 17:24:51;117;0;279.11;-4;29.56;10.47;169.4;15.60;76193;2835.075;-1758.649;1;313;220;222.6;22.4;22.1;43;42.4;29.0;-1.0;
12/02/2025 17:25:11;117;0;282.54;-4;29.07;9.02;166.7;15.70;76192;2835.075;-1758.651;1;314;220;222.6;22.4;22.1;38;37.9;29.0;-1.0;
12/02/2025 17:25:31;117;0;284.81;-4;29.29;6.83;164.1;15.70;76202;2835.075;-1758.653;1;315;220;224.2;22.4;22.1;36;36.1;29.0;-1.0;
12/02/2025 17:25:51;117;0;290.71;-4;29.21;5.78;161.6;15.70;76207;2835.075;-1758.654;1;316;220;222.6;22.4;22.1;28;28.0;29.0;-1.0;
12/02/2025 17:26:11;117;0;291.16;-4;28.86;1.53;158.9;15.70;76211;2835.076;-1758.656;1;317;220;222.6;22.1;22.1;28;27.5;29.0;-1.0;
12/02/2025 17:26:31;117;0;289.88;-4;28.29;1.48;156.3;15.80;76232;2835.076;-1758.658;1;318;220;222.6;21.6;21.2;31;31.1;29.0;-1.0;
12/02/2025 17:26:51;117;0;287.73;-4;30.60;5.82;153.7;15.80;76254;2835.076;-1758.660;1;319;220;221.0;21.6;21.2;35;35.6;29.0;-1.0;
12/02/2025 17:27:11;117;0;294.38;-4;31.49;6.18;151.1;15.90;76255;2835.076;-1758.661;1;319;220;222.6;21.6;21.2;24;23.5;29.0;-1.0;
12/02/2025 17:27:31;117;0;295.95;-4;29.94;-0.78;148.2;15.90;76279;2835.077;-1758.663;1;320;220;224.2;21.6;21.2;24;23.5;29.0;-1.0;
12/02/2025 17:27:51;117;0;291.97;-4;29.43;-0.67;145.6;15.90;76296;2835.077;-1758.665;1;321;220;222.6;21.6;21.2;31;31.1;29.0;-1.0;
12/02/2025 17:28:11;117;0;292.27;-4;30.15;3.65;143.2;16.00;76309;2835.077;-1758.667;1;322;220;224.2;21.6;21.2;31;31.6;29.0;-1.0;
12/02/2025 17:28:31;117;0;295.45;-4;30.17;3.74;140.8;16.00;76330;2835.078;-1758.668;1;323;220;222.6;21.6;21.2;25;24.8;29.0;-1.0;
12/02/2025 17:28:51;117;0;297.35;-4;29.89;-0.11;138.6;16.00;76333;2835.078;-1758.669;1;324;220;222.6;21.6;21.2;25;24.8;29.0;-1.0;
12/02/2025 17:29:11;117;0;290.30;-4;29.49;0.07;136.4;16.10;76351;2835.078;-1758.671;1;325;220;224.2;21.6;21.2;37;37.0;29.0;-1.0;
12/02/2025 17:29:31;117;0;289.39;-4;31.65;6.74;134.0;16.10;76365;2835.078;-1758.672;1;326;220;221.0;21.6;21.2;39;38.8;29.0;-1.0;
12/02/2025 17:29:51;117;0;292.43;-4;31.86;8.02;131.3;16.20;76400;2835.079;-1758.674;1;327;220;222.6;21.6;21.2;36;35.6;29.0;-1.0;
12/02/2025 17:30:11;117;0;287.56;-4;31.17;5.82;128.5;16.20;76420;2835.079;-1758.676;1;329;220;224.2;21.6;21.2;46;46.0;29.0;-1.0;
12/02/2025 17:30:31;117;0;290.06;-4;31.48;11.98;125.6;16.30;76470;2835.079;-1758.678;1;330;220;224.2;21.6;21.2;44;44.2;29.0;-1.0;
12/02/2025 17:30:51;117;0;287.75;-4;31.50;10.07;122.7;16.30;76500;2835.079;-1758.679;1;332;220;224.2;21.6;21.2;48;47.8;29.0;-1.0;
12/02/2025 17:31:11;117;0;287.42;-4;31.56;12.87;119.8;16.40;76527;2835.079;-1758.681;1;334;220;224.2;21.6;21.2;50;50.1;29.0;-1.0;
12/02/2025 17:31:31;117;0;289.19;-4;32.02;14.23;116.9;16.40;76547;2835.079;-1758.683;1;336;220;222.6;22.2;22.2;50;50.1;29.0;-1.0;
12/02/2025 17:31:52;117;0;292.24;-4;30.11;14.28;114.0;16.50;76564;2835.080;-1758.685;1;338;220;224.2;22.2;22.5;50;50.5;29.0;-1.0;
12/02/2025 17:32:12;117;0;293.91;-4;29.37;14.02;111.3;16.50;76570;2835.080;-1758.687;1;339;220;224.2;22.2;22.4;47;46.9;29.0;-1.0;
12/02/2025 17:32:32;117;0;295.22;-4;29.37;11.83;108.6;16.60;76590;2835.081;-1758.689;1;341;220;222.6;22.2;22.5;47;46.5;29.0;-1.0;
12/02/2025 17:32:52;117;0;299.81;-4;29.24;11.80;105.8;16.60;76590;2835.082;-1758.691;1;343;220;222.6;22.2;22.5;43;42.9;29.0;-1.0;
12/02/2025 17:33:12;117;0;300.09;-4;28.87;9.41;102.9;16.70;76607;2835.082;-1758.692;1;345;220;222.6;21.8;21.6;45;46.0;29.0;-1.0;
12/02/2025 17:33:32;117;0;303.78;-4;30.14;11.69;100.0;16.70;76619;2835.083;-1758.694;1;347;220;222.6;21.8;21.6;41;41.1;29.0;-1.0;
12/02/2025 17:33:52;117;0;304.11;-4;30.04;8.32;97.1;16.80;76635;2835.084;-1758.696;1;349;220;224.2;21.8;21.6;44;44.2;29.0;-1.0;
12/02/2025 17:34:12;117;0;306.87;-4;30.40;10.84;94.2;16.90;76644;2835.085;-1758.698;1;351;220;224.2;21.8;21.6;41;40.6;29.0;-1.0;
12/02/2025 17:34:32;117;0;307.35;-4;30.09;8.19;91.2;16.90;76641;2835.086;-1758.699;1;353;220;224.2;21.8;21.6;43;42.9;29.0;-1.0;
12/02/2025 17:34:52;117;0;308.26;-4;30.31;10.17;88.2;17.00;76658;2835.087;-1758.701;1;355;220;224.2;21.8;21.6;43;43.3;29.0;-1.0;
12/02/2025 17:35:12;117;0;308.86;-4;30.33;10.13;85.1;17.00;76667;2835.088;-1758.703;1;358;220;224.2;21.8;21.6;47;47.4;29.0;-1.0;
12/02/2025 17:35:32;117;0;310.55;-4;30.48;12.48;82.1;17.10;76678;2835.089;-1758.704;1;0;220;222.6;21.8;21.6;47;47.8;29.0;-1.0;
12/02/2025 17:35:52;117;0;312.83;-4;30.51;12.49;79.1;17.10;76679;2835.091;-1758.706;1;3;220;222.6;21.8;21.6;47;47.8;29.0;-1.0;
12/02/2025 17:36:12;117;0;314.69;-4;30.57;12.46;76.1;17.20;76694;2835.092;-1758.707;1;5;220;221.0;21.8;21.6;44;44.2;29.0;-1.0;
12/02/2025 17:36:32;117;0;316.41;-4;30.27;10.06;73.1;17.20;76702;2835.093;-1758.708;1;8;220;224.2;21.8;21.6;48;48.3;29.0;-1.0;
12/02/2025 17:36:52;117;0;318.58;-4;30.51;12.98;70.1;17.30;76703;2835.094;-1758.709;1;11;220;222.6;21.8;21.6;46;45.6;29.0;-1.0;
12/02/2025 17:37:12;117;0;318.42;-4;30.93;11.05;67.0;17.30;76714;2835.096;-1758.711;1;14;220;224.2;21.8;21.6;50;50.1;29.0;-1.0;
12/02/2025 17:37:32;117;0;320.39;-4;30.93;14.05;64.0;17.40;76715;2835.097;-1758.712;1;17;220;224.2;21.8;21.6;52;51.9;29.0;-1.0;
12/02/2025 17:37:52;117;0;321.22;-4;30.83;14.99;60.9;17.40;76730;2835.099;-1758.713;1;20;220;224.2;21.8;21.6;52;52.3;29.0;-1.0;
12/02/2025 17:38:12;117;0;322.79;-4;30.68;14.97;57.9;17.40;76719;2835.100;-1758.714;1;24;220;222.6;21.8;21.5;55;55.1;29.0;-1.0;
12/02/2025 17:38:32;117;0;325.36;-4;31.71;16.87;54.9;17.50;76739;2835.102;-1758.715;1;28;220;224.2;21.8;21.6;57;57.3;29.0;-1.0;
12/02/2025 17:38:52;117;0;326.29;-4;31.72;18.06;51.6;17.50;76746;2835.103;-1758.716;1;32;220;224.2;21.8;21.6;62;62.3;29.0;-1.0;
12/02/2025 17:39:12;117;0;328.97;-4;32.05;21.07;48.3;17.60;76773;2835.105;-1758.717;1;37;220;224.2;22.5;22.5;62;62.7;29.0;-1.0;
12/02/2025 17:39:32;117;0;330.61;-4;30.36;21.02;45.2;17.60;76756;2835.107;-1758.718;1;42;220;224.2;22.5;22.7;69;69.0;29.0;-1.0;
12/02/2025 17:39:52;117;0;333.16;-4;30.54;24.87;42.1;17.70;76774;2835.109;-1758.718;1;48;220;224.2;22.5;22.7;69;69.0;29.0;-1.0;
12/02/2025 17:40:12;117;0;338.15;-4;30.36;24.93;39.0;17.70;76778;2835.111;-1758.719;1;54;220;224.2;22.5;22.8;69;69.5;29.0;-1.0;
12/02/2025 17:40:32;117;0;342.88;-4;30.47;25.09;35.8;17.80;76796;2835.113;-1758.719;1;61;220;222.6;22.5;22.7;69;69.0;29.0;-1.0;
12/02/2025 17:40:52;117;0;348.43;-4;30.69;25.14;32.7;17.80;76799;2835.115;-1758.719;1;68;220;222.6;22.5;22.7;69;69.5;29.0;-1.0;
12/02/2025 17:41:12;117;0;353.36;-4;30.79;25.19;29.7;17.80;76797;2835.117;-1758.718;1;76;220;224.2;22.5;22.7;69;69.0;29.0;-1.0;
12/02/2025 17:41:32;117;0;358.64;-4;30.43;24.99;26.5;17.90;76812;2835.119;-1758.718;1;85;220;224.2;22.5;22.7;69;69.5;29.0;-1.0;
12/02/2025 17:41:52;117;0;3.19;-4;30.46;24.95;23.3;17.90;76813;2835.121;-1758.717;1;97;220;224.2;22.5;22.7;69;69.0;29.0;-1.0;
12/02/2025 17:42:12;117;0;7.94;-4;30.26;24.83;20.2;18.00;76820;2835.123;-1758.716;1;108;220;224.2;22.5;22.7;69;69.0;29.0;-1.0;
12/02/2025 17:42:32;117;0;13.19;-4;30.39;25.03;17.0;18.00;76839;2835.126;-1758.714;1;122;220;224.2;22.5;22.7;69;69.0;29.0;-1.0;
12/02/2025 17:42:52;117;0;17.40;-4;30.41;25.14;13.8;18.10;76829;2835.128;-1758.712;1;136;220;222.6;22.5;22.7;69;69.5;29.0;-1.0;
12/02/2025 17:43:12;117;0;22.88;-4;30.30;24.97;10.6;18.10;76827;2835.130;-1758.711;1;150;220;224.2;22.5;22.7;69;69.5;29.0;-1.0;
12/02/2025 17:43:32;117;0;28.23;-4;30.85;25.41;7.6;18.10;76837;2835.131;-1758.708;1;162;220;222.6;22.5;22.7;69;69.5;29.0;-1.0;
12/02/2025 17:43:52;117;0;32.62;-4;30.19;25.04;4.4;18.20;76836;2835.133;-1758.706;1;173;220;222.6;22.5;22.8;69;69.0;29.0;-1.0;
12/02/2025 17:44:00;115;0;37.01;-4;30.28;25.05;3.1;18.20;76846;2835.134;-1758.705;1;177;500;230.6;100.0;67.3;0;0.0;29.0;-1.0;
12/02/2025 17:44:10;115;0;39.03;-4;11.26;-13.67;1.9;18.20;76820;2835.135;-1758.703;1;182;500;350.0;100.0;100.0;0;0.0;28.8;-1.0;
12/02/2025 17:44:20;115;0;39.02;-4;-62.20;-12.68;2.4;18.20;76561;2835.135;-1758.703;1;184;500;462.9;100.0;100.6;0;-0.5;28.8;-1.0;
12/02/2025 17:44:30;115;0;10.90;-4;-71.28;-6.62;2.0;18.30;76301;2835.135;-1758.702;1;186;500;508.1;100.0;100.6;0;0.0;28.8;-1.0;
12/02/2025 17:44:40;115;0;328.08;-4;-27.83;-7.94;-0.4;18.30;76225;2835.137;-1758.703;1;182;500;508.1;100.0;100.6;0;0.0;29.0;-1.0;
12/02/2025 17:45:00;119;0;247.45;-4;-54.74;-7.27;-0.2;18.40;76256;2835.137;-1758.703;1;182;500;511.3;100.0;100.7;0;0.0;29.0;-1.0;
12/02/2025 17:45:10;119;0;237.06;-4;-47.20;-12.00;-0.2;18.40;76277;2835.283;-1758.864;0;182;500;509.7;100.0;100.6;0;0.0;29.0;-1.0;
