Timestamp;NavState;SecurityLevel;Heading;Declination;Pitch;Roll;Depth;Temperature;Pa;Lat;Lon;DeadReckoning;DesiredH;BallastCmd;BallastPos;LinCmd;LinPos;AngCmd;AngPos;Voltage;Altitude;
27/02/2025 13:22:58;119;0;282.27;-4;-48.28;-16.18;0.1;16.60;75535;2837.050;-1759.883;0;136;500;506.5;100.0;100.4;0;0.0;25.8;-1.0;
27/02/2025 13:23:08;116;0;293.34;-4;-52.21;-15.74;0.0;16.60;75544;2837.055;-1759.885;0;136;500;506.5;100.0;100.4;0;-0.5;25.8;-1.0;
27/02/2025 13:23:33;116;0;298.87;-4;-46.16;-13.30;-0.0;16.70;75569;2837.056;-1759.886;0;136;500;504.8;100.0;100.4;0;-0.5;25.8;-1.0;
27/02/2025 13:23:56;116;0;295.21;-4;-52.64;-11.24;0.2;16.80;75588;2837.057;-1759.887;0;145;500;506.5;100.0;100.6;0;-0.5;25.8;-1.0;
27/02/2025 13:24:15;116;0;309.64;-4;-52.31;-13.22;0.2;16.90;75598;2837.060;-1759.888;0;145;500;506.5;100.0;100.4;0;-0.5;25.8;-1.0;
27/02/2025 13:24:35;116;0;305.40;-4;-52.86;-7.44;0.2;16.90;75622;2837.065;-1759.889;0;145;500;506.5;100.0;100.4;0;-0.5;25.8;-1.0;
27/02/2025 13:25:38;116;0;308.15;-4;-49.16;-15.80;0.1;17.20;75655;2837.076;-1759.890;0;145;500;506.5;100.0;100.4;0;-0.5;25.8;-1.0;
27/02/2025 13:26:02;116;0;291.85;-4;-52.96;-12.34;0.2;17.30;75666;2837.080;-1759.891;0;145;500;506.5;100.0;100.6;0;-0.5;25.8;-1.0;
27/02/2025 13:27:05;116;0;289.40;-4;-55.74;-11.47;0.3;17.60;75698;2837.090;-1759.893;0;145;500;506.5;100.0;100.4;0;-0.5;25.8;-1.0;
27/02/2025 13:28:10;116;0;297.35;-4;-51.97;-15.42;0.1;18.00;75730;2837.103;-1759.894;0;145;500;506.5;100.0;100.4;0;-0.5;25.8;-1.0;
27/02/2025 13:28:29;116;0;301.22;-4;-52.64;-12.65;0.2;18.20;75749;2837.104;-1759.894;0;145;500;506.5;100.0;100.4;0;-0.5;25.6;-1.0;
27/02/2025 13:28:49;116;0;309.14;-4;-50.87;-15.51;0.1;18.20;75750;2837.108;-1759.894;0;145;500;506.5;100.0;100.6;0;-0.5;25.8;-1.0;
27/02/2025 13:29:01;116;0;302.28;-4;-52.59;-13.25;0.2;18.30;75761;2837.110;-1759.894;0;145;500;506.5;100.0;100.4;0;-0.5;25.8;-1.0;
27/02/2025 13:29:12;116;0;305.23;-4;-50.95;-17.18;0.2;18.40;75764;2837.112;-1759.894;0;145;500;506.5;100.0;100.4;0;0.0;25.8;-1.0;
27/02/2025 13:29:32;110;0;310.53;-4;-48.57;-17.72;-0.0;18.50;75771;2837.112;-1759.894;0;145;-90;383.9;100.0;100.4;-7;-7.2;25.8;-1.0;
27/02/2025 13:29:42;110;0;304.81;-4;-49.98;-17.70;0.2;18.50;76129;2837.113;-1759.895;1;145;-90;235.5;100.0;100.4;-7;-7.7;25.8;-1.0;
27/02/2025 13:29:52;110;0;290.94;-4;-53.93;-15.21;0.6;18.50;76378;2837.114;-1759.895;1;145;-90;80.6;100.0;100.6;-7;-7.7;25.8;-1.0;
27/02/2025 13:30:02;110;0;280.89;-4;-63.43;-13.84;0.8;18.60;76690;2837.115;-1759.895;1;145;-90;-77.4;100.0;100.6;-7;-7.7;25.8;-1.0;
27/02/2025 13:30:12;110;0;281.22;-4;-67.37;-13.94;1.1;18.60;77021;2837.115;-1759.896;1;145;-90;-88.7;43.0;52.9;-7;-7.7;25.7;-1.0;
27/02/2025 13:30:22;110;0;296.61;-4;-53.28;-18.12;2.2;18.70;76997;2837.116;-1759.896;1;145;-90;-90.3;43.0;43.0;-7;-7.7;25.8;-1.0;
27/02/2025 13:30:42;100;0;313.38;-4;-23.19;-15.51;4.9;18.70;76986;2837.120;-1759.899;1;145;-90;-83.9;43.0;42.7;-7;-7.7;25.8;-1.0;
27/02/2025 13:31:02;100;0;321.01;-4;-20.52;-15.60;8.0;18.80;76973;2837.125;-1759.903;1;145;-90;-82.3;43.0;42.7;70;69.9;25.8;-1.0;
27/02/2025 13:31:22;100;0;317.28;-4;-24.65;23.97;10.9;18.80;76980;2837.129;-1759.905;1;145;-90;-82.3;41.6;41.7;70;70.4;25.8;-1.0;
27/02/2025 13:31:42;100;0;307.79;-4;-23.12;23.99;13.9;18.80;76983;2837.132;-1759.909;1;145;-90;-83.9;40.7;40.6;70;70.4;25.8;0.0;
27/02/2025 13:32:02;100;0;293.34;-4;-19.55;23.83;16.8;18.80;76985;2837.135;-1759.913;1;145;-90;-82.3;40.7;40.5;70;69.9;25.8;0.0;
27/02/2025 13:32:22;100;0;284.64;-4;-18.78;23.83;19.2;18.80;76984;2837.138;-1759.917;1;145;-90;-82.3;41.1;41.1;70;70.4;25.8;0.0;
27/02/2025 13:32:42;100;0;270.23;-4;-18.91;23.68;21.6;18.80;76988;2837.139;-1759.921;1;145;-90;-80.6;41.4;41.4;70;70.4;25.8;0.0;
27/02/2025 13:33:02;100;0;256.42;-4;-18.91;23.67;24.0;18.80;76994;2837.140;-1759.925;1;145;-90;-80.6;41.7;41.8;70;70.4;25.8;0.0;
27/02/2025 13:33:22;100;0;244.43;-4;-20.33;23.79;26.1;18.80;76983;2837.140;-1759.928;1;145;-90;-82.3;41.7;41.8;70;70.4;25.8;0.0;
27/02/2025 13:33:42;100;0;231.30;-4;-21.12;23.87;28.6;18.80;76996;2837.140;-1759.931;1;145;-90;-82.3;41.7;41.8;70;70.4;25.8;0.0;
27/02/2025 13:34:02;100;0;218.73;-4;-21.04;23.86;31.0;18.80;76993;2837.139;-1759.933;1;145;-90;-82.3;41.7;41.8;70;70.4;25.8;0.0;
27/02/2025 13:34:22;100;0;206.24;-4;-21.00;24.05;33.7;18.80;76996;2837.138;-1759.935;1;145;-90;-80.6;41.7;41.8;70;70.4;25.8;0.0;
27/02/2025 13:34:42;100;0;193.51;-4;-21.00;23.98;36.1;18.80;76999;2837.137;-1759.936;1;145;-90;-83.9;41.7;42.0;58;58.2;25.8;0.0;
27/02/2025 13:35:02;100;0;183.67;-4;-20.11;17.19;38.5;18.80;76995;2837.135;-1759.937;1;145;-90;-82.3;41.7;42.0;43;42.9;25.8;0.0;
27/02/2025 13:35:22;100;0;176.00;-4;-19.55;9.32;40.8;18.80;77004;2837.134;-1759.937;1;145;-90;-80.6;41.7;42.0;28;28.0;25.8;0.0;
27/02/2025 13:35:42;100;0;170.58;-4;-18.90;2.10;42.9;18.80;77003;2837.132;-1759.937;1;145;-90;-82.3;42.0;41.8;21;21.2;25.8;0.0;
27/02/2025 13:36:02;100;0;167.99;-4;-18.59;-1.43;45.1;18.90;76993;2837.131;-1759.937;1;145;-90;-80.6;42.5;42.7;18;18.1;25.8;0.0;
27/02/2025 13:36:22;100;0;166.85;-4;-19.86;-3.01;47.4;18.90;77001;2837.130;-1759.936;1;145;-90;-82.3;42.5;42.7;18;17.6;25.8;0.0;
27/02/2025 13:36:42;100;0;165.22;-4;-20.04;-3.06;49.4;18.90;77004;2837.129;-1759.936;1;145;-90;-82.3;42.5;42.6;16;15.8;25.8;0.0;
27/02/2025 13:37:02;100;0;163.85;-4;-19.80;-4.14;51.7;18.90;77021;2837.128;-1759.935;1;145;-90;-82.3;42.5;42.7;16;15.3;25.8;0.0;
27/02/2025 13:37:22;100;0;163.46;-4;-19.95;-4.09;53.8;18.90;77000;2837.127;-1759.935;1;145;-90;-82.3;42.5;42.7;16;15.3;25.8;0.0;
27/02/2025 13:37:42;100;0;160.06;-4;-19.62;-4.12;56.0;18.90;77006;2837.126;-1759.934;1;145;-90;-82.3;42.5;42.7;16;15.3;25.8;0.0;
27/02/2025 13:38:02;100;0;155.29;-4;-19.74;-4.42;58.0;18.90;77018;2837.125;-1759.933;1;145;-110;-109.7;42.5;42.7;16;15.3;25.8;0.0;
27/02/2025 13:38:22;100;0;153.45;-4;-19.19;-4.03;60.2;18.90;77089;2837.124;-1759.932;1;145;-110;-111.3;42.5;42.7;16;15.3;25.8;0.0;
27/02/2025 13:38:42;100;0;154.32;-4;-19.92;-4.04;62.5;18.90;77086;2837.123;-1759.931;1;145;-110;-111.3;42.5;42.7;16;15.3;25.8;0.0;
27/02/2025 13:39:02;100;0;152.46;-4;-19.40;-4.10;64.9;18.90;77094;2837.121;-1759.929;1;145;-110;-111.3;42.5;42.7;16;15.3;25.8;0.0;
27/02/2025 13:39:22;100;0;151.62;-4;-19.43;-3.97;67.3;18.90;77088;2837.120;-1759.928;1;145;-110;-111.3;42.5;42.7;14;14.0;25.8;0.0;
27/02/2025 13:39:42;100;0;150.64;-4;-19.51;-4.69;69.7;18.90;77097;2837.119;-1759.927;1;145;-110;-111.3;42.5;42.7;14;14.0;25.8;0.0;
27/02/2025 13:40:02;100;0;149.89;-4;-19.46;-4.86;72.0;18.90;77105;2837.118;-1759.925;1;145;-110;-109.7;42.5;42.7;14;14.0;25.8;0.0;
27/02/2025 13:40:22;100;0;150.40;-4;-19.53;-4.73;74.3;18.90;77097;2837.117;-1759.924;1;145;-110;-111.3;42.5;42.7;14;14.0;25.8;0.0;
27/02/2025 13:40:42;100;0;150.04;-4;-19.42;-4.73;76.6;18.90;77097;2837.116;-1759.923;1;145;-110;-111.3;42.5;42.7;14;14.0;25.8;0.0;
27/02/2025 13:41:02;100;0;150.48;-4;-19.39;-4.71;78.9;18.90;77113;2837.115;-1759.921;1;145;-110;-109.7;42.5;42.7;14;14.0;25.8;0.0;
27/02/2025 13:41:22;100;0;152.16;-4;-19.56;-4.71;81.3;18.90;77105;2837.113;-1759.920;1;145;-110;-111.3;42.5;42.6;14;14.0;25.8;0.0;
27/02/2025 13:41:42;100;0;153.12;-4;-19.60;-4.71;83.4;19.00;77110;2837.113;-1759.919;1;145;-110;-109.7;42.5;42.7;14;14.0;25.8;0.0;
27/02/2025 13:42:02;100;0;153.75;-4;-19.14;-4.68;85.8;19.00;77110;2837.111;-1759.918;1;145;-110;-109.7;42.5;42.6;14;14.0;25.8;0.0;
27/02/2025 13:42:22;100;0;160.08;-4;-19.29;-4.73;87.9;19.00;77102;2837.110;-1759.917;1;145;-110;-111.3;42.5;42.7;14;14.0;25.8;0.0;
27/02/2025 13:42:42;100;0;161.70;-4;-19.37;-4.70;90.0;18.90;77086;2837.109;-1759.916;1;145;-110;-111.3;42.5;42.7;14;14.0;25.8;0.0;
27/02/2025 13:43:02;100;0;162.99;-4;-19.38;-4.70;92.4;18.90;77077;2837.108;-1759.915;1;145;-110;-111.3;42.5;42.7;16;15.8;25.8;0.0;
27/02/2025 13:43:22;100;0;162.69;-4;-19.40;-3.49;94.4;18.90;77064;2837.107;-1759.915;1;145;-130;-132.3;42.5;42.7;16;16.7;25.8;0.0;
27/02/2025 13:43:42;100;0;163.75;-4;-18.83;-3.39;96.8;18.90;77102;2837.105;-1759.914;1;145;-130;-133.9;42.8;42.9;16;16.2;25.8;0.0;
27/02/2025 13:44:02;100;0;161.67;-4;-19.73;-3.37;98.9;18.90;77091;2837.104;-1759.914;1;145;-130;-133.9;42.8;43.0;16;16.7;25.8;0.0;
27/02/2025 13:44:22;100;0;159.20;-4;-20.02;-3.38;101.4;18.90;77071;2837.103;-1759.913;1;145;-130;-133.9;42.8;43.2;16;16.2;25.8;0.0;
27/02/2025 13:44:42;100;0;157.85;-4;-20.20;-3.29;104.1;18.80;77067;2837.101;-1759.912;1;145;-130;-133.9;42.8;43.2;16;16.2;25.8;0.0;
27/02/2025 13:45:02;100;0;158.38;-4;-19.93;-3.33;106.6;18.80;77059;2837.100;-1759.911;1;145;-130;-133.9;42.8;43.2;16;16.2;25.8;0.0;
27/02/2025 13:45:22;100;0;157.83;-4;-19.87;-3.35;109.2;18.80;77043;2837.098;-1759.909;1;145;-130;-133.9;42.8;43.2;16;16.2;25.8;0.0;
27/02/2025 13:45:42;100;0;156.30;-4;-20.44;-3.28;111.8;18.80;77038;2837.097;-1759.908;1;145;-130;-133.9;42.8;43.2;16;16.2;25.8;0.0;
27/02/2025 13:46:02;100;0;154.15;-4;-20.44;-3.24;114.5;18.80;77021;2837.095;-1759.907;1;145;-130;-132.3;42.8;43.2;16;16.2;25.8;0.0;
27/02/2025 13:46:22;100;0;151.84;-4;-20.34;-3.26;117.3;18.70;77003;2837.093;-1759.905;1;145;-130;-133.9;42.8;43.0;16;16.2;25.8;0.0;
27/02/2025 13:46:42;100;0;157.40;-4;-19.87;-3.29;120.1;18.70;76999;2837.092;-1759.904;1;145;-130;-133.9;42.8;43.2;16;16.2;25.8;0.0;
27/02/2025 13:47:02;100;0;160.40;-4;-19.74;-3.24;122.7;18.70;76991;2837.090;-1759.903;1;145;-130;-133.9;42.8;43.2;16;16.2;25.8;0.0;
27/02/2025 13:47:22;100;0;159.98;-4;-19.70;-3.31;125.5;18.70;76989;2837.088;-1759.902;1;145;-130;-133.9;42.8;43.2;16;16.2;25.8;0.0;
27/02/2025 13:47:42;100;0;157.35;-4;-19.72;-3.38;128.1;18.60;76976;2837.087;-1759.901;1;145;-130;-133.9;42.8;43.2;16;16.2;25.8;0.0;
27/02/2025 13:48:02;100;0;157.78;-4;-19.85;-3.37;130.7;18.60;76969;2837.085;-1759.900;1;145;-130;-133.9;42.8;43.2;16;16.2;25.8;0.0;
27/02/2025 13:48:22;100;0;156.18;-4;-19.83;-3.39;133.6;18.60;76959;2837.083;-1759.899;1;145;-130;-133.9;42.8;43.2;16;16.2;25.8;0.0;
27/02/2025 13:48:42;100;0;155.90;-4;-19.68;-3.35;136.2;18.50;76957;2837.082;-1759.897;1;145;-130;-135.5;42.8;43.2;16;16.2;25.8;0.0;
27/02/2025 13:49:02;100;0;155.42;-4;-19.52;-3.32;139.3;18.50;76955;2837.080;-1759.896;1;145;-130;-133.9;42.8;43.2;16;16.2;25.8;0.0;
27/02/2025 13:49:22;100;0;155.74;-4;-19.19;-3.40;141.9;18.50;76940;2837.078;-1759.894;1;145;-130;-133.9;42.8;43.0;16;16.2;25.8;0.0;
27/02/2025 13:49:42;100;0;152.67;-4;-19.46;-3.41;144.7;18.50;76930;2837.076;-1759.893;1;145;-130;-135.5;42.8;43.2;16;16.2;25.8;0.0;
27/02/2025 13:50:02;100;0;153.96;-4;-19.95;-3.25;147.6;18.50;76917;2837.075;-1759.891;1;145;-130;-133.9;42.8;43.0;16;16.2;25.8;0.0;
27/02/2025 13:50:22;100;0;153.73;-4;-19.92;-3.21;150.4;18.40;76904;2837.073;-1759.890;1;145;-130;-133.9;42.8;43.2;16;16.2;25.8;0.0;
27/02/2025 13:50:42;100;0;153.82;-4;-19.86;-3.24;153.2;18.40;76896;2837.071;-1759.888;1;145;-130;-132.3;42.8;43.2;16;16.2;25.8;0.0;
27/02/2025 13:51:02;100;0;154.77;-4;-19.81;-3.38;156.2;18.40;76887;2837.069;-1759.887;1;145;-130;-135.5;42.8;43.2;16;16.2;25.8;0.0;
27/02/2025 13:51:22;100;0;154.65;-4;-20.11;-3.32;159.1;18.30;76883;2837.068;-1759.885;1;145;-130;-133.9;42.8;43.2;16;16.2;25.8;0.0;
27/02/2025 13:51:42;100;0;156.95;-4;-19.86;-3.46;162.1;18.30;76881;2837.066;-1759.884;1;145;-130;-135.5;42.8;43.0;16;16.2;25.8;0.0;
27/02/2025 13:52:02;100;0;157.32;-4;-19.95;-3.25;165.1;18.30;76872;2837.064;-1759.883;1;145;-130;-133.9;42.8;43.0;16;16.2;25.8;0.0;
27/02/2025 13:52:22;100;0;155.07;-4;-20.11;-3.27;168.2;18.20;76857;2837.062;-1759.881;1;145;-130;-135.5;42.8;43.2;16;16.7;25.8;0.0;
27/02/2025 13:52:42;100;0;152.17;-4;-19.89;-3.28;171.4;18.20;76859;2837.059;-1759.879;1;145;-130;-133.9;42.8;43.2;16;16.2;25.8;0.0;
27/02/2025 13:53:02;100;0;148.68;-4;-20.54;-3.35;174.4;18.20;76854;2837.058;-1759.877;1;145;-130;-133.9;42.8;43.0;14;14.0;25.8;0.0;
27/02/2025 13:53:22;100;0;147.63;-4;-19.62;-4.72;177.9;18.10;76848;2837.056;-1759.875;1;145;-130;-133.9;42.8;43.2;14;13.5;25.8;0.0;
27/02/2025 13:53:42;100;0;148.83;-4;-19.38;-4.71;180.9;18.10;76836;2837.054;-1759.873;1;145;-130;-132.3;42.8;43.2;14;13.5;25.8;0.0;
27/02/2025 13:54:02;100;0;145.52;-4;-19.26;-4.74;184.0;18.10;76816;2837.052;-1759.871;1;145;-130;-132.3;42.8;43.2;14;13.5;25.8;0.0;
27/02/2025 13:54:22;100;0;146.30;-4;-19.11;-4.71;187.0;18.00;76810;2837.050;-1759.869;1;145;-130;-137.1;42.8;43.2;14;14.0;25.8;0.0;
27/02/2025 13:54:42;100;0;149.59;-4;-19.05;-4.73;189.8;18.00;76797;2837.048;-1759.867;1;145;-130;-133.9;42.8;43.2;14;14.0;25.8;0.0;
27/02/2025 13:55:02;100;0;152.01;-4;-18.77;-4.75;192.7;18.00;76786;2837.047;-1759.865;1;145;-130;-133.9;43.2;43.2;14;13.5;25.8;0.0;
27/02/2025 13:55:22;100;0;153.50;-4;-18.98;-4.71;195.3;17.90;76775;2837.045;-1759.864;1;145;-130;-133.9;43.5;43.4;14;13.5;25.8;0.0;
27/02/2025 13:55:42;100;0;151.33;-4;-19.94;-4.72;198.3;17.90;76765;2837.043;-1759.862;1;145;-130;-133.9;43.5;43.6;14;13.5;25.8;0.0;
27/02/2025 13:56:02;100;0;148.59;-4;-20.23;-4.67;201.3;17.90;76764;2837.042;-1759.860;1;145;-130;-133.9;43.5;43.6;14;13.5;25.8;0.0;
27/02/2025 13:56:22;100;0;146.89;-4;-20.20;-4.75;204.1;17.80;76753;2837.040;-1759.858;1;145;-130;-133.9;43.5;43.6;14;14.0;25.8;0.0;
27/02/2025 13:56:42;100;0;148.19;-4;-20.02;-4.75;207.0;17.80;76741;2837.038;-1759.856;1;145;-130;-133.9;43.5;43.6;14;13.5;25.8;0.0;
27/02/2025 13:57:02;100;0;151.81;-4;-20.19;-4.75;209.8;17.70;76721;2837.037;-1759.855;1;145;-130;-133.9;43.5;43.6;14;13.5;25.8;0.0;
27/02/2025 13:57:22;100;0;153.25;-4;-20.26;-4.68;212.7;17.70;76709;2837.035;-1759.853;1;145;-130;-133.9;43.5;43.6;14;13.5;25.8;0.0;
27/02/2025 13:57:42;100;0;152.80;-4;-19.98;-4.72;215.6;17.70;76699;2837.033;-1759.851;1;145;-130;-133.9;43.5;43.6;14;14.0;25.8;0.0;
27/02/2025 13:58:02;100;0;153.62;-4;-20.14;-4.77;218.5;17.60;76693;2837.031;-1759.850;1;145;-130;-133.9;43.5;43.6;14;13.5;25.8;0.0;
27/02/2025 13:58:22;100;0;154.75;-4;-20.18;-4.70;221.8;17.60;76685;2837.029;-1759.848;1;145;-130;-133.9;43.5;43.6;14;13.5;25.8;0.0;
27/02/2025 13:58:42;100;0;154.83;-4;-19.90;-4.74;224.6;17.50;76669;2837.028;-1759.847;1;145;-130;-133.9;43.5;43.6;14;13.5;25.8;0.0;
27/02/2025 13:59:03;100;0;153.35;-4;-20.16;-4.75;227.5;17.50;76654;2837.026;-1759.845;1;145;-130;-133.9;43.5;43.7;14;13.5;25.8;0.0;
27/02/2025 13:59:23;100;0;149.67;-4;-20.00;-4.73;230.4;17.50;76658;2837.024;-1759.843;1;145;-130;-133.9;43.5;43.6;14;13.5;25.8;0.0;
27/02/2025 13:59:43;100;0;147.04;-4;-19.97;-4.73;233.2;17.40;76638;2837.023;-1759.842;1;145;-130;-132.3;43.5;43.6;12;12.2;25.8;0.0;
27/02/2025 14:00:03;100;0;146.89;-4;-20.02;-5.52;236.0;17.40;76633;2837.021;-1759.840;1;145;-130;-133.9;43.5;43.6;12;12.2;25.8;0.0;
27/02/2025 14:00:23;100;0;149.14;-4;-20.05;-5.50;238.9;17.40;76632;2837.020;-1759.838;1;145;-130;-133.9;43.5;43.6;14;14.0;25.8;0.0;
27/02/2025 14:00:43;100;0;150.78;-4;-20.42;-4.28;242.0;17.30;76631;2837.018;-1759.836;1;145;-130;-132.3;43.5;43.7;14;14.4;25.8;0.0;
27/02/2025 14:01:03;100;0;151.82;-4;-20.42;-4.24;244.7;17.30;76612;2837.016;-1759.834;1;145;-130;-133.9;43.5;43.6;14;14.4;25.8;0.0;
27/02/2025 14:01:23;100;0;151.97;-4;-20.28;-4.24;247.6;17.20;76607;2837.014;-1759.833;1;145;-130;-133.9;43.5;43.7;14;14.4;25.8;0.0;
27/02/2025 14:01:43;100;0;153.77;-4;-20.49;-4.28;250.5;17.20;76594;2837.013;-1759.831;1;145;-130;-133.9;43.5;43.7;14;14.4;25.8;0.0;
27/02/2025 14:02:03;100;0;155.21;-4;-20.70;-4.18;253.5;17.20;76603;2837.011;-1759.830;1;145;-130;-133.9;43.5;43.7;14;14.4;25.8;0.0;
27/02/2025 14:02:23;100;0;156.74;-4;-20.47;-4.24;256.6;17.10;76591;2837.009;-1759.828;1;145;-130;-133.9;43.5;43.7;14;14.4;25.8;0.0;
27/02/2025 14:02:43;100;0;156.06;-4;-20.45;-4.22;259.6;17.10;76585;2837.007;-1759.827;1;145;-130;-133.9;43.5;43.6;14;14.4;25.8;0.0;
27/02/2025 14:03:03;100;0;152.69;-4;-20.74;-4.20;262.6;17.00;76575;2837.005;-1759.825;1;145;-130;-133.9;43.5;43.6;14;14.4;25.8;0.0;
27/02/2025 14:03:23;100;0;151.15;-4;-20.78;-4.23;265.7;17.00;76579;2837.003;-1759.824;1;145;-130;-133.9;43.5;43.7;14;14.4;25.8;0.0;
27/02/2025 14:03:43;100;0;149.93;-4;-20.08;-4.36;268.7;17.00;76564;2837.001;-1759.822;1;145;-130;-132.3;43.5;43.6;14;14.4;25.8;0.0;
27/02/2025 14:04:03;100;0;148.31;-4;-20.09;-4.28;271.9;16.90;76551;2837.000;-1759.820;1;145;-130;-133.9;43.5;43.7;14;14.4;25.8;0.0;
27/02/2025 14:04:23;100;0;144.66;-4;-20.42;-4.23;274.7;16.90;76543;2836.998;-1759.818;1;145;-130;-133.9;43.5;43.7;11;10.8;25.8;0.0;
27/02/2025 14:04:43;100;0;144.79;-4;-19.93;-6.33;277.8;16.90;76525;2836.996;-1759.815;1;145;-130;-133.9;43.5;43.7;11;10.4;25.8;0.0;
27/02/2025 14:05:03;100;0;145.77;-4;-19.93;-6.25;280.8;16.80;76517;2836.995;-1759.813;1;145;-130;-133.9;43.5;43.7;11;10.4;25.8;0.0;
27/02/2025 14:05:23;100;0;146.31;-4;-20.03;-6.31;283.9;16.80;76495;2836.993;-1759.811;1;145;-130;-133.9;43.5;43.6;13;13.1;25.8;0.0;
27/02/2025 14:05:43;100;0;147.68;-4;-20.05;-4.83;286.7;16.70;76498;2836.992;-1759.809;1;145;-130;-133.9;43.5;43.6;13;13.1;25.8;0.0;
27/02/2025 14:06:03;100;0;151.01;-4;-19.91;-4.87;289.6;16.70;76488;2836.990;-1759.808;1;145;-130;-133.9;43.5;43.7;13;13.1;25.8;0.0;
27/02/2025 14:06:23;100;0;155.57;-4;-19.65;-4.82;292.5;16.70;76482;2836.988;-1759.806;1;145;-130;-133.9;43.5;43.7;13;13.1;25.8;0.0;
27/02/2025 14:06:43;100;0;159.21;-4;-20.22;-4.90;295.2;16.60;76477;2836.986;-1759.805;1;145;-130;-133.9;43.5;43.7;13;13.1;25.8;0.0;
27/02/2025 14:07:03;100;0;162.90;-4;-19.99;-4.78;298.1;16.60;76464;2836.984;-1759.804;1;145;-130;-133.9;43.5;43.7;16;15.8;25.8;0.0;
27/02/2025 14:07:23;100;0;165.81;-4;-19.93;-3.46;301.0;16.50;76457;2836.982;-1759.804;1;145;-130;-132.3;43.5;43.6;18;18.1;25.8;0.0;
27/02/2025 14:07:43;100;0;166.18;-4;-20.15;-2.29;304.0;16.50;76445;2836.980;-1759.803;1;145;-130;-133.9;43.5;43.6;18;18.1;25.8;0.0;
27/02/2025 14:08:03;100;0;162.77;-4;-20.16;-2.32;306.8;16.50;76438;2836.978;-1759.802;1;145;-130;-133.9;43.5;43.7;16;15.3;25.8;0.0;
27/02/2025 14:08:23;100;0;159.16;-4;-19.91;-3.90;309.6;16.40;76432;2836.976;-1759.801;1;145;-130;-133.9;43.5;43.7;16;15.3;25.8;0.0;
27/02/2025 14:08:43;100;0;157.26;-4;-19.68;-3.97;312.4;16.40;76409;2836.975;-1759.800;1;145;-130;-133.9;43.5;43.6;14;14.0;25.8;0.0;
27/02/2025 14:09:03;100;0;156.24;-4;-20.03;-4.68;315.4;16.30;76399;2836.973;-1759.798;1;145;-130;-133.9;43.5;43.6;14;14.0;25.8;0.0;
27/02/2025 14:09:23;100;0;156.63;-4;-20.10;-4.57;318.1;16.30;76396;2836.971;-1759.797;1;145;-130;-137.1;43.5;43.7;14;13.5;25.8;0.0;
27/02/2025 14:09:43;100;0;156.81;-4;-19.83;-4.63;320.9;16.30;76394;2836.969;-1759.796;1;145;-130;-135.5;43.5;43.6;14;13.5;25.8;0.0;
27/02/2025 14:10:03;100;0;156.44;-4;-19.97;-4.60;323.8;16.20;76379;2836.968;-1759.794;1;145;-130;-133.9;43.5;43.7;14;13.5;25.8;0.0;
27/02/2025 14:10:23;100;0;155.99;-4;-20.02;-4.82;326.5;16.20;76389;2836.966;-1759.793;1;145;-130;-133.9;43.5;43.7;14;13.5;25.8;0.0;
27/02/2025 14:10:43;100;0;155.67;-4;-20.16;-4.57;329.5;16.20;76383;2836.964;-1759.792;1;145;-130;-133.9;43.5;43.7;14;13.5;25.8;0.0;
27/02/2025 14:11:03;100;0;153.38;-4;-20.20;-4.70;332.3;16.10;76369;2836.962;-1759.790;1;145;-130;-133.9;43.5;43.7;14;13.5;25.8;0.0;
27/02/2025 14:11:23;100;0;149.26;-4;-20.11;-4.74;335.2;16.10;76358;2836.961;-1759.788;1;145;-130;-132.3;43.5;43.7;14;13.5;25.8;0.0;
27/02/2025 14:11:43;100;0;146.90;-4;-19.80;-4.76;338.2;16.00;76348;2836.959;-1759.786;1;145;-130;-133.9;43.5;43.7;14;13.5;25.8;0.0;
27/02/2025 14:12:03;100;0;147.80;-4;-19.15;-4.60;340.9;16.00;76350;2836.957;-1759.784;1;145;-130;-133.9;43.5;43.6;14;13.5;25.8;0.0;
27/02/2025 14:12:23;100;0;148.00;-4;-19.29;-4.55;343.6;16.00;76340;2836.956;-1759.783;1;145;-130;-133.9;43.5;43.7;14;14.0;25.8;0.0;
27/02/2025 14:12:43;100;0;145.95;-4;-19.88;-4.77;346.2;15.90;76324;2836.955;-1759.781;1;145;-130;-137.1;43.5;43.7;11;10.8;25.8;0.0;
27/02/2025 14:13:03;100;0;148.02;-4;-19.24;-6.07;349.0;15.90;76316;2836.953;-1759.779;1;145;-130;-133.9;43.5;43.6;13;13.1;25.8;0.0;
27/02/2025 14:13:23;100;0;147.90;-4;-19.98;-4.80;351.6;15.90;76306;2836.952;-1759.777;1;145;-130;-133.9;43.5;43.6;13;13.5;25.8;0.0;
27/02/2025 14:13:43;100;0;147.41;-4;-20.43;-4.63;354.2;15.80;76297;2836.951;-1759.776;1;145;-130;-133.9;43.5;43.7;13;13.5;25.8;0.0;
27/02/2025 14:14:03;100;0;147.37;-4;-19.37;-4.87;356.8;15.80;76298;2836.949;-1759.774;1;145;-130;-133.9;43.5;43.6;13;13.5;25.8;0.0;
27/02/2025 14:14:23;100;0;147.04;-4;-20.12;-4.45;359.4;15.70;76273;2836.948;-1759.772;1;145;-130;-133.9;43.5;43.7;13;13.5;25.8;0.0;
27/02/2025 14:14:43;100;0;147.93;-4;-20.53;-4.71;362.1;15.70;76283;2836.947;-1759.770;1;145;-130;-133.9;43.5;43.7;13;13.5;25.8;0.0;
27/02/2025 14:15:03;100;0;148.79;-4;-19.54;-4.90;365.0;15.70;76276;2836.945;-1759.769;1;145;-130;-133.9;43.5;43.6;13;13.5;25.8;0.0;
27/02/2025 14:15:23;100;0;147.08;-4;-19.02;-4.66;367.6;15.60;76272;2836.944;-1759.767;1;145;-130;-133.9;43.5;43.7;13;13.5;25.8;0.0;
27/02/2025 14:15:43;100;0;146.18;-4;-19.52;-4.88;370.0;15.60;76269;2836.943;-1759.765;1;145;-130;-133.9;43.5;43.6;10;9.9;25.8;0.0;
27/02/2025 14:16:03;100;0;148.15;-4;-19.55;-6.49;372.7;15.60;76262;2836.941;-1759.763;1;145;-130;-133.9;43.5;43.6;12;12.6;25.8;0.0;
27/02/2025 14:16:23;100;0;149.65;-4;-19.71;-5.22;375.4;15.50;76260;2836.940;-1759.762;1;145;-130;-133.9;43.5;43.6;12;13.1;25.8;0.0;
27/02/2025 14:16:43;100;0;150.86;-4;-19.53;-5.12;378.0;15.50;76251;2836.939;-1759.760;1;145;-130;-133.9;43.5;43.7;12;13.1;25.8;0.0;
27/02/2025 14:17:03;100;0;148.75;-4;-19.61;-5.10;380.5;15.50;76254;2836.937;-1759.759;1;145;-130;-133.9;43.5;43.7;12;13.1;25.8;0.0;
27/02/2025 14:17:23;100;0;149.16;-4;-19.88;-5.00;383.2;15.40;76246;2836.936;-1759.757;1;145;-130;-133.9;43.5;43.7;12;13.1;25.8;0.0;
27/02/2025 14:17:43;100;0;150.37;-4;-20.09;-5.05;385.7;15.40;76232;2836.935;-1759.756;1;145;-130;-133.9;43.5;43.6;12;13.1;25.8;0.0;
27/02/2025 14:18:03;100;0;152.69;-4;-19.81;-5.05;388.6;15.40;76230;2836.933;-1759.754;1;145;-130;-133.9;43.5;43.6;14;14.4;25.8;0.0;
27/02/2025 14:18:23;100;0;155.75;-4;-20.13;-4.02;391.3;15.30;76222;2836.931;-1759.753;1;145;-130;-135.5;43.5;43.7;14;14.9;25.8;0.0;
27/02/2025 14:18:43;100;0;155.02;-4;-19.84;-3.98;394.1;15.30;76220;2836.930;-1759.751;1;145;-130;-133.9;43.5;43.7;14;14.9;25.8;0.0;
27/02/2025 14:19:03;100;0;152.71;-4;-19.65;-4.05;396.7;15.30;76216;2836.928;-1759.750;1;145;-130;-133.9;43.5;43.7;14;14.9;25.8;0.0;
27/02/2025 14:19:23;100;0;151.07;-4;-19.62;-4.13;399.1;15.20;76209;2836.927;-1759.749;1;145;-130;-133.9;43.5;43.7;14;14.9;25.8;0.0;
27/02/2025 14:19:43;100;0;149.48;-4;-19.61;-4.15;401.8;15.20;76205;2836.926;-1759.747;1;145;-130;-133.9;43.5;43.7;14;14.9;25.8;0.0;
27/02/2025 14:20:03;100;0;151.86;-4;-19.69;-4.14;404.2;15.20;76200;2836.925;-1759.746;1;145;-130;-133.9;43.5;43.7;14;14.9;25.8;0.0;
27/02/2025 14:20:23;100;0;153.89;-4;-19.89;-4.14;406.8;15.10;76181;2836.923;-1759.744;1;145;-130;-133.9;43.5;43.6;14;14.9;25.8;0.0;
27/02/2025 14:20:43;100;0;154.72;-4;-19.41;-4.14;409.6;15.10;76190;2836.921;-1759.743;1;145;-130;-133.9;43.5;43.7;14;14.9;25.8;0.0;
27/02/2025 14:21:03;100;0;155.26;-4;-19.99;-4.14;412.1;15.10;76183;2836.920;-1759.742;1;145;-130;-133.9;43.5;43.7;14;14.9;25.8;0.0;
27/02/2025 14:21:23;100;0;157.41;-4;-20.02;-4.07;414.9;15.00;76177;2836.918;-1759.740;1;145;-130;-133.9;43.5;43.6;14;14.9;25.8;0.0;
27/02/2025 14:21:43;100;0;158.85;-4;-19.87;-4.08;417.5;15.00;76172;2836.917;-1759.739;1;145;-130;-133.9;43.5;43.7;14;14.9;25.8;0.0;
27/02/2025 14:22:03;100;0;160.32;-4;-20.11;-4.11;420.3;15.00;76171;2836.915;-1759.738;1;145;-130;-133.9;43.5;43.6;14;14.4;25.8;0.0;
27/02/2025 14:22:23;100;0;161.43;-4;-20.14;-3.95;422.8;15.00;76155;2836.913;-1759.738;1;145;-130;-133.9;43.5;43.7;14;14.9;25.8;0.0;
27/02/2025 14:22:43;100;0;164.51;-4;-20.11;-4.08;425.6;14.90;76157;2836.911;-1759.737;1;145;-130;-133.9;43.5;43.6;17;17.1;25.8;0.0;
27/02/2025 14:23:03;100;0;164.65;-4;-20.21;-2.80;428.2;14.90;76150;2836.910;-1759.736;1;145;-130;-133.9;43.5;43.7;17;17.6;25.8;0.0;
27/02/2025 14:23:23;100;0;170.12;-4;-20.20;-2.85;430.7;14.90;76146;2836.908;-1759.736;1;145;-130;-133.9;43.5;43.6;21;21.2;25.8;0.0;
27/02/2025 14:23:43;100;0;168.14;-4;-19.84;-0.52;433.3;14.80;76139;2836.906;-1759.735;1;145;-130;-133.9;43.5;43.7;19;19.0;25.8;0.0;
27/02/2025 14:24:03;100;0;167.07;-4;-19.79;-2.37;435.7;14.80;76125;2836.905;-1759.735;1;145;-130;-135.5;43.5;43.7;17;16.7;25.8;0.0;
27/02/2025 14:24:23;100;0;166.83;-4;-19.75;-3.39;438.4;14.80;76124;2836.903;-1759.734;1;145;-130;-135.5;43.5;43.6;17;16.7;25.8;0.0;
27/02/2025 14:24:43;100;0;164.94;-4;-19.86;-3.38;440.8;14.80;76117;2836.902;-1759.734;1;145;-130;-132.3;43.5;43.7;17;16.7;25.8;0.0;
27/02/2025 14:25:03;100;0;162.05;-4;-19.87;-3.32;443.3;14.70;76126;2836.900;-1759.733;1;145;-130;-132.3;43.5;43.6;15;14.9;25.8;0.0;
27/02/2025 14:25:23;100;0;160.33;-4;-19.51;-4.36;445.8;14.70;76114;2836.899;-1759.732;1;145;-130;-133.9;43.5;43.6;15;14.4;25.8;0.0;
27/02/2025 14:25:43;100;0;157.19;-4;-19.71;-4.27;448.3;14.70;76104;2836.897;-1759.731;1;145;-130;-135.5;43.5;43.7;15;14.4;25.8;0.0;
27/02/2025 14:26:03;100;0;154.99;-4;-19.51;-4.30;450.7;14.60;76092;2836.896;-1759.730;1;145;-130;-133.9;43.5;43.7;15;14.4;25.8;0.0;
27/02/2025 14:26:23;100;0;152.97;-4;-19.96;-4.27;453.2;14.60;76101;2836.895;-1759.729;1;145;-130;-132.3;43.5;43.6;15;14.4;25.8;0.0;
27/02/2025 14:26:43;100;0;154.59;-4;-19.91;-4.22;455.8;14.60;76080;2836.893;-1759.727;1;145;-130;-133.9;43.5;43.7;15;14.4;25.8;0.0;
27/02/2025 14:27:03;100;0;155.00;-4;-19.69;-4.25;458.3;14.60;76084;2836.892;-1759.726;1;145;-130;-133.9;43.5;43.7;15;14.4;25.8;0.0;
27/02/2025 14:27:23;100;0;155.07;-4;-19.59;-4.27;461.0;14.50;76077;2836.890;-1759.725;1;145;-130;-132.3;43.5;43.6;15;14.4;25.8;0.0;
27/02/2025 14:27:43;100;0;156.68;-4;-19.87;-4.24;463.2;14.50;76076;2836.889;-1759.724;1;145;-130;-133.9;43.5;43.7;15;14.4;25.8;0.0;
27/02/2025 14:28:03;100;0;158.50;-4;-19.69;-4.35;465.9;14.50;76077;2836.888;-1759.723;1;145;-130;-135.5;43.5;43.7;15;14.4;25.8;0.0;
27/02/2025 14:28:23;100;0;160.85;-4;-19.44;-4.34;468.3;14.40;76067;2836.886;-1759.722;1;145;-130;-133.9;43.5;43.7;15;14.4;25.8;0.0;
27/02/2025 14:28:43;100;0;161.35;-4;-19.40;-4.31;470.9;14.40;76058;2836.885;-1759.721;1;145;-130;-137.1;43.5;43.7;15;14.4;25.8;0.0;
27/02/2025 14:29:03;100;0;162.59;-4;-19.72;-4.34;473.3;14.40;76058;2836.883;-1759.720;1;145;-130;-133.9;43.5;43.6;15;14.4;25.8;0.0;
27/02/2025 14:29:23;100;0;165.31;-4;-19.77;-4.34;476.1;14.40;76049;2836.881;-1759.720;1;145;-130;-137.1;43.5;43.7;17;17.6;25.8;0.0;
27/02/2025 14:29:43;100;0;161.58;-4;-19.54;-2.64;478.5;14.30;76045;2836.880;-1759.719;1;145;-130;-133.9;43.5;43.7;14;14.0;25.8;0.0;
27/02/2025 14:30:03;100;0;160.19;-4;-19.44;-4.70;481.1;14.30;76043;2836.878;-1759.718;1;145;-130;-133.9;43.5;43.7;14;13.5;25.8;0.0;
27/02/2025 14:30:23;100;0;157.79;-4;-18.96;-4.84;483.5;14.30;76030;2836.877;-1759.717;1;145;-130;-133.9;43.8;43.7;14;13.5;25.8;0.0;
27/02/2025 14:30:43;100;0;155.83;-4;-19.04;-4.84;486.1;14.30;76023;2836.875;-1759.716;1;145;-130;-133.9;43.8;43.7;14;13.5;25.8;0.0;
27/02/2025 14:31:03;100;0;152.62;-4;-18.88;-4.68;488.6;14.20;76022;2836.874;-1759.714;1;145;-130;-133.9;44.1;44.2;14;13.5;25.8;0.0;
27/02/2025 14:31:23;100;0;152.38;-4;-20.24;-4.69;491.1;14.20;76015;2836.872;-1759.713;1;145;-130;-132.3;44.1;44.5;14;13.5;25.8;0.0;
27/02/2025 14:31:43;100;0;150.53;-4;-20.63;-4.65;494.0;14.20;76003;2836.871;-1759.711;1;145;-130;-133.9;44.1;44.5;14;13.5;25.8;0.0;
27/02/2025 14:32:03;100;0;149.49;-4;-20.95;-4.76;496.8;14.20;76000;2836.870;-1759.710;1;145;-130;-133.9;44.1;44.5;14;13.5;25.8;0.0;
27/02/2025 14:32:23;100;0;146.74;-4;-20.49;-4.81;499.7;14.10;75999;2836.868;-1759.708;1;145;-130;-133.9;44.1;44.3;12;11.7;25.8;0.0;
27/02/2025 14:32:43;100;0;145.52;-4;-20.31;-5.31;502.6;14.10;75997;2836.866;-1759.705;1;145;-130;-133.9;44.1;44.3;12;11.7;25.8;0.0;
27/02/2025 14:33:03;100;0;150.97;-4;-20.99;-5.59;505.5;14.10;75981;2836.865;-1759.704;1;145;-130;-133.9;44.1;44.5;14;14.0;25.8;0.0;
27/02/2025 14:33:24;100;0;152.56;-4;-20.56;-4.31;508.5;14.00;75978;2836.863;-1759.702;1;145;-130;-133.9;44.1;44.5;14;14.4;25.8;0.0;
27/02/2025 14:33:44;100;0;153.89;-4;-21.04;-4.18;511.5;14.00;75971;2836.861;-1759.701;1;145;-130;-133.9;44.1;44.5;14;14.4;25.8;0.0;
27/02/2025 14:34:04;100;0;157.82;-4;-21.04;-3.93;514.6;14.00;75964;2836.859;-1759.699;1;145;-130;-133.9;44.1;44.5;14;14.4;25.8;0.0;
27/02/2025 14:34:24;100;0;166.50;-4;-20.87;-4.22;517.5;14.00;75961;2836.857;-1759.699;1;145;-130;-132.3;44.1;44.5;19;19.0;25.8;0.0;
27/02/2025 14:34:44;100;0;167.41;-4;-21.27;-1.78;520.4;13.90;75946;2836.856;-1759.698;1;145;-130;-133.9;44.1;44.5;19;19.4;25.8;0.0;
27/02/2025 14:35:04;100;0;166.29;-4;-21.11;-1.89;523.4;13.90;75950;2836.853;-1759.698;1;145;-130;-132.3;44.1;44.5;19;19.4;25.8;0.0;
27/02/2025 14:35:24;100;0;167.69;-4;-20.64;-1.84;526.4;13.90;75938;2836.851;-1759.697;1;145;-130;-133.9;44.1;44.5;19;19.4;25.8;0.0;
27/02/2025 14:35:44;100;0;167.26;-4;-21.07;-1.80;529.3;13.90;75947;2836.849;-1759.696;1;145;-130;-133.9;44.1;44.5;19;19.4;25.8;0.0;
27/02/2025 14:36:04;100;0;165.08;-4;-21.85;-1.60;532.3;13.80;75934;2836.848;-1759.696;1;145;-130;-133.9;44.1;44.5;17;17.1;25.8;0.0;
27/02/2025 14:36:24;100;0;167.20;-4;-20.97;-2.95;535.1;13.80;75935;2836.846;-1759.695;1;145;-130;-133.9;44.1;44.5;17;16.7;25.8;0.0;
27/02/2025 14:36:44;100;0;167.45;-4;-20.65;-3.20;538.1;13.80;75928;2836.844;-1759.695;1;145;-130;-133.9;44.1;44.5;20;19.9;25.8;0.0;
27/02/2025 14:37:04;100;0;169.50;-4;-21.78;-1.13;541.0;13.80;75930;2836.842;-1759.694;1;145;-130;-133.9;44.1;44.5;22;22.6;25.8;0.0;
27/02/2025 14:37:24;100;0;168.41;-4;-21.61;-0.07;544.1;13.70;75923;2836.840;-1759.694;1;145;-130;-133.9;44.1;44.5;22;22.6;25.8;0.0;
27/02/2025 14:37:44;100;0;164.60;-4;-21.12;-0.16;547.0;13.70;75916;2836.838;-1759.693;1;145;-130;-133.9;44.1;44.5;17;17.1;25.8;0.0;
27/02/2025 14:38:04;100;0;164.08;-4;-21.05;-3.06;549.9;13.70;75911;2836.836;-1759.692;1;145;-130;-133.9;44.1;44.5;17;17.1;25.8;0.0;
27/02/2025 14:38:24;100;0;162.37;-4;-21.28;-3.18;552.8;13.70;75903;2836.834;-1759.691;1;145;-130;-133.9;44.1;44.5;17;17.1;25.8;0.0;
27/02/2025 14:38:44;100;0;160.16;-4;-20.99;-3.04;555.9;13.60;75897;2836.832;-1759.690;1;145;-130;-133.9;44.1;44.5;15;14.9;25.8;0.0;
27/02/2025 14:39:04;100;0;161.96;-4;-20.64;-4.23;558.9;13.60;75898;2836.830;-1759.689;1;145;-130;-133.9;44.1;44.5;15;14.4;25.8;0.0;
27/02/2025 14:39:24;100;0;161.86;-4;-20.74;-4.24;561.8;13.60;75887;2836.828;-1759.688;1;145;-130;-133.9;44.1;44.6;15;14.4;25.8;0.0;
27/02/2025 14:39:44;100;0;160.85;-4;-21.13;-4.27;564.5;13.60;75892;2836.827;-1759.687;1;145;-130;-137.1;44.1;44.5;15;14.4;25.8;0.0;
27/02/2025 14:40:04;100;0;155.41;-4;-21.17;-4.23;567.6;13.50;75886;2836.825;-1759.686;1;145;-130;-133.9;44.1;44.5;15;14.4;25.8;0.0;
27/02/2025 14:40:24;100;0;155.19;-4;-20.50;-4.33;570.4;13.50;75881;2836.823;-1759.685;1;145;-130;-133.9;44.1;44.5;15;14.4;25.8;0.0;
27/02/2025 14:40:44;100;0;153.81;-4;-20.45;-4.21;573.3;13.50;75874;2836.821;-1759.683;1;145;-130;-133.9;44.1;44.5;15;14.4;25.8;0.0;
27/02/2025 14:41:04;100;0;152.07;-4;-20.51;-4.23;576.2;13.50;75870;2836.820;-1759.682;1;145;-130;-133.9;44.1;44.5;15;14.4;25.8;0.0;
27/02/2025 14:41:24;100;0;152.04;-4;-20.62;-4.32;578.9;13.40;75866;2836.818;-1759.680;1;145;-130;-133.9;44.1;44.5;15;14.4;25.8;0.0;
27/02/2025 14:41:44;100;0;150.19;-4;-20.62;-4.25;581.9;13.40;75858;2836.817;-1759.678;1;145;-130;-133.9;44.1;44.5;15;14.4;25.8;0.0;
27/02/2025 14:42:04;100;0;147.67;-4;-20.52;-4.28;584.7;13.40;75862;2836.815;-1759.677;1;145;-130;-133.9;44.1;44.5;13;12.6;25.8;0.0;
27/02/2025 14:42:24;100;0;148.60;-4;-20.43;-5.20;587.4;13.40;75849;2836.814;-1759.675;1;145;-130;-133.9;44.1;44.5;13;12.6;25.8;0.0;
27/02/2025 14:42:44;100;0;150.13;-4;-20.63;-5.22;590.2;13.30;75845;2836.812;-1759.673;1;145;-130;-133.9;44.1;44.5;13;12.6;25.8;0.0;
27/02/2025 14:43:04;100;0;150.46;-4;-20.53;-5.21;593.0;13.30;75851;2836.811;-1759.672;1;145;-130;-133.9;44.1;44.5;13;12.6;25.8;0.0;
27/02/2025 14:43:24;100;0;149.89;-4;-20.53;-5.23;596.0;13.30;75836;2836.809;-1759.670;1;145;-130;-135.5;44.1;44.5;13;12.6;25.8;0.0;
27/02/2025 14:43:44;100;0;148.61;-4;-20.47;-5.21;598.8;13.30;75834;2836.808;-1759.668;1;145;-130;-133.9;44.1;44.5;13;12.6;25.8;0.0;
27/02/2025 14:44:04;100;0;147.69;-4;-20.38;-5.19;601.7;13.30;75834;2836.806;-1759.666;1;145;-130;-133.9;44.1;44.5;13;12.6;25.8;0.0;
27/02/2025 14:44:24;100;0;146.53;-4;-20.40;-5.18;604.7;13.30;75838;2836.804;-1759.664;1;145;-130;-133.9;44.1;44.5;13;12.6;25.8;0.0;
27/02/2025 14:44:44;100;0;146.21;-4;-20.51;-5.25;607.5;13.20;75829;2836.803;-1759.662;1;145;-130;-133.9;44.1;44.5;11;10.8;25.8;0.0;
27/02/2025 14:45:04;100;0;147.71;-4;-20.01;-6.19;610.4;13.20;75814;2836.801;-1759.660;1;145;-130;-133.9;44.1;44.5;13;13.1;25.8;0.0;
27/02/2025 14:45:24;100;0;147.07;-4;-20.46;-4.91;613.2;13.20;75816;2836.800;-1759.658;1;145;-130;-133.9;44.1;44.5;13;13.5;25.8;0.0;
27/02/2025 14:45:44;100;0;148.52;-4;-20.39;-4.78;616.1;13.10;75804;2836.798;-1759.657;1;145;-130;-133.9;44.1;44.5;13;13.5;25.8;0.0;
27/02/2025 14:46:04;100;0;150.82;-4;-20.61;-4.76;619.1;13.10;75792;2836.797;-1759.655;1;145;-130;-135.5;44.1;44.5;13;13.5;25.8;0.0;
27/02/2025 14:46:24;100;0;151.81;-4;-20.37;-4.82;621.8;13.10;75792;2836.795;-1759.653;1;145;-130;-133.9;44.1;44.5;13;13.5;25.8;0.0;
27/02/2025 14:46:44;100;0;155.99;-4;-20.22;-4.82;624.7;13.10;75783;2836.793;-1759.652;1;145;-130;-133.9;44.1;44.5;13;13.5;25.8;0.0;
27/02/2025 14:47:04;100;0;157.28;-4;-20.16;-4.80;627.5;13.00;75757;2836.792;-1759.651;1;145;-130;-133.9;44.1;44.5;13;13.5;25.8;0.0;
27/02/2025 14:47:24;100;0;158.01;-4;-20.15;-4.75;630.3;13.00;75760;2836.790;-1759.650;1;145;-130;-133.9;44.1;44.5;13;13.1;25.8;0.0;
27/02/2025 14:47:44;100;0;160.01;-4;-20.16;-4.82;633.0;13.00;75757;2836.788;-1759.649;1;145;-130;-133.9;44.1;44.5;13;13.5;25.8;0.0;
27/02/2025 14:48:04;100;0;163.45;-4;-19.99;-4.83;635.6;13.00;75747;2836.786;-1759.648;1;145;-130;-133.9;44.1;44.5;16;15.8;25.8;0.0;
27/02/2025 14:48:24;100;0;164.61;-4;-20.09;-3.50;638.2;12.90;75738;2836.785;-1759.647;1;145;-130;-133.9;44.1;44.5;16;16.2;25.8;0.0;
27/02/2025 14:48:44;100;0;163.73;-4;-20.38;-3.52;640.9;12.90;75732;2836.783;-1759.646;1;145;-130;-135.5;44.1;44.5;16;15.8;25.8;0.0;
27/02/2025 14:49:04;100;0;162.85;-4;-20.21;-3.44;643.6;12.90;75732;2836.781;-1759.646;1;145;-130;-135.5;44.1;44.5;16;15.8;25.8;0.0;
27/02/2025 14:49:24;100;0;160.91;-4;-20.27;-3.48;646.1;12.90;75725;2836.780;-1759.645;1;145;-130;-133.9;44.1;44.5;16;16.2;25.8;0.0;
27/02/2025 14:49:44;100;0;158.48;-4;-20.05;-3.54;648.8;12.80;75716;2836.778;-1759.644;1;145;-130;-133.9;44.1;44.5;14;14.0;25.8;0.0;
27/02/2025 14:50:04;100;0;156.96;-4;-20.00;-4.78;651.3;12.80;75716;2836.777;-1759.643;1;145;-130;-135.5;44.1;44.5;14;13.5;25.8;0.0;
27/02/2025 14:50:24;100;0;154.90;-4;-20.11;-4.76;653.9;12.80;75721;2836.775;-1759.641;1;145;-130;-137.1;44.1;44.5;14;13.5;25.8;0.0;
27/02/2025 14:50:44;100;0;155.12;-4;-20.05;-4.66;656.4;12.80;75702;2836.774;-1759.640;1;145;-130;-133.9;44.1;44.5;14;13.5;25.8;0.0;
27/02/2025 14:51:04;100;0;154.45;-4;-19.88;-4.65;658.9;12.70;75695;2836.773;-1759.639;1;145;-130;-133.9;44.1;44.5;14;13.5;25.8;0.0;
27/02/2025 14:51:24;100;0;153.99;-4;-20.24;-4.76;661.4;12.70;75697;2836.771;-1759.638;1;145;-130;-133.9;44.1;44.5;14;13.5;25.8;0.0;
27/02/2025 14:51:44;100;0;155.02;-4;-19.99;-4.85;663.9;12.70;75691;2836.770;-1759.636;1;145;-130;-133.9;44.1;44.5;14;13.5;25.8;0.0;
27/02/2025 14:52:04;100;0;155.60;-4;-20.10;-4.80;666.3;12.70;75690;2836.769;-1759.635;1;145;-130;-133.9;44.1;44.6;14;13.5;25.8;0.0;
27/02/2025 14:52:24;100;0;154.01;-4;-20.30;-4.76;668.7;12.60;75684;2836.767;-1759.634;1;145;-130;-133.9;44.1;44.5;14;13.5;25.8;0.0;
27/02/2025 14:52:44;100;0;151.68;-4;-19.96;-4.73;671.2;12.60;75681;2836.766;-1759.633;1;145;-130;-133.9;44.1;44.5;14;13.5;25.8;0.0;
27/02/2025 14:53:04;100;0;152.19;-4;-19.99;-4.86;673.5;12.60;75680;2836.765;-1759.631;1;145;-130;-137.1;44.1;44.5;14;13.5;25.8;0.0;
27/02/2025 14:53:24;100;0;152.55;-4;-20.31;-4.44;676.0;12.60;75682;2836.764;-1759.630;1;145;-130;-133.9;44.1;44.5;14;13.5;25.8;0.0;
27/02/2025 14:53:44;100;0;151.53;-4;-20.27;-4.80;678.3;12.60;75666;2836.763;-1759.629;1;145;-130;-133.9;44.1;44.5;14;13.5;25.8;0.0;
27/02/2025 14:54:04;100;0;150.73;-4;-20.08;-4.78;680.9;12.50;75674;2836.761;-1759.627;1;145;-130;-133.9;44.1;44.5;14;13.5;25.8;0.0;
27/02/2025 14:54:24;100;0;150.24;-4;-20.09;-4.74;683.2;12.50;75667;2836.761;-1759.626;1;145;-130;-133.9;44.1;44.5;14;13.5;25.8;0.0;
27/02/2025 14:54:44;100;0;149.71;-4;-20.06;-4.83;685.6;12.50;75672;2836.759;-1759.625;1;145;-130;-133.9;44.1;44.5;14;13.5;25.8;0.0;
27/02/2025 14:55:04;100;0;149.09;-4;-20.09;-4.83;688.0;12.50;75657;2836.758;-1759.623;1;145;-130;-133.9;44.1;44.5;12;12.2;25.8;0.0;
27/02/2025 14:55:24;100;0;148.97;-4;-20.03;-5.51;690.3;12.40;75657;2836.757;-1759.622;1;145;-130;-133.9;44.1;44.5;12;12.2;25.8;0.0;
27/02/2025 14:55:44;100;0;149.90;-4;-20.34;-5.46;692.9;12.40;75656;2836.756;-1759.620;1;145;-130;-133.9;44.1;44.5;12;12.2;25.8;0.0;
27/02/2025 14:56:04;100;0;151.05;-4;-20.14;-5.40;695.4;12.40;75650;2836.755;-1759.619;1;145;-130;-133.9;44.1;44.5;12;12.2;25.8;0.0;
27/02/2025 14:56:24;100;0;153.26;-4;-19.71;-5.47;698.0;12.40;75629;2836.753;-1759.617;1;145;-130;-133.9;44.1;44.5;14;14.0;25.8;0.0;
27/02/2025 14:56:44;100;0;154.59;-4;-19.86;-4.39;700.3;12.40;75640;2836.752;-1759.616;1;145;-130;-133.9;44.1;44.5;14;14.4;25.8;0.0;
27/02/2025 14:57:04;100;0;157.42;-4;-20.29;-4.30;702.7;12.30;75630;2836.751;-1759.615;1;145;-130;-133.9;44.1;44.5;14;14.4;25.8;0.0;
27/02/2025 14:57:24;100;0;158.23;-4;-20.48;-4.28;705.1;12.30;75631;2836.750;-1759.614;1;145;-130;-133.9;44.1;44.5;14;14.4;25.8;0.0;
27/02/2025 14:57:44;100;0;159.67;-4;-20.13;-4.30;707.5;12.30;75623;2836.748;-1759.614;1;145;-130;-133.9;44.1;44.5;14;14.4;25.8;0.0;
27/02/2025 14:58:04;100;0;161.02;-4;-20.44;-4.29;709.9;12.30;75611;2836.747;-1759.613;1;145;-130;-133.9;44.1;44.5;14;14.4;25.8;0.0;
27/02/2025 14:58:24;100;0;162.19;-4;-20.16;-4.23;712.5;12.30;75612;2836.745;-1759.612;1;145;-130;-133.9;44.1;44.6;14;14.4;25.8;0.0;
27/02/2025 14:58:44;100;0;163.77;-4;-20.34;-4.34;714.9;12.20;75595;2836.744;-1759.611;1;145;-130;-137.1;44.1;44.5;14;14.4;25.8;0.0;
27/02/2025 14:59:04;100;0;165.76;-4;-20.33;-4.30;717.2;12.20;75599;2836.743;-1759.611;1;145;-130;-132.3;44.1;44.5;16;15.8;25.8;0.0;
27/02/2025 14:59:24;100;0;166.15;-4;-20.20;-3.36;719.8;12.20;75583;2836.741;-1759.610;1;145;-130;-132.3;44.1;44.5;16;16.2;25.8;0.0;
27/02/2025 14:59:44;100;0;166.36;-4;-20.68;-3.42;722.4;12.20;75595;2836.739;-1759.610;1;145;-130;-133.9;44.1;44.5;16;16.2;25.8;0.0;
27/02/2025 15:00:04;100;0;164.39;-4;-20.32;-3.48;724.8;12.10;75582;2836.738;-1759.609;1;145;-130;-133.9;44.1;44.5;16;16.2;25.8;0.0;
27/02/2025 15:00:24;100;0;161.72;-4;-20.45;-3.43;727.3;12.10;75569;2836.736;-1759.608;1;145;-130;-135.5;44.1;44.5;16;16.2;25.8;0.0;
27/02/2025 15:00:44;100;0;162.07;-4;-20.05;-3.42;729.8;12.10;75564;2836.735;-1759.608;1;145;-130;-133.9;44.1;44.5;16;16.2;25.8;0.0;
27/02/2025 15:01:04;100;0;161.42;-4;-20.08;-3.46;732.1;12.10;75555;2836.734;-1759.607;1;145;-130;-133.9;44.1;44.3;16;16.2;25.8;0.0;
27/02/2025 15:01:24;100;0;161.22;-4;-19.84;-3.59;734.6;12.00;75540;2836.732;-1759.606;1;145;-130;-133.9;44.1;44.5;16;16.2;25.8;0.0;
27/02/2025 15:01:44;100;0;162.10;-4;-19.74;-3.48;737.0;12.00;75543;2836.731;-1759.605;1;145;-130;-135.5;44.1;44.5;16;16.2;25.8;0.0;
27/02/2025 15:02:04;100;0;159.96;-4;-19.50;-3.51;739.3;12.00;75530;2836.729;-1759.604;1;145;-130;-133.9;44.1;44.5;14;14.0;25.8;0.0;
27/02/2025 15:02:24;100;0;160.14;-4;-19.99;-4.70;741.7;12.00;75520;2836.728;-1759.604;1;145;-130;-133.9;44.1;44.5;14;14.0;25.8;0.0;
27/02/2025 15:02:44;100;0;160.84;-4;-19.48;-4.68;744.0;12.00;75531;2836.727;-1759.603;1;145;-130;-133.9;44.1;44.5;14;14.0;25.8;0.0;
27/02/2025 15:03:04;100;0;160.32;-4;-19.99;-4.80;746.3;11.90;75515;2836.726;-1759.602;1;145;-130;-133.9;44.1;44.5;14;14.0;25.8;0.0;
27/02/2025 15:03:24;100;0;159.86;-4;-19.86;-4.77;748.9;11.90;75508;2836.724;-1759.601;1;145;-130;-133.9;44.1;44.5;14;13.5;25.8;0.0;
27/02/2025 15:03:44;100;0;160.46;-4;-19.98;-4.75;751.4;11.90;75509;2836.723;-1759.600;1;145;-130;-133.9;44.1;44.5;14;13.5;25.8;0.0;
27/02/2025 15:04:04;100;0;160.15;-4;-19.62;-4.83;753.7;11.80;75495;2836.721;-1759.599;1;145;-130;-135.5;44.1;44.5;14;13.5;25.8;0.0;
27/02/2025 15:04:24;100;0;160.31;-4;-19.62;-4.90;756.0;11.80;75503;2836.720;-1759.599;1;145;-130;-133.9;44.1;44.5;14;14.0;25.8;0.0;
27/02/2025 15:04:44;100;0;161.28;-4;-19.93;-4.69;758.5;11.80;75485;2836.719;-1759.598;1;145;-130;-133.9;44.1;44.5;14;13.5;25.8;0.0;
27/02/2025 15:05:04;100;0;160.97;-4;-19.74;-4.79;761.0;11.80;75486;2836.717;-1759.597;1;145;-130;-133.9;44.1;44.5;14;14.0;25.8;0.0;
27/02/2025 15:05:24;100;0;161.06;-4;-19.77;-4.76;763.4;11.80;75485;2836.716;-1759.596;1;145;-130;-133.9;44.1;44.5;14;14.0;25.8;0.0;
27/02/2025 15:05:44;100;0;161.27;-4;-19.85;-4.74;765.8;11.70;75486;2836.714;-1759.595;1;145;-130;-133.9;44.1;44.5;14;13.5;25.8;0.0;
27/02/2025 15:06:04;100;0;159.90;-4;-19.79;-4.80;768.2;11.70;75484;2836.713;-1759.594;1;145;-130;-133.9;44.1;44.5;14;13.5;25.8;0.0;
27/02/2025 15:06:24;100;0;159.18;-4;-19.53;-4.65;770.6;11.70;75472;2836.712;-1759.594;1;145;-130;-133.9;44.1;44.3;14;14.0;25.8;0.0;
27/02/2025 15:06:44;100;0;160.63;-4;-19.99;-4.73;773.0;11.70;75472;2836.710;-1759.593;1;145;-130;-133.9;44.1;44.5;14;14.0;25.8;0.0;
27/02/2025 15:07:04;100;0;159.98;-4;-20.04;-4.69;775.5;11.70;75469;2836.709;-1759.592;1;145;-130;-133.9;44.1;44.5;14;14.0;25.8;0.0;
27/02/2025 15:07:24;100;0;159.96;-4;-19.93;-4.75;778.0;11.60;75462;2836.708;-1759.591;1;145;-130;-133.9;44.1;44.3;14;14.0;25.8;0.0;
27/02/2025 15:07:45;100;0;157.19;-4;-20.23;-4.75;780.5;11.60;75471;2836.706;-1759.590;1;145;-130;-135.5;44.1;44.5;14;13.5;25.8;0.0;
27/02/2025 15:08:05;100;0;156.08;-4;-19.85;-4.73;783.1;11.60;75467;2836.705;-1759.589;1;145;-130;-133.9;44.1;44.5;14;13.5;25.8;0.0;
27/02/2025 15:08:25;100;0;159.06;-4;-19.49;-4.76;785.5;11.60;75462;2836.703;-1759.588;1;145;-130;-133.9;44.1;44.5;14;14.0;25.8;0.0;
27/02/2025 15:08:45;100;0;159.44;-4;-19.69;-4.75;788.0;11.60;75463;2836.702;-1759.587;1;145;-130;-133.9;44.1;44.5;14;13.5;25.8;0.0;
27/02/2025 15:09:05;100;0;159.72;-4;-19.77;-4.78;790.6;11.50;75450;2836.700;-1759.586;1;145;-130;-133.9;44.1;44.5;14;13.5;25.8;0.0;
27/02/2025 15:09:25;100;0;159.05;-4;-19.68;-4.79;793.2;11.50;75451;2836.699;-1759.585;1;145;-130;-133.9;44.1;44.5;14;13.5;25.8;0.0;
27/02/2025 15:09:45;100;0;160.78;-4;-19.74;-4.77;795.9;11.50;75444;2836.697;-1759.584;1;145;-130;-133.9;44.1;44.5;14;14.0;25.8;0.0;
27/02/2025 15:10:05;100;0;162.21;-4;-19.65;-4.69;798.5;11.50;75439;2836.695;-1759.583;1;145;-130;-133.9;44.1;44.5;14;13.5;25.8;0.0;
27/02/2025 15:10:25;100;0;161.75;-4;-19.64;-4.73;801.2;11.50;75429;2836.693;-1759.582;1;145;-130;-133.9;44.1;44.5;14;13.5;25.8;0.0;
27/02/2025 15:10:45;100;0;164.06;-4;-20.15;-4.66;803.9;11.40;75433;2836.692;-1759.581;1;145;-130;-133.9;44.1;44.5;16;15.8;25.8;0.0;
27/02/2025 15:11:05;100;0;166.46;-4;-19.29;-3.43;806.6;11.40;75429;2836.690;-1759.581;1;145;-130;-133.9;44.1;44.5;18;18.1;25.8;0.0;
27/02/2025 15:11:25;100;0;170.49;-4;-20.71;-2.88;809.2;11.40;75416;2836.688;-1759.580;1;145;-130;-133.9;44.1;44.5;22;22.6;25.8;0.0;
27/02/2025 15:11:45;100;0;172.99;-4;-21.07;-0.27;811.9;11.40;75414;2836.686;-1759.580;1;145;-130;-133.9;44.1;44.5;27;27.1;25.8;0.0;
27/02/2025 15:12:05;100;0;164.86;-4;-19.51;1.97;814.6;11.40;75406;2836.685;-1759.580;1;145;-130;-133.9;44.1;44.5;17;16.7;25.8;0.0;
27/02/2025 15:12:25;100;0;166.29;-4;-20.65;-2.97;817.1;11.30;75407;2836.683;-1759.579;1;145;-130;-133.9;44.1;44.5;17;17.1;25.8;0.0;
27/02/2025 15:12:45;100;0;165.86;-4;-19.02;-3.45;820.0;11.30;75408;2836.681;-1759.578;1;145;-130;-133.9;44.1;44.5;19;19.0;25.8;0.0;
27/02/2025 15:13:05;100;0;166.44;-4;-20.49;-2.59;822.7;11.30;75401;2836.679;-1759.578;1;145;-130;-132.3;44.1;44.5;19;19.0;25.8;0.0;
27/02/2025 15:13:25;100;0;163.17;-4;-19.50;-2.13;825.5;11.30;75400;2836.677;-1759.577;1;145;-130;-135.5;44.1;44.5;17;17.1;25.8;0.0;
27/02/2025 15:13:45;100;0;162.27;-4;-20.15;-2.88;828.4;11.30;75411;2836.675;-1759.576;1;145;-130;-133.9;44.1;44.5;17;16.7;25.8;0.0;
27/02/2025 15:14:05;100;0;167.65;-4;-19.53;-3.20;831.4;11.20;75397;2836.673;-1759.575;1;145;-130;-133.9;44.1;44.5;21;21.2;25.8;0.0;
27/02/2025 15:14:25;100;0;169.08;-4;-19.88;-0.41;833.8;11.20;75395;2836.672;-1759.575;1;145;-130;-133.9;44.1;44.5;21;21.2;25.8;0.0;
27/02/2025 15:14:45;100;0;170.91;-4;-21.61;-0.52;836.2;11.20;75390;2836.671;-1759.575;1;145;-130;-133.9;44.1;44.6;21;21.2;25.8;0.0;
27/02/2025 15:15:05;100;0;162.06;-4;-18.74;-0.71;838.9;11.20;75388;2836.669;-1759.574;1;145;-130;-133.9;44.5;44.5;17;17.1;25.8;0.0;
27/02/2025 15:15:25;100;0;160.11;-4;-19.05;-3.69;841.3;11.10;75379;2836.667;-1759.573;1;145;-130;-133.9;44.5;44.5;15;14.4;25.8;0.0;
27/02/2025 15:15:45;100;0;155.45;-4;-20.42;-3.51;843.4;11.10;75375;2836.666;-1759.572;1;145;-130;-133.9;44.5;44.5;15;16.2;25.8;0.0;
27/02/2025 15:16:05;100;0;158.52;-4;-22.08;-3.00;846.2;11.10;75385;2836.665;-1759.571;1;145;-130;-135.5;43.9;43.9;15;16.2;25.8;0.0;
27/02/2025 15:16:25;100;0;169.68;-4;-19.54;-3.69;848.6;11.10;75371;2836.663;-1759.571;1;145;-130;-133.9;43.9;43.7;21;21.2;25.8;0.0;
27/02/2025 15:16:45;100;0;164.01;-4;-16.77;-1.07;850.9;11.10;75371;2836.662;-1759.570;1;145;-130;-133.9;44.9;45.2;17;17.1;25.8;0.0;
27/02/2025 15:17:05;100;0;172.81;-4;-21.88;-3.49;853.6;11.10;75375;2836.660;-1759.570;1;145;-130;-133.9;44.9;45.4;27;27.1;25.8;0.0;
27/02/2025 15:17:25;100;0;169.17;-4;-22.63;2.24;856.4;11.10;75364;2836.658;-1759.570;1;145;-130;-133.9;44.1;44.0;21;21.2;25.8;0.0;
27/02/2025 15:17:45;100;0;165.50;-4;-19.83;-0.83;859.1;11.00;75366;2836.656;-1759.569;1;145;-130;-133.9;44.1;43.9;18;18.1;25.8;0.0;
27/02/2025 15:18:05;100;0;164.47;-4;-19.27;-2.83;861.9;11.00;75363;2836.655;-1759.568;1;145;-130;-132.3;44.1;44.0;18;17.6;25.8;0.0;
27/02/2025 15:18:25;100;0;164.13;-4;-18.42;-2.83;864.1;11.00;75354;2836.653;-1759.568;1;145;-130;-133.9;44.6;44.5;18;17.6;25.8;0.0;
27/02/2025 15:18:45;100;0;166.68;-4;-20.04;-2.58;866.7;11.00;75349;2836.651;-1759.567;1;145;-130;-133.9;44.6;44.8;18;17.6;25.8;0.0;
27/02/2025 15:19:05;100;0;163.65;-4;-18.31;-2.76;869.1;11.00;75344;2836.650;-1759.566;1;145;-130;-133.9;45.1;45.1;18;17.6;25.8;0.0;
27/02/2025 15:19:25;100;0;168.03;-4;-22.16;-2.79;871.4;10.90;75345;2836.649;-1759.566;1;145;-130;-133.9;44.4;44.5;18;17.6;25.8;0.0;
27/02/2025 15:19:45;100;0;160.16;-4;-22.55;-3.32;873.9;10.90;75351;2836.648;-1759.565;1;145;-130;-135.5;43.6;43.6;16;16.2;25.8;0.0;
27/02/2025 15:20:05;100;0;157.12;-4;-18.56;-3.36;877.0;10.90;75342;2836.645;-1759.564;1;145;-130;-133.9;44.1;44.0;16;16.2;25.8;0.0;
27/02/2025 15:20:25;100;0;154.68;-4;-19.20;-3.26;879.8;10.90;75339;2836.644;-1759.563;1;145;-130;-133.9;44.1;44.3;16;16.2;25.8;0.0;
27/02/2025 15:20:45;100;0;160.42;-4;-18.70;-3.45;882.2;10.90;75327;2836.642;-1759.562;1;145;-130;-133.9;44.5;44.5;16;16.2;25.8;0.0;
27/02/2025 15:21:05;100;0;158.06;-4;-18.83;-4.07;884.5;10.90;75324;2836.641;-1759.561;1;145;-130;-133.9;44.8;44.8;16;16.2;25.8;0.0;
27/02/2025 15:21:25;100;0;159.51;-4;-18.95;-3.77;886.7;10.90;75325;2836.640;-1759.560;1;145;-130;-135.5;45.1;45.1;16;16.2;25.8;0.0;
27/02/2025 15:21:45;100;0;161.76;-4;-21.77;-3.85;889.0;10.80;75321;2836.639;-1759.559;1;145;-130;-133.9;45.1;45.4;16;16.2;25.8;0.0;
27/02/2025 15:22:05;100;0;161.73;-4;-21.21;-3.60;891.7;10.80;75314;2836.637;-1759.558;1;145;-130;-133.9;45.1;45.4;16;16.2;25.8;0.0;
27/02/2025 15:22:25;100;0;161.95;-4;-21.02;-3.67;894.6;10.80;75311;2836.635;-1759.557;1;145;-130;-133.9;45.1;45.4;16;16.2;25.8;0.0;
27/02/2025 15:22:45;100;0;160.54;-4;-22.62;-3.41;897.2;10.80;75314;2836.634;-1759.557;1;145;-130;-132.3;44.3;44.3;16;16.2;25.8;0.0;
27/02/2025 15:23:05;100;0;158.83;-4;-18.17;-3.82;900.3;10.80;75309;2836.631;-1759.555;1;145;-130;-133.9;44.9;44.9;16;16.2;25.8;0.0;
27/02/2025 15:23:25;100;0;151.42;-4;-22.39;-3.47;902.5;10.70;75300;2836.631;-1759.554;1;145;-130;-133.9;44.2;44.0;14;14.0;25.8;0.0;
27/02/2025 15:23:45;100;0;151.14;-4;-19.37;-4.87;905.2;10.70;75301;2836.629;-1759.553;1;145;-130;-132.3;44.2;43.7;14;14.0;25.8;0.0;
27/02/2025 15:24:05;100;0;154.19;-4;-19.34;-4.93;907.7;10.70;75296;2836.628;-1759.551;1;145;-130;-133.9;44.2;43.7;16;15.8;25.8;0.0;
27/02/2025 15:24:25;100;0;153.20;-4;-20.53;-3.71;910.4;10.70;75294;2836.626;-1759.550;1;145;-130;-133.9;44.2;43.7;16;15.8;25.8;0.0;
27/02/2025 15:24:45;100;0;150.09;-4;-16.17;-3.79;913.0;10.70;75297;2836.624;-1759.548;1;145;-130;-133.9;45.3;45.4;16;16.2;25.8;0.0;
27/02/2025 15:25:05;100;0;153.15;-4;-22.65;-3.70;915.1;10.70;75289;2836.624;-1759.547;1;145;-130;-132.3;44.5;44.5;16;16.2;25.8;0.0;
27/02/2025 15:25:25;100;0;152.59;-4;-20.27;-3.47;918.0;10.60;75289;2836.622;-1759.546;1;145;-130;-137.1;44.5;44.2;16;16.2;25.8;0.0;
27/02/2025 15:25:45;100;0;150.05;-4;-19.84;-3.64;920.5;10.60;75289;2836.621;-1759.544;1;145;-130;-133.9;44.5;44.2;16;16.2;25.8;0.0;
27/02/2025 15:26:05;100;0;150.12;-4;-18.99;-3.58;923.0;10.60;75279;2836.620;-1759.543;1;145;-130;-133.9;44.8;44.8;14;14.0;25.8;0.0;
27/02/2025 15:26:25;100;0;147.35;-4;-21.56;-4.78;925.7;10.60;75282;2836.618;-1759.541;1;145;-130;-133.9;44.8;45.1;14;13.5;25.8;0.0;
27/02/2025 15:26:45;100;0;146.49;-4;-19.54;-5.06;928.6;10.60;75270;2836.617;-1759.539;1;145;-130;-133.9;44.8;45.1;14;13.5;25.8;0.0;
27/02/2025 15:27:05;100;0;148.85;-4;-19.81;-4.63;931.5;10.60;75271;2836.615;-1759.537;1;145;-130;-133.9;44.8;45.1;14;13.5;25.8;0.0;
27/02/2025 15:27:25;100;0;147.65;-4;-20.16;-4.12;933.9;10.50;75260;2836.614;-1759.536;1;145;-130;-133.9;44.8;45.1;14;13.5;25.8;0.0;
27/02/2025 15:27:45;100;0;144.95;-4;-19.31;-4.86;936.3;10.50;75264;2836.613;-1759.534;1;145;-130;-137.1;44.8;45.1;10;9.9;25.8;0.0;
27/02/2025 15:28:05;100;0;148.59;-4;-21.12;-6.91;938.7;10.50;75266;2836.612;-1759.532;1;145;-130;-133.9;44.8;44.9;13;13.1;25.8;0.0;
27/02/2025 15:28:25;100;0;149.63;-4;-20.17;-5.01;941.2;10.50;75262;2836.611;-1759.531;1;145;-130;-133.9;44.8;45.1;13;13.5;25.8;0.0;
27/02/2025 15:28:45;100;0;149.50;-4;-19.99;-4.71;943.5;10.50;75256;2836.610;-1759.530;1;145;-130;-133.9;44.8;45.1;13;13.5;25.8;0.0;
27/02/2025 15:29:05;100;0;149.66;-4;-21.53;-4.99;945.9;10.50;75258;2836.609;-1759.528;1;145;-130;-133.9;44.8;45.1;13;13.5;25.8;0.0;
27/02/2025 15:29:25;100;0;150.46;-4;-21.13;-4.79;948.5;10.50;75249;2836.608;-1759.527;1;145;-130;-133.9;44.8;45.1;15;14.9;25.8;0.0;
27/02/2025 15:29:45;100;0;149.86;-4;-19.45;-3.74;951.0;10.40;75263;2836.606;-1759.525;1;145;-130;-133.9;44.8;45.1;15;15.3;25.8;0.0;
27/02/2025 15:30:05;100;0;150.27;-4;-19.54;-4.10;953.4;10.40;75256;2836.605;-1759.524;1;145;-130;-135.5;44.8;45.1;15;15.3;25.8;0.0;
27/02/2025 15:30:25;100;0;150.02;-4;-20.28;-4.12;955.6;10.40;75247;2836.604;-1759.523;1;145;-130;-133.9;44.8;45.1;13;13.1;25.8;0.0;
27/02/2025 15:30:45;100;0;150.97;-4;-20.18;-5.43;957.9;10.40;75239;2836.603;-1759.521;1;145;-130;-132.3;44.8;45.1;13;13.1;25.8;0.0;
27/02/2025 15:31:05;100;0;148.54;-4;-20.80;-5.46;960.4;10.40;75245;2836.602;-1759.520;1;145;-130;-133.9;44.8;45.1;13;13.1;25.8;0.0;
27/02/2025 15:31:25;100;0;151.54;-4;-19.78;-5.09;962.9;10.40;75248;2836.601;-1759.518;1;145;-130;-133.9;44.8;45.1;15;15.3;25.8;0.0;
27/02/2025 15:31:45;100;0;153.42;-4;-20.75;-3.82;965.5;10.30;75230;2836.600;-1759.517;1;145;-130;-133.9;44.8;45.1;15;15.8;25.8;0.0;
27/02/2025 15:32:05;100;0;156.79;-4;-21.20;-3.63;968.0;10.30;75233;2836.598;-1759.516;1;145;-130;-133.9;44.8;45.1;15;15.8;25.8;0.0;
27/02/2025 15:32:25;100;0;162.76;-4;-20.00;-3.58;970.8;10.30;75230;2836.597;-1759.515;1;145;-130;-133.9;44.8;45.1;17;17.1;25.8;0.0;
27/02/2025 15:32:45;100;0;158.57;-4;-23.48;-3.21;973.2;10.30;75240;2836.596;-1759.514;1;145;-130;-133.9;43.8;43.7;15;14.4;25.8;0.0;
27/02/2025 15:33:05;100;0;155.15;-4;-19.30;-4.44;976.2;10.30;75230;2836.594;-1759.513;1;145;-130;-133.9;43.8;43.6;15;14.4;25.8;0.0;
27/02/2025 15:33:25;100;0;152.95;-4;-16.63;-4.47;978.8;10.30;75228;2836.592;-1759.511;1;145;-130;-133.9;44.8;44.8;15;14.4;25.8;0.0;
27/02/2025 15:33:45;100;0;151.61;-4;-19.95;-4.40;981.3;10.20;75227;2836.590;-1759.510;1;145;-130;-133.9;44.8;45.1;15;14.4;25.8;0.0;
27/02/2025 15:34:05;100;0;149.41;-4;-20.22;-4.64;983.7;10.30;75229;2836.589;-1759.508;1;145;-130;-133.9;44.8;45.1;15;14.4;25.8;0.0;
27/02/2025 15:34:25;100;0;150.63;-4;-21.10;-4.64;986.2;10.20;75215;2836.588;-1759.507;1;145;-130;-135.5;44.8;45.1;15;14.4;25.8;0.0;
27/02/2025 15:34:45;100;0;151.34;-4;-20.84;-4.38;989.0;10.20;75231;2836.587;-1759.505;1;145;-130;-133.9;44.8;45.1;15;14.4;25.8;0.0;
27/02/2025 15:35:05;100;0;155.42;-4;-19.44;-4.36;991.4;10.20;75216;2836.585;-1759.504;1;145;-130;-133.9;44.8;45.1;15;14.4;25.8;0.0;
27/02/2025 15:35:25;100;0;160.22;-4;-20.34;-4.03;993.4;10.20;75214;2836.585;-1759.504;1;145;-130;-133.9;44.8;45.1;15;14.4;25.8;0.0;
27/02/2025 15:35:45;100;0;152.20;-4;-15.79;-4.64;995.1;10.20;75224;2836.584;-1759.503;1;145;-150;-151.6;46.1;46.1;13;13.1;25.8;0.0;
27/02/2025 15:36:05;100;0;154.60;-4;-22.01;-5.44;996.1;10.20;75258;2836.584;-1759.502;1;145;-170;-171.0;45.5;45.4;-11;-10.8;25.8;0.0;
27/02/2025 15:36:25;100;0;160.90;-4;-20.13;-16.88;997.8;10.20;75303;2836.584;-1759.502;1;145;-190;-191.9;45.5;45.4;15;14.9;25.8;0.0;
27/02/2025 15:36:36;118;0;163.83;-4;-21.61;-4.22;998.8;10.10;75340;2836.584;-1759.502;1;145;450;-193.5;21.6;21.6;7;6.8;25.8;0.0;
27/02/2025 15:36:46;118;0;126.39;-4;-10.27;-8.23;999.8;10.20;75337;2836.583;-1759.500;1;145;450;-67.7;21.6;21.4;7;6.8;24.3;-1.0;
27/02/2025 15:36:56;118;0;107.06;-4;16.76;-8.75;999.8;10.10;75041;2836.584;-1759.501;1;145;450;58.1;21.6;21.1;7;6.8;24.1;-1.0;
27/02/2025 15:37:06;118;0;97.39;-4;30.57;-9.37;999.0;10.10;74802;2836.585;-1759.500;1;145;450;182.3;21.6;21.6;7;6.8;24.2;-1.0;
27/02/2025 15:37:16;118;0;98.46;-4;30.60;-9.45;997.5;10.10;74544;2836.585;-1759.499;1;145;450;304.8;21.6;21.8;7;6.8;24.1;-1.0;
27/02/2025 15:37:26;118;0;99.65;-4;29.89;-9.26;995.8;10.20;74314;2836.586;-1759.497;1;145;450;419.4;21.6;21.8;7;7.2;24.1;-1.0;
27/02/2025 15:37:36;118;0;102.07;-4;25.45;-7.86;993.9;10.20;74072;2836.586;-1759.495;1;145;450;451.6;21.6;21.8;7;7.2;24.3;-1.0;
27/02/2025 15:37:46;118;0;164.82;-4;23.13;-8.20;991.8;10.20;74019;2836.585;-1759.495;1;145;450;451.6;21.6;21.8;7;7.2;25.7;-1.0;
27/02/2025 15:38:06;117;0;154.18;-4;20.38;-7.53;987.3;10.30;74020;2836.581;-1759.492;1;145;450;451.6;21.6;21.8;7;6.8;25.7;-1.0;
27/02/2025 15:38:26;117;0;144.86;-4;19.92;-7.82;983.1;10.30;74004;2836.578;-1759.489;1;145;450;450.0;21.6;21.9;31;31.1;25.8;-1.0;
27/02/2025 15:38:46;117;0;151.09;-4;20.79;4.90;978.9;10.30;74005;2836.575;-1759.486;1;145;450;448.4;21.6;21.8;29;28.9;25.8;-1.0;
27/02/2025 15:39:06;117;0;151.25;-4;24.24;3.39;973.6;10.40;74011;2836.572;-1759.484;1;145;450;450.0;22.9;23.0;29;28.9;25.8;-1.0;
27/02/2025 15:39:26;117;0;147.42;-4;20.95;3.53;968.1;10.40;74006;2836.568;-1759.480;1;145;450;451.6;22.9;23.1;29;28.4;25.7;-1.0;
27/02/2025 15:39:46;117;0;144.19;-4;17.72;3.81;963.2;10.40;74000;2836.564;-1759.476;1;145;450;451.6;22.2;22.2;29;28.9;25.8;-1.0;
27/02/2025 15:40:06;117;0;146.67;-4;22.13;2.78;958.8;10.40;74008;2836.561;-1759.473;1;145;450;451.6;22.8;22.8;29;28.9;25.8;-1.0;
27/02/2025 15:40:26;117;0;148.48;-4;16.48;3.35;953.9;10.40;73997;2836.556;-1759.469;1;145;450;451.6;21.8;21.8;29;28.4;25.8;-1.0;
27/02/2025 15:40:46;117;0;148.85;-4;20.34;3.41;950.2;10.40;73984;2836.554;-1759.466;1;145;450;451.6;21.8;21.6;29;28.9;25.8;-1.0;
27/02/2025 15:41:06;117;0;149.25;-4;22.96;3.80;946.1;10.40;73985;2836.551;-1759.464;1;145;450;451.6;22.7;22.8;29;28.4;25.8;-1.0;
27/02/2025 15:41:27;117;0;148.23;-4;20.11;3.51;941.9;10.30;73983;2836.548;-1759.461;1;145;450;451.6;22.7;23.0;29;28.4;25.8;-1.0;
27/02/2025 15:41:47;117;0;149.15;-4;20.03;3.42;938.0;10.30;73976;2836.545;-1759.458;1;145;450;451.6;22.7;23.0;29;28.4;25.8;-1.0;
27/02/2025 15:42:07;117;0;152.23;-4;20.31;3.28;934.1;10.30;73979;2836.543;-1759.456;1;145;450;450.0;22.7;22.8;29;28.4;25.8;-1.0;
27/02/2025 15:42:27;117;0;152.22;-4;19.48;3.09;930.5;10.30;73965;2836.540;-1759.454;1;145;450;451.6;22.7;23.0;29;28.9;25.8;-1.0;
27/02/2025 15:42:47;117;0;152.72;-4;19.93;3.46;926.9;10.30;73966;2836.537;-1759.452;1;145;450;451.6;22.7;23.0;29;28.9;25.8;-1.0;
27/02/2025 15:43:07;117;0;152.96;-4;19.73;3.40;923.4;10.30;73964;2836.535;-1759.450;1;145;450;450.0;22.7;22.8;29;28.4;25.8;-1.0;
27/02/2025 15:43:27;117;0;155.83;-4;19.75;3.04;919.8;10.20;73963;2836.532;-1759.448;1;145;450;451.6;22.7;23.0;29;28.4;25.8;-1.0;
27/02/2025 15:43:47;117;0;156.45;-4;19.81;3.31;916.3;10.20;73952;2836.530;-1759.446;1;145;450;450.0;22.7;23.0;29;28.4;25.8;-1.0;
27/02/2025 15:44:07;117;0;158.11;-4;19.95;3.40;912.8;10.20;73958;2836.527;-1759.445;1;145;450;451.6;22.7;23.0;29;28.9;25.8;-1.0;
27/02/2025 15:44:27;117;0;158.66;-4;19.85;3.32;909.3;10.20;73951;2836.524;-1759.443;1;145;450;451.6;22.7;23.0;29;28.9;25.8;-1.0;
27/02/2025 15:44:47;117;0;160.79;-4;20.38;2.88;905.7;10.20;73951;2836.522;-1759.442;1;145;450;450.0;22.7;23.0;27;27.1;25.8;-1.0;
27/02/2025 15:45:07;117;0;161.07;-4;19.92;2.49;901.9;10.20;73958;2836.519;-1759.440;1;145;450;450.0;22.7;23.0;27;26.6;25.8;-1.0;
27/02/2025 15:45:27;117;0;160.31;-4;19.42;2.34;898.2;10.20;73961;2836.516;-1759.439;1;145;450;450.0;22.7;23.0;27;26.6;25.8;-1.0;
27/02/2025 15:45:47;117;0;160.15;-4;19.41;2.33;894.8;10.20;73938;2836.513;-1759.438;1;145;450;451.6;22.7;23.0;27;26.6;25.8;-1.0;
27/02/2025 15:46:07;117;0;160.10;-4;19.55;2.53;891.1;10.20;73941;2836.510;-1759.436;1;145;450;451.6;22.7;22.8;27;26.6;25.8;-1.0;
27/02/2025 15:46:27;117;0;159.85;-4;19.30;2.31;887.8;10.10;73951;2836.507;-1759.435;1;145;450;451.6;22.7;23.0;27;26.6;25.8;-1.0;
27/02/2025 15:46:47;117;0;160.93;-4;19.75;2.20;884.4;10.10;73949;2836.505;-1759.433;1;145;450;451.6;22.7;23.0;27;26.6;25.8;-1.0;
27/02/2025 15:47:07;117;0;160.22;-4;18.82;2.55;881.0;10.10;73938;2836.502;-1759.432;1;145;450;451.6;22.3;22.2;27;26.6;25.8;-1.0;
27/02/2025 15:47:27;117;0;159.61;-4;20.61;2.18;877.9;10.10;73936;2836.500;-1759.431;1;145;450;450.0;22.3;21.6;27;26.6;25.8;-1.0;
27/02/2025 15:47:47;117;0;159.96;-4;21.18;2.30;874.4;10.10;73934;2836.498;-1759.429;1;145;450;450.0;22.3;21.6;27;26.6;25.8;-1.0;
27/02/2025 15:48:07;117;0;157.01;-4;21.46;2.27;870.8;10.10;73943;2836.495;-1759.428;1;145;450;451.6;22.3;21.6;29;28.9;25.8;-1.0;
27/02/2025 15:48:27;117;0;157.33;-4;21.60;3.68;867.1;10.10;73932;2836.492;-1759.426;1;145;450;450.0;22.3;21.6;29;29.3;25.8;-1.0;
27/02/2025 15:48:47;117;0;157.34;-4;21.74;3.65;863.2;10.10;73932;2836.490;-1759.425;1;145;450;450.0;22.3;21.6;29;29.3;25.7;-1.0;
27/02/2025 15:49:07;117;0;159.08;-4;21.70;3.58;859.4;10.10;73930;2836.487;-1759.423;1;145;450;451.6;22.3;21.6;29;29.3;25.8;-1.0;
27/02/2025 15:49:27;117;0;159.62;-4;21.50;3.65;855.6;10.00;73931;2836.484;-1759.422;1;145;450;450.0;22.3;21.6;29;28.9;25.8;-1.0;
27/02/2025 15:49:47;117;0;159.65;-4;21.59;3.77;851.8;10.00;73937;2836.482;-1759.420;1;145;450;450.0;22.3;21.6;29;28.9;25.8;-1.0;
27/02/2025 15:50:07;117;0;159.83;-4;21.41;3.67;848.1;10.00;73929;2836.479;-1759.419;1;145;450;451.6;22.3;21.6;29;29.3;25.8;-1.0;
27/02/2025 15:50:27;117;0;158.30;-4;21.51;3.62;844.4;10.00;73940;2836.476;-1759.417;1;145;450;451.6;22.3;21.6;29;29.3;25.8;-1.0;
27/02/2025 15:50:47;117;0;161.38;-4;21.63;3.65;840.7;10.00;73930;2836.474;-1759.416;1;145;450;451.6;22.3;21.6;27;27.1;25.8;-1.0;
27/02/2025 15:51:07;117;0;161.64;-4;21.74;2.26;836.8;10.00;73937;2836.471;-1759.415;1;145;450;450.0;22.3;21.6;27;26.6;25.8;-1.0;
27/02/2025 15:51:27;117;0;161.78;-4;21.59;2.28;832.9;10.00;73939;2836.468;-1759.413;1;145;450;450.0;22.3;21.6;27;26.6;25.8;-1.0;
27/02/2025 15:51:47;117;0;161.48;-4;21.62;2.29;829.1;10.00;73925;2836.465;-1759.412;1;145;450;451.6;22.3;21.6;27;26.6;25.8;-1.0;
27/02/2025 15:52:07;117;0;160.14;-4;21.71;2.45;825.2;10.00;73926;2836.463;-1759.411;1;145;450;450.0;22.3;21.8;27;26.6;25.8;-1.0;
27/02/2025 15:52:27;117;0;159.26;-4;20.80;2.31;821.4;10.00;73923;2836.460;-1759.409;1;145;450;451.6;22.3;21.6;27;26.6;25.8;-1.0;
27/02/2025 15:52:47;117;0;158.15;-4;20.23;2.10;818.0;10.00;73928;2836.457;-1759.408;1;145;450;451.6;22.3;21.6;27;26.6;25.8;-1.0;
27/02/2025 15:53:07;117;0;157.75;-4;21.35;2.32;815.0;10.00;73920;2836.455;-1759.406;1;145;450;448.4;22.3;21.6;27;26.6;25.8;-1.0;
27/02/2025 15:53:27;117;0;149.70;-4;19.83;2.98;811.9;10.00;73943;2836.453;-1759.404;1;145;450;448.4;22.3;21.6;29;28.9;25.8;-1.0;
27/02/2025 15:53:47;117;0;145.61;-4;21.03;3.96;809.1;10.00;73937;2836.452;-1759.402;1;145;450;450.0;22.3;21.6;31;31.1;25.8;-1.0;
27/02/2025 15:54:07;117;0;147.64;-4;21.82;4.62;805.7;10.00;73924;2836.450;-1759.400;1;145;450;451.6;22.3;21.6;29;28.9;25.8;-1.0;
