Timestamp;NavState;SecurityLevel;Heading;Declination;Pitch;Roll;Depth;Temperature;Pa;Lat;Lon;DeadReckoning;DesiredH;BallastCmd;BallastPos;LinCmd;LinPos;AngCmd;AngPos;Voltage;Altitude;
13/02/2025 09:00:13;119;0;57.90;-4;-56.47;-16.98;0.3;18.40;76198;2836.731;-1758.644;0;35;500;509.7;100.0;100.9;0;-0.5;28.8;-1.0;
13/02/2025 09:00:23;116;0;67.35;-4;-48.51;-10.41;0.0;18.40;76204;2836.731;-1758.645;0;35;500;509.7;100.0;100.9;0;-0.5;28.7;-1.0;
13/02/2025 09:00:48;116;0;60.14;-4;-48.28;-6.03;0.1;18.50;76212;2836.731;-1758.645;0;35;500;509.7;100.0;100.9;0;-0.5;28.7;-1.0;
13/02/2025 09:01:15;116;0;57.36;-4;-53.49;-17.09;0.3;18.50;76222;2836.732;-1758.645;0;35;500;509.7;100.0;100.9;0;-0.5;28.8;-1.0;
13/02/2025 09:01:26;116;0;60.48;-4;-50.53;-7.93;0.1;18.60;76232;2836.733;-1758.646;0;36;500;509.7;100.0;100.9;0;-0.5;28.7;-1.0;
13/02/2025 09:01:46;116;0;65.88;-4;-56.80;-13.57;0.2;18.60;76224;2836.734;-1758.645;0;36;500;511.3;100.0;100.7;0;-0.5;28.7;-1.0;
13/02/2025 09:02:43;116;0;70.06;-4;-53.71;-16.79;0.2;18.80;76249;2836.736;-1758.647;0;36;500;509.7;100.0;100.7;0;-0.5;28.7;-1.0;
13/02/2025 09:03:46;116;0;58.81;-4;-54.65;-12.98;0.2;19.00;76261;2836.738;-1758.648;0;36;500;511.3;100.0;100.9;0;-0.5;28.7;-1.0;
13/02/2025 09:04:11;116;0;48.35;-4;-54.50;-6.26;0.2;19.10;76270;2836.738;-1758.649;0;36;500;509.7;100.0;100.9;0;-0.5;28.8;-1.0;
13/02/2025 09:04:24;116;0;44.34;-4;-52.88;-10.24;0.2;19.10;76270;2836.739;-1758.649;0;36;500;509.7;100.0;100.9;0;-0.5;28.8;-1.0;
13/02/2025 09:04:44;110;0;66.33;-4;-57.15;-19.02;0.0;19.20;76283;2836.739;-1758.649;0;36;-100;429.0;100.0;100.0;-12;-12.6;28.7;-1.0;
13/02/2025 09:04:54;110;0;73.19;-4;-54.80;-18.76;0.0;19.30;76562;2836.739;-1758.649;1;36;-100;280.6;100.0;99.9;-12;-12.6;28.7;-1.0;
13/02/2025 09:05:04;110;0;72.12;-4;-55.36;-23.00;0.5;19.30;76801;2836.739;-1758.649;1;36;-100;122.6;100.0;99.9;-12;-12.6;28.7;-1.0;
13/02/2025 09:05:14;110;0;66.68;-4;-70.92;-8.68;1.0;19.40;77138;2836.740;-1758.649;1;37;-100;-38.7;100.0;99.9;-12;-12.6;28.7;-1.0;
13/02/2025 09:05:24;110;0;83.98;-4;-63.35;-19.90;1.2;19.40;77478;2836.740;-1758.649;1;37;-100;-100.0;49.2;49.2;-12;-12.6;28.7;-1.0;
13/02/2025 09:05:34;110;0;96.09;-4;-51.75;-18.96;2.5;19.40;77568;2836.740;-1758.648;1;36;-100;-100.0;49.2;49.0;-12;-12.6;28.7;-1.0;
13/02/2025 09:05:54;100;0;103.97;-4;-29.73;-17.27;6.6;19.50;77568;2836.740;-1758.644;1;36;-100;-96.8;49.2;48.9;-12;-12.6;28.8;-1.0;
13/02/2025 09:06:14;100;0;113.71;-4;-30.64;-18.14;10.9;19.60;77574;2836.739;-1758.641;1;36;-100;-96.8;49.2;48.9;70;69.9;28.7;-1.0;
13/02/2025 09:06:34;100;0;107.33;-4;-34.24;22.49;15.5;19.60;77597;2836.739;-1758.637;1;35;-100;-96.8;48.0;48.0;70;69.9;28.8;0.0;
13/02/2025 09:06:54;100;0;95.92;-4;-34.59;23.41;20.9;19.60;77592;2836.739;-1758.633;1;35;-100;-96.8;46.6;46.5;70;69.9;28.7;0.0;
13/02/2025 09:07:14;100;0;81.66;-4;-30.89;23.70;26.0;19.60;77596;2836.740;-1758.628;1;34;-100;-96.8;46.6;46.2;60;60.0;28.7;0.0;
13/02/2025 09:07:34;100;0;67.30;-4;-27.81;17.58;30.7;19.60;77599;2836.742;-1758.623;1;34;-100;-98.4;47.2;47.7;40;40.2;28.8;0.0;
13/02/2025 09:07:54;100;0;59.93;-4;-28.29;7.69;34.9;19.60;77600;2836.745;-1758.620;1;34;-100;-96.8;47.7;47.7;25;24.4;28.7;0.0;
13/02/2025 09:08:14;100;0;55.08;-4;-29.73;0.29;39.2;19.70;77600;2836.748;-1758.616;1;34;-100;-98.4;47.7;47.7;18;17.6;28.7;0.0;
13/02/2025 09:08:34;100;0;52.84;-4;-28.99;-2.96;43.5;19.70;77607;2836.751;-1758.613;1;34;-100;-98.4;48.1;48.3;15;14.9;28.8;0.0;
13/02/2025 09:08:54;100;0;52.80;-4;-29.62;-4.55;48.1;19.70;77607;2836.754;-1758.609;1;34;-100;-96.8;48.1;48.3;15;14.4;28.7;0.0;
13/02/2025 09:09:14;100;0;52.17;-4;-29.13;-4.49;52.6;19.70;77614;2836.757;-1758.606;1;33;-100;-96.8;48.1;48.3;15;14.4;28.7;0.0;
13/02/2025 09:09:34;100;0;51.21;-4;-30.05;-4.51;57.0;19.70;77614;2836.760;-1758.603;1;33;-100;-96.8;48.1;48.3;15;14.4;28.7;0.0;
13/02/2025 09:09:54;100;0;49.09;-4;-29.56;-4.50;61.6;19.70;77614;2836.763;-1758.599;1;33;-100;-95.2;48.1;48.3;13;13.1;28.7;0.0;
13/02/2025 09:10:14;100;0;48.67;-4;-29.59;-5.38;66.1;19.80;77617;2836.767;-1758.596;1;33;-100;-96.8;48.1;48.3;13;12.6;28.8;0.0;
13/02/2025 09:10:34;100;0;45.99;-4;-30.01;-5.38;70.5;19.80;77613;2836.770;-1758.593;1;33;-100;-96.8;48.1;48.3;13;12.6;28.7;0.0;
13/02/2025 09:10:54;100;0;43.94;-4;-29.88;-5.34;75.2;19.80;77617;2836.774;-1758.590;1;33;-100;-96.8;48.1;48.3;11;10.8;28.7;0.0;
13/02/2025 09:11:14;100;0;42.90;-4;-30.04;-6.44;79.9;19.80;77622;2836.777;-1758.587;1;33;-100;-96.8;48.1;48.3;11;10.4;28.7;0.0;
13/02/2025 09:11:35;100;0;39.31;-4;-29.63;-6.51;84.4;19.80;77627;2836.781;-1758.584;1;33;-100;-98.4;48.1;48.3;11;10.4;28.8;0.0;
13/02/2025 09:11:55;100;0;33.61;-4;-29.77;-6.46;89.0;19.80;77614;2836.785;-1758.582;1;33;-100;-95.2;48.1;48.3;11;10.4;28.7;0.0;
13/02/2025 09:12:15;100;0;31.04;-4;-29.38;-6.97;93.6;19.80;77611;2836.789;-1758.580;1;33;-100;-96.8;48.1;48.3;9;8.6;28.8;0.0;
13/02/2025 09:12:35;100;0;34.41;-4;-28.62;-7.11;98.1;19.80;77618;2836.793;-1758.577;1;33;-100;-96.8;48.5;48.5;9;8.6;28.8;0.0;
13/02/2025 09:12:55;100;0;35.55;-4;-30.26;-7.39;102.3;19.80;77611;2836.797;-1758.575;1;33;-100;-98.4;48.5;48.5;9;8.6;28.7;0.0;
13/02/2025 09:13:15;100;0;33.50;-4;-30.52;-6.98;107.0;19.80;77599;2836.801;-1758.573;1;33;-100;-96.8;48.5;48.6;9;8.6;28.8;0.0;
13/02/2025 09:13:35;100;0;25.74;-4;-29.60;-7.18;111.6;19.80;77591;2836.805;-1758.571;1;34;-100;-96.8;48.5;48.6;1;0.9;28.7;0.0;
13/02/2025 09:13:55;100;0;23.71;-4;-30.43;-10.94;116.2;19.80;77565;2836.809;-1758.569;1;34;-100;-100.0;48.5;48.6;-2;-2.3;28.7;0.0;
13/02/2025 09:14:15;100;0;24.60;-4;-30.18;-12.66;121.2;19.80;77529;2836.814;-1758.567;1;34;-100;-95.2;48.5;48.5;1;0.9;28.7;0.0;
13/02/2025 09:14:35;100;0;25.38;-4;-29.03;-10.87;125.9;19.70;77492;2836.818;-1758.565;1;34;-100;-96.8;48.5;48.5;1;0.9;28.7;0.0;
13/02/2025 09:14:55;100;0;28.99;-4;-28.01;-11.04;130.1;19.70;77464;2836.823;-1758.563;1;34;-100;-96.8;49.1;49.3;5;5.4;28.7;0.0;
13/02/2025 09:15:15;100;0;31.26;-4;-29.75;-8.91;134.2;19.70;77453;2836.826;-1758.561;1;35;-100;-96.8;49.1;49.3;5;5.9;28.7;0.0;
13/02/2025 09:15:35;100;0;33.25;-4;-30.19;-8.95;138.6;19.70;77440;2836.830;-1758.559;1;35;-100;-96.8;49.1;49.3;8;8.1;28.8;0.0;
13/02/2025 09:15:55;100;0;35.40;-4;-30.58;-7.60;143.0;19.70;77441;2836.834;-1758.557;1;35;-100;-98.4;49.1;49.3;8;8.6;28.7;0.0;
13/02/2025 09:16:15;100;0;42.49;-4;-31.11;-7.41;147.9;19.60;77422;2836.838;-1758.554;1;35;-100;-96.8;49.1;49.3;10;9.9;28.7;0.0;
13/02/2025 09:16:35;100;0;52.00;-4;-32.22;-6.26;152.9;19.60;77407;2836.841;-1758.550;1;35;-100;-96.8;48.4;48.5;14;14.0;28.7;0.0;
13/02/2025 09:16:55;100;0;52.39;-4;-29.08;-4.69;157.9;19.60;77389;2836.844;-1758.546;1;34;-100;-96.8;48.4;48.3;16;15.8;28.7;0.0;
13/02/2025 09:17:15;100;0;45.77;-4;-29.05;-3.92;162.1;19.50;77376;2836.847;-1758.543;1;34;-100;-96.8;48.4;48.3;11;10.8;28.7;0.0;
13/02/2025 09:17:35;100;0;43.57;-4;-29.07;-6.40;166.5;19.50;77357;2836.851;-1758.540;1;34;-100;-96.8;48.4;48.5;11;10.8;28.7;0.0;
13/02/2025 09:17:55;100;0;41.81;-4;-29.07;-6.44;171.0;19.50;77348;2836.855;-1758.537;1;34;-100;-96.8;48.4;48.3;11;10.8;28.7;0.0;
13/02/2025 09:18:15;100;0;40.01;-4;-28.92;-6.45;175.5;19.40;77345;2836.858;-1758.535;1;34;-100;-96.8;48.7;48.9;11;10.4;28.7;0.0;
13/02/2025 09:18:35;100;0;39.15;-4;-31.66;-6.35;180.2;19.40;77324;2836.862;-1758.532;1;34;-100;-96.8;48.7;49.2;11;10.4;28.7;0.0;
13/02/2025 09:18:55;100;0;40.98;-4;-31.18;-6.28;185.6;19.30;77311;2836.866;-1758.529;1;34;-100;-96.8;48.7;49.3;11;10.4;28.8;0.0;
13/02/2025 09:19:15;100;0;38.07;-4;-31.10;-6.34;191.0;19.30;77301;2836.870;-1758.526;1;34;-100;-96.8;48.7;49.2;11;10.8;28.7;0.0;
13/02/2025 09:19:35;100;0;36.91;-4;-31.06;-6.21;196.1;19.30;77295;2836.874;-1758.523;1;34;-100;-96.8;48.7;49.0;11;10.8;28.7;0.0;
13/02/2025 09:19:55;100;0;33.93;-4;-30.66;-6.21;201.2;19.20;77282;2836.879;-1758.520;1;35;-100;-96.8;48.7;49.0;9;9.0;28.7;0.0;
13/02/2025 09:20:15;100;0;30.65;-4;-31.25;-7.06;206.2;19.20;77273;2836.883;-1758.518;1;35;-100;-95.2;48.7;49.2;6;5.4;28.7;0.0;
13/02/2025 09:20:35;100;0;29.53;-4;-29.97;-9.10;211.1;19.20;77267;2836.887;-1758.516;1;35;-100;-96.8;48.7;49.2;6;5.4;28.8;0.0;
13/02/2025 09:20:55;100;0;28.76;-4;-29.79;-9.15;215.6;19.10;77257;2836.891;-1758.514;1;35;-100;-96.8;48.7;49.2;4;4.1;28.8;0.0;
13/02/2025 09:21:15;100;0;33.41;-4;-29.07;-10.02;219.8;19.10;77250;2836.895;-1758.511;1;35;-100;-100.0;48.7;49.2;8;8.1;28.8;0.0;
13/02/2025 09:21:35;100;0;37.89;-4;-30.05;-7.54;223.9;19.10;77229;2836.899;-1758.509;1;35;-100;-95.2;48.7;49.0;10;9.9;28.7;0.0;
13/02/2025 09:21:55;100;0;39.77;-4;-29.86;-6.39;228.1;19.00;77201;2836.902;-1758.507;1;35;-100;-96.8;48.7;49.2;10;10.4;28.7;0.0;
13/02/2025 09:22:15;100;0;40.07;-4;-30.31;-6.39;232.2;19.00;77186;2836.906;-1758.504;1;36;-100;-95.2;48.7;49.2;10;10.8;28.8;0.0;
13/02/2025 09:22:35;100;0;39.87;-4;-30.97;-6.33;236.5;18.90;77165;2836.909;-1758.502;1;36;-100;-95.2;48.7;49.2;10;10.8;28.7;0.0;
13/02/2025 09:22:55;100;0;40.15;-4;-30.62;-6.07;241.0;18.90;77156;2836.912;-1758.499;1;36;-100;-96.8;48.7;49.2;10;10.8;28.7;0.0;
13/02/2025 09:23:15;100;0;41.03;-4;-30.70;-6.41;245.3;18.80;77144;2836.916;-1758.497;1;36;-100;-96.8;48.7;49.2;10;10.4;28.8;0.0;
13/02/2025 09:23:35;100;0;38.35;-4;-30.42;-6.26;249.6;18.80;77143;2836.920;-1758.494;1;36;-100;-96.8;48.7;49.3;10;10.4;28.7;0.0;
13/02/2025 09:23:55;100;0;37.38;-4;-30.11;-6.35;253.8;18.70;77118;2836.923;-1758.492;1;36;-100;-96.8;48.7;49.2;10;10.8;28.7;0.0;
13/02/2025 09:24:15;100;0;35.78;-4;-30.12;-6.40;257.8;18.70;77114;2836.927;-1758.489;1;36;-100;-96.8;48.7;49.2;8;8.1;28.7;0.0;
13/02/2025 09:24:35;100;0;36.78;-4;-30.33;-7.57;261.9;18.70;77102;2836.930;-1758.487;1;36;-100;-96.8;48.7;49.2;8;8.1;28.7;0.0;
13/02/2025 09:24:55;100;0;40.07;-4;-29.54;-7.61;266.1;18.60;77102;2836.933;-1758.485;1;36;-100;-96.8;48.7;49.2;10;9.9;28.7;0.0;
13/02/2025 09:25:15;100;0;39.52;-4;-29.87;-6.48;270.1;18.60;77089;2836.937;-1758.482;1;36;-100;-96.8;48.7;49.2;10;10.4;28.7;0.0;
13/02/2025 09:25:35;100;0;42.16;-4;-30.65;-6.40;274.2;18.50;77067;2836.940;-1758.480;1;36;-100;-96.8;48.7;49.2;10;10.4;28.7;0.0;
13/02/2025 09:25:55;100;0;41.03;-4;-30.46;-6.45;278.6;18.50;77054;2836.944;-1758.477;1;37;-100;-98.4;48.7;49.2;10;10.4;28.8;0.0;
13/02/2025 09:26:15;100;0;40.08;-4;-30.99;-6.33;283.0;18.40;77020;2836.947;-1758.474;1;37;-100;-96.8;48.7;49.2;10;10.4;28.8;0.0;
13/02/2025 09:26:35;100;0;38.68;-4;-30.56;-6.41;287.4;18.40;77014;2836.951;-1758.472;1;37;-100;-96.8;48.7;49.0;10;10.4;28.7;0.0;
13/02/2025 09:26:55;100;0;39.09;-4;-30.84;-6.46;291.9;18.30;76998;2836.954;-1758.469;1;37;-100;-96.8;48.7;49.2;10;10.4;28.7;0.0;
13/02/2025 09:27:15;100;0;39.24;-4;-30.75;-6.37;296.3;18.30;76983;2836.958;-1758.467;1;37;-100;-96.8;48.7;49.2;10;10.4;28.7;0.0;
13/02/2025 09:27:35;100;0;40.48;-4;-30.52;-6.50;300.8;18.20;76969;2836.961;-1758.464;1;37;-100;-96.8;48.7;49.2;10;10.4;28.7;0.0;
13/02/2025 09:27:55;100;0;42.55;-4;-30.65;-6.37;305.2;18.20;76966;2836.965;-1758.461;1;37;-100;-95.2;48.7;49.2;10;10.4;28.7;0.0;
13/02/2025 09:28:15;100;0;43.40;-4;-30.69;-6.45;309.6;18.10;76948;2836.968;-1758.459;1;37;-100;-96.8;48.7;49.2;10;10.4;28.7;0.0;
13/02/2025 09:28:35;100;0;43.02;-4;-30.05;-6.46;313.9;18.00;76937;2836.971;-1758.456;1;37;-100;-96.8;48.7;49.2;10;10.4;28.7;0.0;
13/02/2025 09:28:55;100;0;41.57;-4;-29.58;-6.39;317.9;18.00;76924;2836.975;-1758.453;1;37;-100;-96.8;48.7;49.2;10;10.4;28.7;0.0;
13/02/2025 09:29:15;100;0;41.80;-4;-29.79;-6.44;322.0;18.00;76905;2836.978;-1758.451;1;37;-100;-100.0;48.7;49.2;10;10.4;28.7;0.0;
13/02/2025 09:29:35;100;0;41.31;-4;-29.77;-6.26;326.0;17.90;76899;2836.981;-1758.448;1;38;-100;-96.8;48.7;49.2;10;10.4;28.7;0.0;
13/02/2025 09:29:55;100;0;39.21;-4;-29.50;-6.47;329.9;17.80;76893;2836.984;-1758.446;1;38;-100;-96.8;48.7;49.2;10;10.4;28.7;0.0;
13/02/2025 09:30:15;100;0;34.60;-4;-28.96;-6.50;333.7;17.80;76878;2836.988;-1758.444;1;38;-100;-95.2;49.0;49.0;5;5.0;28.7;0.0;
13/02/2025 09:30:35;100;0;35.65;-4;-30.51;-9.40;337.8;17.70;76870;2836.991;-1758.442;1;39;-100;-96.8;49.0;48.9;5;4.5;28.8;0.0;
13/02/2025 09:30:55;100;0;36.86;-4;-30.45;-9.38;342.1;17.70;76847;2836.995;-1758.440;1;39;-100;-96.8;49.0;49.0;5;4.5;28.8;0.0;
13/02/2025 09:31:15;100;0;38.17;-4;-29.89;-9.35;346.5;17.60;76834;2836.999;-1758.437;1;39;-100;-95.2;49.0;49.0;8;8.1;28.7;0.0;
13/02/2025 09:31:35;100;0;39.56;-4;-30.20;-7.40;350.9;17.60;76824;2837.002;-1758.434;1;40;-100;-96.8;49.0;48.9;8;8.6;28.8;0.0;
13/02/2025 09:31:55;100;0;37.43;-4;-29.99;-7.37;355.2;17.50;76820;2837.006;-1758.432;1;40;-100;-96.8;49.0;49.0;6;5.9;28.7;0.0;
13/02/2025 09:32:15;100;0;37.22;-4;-29.34;-8.96;359.4;17.50;76803;2837.010;-1758.429;1;40;-100;-95.2;49.0;48.9;6;5.9;28.7;0.0;
13/02/2025 09:32:35;100;0;37.87;-4;-29.08;-8.94;363.5;17.40;76786;2837.013;-1758.427;1;41;-100;-96.8;49.0;48.9;6;5.9;28.8;0.0;
13/02/2025 09:32:55;100;0;37.11;-4;-30.63;-8.78;367.7;17.40;76780;2837.017;-1758.425;1;42;-100;-96.8;49.0;49.0;3;3.2;28.7;0.0;
13/02/2025 09:33:15;100;0;38.11;-4;-29.27;-10.22;372.1;17.40;76770;2837.020;-1758.422;1;42;-100;-96.8;49.0;48.9;3;2.7;28.7;0.0;
13/02/2025 09:33:35;100;0;40.92;-4;-29.03;-10.28;376.2;17.30;76753;2837.024;-1758.419;1;43;-100;-96.8;49.0;49.0;6;5.9;28.7;0.0;
13/02/2025 09:33:55;100;0;42.77;-4;-29.28;-8.79;380.3;17.20;76736;2837.027;-1758.417;1;43;-100;-96.8;49.0;49.0;8;8.1;28.7;0.0;
13/02/2025 09:34:15;100;0;43.49;-4;-29.53;-7.45;384.4;17.20;76730;2837.031;-1758.414;1;44;-100;-96.8;49.0;48.9;8;9.0;28.7;0.0;
13/02/2025 09:34:35;100;0;43.44;-4;-29.08;-7.23;388.5;17.10;76727;2837.034;-1758.411;1;44;-100;-96.8;49.0;49.0;8;9.0;28.7;0.0;
13/02/2025 09:34:55;100;0;44.54;-4;-29.72;-7.37;392.5;17.10;76724;2837.037;-1758.409;1;45;-100;-96.8;49.0;49.0;8;8.6;28.7;0.0;
13/02/2025 09:35:15;100;0;44.94;-4;-29.38;-7.26;396.5;17.00;76717;2837.040;-1758.406;1;45;-100;-98.4;49.0;49.0;8;9.0;28.7;0.0;
13/02/2025 09:35:35;100;0;44.95;-4;-29.10;-7.41;400.5;17.00;76711;2837.043;-1758.403;1;46;-100;-96.8;49.0;48.9;6;5.9;28.8;0.0;
13/02/2025 09:35:55;100;0;48.84;-4;-29.24;-9.17;404.4;16.90;76701;2837.046;-1758.400;1;47;-100;-96.8;49.0;48.9;8;8.1;28.7;0.0;
13/02/2025 09:36:15;100;0;58.17;-4;-29.84;-7.42;408.4;16.90;76676;2837.049;-1758.397;1;46;-100;-96.8;49.0;48.9;8;8.6;28.8;0.0;
13/02/2025 09:36:35;100;0;59.63;-4;-29.75;-7.38;412.5;16.90;76673;2837.051;-1758.394;1;46;-100;-96.8;49.0;48.9;10;10.4;28.7;0.0;
13/02/2025 09:36:55;100;0;62.68;-4;-30.57;-6.21;416.6;16.80;76659;2837.054;-1758.390;1;45;-100;-96.8;49.0;49.0;10;10.8;28.7;0.0;
13/02/2025 09:37:15;100;0;66.86;-4;-29.46;-6.10;420.9;16.70;76655;2837.056;-1758.386;1;43;-100;-96.8;49.0;48.9;19;19.0;28.7;0.0;
13/02/2025 09:37:35;100;0;63.78;-4;-29.74;-2.18;424.9;16.70;76640;2837.058;-1758.383;1;41;-100;-96.8;49.0;48.9;19;19.0;28.7;0.0;
13/02/2025 09:37:55;100;0;63.18;-4;-30.25;-1.86;428.7;16.60;76629;2837.060;-1758.380;1;39;-100;-95.2;49.0;48.9;19;19.0;28.8;0.0;
13/02/2025 09:38:15;100;0;61.13;-4;-31.37;-2.18;432.8;16.60;76626;2837.062;-1758.376;1;35;-100;-96.8;49.0;48.9;23;23.5;28.8;0.0;
13/02/2025 09:38:35;100;0;56.63;-4;-30.88;0.09;436.9;16.60;76606;2837.065;-1758.373;1;31;-100;-96.8;49.0;49.0;23;23.9;28.7;0.0;
13/02/2025 09:38:55;100;0;51.98;-4;-29.95;0.24;441.0;16.50;76599;2837.068;-1758.370;1;24;-100;-96.8;49.0;48.9;30;29.8;28.7;0.0;
13/02/2025 09:39:15;100;0;46.19;-4;-30.38;3.09;444.8;16.50;76585;2837.071;-1758.368;1;10;-100;-95.2;49.0;48.9;45;45.1;28.7;0.0;
13/02/2025 09:39:35;100;0;41.49;-4;-30.90;10.67;448.6;16.40;76599;2837.074;-1758.365;1;281;-100;-96.8;49.0;48.9;70;69.9;28.7;0.0;
13/02/2025 09:39:55;100;0;34.50;-4;-32.82;23.31;452.6;16.30;76574;2837.077;-1758.363;1;226;-100;-96.8;48.2;48.2;70;70.4;28.8;0.0;
13/02/2025 09:40:15;100;0;23.92;-4;-31.43;23.03;456.6;16.30;76568;2837.081;-1758.362;1;213;-100;-96.8;48.2;47.9;70;70.4;28.7;0.0;
13/02/2025 09:40:35;100;0;8.93;-4;-30.86;23.13;460.5;16.30;76556;2837.085;-1758.362;1;204;-100;-96.8;48.2;48.0;70;70.4;28.7;0.0;
13/02/2025 09:40:55;100;0;353.12;-4;-30.62;23.15;464.4;16.20;76558;2837.088;-1758.362;1;196;-100;-96.8;48.2;47.9;70;70.4;28.8;0.0;
13/02/2025 09:41:15;100;0;340.54;-4;-30.73;23.02;468.2;16.10;76538;2837.092;-1758.364;1;189;-100;-95.2;48.2;47.9;70;70.4;28.8;0.0;
13/02/2025 09:41:35;100;0;329.88;-4;-31.17;23.14;472.0;16.10;76532;2837.096;-1758.366;1;183;-100;-96.8;48.2;48.0;70;70.4;28.7;0.0;
13/02/2025 09:41:55;100;0;319.10;-4;-31.42;23.18;475.9;16.10;76509;2837.099;-1758.368;1;177;-100;-96.8;48.2;48.0;70;70.4;28.7;0.0;
13/02/2025 09:42:15;100;0;308.44;-4;-31.40;23.18;479.8;16.00;76512;2837.101;-1758.372;1;172;-100;-96.8;48.2;48.0;70;70.4;28.7;0.0;
13/02/2025 09:42:35;100;0;298.52;-4;-31.70;23.06;483.7;16.00;76499;2837.104;-1758.375;1;167;-100;-96.8;48.2;47.9;70;70.4;28.8;0.0;
13/02/2025 09:42:55;100;0;288.95;-4;-31.98;23.27;487.7;15.90;76493;2837.105;-1758.379;1;162;-100;-96.8;48.2;48.0;70;70.4;28.7;0.0;
13/02/2025 09:43:15;100;0;277.89;-4;-32.14;23.27;491.8;15.90;76479;2837.106;-1758.383;1;157;-100;-96.8;47.5;47.6;70;70.4;28.7;0.0;
13/02/2025 09:43:35;100;0;267.85;-4;-31.52;23.47;495.9;15.80;76469;2837.107;-1758.387;1;152;-100;-96.8;47.5;47.4;70;70.4;28.7;0.0;
13/02/2025 09:43:50;118;0;257.05;-4;-30.86;23.29;498.9;15.80;76471;2837.107;-1758.390;1;149;220;-91.9;20.4;20.3;13;13.1;28.8;0.0;
13/02/2025 09:44:00;118;0;189.21;-4;-15.83;-6.27;500.3;15.80;76438;2837.105;-1758.390;1;147;220;37.1;20.4;20.2;13;13.1;28.0;-1.0;
13/02/2025 09:44:10;118;0;160.11;-4;12.41;-5.93;500.7;15.70;76166;2837.105;-1758.390;1;147;220;164.5;20.4;20.5;13;13.1;28.1;-1.0;
13/02/2025 09:44:20;118;0;354.46;-4;26.84;-6.46;499.6;15.70;75900;2837.106;-1758.390;1;147;220;222.6;20.4;20.6;13;13.1;28.1;-1.0;
13/02/2025 09:44:30;118;0;252.85;-4;29.85;-6.12;498.2;15.70;75785;2837.106;-1758.392;1;146;220;222.6;20.4;20.8;13;13.1;28.7;-1.0;
13/02/2025 09:44:50;117;0;248.92;-4;30.73;-6.18;494.8;15.70;75784;2837.106;-1758.395;1;142;220;222.6;20.4;20.6;13;13.1;28.7;-1.0;
13/02/2025 09:45:11;117;0;242.93;-4;30.39;-6.13;491.2;15.60;75786;2837.105;-1758.398;1;138;220;222.6;20.4;20.5;-70;-69.9;28.7;-1.0;
13/02/2025 09:45:31;117;0;228.94;-4;26.48;-48.48;487.8;15.60;75781;2837.103;-1758.402;1;134;220;222.6;19.4;19.3;-70;-69.9;28.7;-1.0;
13/02/2025 09:45:51;117;0;221.92;-4;28.64;-48.40;484.4;15.60;75783;2837.101;-1758.404;1;130;220;224.2;19.0;19.0;-67;-66.8;28.7;-1.0;
13/02/2025 09:46:11;117;0;213.44;-4;28.94;-46.65;480.9;15.60;75773;2837.099;-1758.406;1;126;220;222.6;18.6;18.4;-62;-61.8;28.7;-1.0;
13/02/2025 09:46:31;117;0;205.91;-4;30.10;-44.08;477.3;15.50;75762;2837.097;-1758.408;1;123;220;224.2;18.6;18.4;-55;-55.1;28.7;-1.0;
13/02/2025 09:46:51;117;0;199.09;-4;30.18;-40.39;473.8;15.50;75761;2837.095;-1758.410;1;119;220;222.6;18.6;18.4;-50;-50.1;28.7;-1.0;
13/02/2025 09:47:11;117;0;189.92;-4;30.29;-37.88;470.2;15.50;75757;2837.092;-1758.410;1;116;220;222.6;18.6;18.4;-43;-42.9;28.7;-1.0;
13/02/2025 09:47:31;117;0;183.07;-4;30.83;-33.99;466.8;15.50;75758;2837.090;-1758.411;1;113;220;224.2;18.6;18.4;-37;-37.0;28.7;-1.0;
13/02/2025 09:47:51;117;0;175.14;-4;31.29;-31.19;463.4;15.40;75756;2837.088;-1758.411;1;110;220;222.6;18.6;18.4;-31;-31.1;28.7;-1.0;
13/02/2025 09:48:11;117;0;164.89;-4;31.63;-28.35;459.8;15.40;75760;2837.085;-1758.410;1;107;220;224.2;18.6;18.4;-21;-21.2;28.7;-1.0;
13/02/2025 09:48:31;117;0;153.13;-4;31.89;-22.76;456.3;15.40;75752;2837.083;-1758.409;1;105;220;222.6;18.6;18.4;-9;-9.0;28.7;-1.0;
13/02/2025 09:48:51;117;0;144.05;-4;32.79;-17.05;452.8;15.30;75752;2837.082;-1758.407;1;103;220;224.2;19.5;19.6;1;0.9;28.7;-1.0;
13/02/2025 09:49:11;117;0;137.52;-4;32.32;-11.96;449.3;15.30;75748;2837.080;-1758.405;1;101;220;224.2;20.2;20.5;9;9.0;28.7;-1.0;
13/02/2025 09:49:31;117;0;133.62;-4;31.59;-7.90;445.8;15.30;75739;2837.079;-1758.403;1;99;220;224.2;20.2;20.5;13;13.1;28.7;-1.0;
13/02/2025 09:49:51;117;0;128.22;-4;32.14;-5.57;442.3;15.30;75738;2837.078;-1758.400;1;97;220;224.2;20.8;20.9;19;19.4;28.8;-1.0;
13/02/2025 09:50:11;117;0;126.43;-4;31.70;-2.19;438.8;15.20;75732;2837.077;-1758.398;1;96;220;224.2;20.8;20.9;21;21.2;28.7;-1.0;
13/02/2025 09:50:31;117;0;123.32;-4;32.43;-1.25;435.2;15.20;75738;2837.076;-1758.395;1;94;220;224.2;21.5;21.6;21;21.7;28.7;-1.0;
13/02/2025 09:50:51;117;0;122.45;-4;30.60;-1.28;431.6;15.20;75736;2837.075;-1758.392;1;92;220;225.8;21.5;21.8;19;19.0;28.7;-1.0;
13/02/2025 09:51:11;117;0;117.22;-4;30.03;-2.82;428.3;15.20;75738;2837.074;-1758.390;1;90;220;224.2;21.5;21.8;25;24.8;28.7;-1.0;
13/02/2025 09:51:31;117;0;115.17;-4;29.95;0.44;425.1;15.10;75732;2837.073;-1758.387;1;88;220;222.6;21.5;21.8;27;27.1;28.7;-1.0;
13/02/2025 09:51:51;117;0;114.32;-4;30.18;1.85;422.0;15.10;75740;2837.073;-1758.384;1;86;220;224.2;21.5;21.8;27;27.5;28.7;-1.0;
13/02/2025 09:52:11;117;0;110.74;-4;30.10;1.81;418.9;15.10;75739;2837.072;-1758.382;1;83;220;224.2;21.5;21.8;25;24.8;28.7;-1.0;
13/02/2025 09:52:31;117;0;107.09;-4;29.95;0.08;415.9;15.10;75736;2837.072;-1758.379;1;81;220;224.2;21.5;21.8;29;28.9;28.7;-1.0;
13/02/2025 09:52:51;117;0;101.82;-4;29.89;2.77;413.0;15.10;75740;2837.072;-1758.376;1;78;220;224.2;21.5;21.8;31;31.6;28.7;-1.0;
13/02/2025 09:53:11;117;0;101.29;-4;30.77;4.06;409.9;15.00;75729;2837.072;-1758.373;1;75;220;222.6;21.5;21.8;29;28.9;28.7;-1.0;
13/02/2025 09:53:31;117;0;96.18;-4;30.36;2.57;406.7;15.00;75727;2837.073;-1758.370;1;67;220;222.6;21.5;21.9;24;23.5;28.7;-1.0;
13/02/2025 09:53:51;117;0;93.57;-4;30.01;-0.02;403.6;15.00;75729;2837.073;-1758.368;1;29;220;224.2;21.5;21.8;-32;-32.0;28.7;-1.0;
13/02/2025 09:54:11;117;0;78.86;-4;25.51;-30.29;400.8;15.00;75722;2837.074;-1758.364;1;261;220;224.2;20.2;19.9;70;69.9;28.7;-1.0;
13/02/2025 09:54:31;117;0;80.33;-4;35.14;25.51;398.0;15.00;75732;2837.075;-1758.362;1;252;220;224.2;21.7;21.8;70;70.4;28.7;-1.0;
13/02/2025 09:54:51;117;0;85.92;-4;34.39;25.74;394.5;14.90;75730;2837.076;-1758.359;1;252;220;222.6;23.1;23.3;70;70.4;28.7;-1.0;
13/02/2025 09:55:11;117;0;87.50;-4;31.34;25.55;391.2;14.90;75728;2837.077;-1758.356;1;253;220;224.2;23.1;23.4;70;70.4;28.7;-1.0;
13/02/2025 09:55:31;117;0;92.66;-4;30.80;25.87;387.9;14.90;75742;2837.077;-1758.353;1;254;220;221.0;23.1;23.4;70;69.9;28.7;-1.0;
13/02/2025 09:55:51;117;0;100.75;-4;30.26;25.46;384.9;14.90;75753;2837.077;-1758.351;1;257;220;224.2;23.1;23.4;70;70.4;28.7;-1.0;
13/02/2025 09:56:11;117;0;107.16;-4;30.21;25.79;381.8;14.90;75746;2837.077;-1758.348;1;259;220;224.2;23.1;23.4;70;70.4;28.7;-1.0;
13/02/2025 09:56:31;117;0;114.53;-4;30.29;25.70;378.8;14.90;75759;2837.077;-1758.345;1;262;220;224.2;23.1;23.4;70;70.4;28.7;-1.0;
13/02/2025 09:56:51;117;0;122.29;-4;30.45;25.72;375.9;14.90;75749;2837.076;-1758.343;1;265;220;224.2;23.1;23.4;70;70.4;28.7;-1.0;
13/02/2025 09:57:11;117;0;129.37;-4;30.32;25.70;372.8;14.90;75749;2837.075;-1758.341;1;268;220;224.2;23.1;23.4;70;69.9;28.7;-1.0;
13/02/2025 09:57:31;117;0;136.04;-4;30.12;25.60;369.8;14.90;75748;2837.074;-1758.339;1;271;220;224.2;23.1;23.4;70;70.4;28.7;-1.0;
13/02/2025 09:57:51;117;0;143.71;-4;30.27;25.79;366.8;14.90;75753;2837.072;-1758.337;1;274;220;224.2;23.1;23.4;70;70.4;28.7;-1.0;
13/02/2025 09:58:11;117;0;147.40;-4;29.68;25.52;364.0;14.90;75753;2837.071;-1758.336;1;277;220;224.2;23.1;23.4;70;70.4;28.7;-1.0;
13/02/2025 09:58:31;117;0;152.89;-4;30.16;25.61;361.1;14.80;75759;2837.069;-1758.335;1;280;220;222.6;23.1;23.4;70;69.9;28.7;-1.0;
13/02/2025 09:58:51;117;0;158.85;-4;30.14;25.54;358.1;14.80;75762;2837.067;-1758.334;1;283;220;224.2;23.1;23.4;70;70.4;28.7;-1.0;
13/02/2025 09:59:11;117;0;163.14;-4;30.14;25.56;355.2;14.80;75773;2837.065;-1758.333;1;287;220;224.2;23.1;23.4;70;70.4;28.8;-1.0;
13/02/2025 09:59:31;117;0;168.50;-4;30.16;25.56;352.2;14.80;75771;2837.063;-1758.333;1;290;220;224.2;23.1;23.4;70;70.4;28.7;-1.0;
13/02/2025 09:59:51;117;0;171.08;-4;30.47;25.42;349.3;14.80;75782;2837.061;-1758.333;1;293;220;224.2;23.1;23.4;70;70.4;28.7;-1.0;
13/02/2025 10:00:11;117;0;173.59;-4;30.39;25.54;346.2;14.80;75780;2837.059;-1758.332;1;296;220;224.2;23.1;23.4;70;70.4;28.7;-1.0;
13/02/2025 10:00:31;117;0;175.82;-4;30.62;25.52;343.1;14.80;75779;2837.057;-1758.332;1;299;220;221.0;23.1;23.4;70;69.9;28.8;-1.0;
13/02/2025 10:00:51;117;0;179.95;-4;30.39;25.59;339.9;14.80;75783;2837.055;-1758.333;1;302;220;224.2;23.1;23.4;70;70.4;28.7;-1.0;
13/02/2025 10:01:11;117;0;184.75;-4;29.93;25.43;336.6;14.80;75783;2837.053;-1758.333;1;306;220;222.6;23.1;23.4;70;70.4;28.7;-1.0;
13/02/2025 10:01:31;117;0;189.53;-4;29.75;25.55;333.6;14.80;75797;2837.051;-1758.334;1;309;220;222.6;23.1;23.4;70;70.4;28.7;-1.0;
13/02/2025 10:01:51;117;0;197.47;-4;30.16;25.28;330.5;14.80;75799;2837.049;-1758.335;1;312;220;222.6;23.1;23.4;70;70.4;28.7;-1.0;
13/02/2025 10:02:11;117;0;203.49;-4;29.83;25.38;327.2;14.80;75805;2837.047;-1758.336;1;315;220;222.6;23.1;23.4;70;70.4;28.7;-1.0;
13/02/2025 10:02:31;117;0;209.80;-4;30.22;25.34;324.2;14.80;75805;2837.045;-1758.338;1;319;220;224.2;23.1;23.4;70;70.4;28.7;-1.0;
13/02/2025 10:02:51;117;0;215.88;-4;30.32;25.56;320.9;14.80;75799;2837.043;-1758.340;1;323;220;224.2;23.1;23.4;70;70.4;28.7;-1.0;
13/02/2025 10:03:11;117;0;221.56;-4;29.77;25.48;317.7;14.80;75805;2837.042;-1758.342;1;326;220;224.2;23.1;23.4;70;70.4;28.7;-1.0;
13/02/2025 10:03:31;117;0;227.63;-4;29.69;25.39;314.5;14.90;75815;2837.040;-1758.345;1;330;220;224.2;23.1;23.4;70;70.4;28.7;-1.0;
13/02/2025 10:03:51;117;0;233.26;-4;29.91;25.48;311.4;14.90;75815;2837.039;-1758.348;1;334;220;224.2;23.1;23.4;70;70.4;28.7;-1.0;
13/02/2025 10:04:11;117;0;239.68;-4;29.56;25.53;308.2;14.90;75812;2837.038;-1758.351;1;338;220;224.2;23.1;23.4;70;70.4;28.8;-1.0;
13/02/2025 10:04:31;117;0;247.06;-4;29.82;25.43;305.0;14.90;75815;2837.038;-1758.354;1;342;220;224.2;23.1;23.4;70;70.4;28.7;-1.0;
13/02/2025 10:04:51;117;0;253.00;-4;29.69;25.55;301.8;14.90;75825;2837.038;-1758.357;1;347;220;224.2;23.1;23.4;70;69.9;28.7;-1.0;
13/02/2025 10:05:11;117;0;260.45;-4;29.59;25.59;298.7;14.90;75823;2837.038;-1758.360;1;351;220;222.6;23.1;23.4;70;70.4;28.7;-1.0;
13/02/2025 10:05:31;117;0;268.07;-4;30.22;25.62;295.6;14.90;75825;2837.038;-1758.364;1;355;220;224.2;23.1;23.4;70;70.4;28.7;-1.0;
13/02/2025 10:05:51;117;0;275.49;-4;29.70;25.54;292.4;14.90;75825;2837.039;-1758.367;1;0;220;224.2;23.1;23.4;70;70.4;28.7;-1.0;
13/02/2025 10:06:11;117;0;282.51;-4;30.19;25.75;289.3;14.90;75838;2837.041;-1758.370;1;5;220;222.6;23.1;23.4;70;70.4;28.7;-1.0;
13/02/2025 10:06:31;117;0;291.16;-4;29.94;26.16;286.0;14.90;75841;2837.042;-1758.374;1;10;220;222.6;23.1;23.4;70;70.4;28.7;-1.0;
13/02/2025 10:06:51;117;0;298.63;-4;29.87;25.69;282.8;14.90;75840;2837.044;-1758.377;1;16;220;222.6;23.1;23.4;70;70.4;28.7;-1.0;
13/02/2025 10:07:11;117;0;306.04;-4;29.79;25.66;279.8;14.90;75840;2837.046;-1758.379;1;21;220;224.2;23.1;23.4;70;70.4;28.7;-1.0;
13/02/2025 10:07:31;117;0;312.12;-4;30.03;25.60;276.7;14.90;75853;2837.049;-1758.382;1;27;220;224.2;23.1;23.4;70;70.4;28.7;-1.0;
13/02/2025 10:07:51;117;0;318.76;-4;29.79;25.63;273.7;15.00;75856;2837.051;-1758.384;1;33;220;222.6;23.1;23.4;70;70.4;28.7;-1.0;
13/02/2025 10:08:11;117;0;326.83;-4;29.72;25.62;270.6;15.00;75861;2837.054;-1758.386;1;40;220;224.2;23.1;23.4;70;70.4;28.8;-1.0;
13/02/2025 10:08:31;117;0;333.81;-4;29.73;25.62;267.6;15.00;75857;2837.057;-1758.387;1;47;220;224.2;23.1;23.4;70;70.4;28.7;-1.0;
13/02/2025 10:08:51;117;0;341.50;-4;29.88;25.62;264.7;15.00;75864;2837.060;-1758.388;1;54;220;224.2;23.1;23.4;70;70.4;28.7;-1.0;
13/02/2025 10:09:11;117;0;347.67;-4;29.83;25.59;261.7;15.00;75879;2837.064;-1758.389;1;62;220;224.2;23.1;23.6;70;70.4;28.7;-1.0;
13/02/2025 10:09:31;117;0;352.71;-4;29.90;25.57;258.8;15.00;75879;2837.067;-1758.390;1;70;220;222.6;23.1;23.4;70;70.4;28.7;-1.0;
13/02/2025 10:09:51;117;0;359.89;-4;29.73;25.51;255.8;15.00;75881;2837.070;-1758.390;1;79;220;224.2;23.1;23.4;70;70.4;28.7;-1.0;
13/02/2025 10:10:11;117;0;6.17;-4;29.95;25.59;252.7;15.00;75898;2837.073;-1758.390;1;88;220;224.2;23.1;23.4;70;70.4;28.7;-1.0;
13/02/2025 10:10:31;117;0;12.79;-4;30.12;25.68;249.7;15.00;75901;2837.077;-1758.389;1;97;220;222.6;23.1;23.4;70;70.4;28.7;-1.0;
13/02/2025 10:10:51;117;0;17.81;-4;30.11;25.60;246.4;15.10;75906;2837.080;-1758.389;1;107;220;224.2;23.1;23.4;70;70.4;28.7;-1.0;
13/02/2025 10:11:11;117;0;22.86;-4;30.34;25.85;243.1;15.10;75913;2837.083;-1758.387;1;117;220;224.2;23.1;23.4;70;70.4;28.7;-1.0;
13/02/2025 10:11:31;117;0;26.34;-4;30.06;25.59;239.8;15.10;75924;2837.086;-1758.386;1;126;220;222.6;23.1;23.4;70;70.4;28.7;-1.0;
13/02/2025 10:11:51;117;0;30.55;-4;29.92;25.61;236.4;15.10;75928;2837.090;-1758.385;1;135;220;224.2;23.1;23.4;70;70.4;28.7;-1.0;
13/02/2025 10:12:11;117;0;36.55;-4;29.58;25.50;233.2;15.10;75933;2837.093;-1758.383;1;143;220;222.6;23.1;23.4;70;70.4;28.7;-1.0;
13/02/2025 10:12:31;117;0;42.24;-4;29.86;25.51;229.8;15.10;75933;2837.095;-1758.381;1;150;220;222.6;23.1;23.4;70;70.4;28.7;-1.0;
13/02/2025 10:12:51;117;0;46.65;-4;29.79;25.59;226.5;15.20;75935;2837.098;-1758.379;1;157;220;222.6;23.1;23.4;70;69.9;28.7;-1.0;
13/02/2025 10:13:11;117;0;55.73;-4;29.62;25.69;223.2;15.20;75948;2837.100;-1758.376;1;163;220;224.2;23.1;23.4;70;70.4;28.7;-1.0;
13/02/2025 10:13:31;117;0;62.07;-4;29.59;25.53;219.8;15.20;75956;2837.102;-1758.373;1;169;220;224.2;23.1;23.4;70;70.4;28.7;-1.0;
13/02/2025 10:13:51;117;0;67.33;-4;29.63;25.46;216.6;15.20;75961;2837.104;-1758.370;1;174;220;224.2;23.1;23.4;70;69.9;28.7;-1.0;
13/02/2025 10:14:11;117;0;73.70;-4;29.51;25.61;213.3;15.20;75968;2837.105;-1758.367;1;179;220;224.2;23.1;23.4;70;70.4;28.7;-1.0;
13/02/2025 10:14:31;117;0;79.98;-4;29.67;25.63;210.1;15.20;75965;2837.106;-1758.364;1;184;220;224.2;23.1;23.4;70;70.4;28.7;-1.0;
13/02/2025 10:14:51;117;0;85.77;-4;29.82;25.67;206.8;15.30;75983;2837.107;-1758.361;1;189;220;222.6;23.1;23.4;70;69.9;28.7;-1.0;
13/02/2025 10:15:11;117;0;90.22;-4;30.48;25.67;203.4;15.30;75993;2837.108;-1758.358;1;193;220;224.2;23.1;23.4;70;70.4;28.7;-1.0;
13/02/2025 10:15:31;117;0;93.64;-4;29.65;25.59;200.0;15.30;76007;2837.108;-1758.355;1;197;220;224.2;23.1;23.4;70;70.4;28.7;-1.0;
13/02/2025 10:15:51;117;0;100.19;-4;30.63;26.11;196.6;15.30;76019;2837.108;-1758.352;1;201;220;222.6;23.1;23.4;70;70.4;28.7;-1.0;
13/02/2025 10:16:11;117;0;104.70;-4;29.68;25.59;193.2;15.40;76038;2837.108;-1758.349;1;205;220;224.2;23.1;23.4;70;70.4;28.7;-1.0;
13/02/2025 10:16:31;117;0;111.09;-4;29.06;25.52;189.9;15.40;76058;2837.108;-1758.346;1;209;220;222.6;23.1;23.4;70;70.4;28.7;-1.0;
13/02/2025 10:16:51;117;0;116.97;-4;29.29;25.26;186.9;15.40;76070;2837.107;-1758.343;1;213;220;224.2;23.1;23.4;70;69.9;28.7;-1.0;
13/02/2025 10:17:11;117;0;124.39;-4;28.71;25.00;183.9;15.40;76086;2837.106;-1758.341;1;216;220;222.6;22.7;22.5;70;69.9;28.7;-1.0;
13/02/2025 10:17:31;117;0;127.44;-4;31.30;25.72;181.1;15.50;76095;2837.105;-1758.339;1;219;220;222.6;22.7;22.4;70;70.4;28.7;-1.0;
13/02/2025 10:17:51;117;0;130.99;-4;31.17;25.41;178.0;15.50;76097;2837.104;-1758.337;1;221;220;224.2;22.7;22.4;70;69.9;28.7;-1.0;
13/02/2025 10:18:11;117;0;140.92;-4;30.94;25.67;174.9;15.50;76115;2837.103;-1758.335;1;224;220;222.6;22.7;22.5;70;69.9;28.7;-1.0;
13/02/2025 10:18:31;117;0;150.93;-4;31.73;25.82;171.8;15.60;76123;2837.101;-1758.334;1;227;220;222.6;22.7;22.5;70;70.4;28.7;-1.0;
13/02/2025 10:18:52;117;0;162.17;-4;31.32;25.39;168.7;15.60;76140;2837.099;-1758.333;1;230;220;221.0;22.7;22.4;70;70.4;28.7;-1.0;
13/02/2025 10:19:12;117;0;167.46;-4;30.91;25.75;165.4;15.60;76149;2837.097;-1758.332;1;233;220;224.2;22.7;22.5;70;69.9;28.7;-1.0;
13/02/2025 10:19:32;117;0;176.07;-4;31.16;25.65;162.1;15.70;76158;2837.095;-1758.332;1;235;220;222.6;22.7;22.5;70;70.4;28.7;-1.0;
13/02/2025 10:19:52;117;0;186.58;-4;31.41;26.03;158.8;15.70;76169;2837.093;-1758.333;1;238;220;224.2;22.7;22.4;70;70.4;28.7;-1.0;
13/02/2025 10:20:12;117;0;191.57;-4;30.99;25.44;155.5;15.70;76184;2837.091;-1758.334;1;240;220;224.2;22.7;22.5;70;70.4;28.7;-1.0;
13/02/2025 10:20:32;117;0;191.18;-4;31.39;25.37;152.2;15.80;76190;2837.088;-1758.334;1;243;220;224.2;22.7;22.4;70;70.4;28.7;-1.0;
13/02/2025 10:20:52;117;0;195.01;-4;31.57;25.81;148.9;15.80;76205;2837.086;-1758.335;1;246;220;222.6;22.7;22.4;70;70.4;28.7;-1.0;
13/02/2025 10:21:12;117;0;199.82;-4;31.36;25.44;145.4;15.80;76224;2837.084;-1758.337;1;249;220;225.8;22.7;22.4;70;70.4;28.7;-1.0;
13/02/2025 10:21:32;117;0;205.41;-4;30.21;26.36;142.3;15.90;76237;2837.082;-1758.338;1;252;220;222.6;22.7;22.4;70;70.4;28.7;-1.0;
13/02/2025 10:21:52;117;0;212.30;-4;30.49;25.57;139.2;15.90;76250;2837.081;-1758.340;1;254;220;222.6;22.7;22.4;64;64.1;28.7;-1.0;
13/02/2025 10:22:12;117;0;220.17;-4;30.33;21.30;136.2;16.00;76269;2837.079;-1758.342;1;256;220;224.2;22.7;22.4;54;53.7;28.7;-1.0;
13/02/2025 10:22:32;117;0;225.58;-4;29.67;15.56;133.1;16.00;76288;2837.078;-1758.345;1;259;220;224.2;22.7;22.4;52;51.9;28.7;-1.0;
13/02/2025 10:22:52;117;0;230.46;-4;29.69;14.41;130.1;16.00;76294;2837.077;-1758.347;1;261;220;224.2;22.7;22.4;46;46.0;28.7;-1.0;
13/02/2025 10:23:12;117;0;234.81;-4;29.60;11.43;127.0;16.10;76312;2837.076;-1758.350;1;263;220;224.2;22.7;22.4;42;42.0;28.7;-1.0;
13/02/2025 10:23:32;117;0;236.77;-4;28.49;8.84;124.0;16.10;76332;2837.075;-1758.353;1;266;220;224.2;22.2;21.9;47;46.9;28.7;-1.0;
13/02/2025 10:23:52;117;0;238.44;-4;28.44;12.38;121.0;16.20;76347;2837.074;-1758.356;1;270;220;221.0;21.8;21.5;49;49.2;28.7;-1.0;
13/02/2025 10:24:12;117;0;241.65;-4;30.66;13.77;118.2;16.20;76378;2837.074;-1758.358;1;273;220;224.2;21.8;21.5;47;46.9;28.7;-1.0;
13/02/2025 10:24:32;117;0;244.14;-4;30.70;11.76;115.4;16.30;76401;2837.073;-1758.361;1;280;220;224.2;21.8;21.5;55;55.1;28.7;-1.0;
13/02/2025 10:24:52;117;0;245.57;-4;32.25;17.39;112.3;16.30;76419;2837.073;-1758.364;1;296;220;224.2;22.4;22.7;70;69.9;28.7;-1.0;
13/02/2025 10:25:12;117;0;250.11;-4;31.26;25.37;109.0;16.30;76436;2837.072;-1758.367;1;3;220;225.8;22.4;22.7;70;69.9;28.7;-1.0;
13/02/2025 10:25:32;117;0;253.58;-4;31.91;25.91;105.8;16.40;76455;2837.072;-1758.370;1;57;220;224.2;22.4;22.7;70;69.9;28.7;-1.0;
13/02/2025 10:25:52;117;0;257.85;-4;31.78;25.74;102.4;16.50;76484;2837.072;-1758.373;1;73;220;224.2;22.4;22.5;-70;-69.9;28.7;-1.0;
13/02/2025 10:26:12;117;0;243.84;-4;23.35;-48.87;99.2;16.50;76498;2837.071;-1758.377;1;73;220;225.8;20.4;20.5;-70;-69.9;28.7;-1.0;
13/02/2025 10:26:32;117;0;237.42;-4;25.14;-48.96;96.3;16.60;76517;2837.070;-1758.381;1;72;220;225.8;19.0;19.0;-70;-69.9;28.7;-1.0;
13/02/2025 10:26:52;117;0;232.22;-4;28.83;-48.72;93.5;16.60;76520;2837.069;-1758.383;1;71;220;225.8;18.6;18.6;-70;-69.9;28.7;-1.0;
13/02/2025 10:27:12;117;0;224.72;-4;30.15;-49.33;90.4;16.70;76543;2837.068;-1758.385;1;69;220;225.8;18.6;18.4;-70;-70.4;28.7;-1.0;
13/02/2025 10:27:32;117;0;217.49;-4;30.06;-49.31;87.1;16.80;76553;2837.066;-1758.388;1;67;220;225.8;18.6;18.3;-70;-70.4;28.7;-1.0;
13/02/2025 10:27:52;117;0;209.84;-4;29.69;-49.07;83.9;16.80;76563;2837.064;-1758.389;1;64;220;225.8;18.6;18.3;-70;-69.9;28.7;-1.0;
13/02/2025 10:28:12;117;0;201.87;-4;30.15;-49.41;80.7;16.90;76583;2837.062;-1758.391;1;61;220;225.8;18.6;18.3;-70;-69.9;28.7;-1.0;
13/02/2025 10:28:32;117;0;192.34;-4;29.41;-49.32;77.4;16.90;76594;2837.060;-1758.392;1;57;220;225.8;18.6;18.3;-70;-70.4;28.7;-1.0;
13/02/2025 10:28:52;117;0;185.72;-4;29.84;-49.20;74.2;17.00;76602;2837.058;-1758.392;1;54;220;225.8;18.6;18.3;-70;-70.4;28.7;-1.0;
13/02/2025 10:29:12;117;0;178.95;-4;29.99;-49.25;70.9;17.10;76612;2837.055;-1758.392;1;50;220;225.8;18.6;18.3;-70;-70.4;28.7;-1.0;
13/02/2025 10:29:32;117;0;170.53;-4;29.98;-49.54;67.5;17.10;76617;2837.053;-1758.392;1;46;220;225.8;18.6;18.4;-70;-69.9;28.7;-1.0;
13/02/2025 10:29:52;117;0;162.16;-4;29.37;-49.17;64.2;17.20;76630;2837.051;-1758.391;1;42;220;225.8;18.6;18.4;-70;-70.4;28.7;-1.0;
13/02/2025 10:30:12;117;0;155.54;-4;29.73;-49.34;61.1;17.20;76641;2837.049;-1758.390;1;39;220;227.4;18.6;18.4;-70;-70.4;28.7;-1.0;
13/02/2025 10:30:32;117;0;148.70;-4;29.69;-49.24;57.7;17.30;76642;2837.047;-1758.388;1;35;220;224.2;18.6;18.4;-70;-69.9;28.7;-1.0;
13/02/2025 10:30:52;117;0;142.30;-4;29.91;-49.18;54.5;17.30;76654;2837.045;-1758.387;1;31;220;225.8;18.6;18.4;-70;-69.9;28.7;-1.0;
13/02/2025 10:31:12;117;0;136.27;-4;29.95;-49.34;51.2;17.40;76662;2837.044;-1758.385;1;27;220;225.8;18.6;18.4;-70;-69.9;28.7;-1.0;
13/02/2025 10:31:32;117;0;128.96;-4;29.26;-49.11;48.0;17.40;76658;2837.043;-1758.382;1;23;220;225.8;18.6;18.4;-70;-69.9;28.7;-1.0;
13/02/2025 10:31:52;117;0;121.46;-4;29.44;-49.03;44.8;17.50;76666;2837.042;-1758.379;1;19;220;225.8;18.6;18.3;-70;-70.4;28.7;-1.0;
13/02/2025 10:32:12;117;0;115.50;-4;29.61;-49.24;41.8;17.50;76687;2837.041;-1758.377;1;15;220;225.8;18.6;18.4;-70;-69.9;28.7;-1.0;
13/02/2025 10:32:32;117;0;108.02;-4;29.71;-49.14;38.7;17.60;76690;2837.041;-1758.374;1;11;220;225.8;18.6;18.4;-70;-69.9;28.7;-1.0;
13/02/2025 10:32:52;117;0;100.61;-4;29.51;-49.13;35.6;17.60;76696;2837.041;-1758.371;1;7;220;225.8;18.6;18.4;-70;-70.4;28.7;-1.0;
13/02/2025 10:33:12;117;0;92.49;-4;29.82;-49.20;32.8;17.70;76711;2837.042;-1758.369;1;2;220;225.8;18.6;18.3;-70;-70.4;28.7;-1.0;
13/02/2025 10:33:32;117;0;85.37;-4;29.87;-49.15;29.6;17.70;76714;2837.042;-1758.366;1;358;220;225.8;18.6;18.3;-67;-66.8;28.7;-1.0;
13/02/2025 10:33:52;117;0;77.63;-4;30.06;-46.88;26.7;17.80;76726;2837.044;-1758.363;1;353;220;224.2;18.6;18.4;-65;-65.0;28.7;-1.0;
13/02/2025 10:34:12;117;0;68.74;-4;29.64;-46.25;23.8;17.80;76738;2837.045;-1758.360;1;349;220;225.8;18.6;18.3;-60;-60.0;28.7;-1.0;
13/02/2025 10:34:32;117;0;59.35;-4;29.53;-43.40;20.8;17.80;76750;2837.047;-1758.358;1;344;220;225.8;18.6;18.3;-56;-55.5;28.7;-1.0;
13/02/2025 10:34:52;117;0;45.18;-4;29.65;-41.31;17.8;17.90;76756;2837.050;-1758.356;1;338;220;225.8;18.6;18.4;-48;-47.8;28.7;-1.0;
13/02/2025 10:35:12;117;0;34.56;-4;29.88;-37.28;14.8;18.00;76763;2837.052;-1758.354;1;333;220;225.8;18.6;18.4;-43;-42.9;28.7;-1.0;
13/02/2025 10:35:32;117;0;24.06;-4;30.15;-34.59;11.7;18.00;76751;2837.055;-1758.353;1;327;220;222.6;18.6;18.4;-39;-38.8;28.7;-1.0;
13/02/2025 10:35:52;117;0;14.63;-4;29.63;-32.16;8.6;18.00;76762;2837.059;-1758.353;1;321;220;225.8;18.6;18.4;-36;-36.1;28.7;-1.0;
13/02/2025 10:36:12;117;0;3.70;-4;29.99;-30.84;5.5;18.10;76763;2837.062;-1758.353;1;314;220;225.8;18.6;18.3;-33;-32.9;28.7;-1.0;
13/02/2025 10:36:28;115;0;356.19;-4;29.89;-29.48;3.0;18.10;76778;2837.065;-1758.353;1;307;500;232.3;100.0;61.7;0;0.9;28.7;-1.0;
13/02/2025 10:36:38;115;0;7.86;-4;14.83;-11.55;1.8;18.10;76751;2837.067;-1758.353;1;300;500;350.0;100.0;100.0;0;0.9;28.5;-1.0;
13/02/2025 10:36:48;115;0;357.46;-4;-58.75;-12.09;2.2;18.10;76489;2837.067;-1758.353;1;299;500;464.5;100.0;100.6;0;0.9;28.5;-1.0;
13/02/2025 10:36:58;115;0;311.90;-4;-71.67;-11.12;1.8;18.20;76231;2837.068;-1758.353;1;298;500;508.1;100.0;100.6;0;0.9;28.5;-1.0;
13/02/2025 10:37:08;115;0;315.58;-4;-28.16;-11.58;0.0;18.20;76164;2837.069;-1758.355;1;294;500;508.1;100.0;100.6;0;0.9;28.7;-1.0;
13/02/2025 10:37:28;119;0;327.34;-4;-55.85;-6.03;0.4;18.30;76168;2837.069;-1758.355;1;294;500;508.1;100.0;100.7;0;0.9;28.7;-1.0;
13/02/2025 10:37:38;119;0;339.91;-4;-47.13;-8.33;0.2;18.30;76185;2837.069;-1758.355;1;294;500;508.1;100.0;100.7;0;0.9;28.7;-1.0;
13/02/2025 10:37:48;119;0;338.80;-4;-55.90;-14.38;0.1;18.30;76191;2837.165;-1758.576;0;294;500;508.1;100.0;100.6;0;0.9;28.7;-1.0;
