Timestamp;NavState;SecurityLevel;Heading;Declination;Pitch;Roll;Depth;Temperature;Pa;Lat;Lon;DeadReckoning;DesiredH;BallastCmd;BallastPos;LinCmd;LinPos;AngCmd;AngPos;Voltage;Altitude;
05/03/2025 06:49:03;119;0;47.95;-4;-49.52;-20.32;0.2;17.70;75931;2836.772;-1758.376;0;96;500;506.5;100.0;100.4;0;0.0;24.8;-1.0;
05/03/2025 06:49:13;116;0;62.98;-4;-51.33;-14.10;0.2;17.70;75932;2836.774;-1758.374;0;96;500;506.5;100.0;100.6;0;-0.5;24.7;-1.0;
05/03/2025 06:49:41;116;0;70.73;-4;-52.59;-14.64;0.3;17.80;75938;2836.780;-1758.383;0;96;500;506.5;100.0;100.4;0;0.0;24.7;-1.0;
05/03/2025 06:49:59;116;0;52.82;-4;-53.39;-10.90;0.1;17.80;75951;2836.779;-1758.384;0;96;500;506.5;100.0;100.4;0;0.0;24.7;-1.0;
05/03/2025 06:50:19;116;0;49.65;-4;-46.22;-7.52;0.1;17.90;75951;2836.780;-1758.386;0;2;500;508.1;100.0;100.6;0;0.0;24.7;-1.0;
05/03/2025 06:50:32;116;0;56.15;-4;-57.06;-12.48;0.2;17.90;75959;2836.781;-1758.388;0;2;500;506.5;100.0;100.4;0;0.0;24.7;-1.0;
05/03/2025 06:51:35;116;0;38.28;-4;-57.46;-16.64;0.0;18.10;75981;2836.784;-1758.390;0;2;500;506.5;100.0;100.4;0;0.0;24.6;-1.0;
05/03/2025 06:52:46;116;0;46.51;-4;-57.24;-6.13;0.1;18.30;75995;2836.789;-1758.395;0;2;500;504.8;100.0;100.4;0;-0.5;24.7;-1.0;
05/03/2025 06:53:04;116;0;36.36;-4;-50.94;-20.92;0.1;18.40;76001;2836.789;-1758.396;0;2;500;506.5;100.0;100.4;0;0.0;24.7;-1.0;
05/03/2025 06:53:24;110;0;36.11;-4;-51.50;-20.14;0.1;18.50;76017;2836.789;-1758.396;0;2;-110;387.1;100.0;100.4;-8;-8.1;24.8;-1.0;
05/03/2025 06:53:34;110;0;61.73;-4;-54.26;-19.94;0.2;18.50;76364;2836.788;-1758.396;1;2;-110;241.9;100.0;100.4;-8;-8.1;24.7;-1.0;
05/03/2025 06:53:44;110;0;68.48;-4;-57.82;-24.55;0.5;18.60;76611;2836.788;-1758.395;1;2;-110;90.3;100.0;100.4;-8;-8.6;24.7;-1.0;
05/03/2025 06:53:54;110;0;68.82;-4;-72.03;-22.85;0.9;18.60;76917;2836.788;-1758.395;1;2;-110;-62.9;100.0;100.4;-8;-8.1;24.7;-1.0;
05/03/2025 06:54:04;110;0;78.01;-4;-63.96;-13.16;1.0;18.60;77245;2836.788;-1758.395;1;2;-110;-109.7;43.0;55.8;-8;-8.1;24.7;-1.0;
05/03/2025 06:54:14;110;0;63.84;-4;-56.53;-23.40;2.1;18.70;77302;2836.787;-1758.394;1;2;-110;-111.3;43.0;42.9;-8;-8.1;24.7;-1.0;
05/03/2025 06:54:34;100;0;77.35;-4;-20.82;-15.90;5.5;18.70;77308;2836.788;-1758.389;1;2;-110;-104.8;43.0;42.6;-8;-8.1;24.7;-1.0;
05/03/2025 06:54:54;100;0;84.69;-4;-19.99;-15.89;8.5;18.80;77318;2836.787;-1758.385;1;2;-110;-104.8;43.0;42.6;70;69.9;24.8;-1.0;
05/03/2025 06:55:14;100;0;79.00;-4;-24.06;23.36;11.6;18.80;77322;2836.787;-1758.381;1;2;-110;-104.8;41.8;41.8;70;70.4;24.7;-1.0;
05/03/2025 06:55:34;100;0;70.82;-4;-19.97;23.93;14.8;18.80;77330;2836.788;-1758.376;1;2;-110;-103.2;41.8;41.7;70;70.4;24.7;0.0;
05/03/2025 06:55:55;100;0;61.00;-4;-20.24;23.87;17.5;18.90;77335;2836.789;-1758.373;1;2;-110;-104.8;41.8;41.7;70;70.4;24.7;0.0;
05/03/2025 06:56:15;100;0;51.63;-4;-20.92;23.58;20.0;18.90;77348;2836.790;-1758.370;1;2;-110;-106.5;41.8;41.5;70;70.4;24.8;0.0;
05/03/2025 06:56:35;100;0;41.97;-4;-22.52;23.67;22.5;18.90;77348;2836.791;-1758.367;1;2;-110;-104.8;41.0;40.9;67;66.8;24.8;0.0;
05/03/2025 06:56:55;100;0;30.14;-4;-19.19;21.47;25.2;18.90;77353;2836.794;-1758.365;1;2;-110;-104.8;41.0;40.8;49;49.2;24.8;0.0;
05/03/2025 06:57:15;100;0;25.11;-4;-18.23;12.57;27.4;18.90;77359;2836.796;-1758.363;1;2;-110;-104.8;41.6;41.8;41;41.1;24.7;0.0;
05/03/2025 06:57:35;100;0;17.82;-4;-18.92;8.44;29.4;19.00;77357;2836.798;-1758.362;1;2;-130;-132.3;41.9;41.8;31;31.1;24.8;0.0;
05/03/2025 06:57:55;100;0;12.25;-4;-19.61;3.98;31.7;19.00;77424;2836.800;-1758.362;1;2;-130;-132.3;41.9;41.8;21;20.8;24.8;0.0;
05/03/2025 06:58:15;100;0;12.53;-4;-18.49;-1.16;34.2;19.00;77429;2836.803;-1758.360;1;2;-130;-133.9;42.3;42.4;21;20.3;24.8;0.0;
05/03/2025 06:58:35;100;0;9.76;-4;-19.82;-1.39;36.9;19.00;77439;2836.805;-1758.360;1;2;-130;-132.3;42.3;42.7;18;18.1;24.7;0.0;
05/03/2025 06:58:55;100;0;6.56;-4;-19.86;-2.54;39.6;19.00;77449;2836.808;-1758.359;1;2;-130;-132.3;42.3;42.7;16;15.8;24.7;0.0;
05/03/2025 06:59:15;100;0;5.62;-4;-19.45;-3.76;42.1;19.00;77457;2836.811;-1758.358;1;2;-130;-132.3;42.3;42.7;16;15.3;24.8;0.0;
05/03/2025 06:59:35;100;0;5.43;-4;-20.47;-3.63;44.7;19.10;77449;2836.813;-1758.358;1;2;-130;-133.9;42.3;42.7;16;15.3;24.7;0.0;
05/03/2025 06:59:55;100;0;5.39;-4;-19.36;-4.00;47.5;19.10;77460;2836.816;-1758.357;1;2;-130;-132.3;42.3;42.7;16;15.3;24.7;0.0;
05/03/2025 07:00:15;100;0;7.54;-4;-19.56;-3.53;50.1;19.10;77457;2836.819;-1758.357;1;2;-130;-132.3;42.3;42.7;16;15.3;24.8;0.0;
05/03/2025 07:00:35;100;0;4.79;-4;-20.07;-3.80;52.7;19.10;77460;2836.822;-1758.356;1;2;-130;-133.9;42.3;42.7;16;15.3;24.7;0.0;
05/03/2025 07:00:55;100;0;3.95;-4;-19.80;-3.89;55.5;19.10;77465;2836.824;-1758.356;1;2;-130;-132.3;42.3;42.7;16;15.3;24.7;0.0;
05/03/2025 07:01:15;100;0;4.97;-4;-19.79;-3.82;58.3;19.10;77465;2836.827;-1758.355;1;2;-130;-132.3;42.3;42.7;16;15.3;24.8;0.0;
05/03/2025 07:01:35;100;0;4.49;-4;-19.59;-3.86;61.0;19.10;77475;2836.830;-1758.355;1;2;-130;-133.9;42.3;42.7;16;15.3;24.7;0.0;
05/03/2025 07:01:55;100;0;5.41;-4;-19.63;-4.01;63.7;19.10;77469;2836.833;-1758.354;1;2;-130;-132.3;42.3;42.7;16;15.3;24.8;0.0;
05/03/2025 07:02:15;100;0;4.73;-4;-19.45;-3.79;66.3;19.20;77477;2836.835;-1758.354;1;2;-130;-133.9;42.3;42.7;16;15.3;24.7;0.0;
05/03/2025 07:02:35;100;0;3.87;-4;-19.43;-3.90;68.9;19.20;77482;2836.838;-1758.353;1;2;-130;-132.3;42.3;42.7;16;15.3;24.7;0.0;
05/03/2025 07:02:55;100;0;4.15;-4;-20.00;-3.85;71.5;19.20;77488;2836.841;-1758.353;1;2;-130;-133.9;42.3;42.6;16;15.3;24.7;0.0;
05/03/2025 07:03:15;100;0;6.49;-4;-19.67;-3.88;74.1;19.20;77481;2836.843;-1758.352;1;2;-130;-132.3;42.3;42.6;16;15.3;24.8;0.0;
05/03/2025 07:03:35;100;0;8.92;-4;-19.49;-3.84;77.0;19.20;77509;2836.846;-1758.351;1;2;-130;-132.3;42.3;42.7;18;18.5;24.8;0.0;
05/03/2025 07:03:55;100;0;10.65;-4;-20.02;-2.02;79.4;19.20;77492;2836.849;-1758.351;1;2;-130;-135.5;42.3;42.6;18;18.5;24.7;0.0;
05/03/2025 07:04:15;100;0;10.12;-4;-19.86;-2.09;82.4;19.20;77492;2836.852;-1758.350;1;2;-130;-132.3;42.3;42.7;18;18.5;24.7;0.0;
05/03/2025 07:04:35;100;0;8.40;-4;-19.66;-2.16;85.1;19.20;77489;2836.855;-1758.349;1;2;-130;-130.6;42.3;42.7;18;18.5;24.8;0.0;
05/03/2025 07:04:55;100;0;8.53;-4;-20.11;-2.11;87.8;19.20;77483;2836.857;-1758.348;1;2;-130;-132.3;42.3;42.7;18;18.5;24.7;0.0;
05/03/2025 07:05:15;100;0;9.88;-4;-19.83;-2.06;90.7;19.20;77489;2836.860;-1758.347;1;2;-130;-132.3;42.3;42.7;18;18.5;24.7;0.0;
05/03/2025 07:05:35;100;0;8.89;-4;-19.74;-2.16;93.3;19.20;77485;2836.863;-1758.347;1;2;-130;-133.9;42.3;42.7;18;18.5;24.7;0.0;
05/03/2025 07:05:55;100;0;9.05;-4;-19.64;-2.19;96.0;19.20;77486;2836.866;-1758.346;1;2;-130;-132.3;42.3;42.7;18;18.5;24.7;0.0;
05/03/2025 07:06:15;100;0;9.81;-4;-19.80;-2.06;98.6;19.20;77488;2836.868;-1758.345;1;2;-130;-133.9;42.3;42.7;18;18.5;24.7;0.0;
05/03/2025 07:06:35;100;0;6.28;-4;-19.56;-2.37;101.4;19.20;77480;2836.871;-1758.344;1;2;-130;-132.3;42.3;42.7;16;15.8;24.7;0.0;
05/03/2025 07:06:55;100;0;3.82;-4;-19.73;-3.71;104.2;19.20;77477;2836.874;-1758.344;1;2;-130;-132.3;42.3;42.7;16;15.8;24.7;0.0;
05/03/2025 07:07:15;100;0;3.09;-4;-20.06;-3.51;107.1;19.20;77477;2836.877;-1758.343;1;2;-130;-132.3;42.3;42.7;16;15.3;24.7;0.0;
05/03/2025 07:07:35;100;0;359.79;-4;-20.20;-3.69;110.1;19.20;77471;2836.880;-1758.343;1;2;-130;-132.3;42.3;42.7;16;15.3;24.7;0.0;
05/03/2025 07:07:55;100;0;357.27;-4;-19.77;-3.70;113.1;19.20;77472;2836.883;-1758.343;1;2;-130;-132.3;42.3;42.6;16;15.3;24.7;0.0;
05/03/2025 07:08:15;100;0;355.70;-4;-19.97;-3.89;116.0;19.20;77453;2836.886;-1758.343;1;2;-130;-132.3;42.3;42.7;16;15.3;24.8;0.0;
05/03/2025 07:08:35;100;0;353.78;-4;-19.80;-3.55;119.1;19.20;77464;2836.889;-1758.344;1;2;-130;-132.3;42.3;42.6;14;14.0;24.8;0.0;
05/03/2025 07:08:55;100;0;352.73;-4;-19.14;-4.78;121.9;19.20;77456;2836.892;-1758.344;1;2;-130;-132.3;42.3;42.6;14;13.5;24.7;0.0;
05/03/2025 07:09:15;100;0;352.95;-4;-19.80;-4.72;124.8;19.20;77449;2836.895;-1758.344;1;2;-130;-132.3;42.3;42.7;14;13.5;24.7;0.0;
05/03/2025 07:09:35;100;0;351.86;-4;-19.49;-4.81;127.7;19.20;77453;2836.898;-1758.345;1;2;-130;-132.3;42.3;42.6;14;13.5;24.7;0.0;
05/03/2025 07:09:55;100;0;351.69;-4;-19.51;-4.73;130.7;19.20;77445;2836.902;-1758.345;1;2;-130;-132.3;42.3;42.6;14;13.5;24.7;0.0;
05/03/2025 07:10:15;100;0;352.41;-4;-19.66;-4.84;133.7;19.20;77442;2836.905;-1758.346;1;2;-130;-132.3;42.3;42.7;14;13.5;24.7;0.0;
05/03/2025 07:10:35;100;0;351.87;-4;-19.67;-4.79;136.7;19.20;77440;2836.908;-1758.346;1;2;-130;-133.9;42.3;42.6;14;13.5;24.7;0.0;
05/03/2025 07:10:55;100;0;349.01;-4;-18.95;-4.86;139.8;19.10;77443;2836.911;-1758.347;1;2;-130;-132.3;42.7;42.7;11;10.8;24.7;0.0;
05/03/2025 07:11:15;100;0;348.55;-4;-18.75;-6.96;142.7;19.10;77429;2836.914;-1758.348;1;2;-130;-132.3;43.0;43.2;11;10.4;24.7;0.0;
05/03/2025 07:11:35;100;0;350.92;-4;-20.71;-5.65;145.6;19.10;77430;2836.917;-1758.348;1;2;-130;-132.3;43.0;43.4;13;13.1;24.7;0.0;
05/03/2025 07:11:55;100;0;350.06;-4;-21.77;-4.85;148.8;19.10;77425;2836.920;-1758.349;1;2;-130;-133.9;43.0;43.4;13;13.5;24.7;0.0;
05/03/2025 07:12:15;100;0;357.21;-4;-20.27;-4.58;152.0;19.10;77380;2836.924;-1758.349;1;2;-130;-132.3;43.0;43.4;15;14.9;24.7;0.0;
05/03/2025 07:12:35;100;0;2.41;-4;-20.43;-3.69;155.0;19.10;77344;2836.927;-1758.348;1;2;-130;-132.3;43.0;43.4;15;15.3;24.8;0.0;
05/03/2025 07:12:55;100;0;2.19;-4;-19.89;-3.82;157.8;19.00;77315;2836.930;-1758.348;1;2;-130;-132.3;43.0;43.4;15;15.3;24.7;0.0;
05/03/2025 07:13:15;100;0;0.61;-4;-20.76;-3.86;160.6;19.00;77291;2836.932;-1758.348;1;2;-130;-132.3;43.0;43.4;15;15.3;24.7;0.0;
05/03/2025 07:13:35;100;0;359.15;-4;-21.00;-3.59;163.6;19.00;77283;2836.935;-1758.348;1;2;-130;-132.3;43.0;43.4;15;15.3;24.7;0.0;
05/03/2025 07:13:55;100;0;355.51;-4;-20.23;-3.67;166.9;19.00;77250;2836.939;-1758.348;1;2;-130;-133.9;43.0;43.4;15;15.3;24.7;0.0;
05/03/2025 07:14:15;100;0;354.47;-4;-19.93;-3.75;169.9;18.90;77242;2836.942;-1758.348;1;2;-130;-132.3;43.0;43.4;15;15.3;24.7;0.0;
05/03/2025 07:14:35;100;0;354.08;-4;-20.18;-3.84;172.7;18.90;77233;2836.945;-1758.349;1;2;-130;-132.3;43.0;43.4;15;15.3;24.7;0.0;
05/03/2025 07:14:55;100;0;354.14;-4;-20.58;-3.77;175.8;18.90;77200;2836.948;-1758.349;1;2;-130;-133.9;43.0;43.4;15;15.3;24.7;0.0;
05/03/2025 07:15:15;100;0;355.21;-4;-20.63;-3.80;179.2;18.80;77177;2836.951;-1758.349;1;2;-130;-133.9;43.0;43.4;15;15.3;24.7;0.0;
05/03/2025 07:15:35;100;0;358.07;-4;-19.94;-3.81;182.8;18.80;77159;2836.955;-1758.349;1;2;-130;-133.9;43.0;43.4;15;15.3;24.7;0.0;
05/03/2025 07:15:55;100;0;0.06;-4;-20.15;-3.80;185.9;18.70;77138;2836.959;-1758.349;1;2;-130;-132.3;43.0;43.4;15;15.3;24.8;0.0;
05/03/2025 07:16:15;100;0;3.56;-4;-20.22;-3.77;189.3;18.70;77131;2836.962;-1758.348;1;2;-130;-132.3;43.0;43.4;15;15.3;24.8;0.0;
05/03/2025 07:16:35;100;0;5.82;-4;-20.71;-3.71;192.8;18.60;77117;2836.966;-1758.348;1;2;-130;-132.3;43.0;43.4;15;15.3;24.7;0.0;
05/03/2025 07:16:55;100;0;4.35;-4;-21.22;-3.73;196.4;18.60;77111;2836.970;-1758.347;1;2;-130;-135.5;43.0;43.4;15;15.3;24.7;0.0;
05/03/2025 07:17:15;100;0;4.41;-4;-21.08;-3.81;200.3;18.50;77093;2836.974;-1758.347;1;2;-130;-132.3;43.0;43.4;15;15.3;24.7;0.0;
05/03/2025 07:17:35;100;0;4.48;-4;-19.56;-3.61;204.0;18.50;77081;2836.978;-1758.346;1;2;-130;-130.6;43.0;43.4;15;15.3;24.7;0.0;
05/03/2025 07:17:55;100;0;5.75;-4;-19.84;-3.81;207.5;18.50;77066;2836.981;-1758.345;1;2;-130;-132.3;43.0;43.4;15;15.3;24.7;0.0;
05/03/2025 07:18:15;100;0;2.76;-4;-19.25;-4.11;210.8;18.40;77051;2836.985;-1758.345;1;2;-130;-132.3;43.0;43.4;15;15.3;24.7;0.0;
05/03/2025 07:18:35;100;0;2.87;-4;-19.26;-3.62;214.3;18.40;77039;2836.989;-1758.344;1;2;-130;-132.3;43.0;43.4;15;15.3;24.7;0.0;
05/03/2025 07:18:55;100;0;358.92;-4;-20.04;-3.84;217.5;18.30;77035;2836.992;-1758.344;1;2;-130;-132.3;43.0;43.4;15;15.3;24.7;0.0;
05/03/2025 07:19:15;100;0;357.15;-4;-20.01;-3.82;220.8;18.30;77019;2836.996;-1758.344;1;2;-130;-132.3;43.0;43.4;15;15.3;24.7;0.0;
05/03/2025 07:19:35;100;0;354.35;-4;-19.39;-3.80;224.2;18.30;77018;2837.000;-1758.345;1;2;-130;-137.1;43.0;43.4;15;15.3;24.7;0.0;
05/03/2025 07:19:55;100;0;353.30;-4;-19.59;-3.91;227.4;18.20;76992;2837.003;-1758.345;1;2;-130;-132.3;43.0;43.4;15;15.3;24.7;0.0;
05/03/2025 07:20:15;100;0;352.30;-4;-19.98;-3.94;230.6;18.20;76981;2837.006;-1758.346;1;2;-130;-133.9;43.0;43.4;13;13.1;24.7;0.0;
05/03/2025 07:20:35;100;0;351.45;-4;-20.42;-4.88;233.9;18.10;76968;2837.010;-1758.346;1;2;-130;-132.3;43.0;43.4;13;13.5;24.7;0.0;
05/03/2025 07:20:55;100;0;351.24;-4;-20.23;-4.77;237.4;18.10;76961;2837.014;-1758.347;1;2;-130;-132.3;43.0;43.4;13;13.5;24.7;0.0;
05/03/2025 07:21:15;100;0;354.13;-4;-19.07;-5.01;240.7;18.00;76944;2837.017;-1758.347;1;2;-130;-133.9;43.0;43.4;13;13.5;24.7;0.0;
05/03/2025 07:21:35;100;0;354.79;-4;-19.35;-4.92;243.9;18.00;76923;2837.021;-1758.347;1;2;-130;-133.9;43.0;43.4;13;13.1;24.7;0.0;
05/03/2025 07:21:55;100;0;355.30;-4;-19.37;-4.90;246.8;17.90;76908;2837.024;-1758.348;1;2;-130;-132.3;43.0;43.4;13;13.5;24.7;0.0;
05/03/2025 07:22:15;100;0;357.86;-4;-19.82;-4.89;250.0;17.90;76888;2837.027;-1758.348;1;2;-130;-132.3;43.0;43.4;13;13.5;24.7;0.0;
05/03/2025 07:22:35;100;0;359.82;-4;-20.07;-4.86;253.2;17.80;76877;2837.031;-1758.347;1;2;-130;-132.3;43.0;43.4;13;13.5;24.7;0.0;
05/03/2025 07:22:55;100;0;2.62;-4;-20.21;-4.77;256.5;17.80;76860;2837.034;-1758.347;1;2;-130;-132.3;43.0;43.4;15;15.3;24.8;0.0;
05/03/2025 07:23:15;100;0;5.24;-4;-20.50;-3.55;259.9;17.70;76848;2837.038;-1758.346;1;2;-130;-132.3;43.0;43.4;15;15.3;24.7;0.0;
05/03/2025 07:23:35;100;0;4.89;-4;-20.07;-3.65;263.6;17.70;76823;2837.042;-1758.346;1;2;-130;-132.3;43.0;43.4;15;15.3;24.7;0.0;
05/03/2025 07:23:55;100;0;5.27;-4;-19.89;-3.71;267.0;17.60;76828;2837.046;-1758.345;1;2;-130;-133.9;43.0;43.4;15;15.3;24.7;0.0;
05/03/2025 07:24:15;100;0;5.61;-4;-19.92;-3.66;270.4;17.60;76803;2837.049;-1758.344;1;2;-130;-133.9;43.0;43.4;15;15.8;24.8;0.0;
05/03/2025 07:24:35;100;0;6.09;-4;-19.84;-3.65;273.9;17.50;76793;2837.053;-1758.344;1;2;-130;-133.9;43.0;43.4;15;15.8;24.7;0.0;
05/03/2025 07:24:55;100;0;4.22;-4;-19.86;-3.65;277.5;17.50;76793;2837.057;-1758.343;1;2;-130;-132.3;43.0;43.4;15;15.8;24.7;0.0;
05/03/2025 07:25:15;100;0;1.34;-4;-19.64;-3.63;280.9;17.40;76768;2837.060;-1758.343;1;2;-130;-132.3;43.0;43.4;15;15.8;24.7;0.0;
05/03/2025 07:25:35;100;0;359.72;-4;-19.74;-3.74;284.2;17.40;76749;2837.064;-1758.343;1;2;-130;-132.3;43.0;43.4;15;15.8;24.7;0.0;
05/03/2025 07:25:55;100;0;358.45;-4;-19.26;-3.72;287.5;17.30;76746;2837.068;-1758.343;1;2;-130;-132.3;43.0;43.4;15;15.8;24.7;0.0;
05/03/2025 07:26:15;100;0;358.55;-4;-19.32;-3.62;290.8;17.30;76734;2837.071;-1758.343;1;2;-130;-133.9;43.0;43.4;15;15.3;24.7;0.0;
05/03/2025 07:26:35;100;0;358.81;-4;-19.69;-3.67;293.8;17.20;76722;2837.074;-1758.343;1;2;-130;-132.3;43.0;43.4;15;15.8;24.7;0.0;
05/03/2025 07:26:55;100;0;358.78;-4;-19.25;-3.71;297.1;17.20;76713;2837.078;-1758.343;1;2;-130;-133.9;43.0;43.4;15;15.8;24.7;0.0;
05/03/2025 07:27:15;100;0;356.21;-4;-19.17;-3.70;300.2;17.10;76707;2837.081;-1758.343;1;2;-130;-132.3;43.0;43.4;15;15.8;24.8;0.0;
05/03/2025 07:27:35;100;0;355.71;-4;-18.92;-3.76;303.1;17.10;76707;2837.085;-1758.343;1;2;-130;-133.9;43.4;43.3;15;15.3;24.7;0.0;
05/03/2025 07:27:55;100;0;355.81;-4;-19.95;-3.66;306.0;17.00;76695;2837.088;-1758.343;1;2;-130;-132.3;43.4;43.3;15;15.8;24.7;0.0;
05/03/2025 07:28:15;100;0;355.68;-4;-19.86;-3.67;309.1;17.00;76677;2837.091;-1758.343;1;2;-130;-132.3;43.4;43.3;15;15.8;24.7;0.0;
05/03/2025 07:28:35;100;0;355.19;-4;-19.23;-3.69;312.2;16.90;76666;2837.094;-1758.343;1;2;-130;-132.3;43.4;43.3;15;15.3;24.7;0.0;
05/03/2025 07:28:55;100;0;353.41;-4;-19.49;-3.80;315.4;16.90;76668;2837.098;-1758.344;1;2;-130;-133.9;43.4;43.3;13;10.4;24.7;0.0;
05/03/2025 07:29:15;100;0;353.35;-4;-19.43;-4.56;318.3;16.80;76645;2837.101;-1758.344;1;2;-130;-132.3;43.4;43.2;13;14.0;24.8;0.0;
05/03/2025 07:29:35;100;0;354.33;-4;-19.52;-4.49;321.7;16.80;76626;2837.105;-1758.344;1;2;-130;-132.3;43.4;43.2;13;14.4;24.7;0.0;
05/03/2025 07:29:55;100;0;354.58;-4;-19.41;-4.49;325.0;16.70;76628;2837.108;-1758.345;1;2;-130;-132.3;43.4;43.3;13;14.0;24.8;0.0;
05/03/2025 07:30:15;100;0;355.71;-4;-19.47;-4.53;328.4;16.70;76610;2837.112;-1758.345;1;2;-130;-133.9;43.4;43.3;13;14.0;24.7;0.0;
05/03/2025 07:30:35;100;0;358.19;-4;-19.38;-4.43;331.8;16.60;76607;2837.116;-1758.345;1;2;-130;-132.3;43.4;43.2;13;14.0;24.7;0.0;
05/03/2025 07:30:55;100;0;356.74;-4;-18.93;-4.53;334.9;16.60;76589;2837.119;-1758.345;1;2;-130;-132.3;43.7;43.9;13;14.0;24.8;0.0;
05/03/2025 07:31:15;100;0;356.31;-4;-20.14;-4.47;337.8;16.50;76575;2837.122;-1758.345;1;2;-130;-133.9;43.7;44.0;13;14.0;24.7;0.0;
05/03/2025 07:31:36;100;0;355.69;-4;-20.41;-4.49;341.0;16.50;76564;2837.126;-1758.345;1;2;-130;-135.5;43.7;44.0;13;14.0;24.7;0.0;
05/03/2025 07:31:56;100;0;355.53;-4;-20.49;-4.46;344.2;16.50;76557;2837.129;-1758.346;1;2;-130;-132.3;43.7;44.0;13;14.0;24.8;0.0;
05/03/2025 07:32:16;100;0;355.58;-4;-20.58;-4.44;347.2;16.40;76546;2837.132;-1758.346;1;2;-130;-133.9;43.7;44.0;13;14.0;24.7;0.0;
05/03/2025 07:32:36;100;0;355.02;-4;-20.40;-4.46;350.3;16.30;76537;2837.135;-1758.346;1;2;-130;-132.3;43.7;44.0;13;14.0;24.7;0.0;
05/03/2025 07:32:56;100;0;353.80;-4;-20.78;-4.48;353.2;16.30;76536;2837.138;-1758.346;1;2;-130;-132.3;43.7;44.0;13;14.0;24.8;0.0;
05/03/2025 07:33:16;100;0;349.50;-4;-20.55;-4.43;356.1;16.30;76524;2837.141;-1758.347;1;2;-130;-133.9;43.7;44.0;11;10.8;24.7;0.0;
05/03/2025 07:33:36;100;0;350.88;-4;-20.46;-6.28;359.1;16.20;76512;2837.144;-1758.347;1;2;-130;-133.9;43.7;44.0;11;10.4;24.7;0.0;
05/03/2025 07:33:56;100;0;352.50;-4;-20.39;-6.54;362.1;16.20;76509;2837.147;-1758.348;1;2;-130;-132.3;43.7;44.0;13;13.1;24.7;0.0;
05/03/2025 07:34:16;100;0;355.25;-4;-20.62;-4.71;365.2;16.10;76496;2837.150;-1758.348;1;2;-130;-133.9;43.7;44.0;13;13.5;24.7;0.0;
05/03/2025 07:34:36;100;0;356.46;-4;-20.61;-4.64;368.2;16.10;76493;2837.153;-1758.348;1;2;-130;-132.3;43.7;44.0;13;13.5;24.7;0.0;
05/03/2025 07:34:56;100;0;357.43;-4;-20.63;-4.55;371.3;16.00;76492;2837.156;-1758.348;1;2;-130;-130.6;43.7;44.0;13;13.5;24.7;0.0;
05/03/2025 07:35:16;100;0;357.97;-4;-20.51;-4.68;374.4;16.00;76477;2837.159;-1758.348;1;2;-130;-132.3;43.7;44.0;13;13.5;24.7;0.0;
05/03/2025 07:35:36;100;0;354.79;-4;-20.31;-4.64;377.2;16.00;76479;2837.162;-1758.348;1;2;-130;-132.3;43.7;44.0;13;13.5;24.7;0.0;
05/03/2025 07:35:56;100;0;351.98;-4;-20.61;-4.80;380.2;15.90;76466;2837.165;-1758.349;1;2;-130;-132.3;43.7;44.0;13;13.5;24.7;0.0;
05/03/2025 07:36:16;100;0;349.25;-4;-20.95;-4.69;383.2;15.90;76460;2837.168;-1758.349;1;2;-130;-133.9;43.7;44.0;11;10.8;24.7;0.0;
05/03/2025 07:36:36;100;0;349.18;-4;-20.56;-6.18;386.5;15.80;76443;2837.172;-1758.350;1;2;-130;-132.3;43.7;44.2;11;10.8;24.7;0.0;
05/03/2025 07:36:56;100;0;347.83;-4;-20.48;-6.18;389.7;15.80;76440;2837.175;-1758.351;1;2;-130;-132.3;43.7;44.0;9;9.0;24.7;0.0;
05/03/2025 07:37:16;100;0;347.70;-4;-20.40;-7.14;392.7;15.80;76435;2837.178;-1758.351;1;2;-130;-132.3;43.7;44.0;9;8.6;24.8;0.0;
05/03/2025 07:37:36;100;0;349.13;-4;-20.24;-7.18;395.8;15.70;76440;2837.181;-1758.352;1;2;-130;-132.3;43.7;44.0;11;10.8;24.7;0.0;
05/03/2025 07:37:56;100;0;350.10;-4;-20.41;-5.82;398.8;15.70;76436;2837.184;-1758.353;1;2;-130;-132.3;43.7;44.0;11;11.3;24.7;0.0;
05/03/2025 07:38:16;100;0;349.53;-4;-20.51;-5.81;401.8;15.60;76429;2837.187;-1758.353;1;2;-130;-132.3;43.7;44.0;11;11.3;24.7;0.0;
05/03/2025 07:38:36;100;0;349.60;-4;-20.56;-5.84;404.8;15.60;76413;2837.190;-1758.354;1;2;-130;-132.3;43.7;44.0;11;11.3;24.7;0.0;
05/03/2025 07:38:56;100;0;350.12;-4;-20.62;-5.80;407.8;15.60;76411;2837.193;-1758.354;1;2;-130;-132.3;43.7;44.0;11;11.3;24.8;0.0;
05/03/2025 07:39:16;100;0;351.16;-4;-20.61;-5.76;410.8;15.50;76391;2837.196;-1758.355;1;2;-130;-132.3;43.7;44.0;11;10.8;24.8;0.0;
05/03/2025 07:39:36;100;0;353.67;-4;-20.57;-5.76;413.8;15.50;76395;2837.199;-1758.355;1;2;-130;-133.9;43.7;44.0;13;13.1;24.7;0.0;
05/03/2025 07:39:56;100;0;354.52;-4;-20.64;-4.81;417.0;15.50;76397;2837.202;-1758.355;1;2;-130;-132.3;43.7;44.0;13;13.1;24.7;0.0;
05/03/2025 07:40:16;100;0;355.14;-4;-21.06;-4.86;420.0;15.40;76394;2837.205;-1758.356;1;2;-130;-133.9;43.7;44.0;13;13.5;24.8;0.0;
05/03/2025 07:40:36;100;0;355.20;-4;-20.73;-4.80;423.3;15.40;76394;2837.209;-1758.356;1;2;-130;-132.3;43.7;44.0;13;13.5;24.7;0.0;
05/03/2025 07:40:56;100;0;353.40;-4;-20.75;-4.70;426.5;15.40;76374;2837.212;-1758.356;1;2;-130;-132.3;43.7;44.0;13;13.5;24.7;0.0;
05/03/2025 07:41:16;100;0;352.48;-4;-21.17;-4.72;429.5;15.30;76379;2837.215;-1758.357;1;2;-130;-133.9;43.7;44.2;13;13.5;24.7;0.0;
05/03/2025 07:41:36;100;0;353.91;-4;-20.24;-4.72;432.7;15.30;76376;2837.218;-1758.357;1;2;-130;-132.3;43.7;44.0;13;13.5;24.8;0.0;
05/03/2025 07:41:56;100;0;356.07;-4;-20.37;-4.73;435.8;15.20;76369;2837.221;-1758.357;1;2;-130;-132.3;43.7;44.0;13;13.5;24.8;0.0;
05/03/2025 07:42:16;100;0;358.96;-4;-20.22;-4.64;438.7;15.20;76356;2837.224;-1758.357;1;2;-130;-132.3;43.7;44.0;13;13.5;24.7;0.0;
05/03/2025 07:42:36;100;0;0.02;-4;-20.19;-4.82;441.5;15.20;76360;2837.227;-1758.357;1;2;-130;-132.3;43.7;44.0;13;13.5;24.7;0.0;
05/03/2025 07:42:56;100;0;0.51;-4;-19.76;-4.82;444.4;15.20;76351;2837.230;-1758.357;1;2;-130;-132.3;43.7;44.0;13;13.5;24.7;0.0;
05/03/2025 07:43:16;100;0;0.67;-4;-20.95;-4.73;446.9;15.10;76344;2837.233;-1758.356;1;2;-130;-133.9;43.7;44.2;13;13.5;24.7;0.0;
05/03/2025 07:43:36;100;0;2.09;-4;-20.75;-4.84;449.8;15.10;76334;2837.236;-1758.356;1;2;-130;-132.3;43.7;44.0;13;13.5;24.8;0.0;
05/03/2025 07:43:56;100;0;2.71;-4;-21.14;-4.78;452.7;15.00;76323;2837.238;-1758.356;1;2;-130;-133.9;43.7;44.0;13;13.5;24.8;0.0;
05/03/2025 07:44:16;100;0;0.35;-4;-21.48;-4.78;455.8;15.00;76330;2837.242;-1758.356;1;2;-130;-132.3;43.7;44.2;13;13.5;24.8;0.0;
05/03/2025 07:44:36;100;0;1.49;-4;-21.14;-4.66;459.2;15.00;76319;2837.245;-1758.355;1;2;-130;-132.3;43.7;44.0;13;13.5;24.7;0.0;
05/03/2025 07:44:56;100;0;0.60;-4;-19.28;-4.81;462.1;15.00;76320;2837.248;-1758.355;1;2;-130;-132.3;43.7;44.0;13;13.1;24.7;0.0;
05/03/2025 07:45:16;100;0;3.12;-4;-19.65;-4.53;464.8;14.90;76308;2837.251;-1758.355;1;2;-130;-132.3;43.7;44.0;13;13.5;24.7;0.0;
05/03/2025 07:45:36;100;0;1.11;-4;-19.43;-5.20;467.4;14.90;76302;2837.254;-1758.354;1;2;-130;-132.3;43.7;44.0;13;13.5;24.8;0.0;
05/03/2025 07:45:56;100;0;359.80;-4;-20.24;-4.75;469.5;14.90;76316;2837.256;-1758.354;1;2;-130;-133.9;43.7;44.0;13;13.5;24.8;0.0;
05/03/2025 07:46:16;100;0;1.77;-4;-21.79;-5.49;471.7;14.80;76294;2837.258;-1758.354;1;2;-130;-132.3;43.7;44.0;13;13.5;24.7;0.0;
05/03/2025 07:46:36;100;0;357.70;-4;-19.14;-4.51;474.1;14.80;76292;2837.260;-1758.354;1;2;-130;-132.3;43.7;44.0;13;13.5;24.7;0.0;
05/03/2025 07:46:56;100;0;356.84;-4;-23.60;-4.62;476.5;14.80;76287;2837.262;-1758.354;1;2;-130;-133.9;42.6;42.6;13;13.5;24.7;0.0;
05/03/2025 07:47:16;100;0;353.84;-4;-18.74;-4.86;479.6;14.80;76296;2837.265;-1758.354;1;2;-130;-132.3;43.0;43.2;13;13.5;24.7;0.0;
05/03/2025 07:47:36;100;0;353.69;-4;-19.44;-4.89;483.0;14.70;76282;2837.269;-1758.355;1;2;-130;-132.3;43.0;43.3;13;13.5;24.8;0.0;
05/03/2025 07:47:56;100;0;355.99;-4;-18.33;-4.73;486.2;14.70;76280;2837.273;-1758.355;1;2;-130;-133.9;43.5;43.4;13;13.1;24.7;0.0;
05/03/2025 07:48:16;100;0;355.28;-4;-18.95;-4.88;489.3;14.70;76276;2837.276;-1758.355;1;2;-130;-132.3;43.8;43.7;13;13.5;24.7;0.0;
05/03/2025 07:48:36;100;0;356.87;-4;-19.07;-4.78;492.3;14.70;76274;2837.280;-1758.355;1;2;-130;-132.3;43.8;43.7;13;13.5;24.7;0.0;
05/03/2025 07:48:56;100;0;356.12;-4;-19.64;-5.02;495.2;14.60;76270;2837.283;-1758.355;1;2;-130;-133.9;43.8;43.7;13;13.5;24.8;0.0;
05/03/2025 07:49:16;100;0;354.92;-4;-19.22;-4.71;498.2;14.60;76263;2837.286;-1758.356;1;2;-130;-132.3;43.8;43.7;13;13.5;24.8;0.0;
05/03/2025 07:49:21;118;0;355.10;-4;-19.17;-4.79;498.8;14.60;76260;2837.286;-1758.356;1;2;450;-130.6;21.3;21.4;8;7.7;24.7;0.0;
05/03/2025 07:49:31;118;0;40.17;-4;-5.61;-8.50;499.8;14.60;76241;2837.287;-1758.354;1;2;450;-1.6;21.3;21.1;8;7.7;24.0;-1.0;
05/03/2025 07:49:41;118;0;37.00;-4;19.98;-8.61;500.1;14.60;75968;2837.287;-1758.354;1;2;450;122.6;21.3;21.4;8;7.7;23.9;-1.0;
05/03/2025 07:49:51;118;0;33.64;-4;28.81;-8.74;499.2;14.60;75697;2837.288;-1758.353;1;2;450;248.4;21.3;21.4;8;7.7;23.9;-1.0;
05/03/2025 07:50:01;118;0;34.59;-4;27.83;-8.43;498.3;14.60;75439;2837.288;-1758.353;1;2;450;371.0;21.3;21.4;8;7.7;23.9;-1.0;
05/03/2025 07:50:11;118;0;33.73;-4;25.93;-7.94;496.9;14.60;75181;2837.289;-1758.352;1;2;450;451.6;21.3;21.4;8;7.7;23.8;-1.0;
05/03/2025 07:50:21;118;0;351.65;-4;23.23;-7.43;495.2;14.50;75014;2837.290;-1758.352;1;2;450;451.6;21.3;21.4;8;7.7;24.7;-1.0;
05/03/2025 07:50:41;117;0;344.48;-4;19.97;-7.39;491.7;14.50;75014;2837.294;-1758.353;1;2;450;450.0;21.3;21.4;8;7.7;24.7;-1.0;
05/03/2025 07:51:01;117;0;335.46;-4;18.89;-7.67;488.0;14.50;75014;2837.298;-1758.355;1;2;450;453.2;21.0;21.2;55;55.1;24.7;-1.0;
05/03/2025 07:51:21;117;0;344.16;-4;19.93;16.97;484.7;14.50;75010;2837.301;-1758.356;1;2;450;451.6;21.0;21.2;40;40.2;24.7;-1.0;
05/03/2025 07:51:41;117;0;348.69;-4;22.54;9.26;481.2;14.50;75002;2837.304;-1758.357;1;2;450;451.6;21.7;21.8;34;33.8;24.7;-1.0;
05/03/2025 07:52:01;117;0;353.30;-4;21.00;5.85;477.4;14.50;75017;2837.308;-1758.358;1;2;450;451.6;21.7;21.8;31;31.1;24.7;-1.0;
05/03/2025 07:52:21;117;0;351.30;-4;20.82;3.97;474.0;14.40;75002;2837.312;-1758.358;1;2;450;451.6;21.7;21.9;31;30.7;24.7;-1.0;
05/03/2025 07:52:41;117;0;354.13;-4;19.28;4.26;470.6;14.40;74997;2837.315;-1758.359;1;2;450;451.6;21.7;21.8;31;30.7;24.7;-1.0;
05/03/2025 07:53:01;117;0;354.49;-4;19.70;4.33;467.9;14.40;74997;2837.318;-1758.359;1;2;450;451.6;21.7;21.9;31;30.7;24.7;-1.0;
05/03/2025 07:53:21;117;0;357.33;-4;20.10;5.17;464.9;14.40;74997;2837.321;-1758.359;1;2;450;451.6;21.7;21.8;31;30.7;24.7;-1.0;
05/03/2025 07:53:41;117;0;359.51;-4;20.24;4.38;461.7;14.40;74987;2837.325;-1758.359;1;2;450;451.6;21.7;21.8;31;30.7;24.7;-1.0;
05/03/2025 07:54:01;117;0;358.03;-4;19.41;4.68;458.7;14.30;74980;2837.328;-1758.359;1;2;450;451.6;21.7;21.8;31;30.7;24.7;-1.0;
05/03/2025 07:54:21;117;0;355.92;-4;21.07;4.36;455.9;14.30;74978;2837.331;-1758.359;1;2;450;453.2;21.7;21.8;31;30.7;24.7;-1.0;
05/03/2025 07:54:41;117;0;356.55;-4;19.80;4.92;452.8;14.30;74974;2837.334;-1758.359;1;2;450;451.6;21.7;21.8;31;30.7;24.7;-1.0;
05/03/2025 07:55:01;117;0;356.55;-4;20.25;4.52;449.8;14.30;74970;2837.337;-1758.359;1;2;450;453.2;21.7;21.8;31;30.7;24.7;-1.0;
05/03/2025 07:55:21;117;0;355.57;-4;19.54;4.69;446.8;14.20;74975;2837.340;-1758.359;1;2;450;451.6;21.7;21.9;31;30.7;24.7;-1.0;
05/03/2025 07:55:41;117;0;356.33;-4;20.24;4.60;444.0;14.20;74962;2837.343;-1758.359;1;2;450;451.6;21.7;21.8;31;30.7;24.8;-1.0;
05/03/2025 07:56:01;117;0;356.30;-4;20.42;4.42;441.2;14.20;74973;2837.346;-1758.359;1;2;450;451.6;21.7;21.8;31;30.7;24.7;-1.0;
05/03/2025 07:56:21;117;0;357.34;-4;20.38;4.42;438.4;14.20;74968;2837.349;-1758.359;1;2;450;451.6;21.7;21.8;31;30.7;24.7;-1.0;
05/03/2025 07:56:41;117;0;355.88;-4;20.19;4.41;435.6;14.20;74959;2837.352;-1758.359;1;2;450;451.6;21.7;21.8;31;30.7;24.7;-1.0;
05/03/2025 07:57:01;117;0;356.41;-4;20.40;4.34;432.9;14.10;74976;2837.355;-1758.360;1;2;450;451.6;21.7;21.8;31;30.7;24.7;-1.0;
05/03/2025 07:57:21;117;0;357.11;-4;20.31;4.43;430.1;14.10;74974;2837.357;-1758.360;1;2;450;451.6;21.7;21.8;31;30.7;24.7;-1.0;
05/03/2025 07:57:41;117;0;356.87;-4;20.41;4.26;427.1;14.10;74972;2837.361;-1758.360;1;2;450;450.0;21.7;21.8;31;30.7;24.7;-1.0;
05/03/2025 07:58:01;117;0;357.77;-4;20.48;4.23;424.3;14.10;74984;2837.363;-1758.360;1;2;450;451.6;21.7;21.8;31;30.7;24.7;-1.0;
05/03/2025 07:58:21;117;0;358.53;-4;20.29;4.42;421.2;14.10;74981;2837.367;-1758.360;1;2;450;451.6;21.7;21.9;31;30.7;24.7;-1.0;
05/03/2025 07:58:41;117;0;0.24;-4;20.25;4.36;418.2;14.10;74977;2837.370;-1758.359;1;2;450;453.2;21.7;21.8;31;30.7;24.7;-1.0;
05/03/2025 07:59:01;117;0;1.03;-4;20.47;4.50;415.2;14.10;74977;2837.373;-1758.359;1;2;450;453.2;21.7;21.9;31;30.7;24.7;-1.0;
05/03/2025 07:59:21;117;0;2.07;-4;20.40;4.42;411.9;14.10;74974;2837.376;-1758.359;1;2;450;453.2;21.7;21.8;31;30.7;24.7;-1.0;
05/03/2025 07:59:41;117;0;3.10;-4;20.38;4.27;408.7;14.10;74975;2837.380;-1758.358;1;2;450;453.2;21.7;21.8;31;30.7;24.7;-1.0;
05/03/2025 08:00:01;117;0;4.09;-4;20.45;4.27;405.3;14.10;74980;2837.384;-1758.358;1;2;450;450.0;21.7;21.9;31;30.7;24.7;-1.0;
05/03/2025 08:00:21;117;0;5.52;-4;20.61;4.50;401.9;14.00;74974;2837.387;-1758.357;1;2;450;453.2;21.7;21.8;31;30.7;24.8;-1.0;
05/03/2025 08:00:41;117;0;7.52;-4;20.54;4.47;398.2;14.00;74975;2837.391;-1758.356;1;2;450;451.6;21.7;21.8;29;28.9;24.7;-1.0;
05/03/2025 08:01:01;117;0;6.63;-4;20.41;3.42;394.7;14.00;74959;2837.395;-1758.356;1;2;450;451.6;21.7;21.8;29;28.9;24.7;-1.0;
05/03/2025 08:01:21;117;0;6.22;-4;20.42;3.34;390.9;14.00;74959;2837.399;-1758.355;1;2;450;453.2;21.7;21.8;29;28.9;24.7;-1.0;
05/03/2025 08:01:41;117;0;11.64;-4;20.59;3.52;386.8;14.00;74975;2837.403;-1758.353;1;2;450;451.6;21.7;21.9;26;26.2;24.7;-1.0;
05/03/2025 08:02:01;117;0;7.33;-4;20.01;1.99;382.9;14.00;74976;2837.407;-1758.353;1;2;450;451.6;21.7;21.8;29;29.3;24.7;-1.0;
05/03/2025 08:02:21;117;0;10.48;-4;19.55;3.83;379.2;14.00;74968;2837.411;-1758.351;1;2;450;451.6;21.7;21.8;27;27.1;24.7;-1.0;
05/03/2025 08:02:41;117;0;10.43;-4;20.01;2.43;375.6;14.00;74960;2837.415;-1758.350;1;2;450;451.6;21.7;21.9;27;27.1;24.7;-1.0;
05/03/2025 08:03:01;117;0;9.47;-4;19.34;2.42;372.3;14.00;74972;2837.419;-1758.349;1;2;450;453.2;21.7;21.8;27;27.1;24.7;-1.0;
05/03/2025 08:03:21;117;0;8.36;-4;20.42;3.06;368.5;14.00;74964;2837.423;-1758.348;1;2;450;453.2;21.7;21.8;27;27.1;24.7;-1.0;
05/03/2025 08:03:41;117;0;7.40;-4;19.74;2.42;364.6;14.00;74961;2837.427;-1758.347;1;2;450;453.2;21.7;21.8;29;28.9;24.7;-1.0;
05/03/2025 08:04:01;117;0;6.81;-4;20.02;3.64;360.9;14.00;74964;2837.431;-1758.347;1;2;450;453.2;21.7;21.9;29;28.9;24.7;-1.0;
05/03/2025 08:04:21;117;0;7.49;-4;20.37;3.67;357.2;13.90;74970;2837.435;-1758.346;1;2;450;453.2;21.7;21.9;29;28.9;24.7;-1.0;
05/03/2025 08:04:42;117;0;7.87;-4;19.92;3.58;353.4;14.00;74983;2837.439;-1758.345;1;2;450;451.6;21.7;21.8;29;28.9;24.7;-1.0;
05/03/2025 08:05:02;117;0;7.49;-4;19.59;3.58;349.6;14.00;74978;2837.443;-1758.344;1;2;450;450.0;21.7;21.9;29;29.3;24.7;-1.0;
05/03/2025 08:05:22;117;0;7.68;-4;19.75;3.45;346.1;13.90;74978;2837.447;-1758.343;1;2;450;451.6;21.7;21.9;29;28.9;24.8;-1.0;
05/03/2025 08:05:42;117;0;7.00;-4;20.03;3.71;342.6;13.90;74978;2837.451;-1758.342;1;2;450;451.6;21.7;21.8;29;28.9;24.7;-1.0;
05/03/2025 08:06:02;117;0;6.23;-4;19.77;3.61;339.0;13.90;74978;2837.455;-1758.342;1;2;450;451.6;21.7;21.9;29;28.9;24.7;-1.0;
05/03/2025 08:06:22;117;0;5.95;-4;20.15;3.34;335.4;14.00;74983;2837.459;-1758.341;1;2;450;451.6;21.7;21.8;29;28.9;24.7;-1.0;
05/03/2025 08:06:42;117;0;6.65;-4;19.84;3.68;331.9;14.00;74978;2837.462;-1758.340;1;2;450;453.2;21.7;21.9;29;29.3;24.7;-1.0;
05/03/2025 08:07:02;117;0;6.54;-4;19.61;3.75;328.4;13.90;74979;2837.466;-1758.339;1;2;450;451.6;21.7;21.8;29;29.3;24.7;-1.0;
05/03/2025 08:07:22;117;0;7.29;-4;19.79;3.64;324.7;14.00;74983;2837.470;-1758.338;1;2;450;454.8;21.7;21.8;29;28.9;24.7;-1.0;
05/03/2025 08:07:42;117;0;6.72;-4;20.15;3.66;321.1;14.00;74986;2837.474;-1758.338;1;2;450;453.2;21.7;21.8;29;29.3;24.7;-1.0;
05/03/2025 08:08:02;117;0;6.22;-4;20.18;3.72;317.7;14.00;74989;2837.478;-1758.337;1;2;450;453.2;21.7;21.9;29;28.9;24.7;-1.0;
05/03/2025 08:08:22;117;0;7.13;-4;19.84;3.64;314.0;14.00;74986;2837.481;-1758.336;1;2;450;453.2;21.7;21.8;29;28.9;24.7;-1.0;
05/03/2025 08:08:42;117;0;7.55;-4;19.86;3.65;310.5;14.00;75000;2837.485;-1758.335;1;2;450;453.2;21.7;21.9;29;28.9;24.7;-1.0;
05/03/2025 08:09:02;117;0;7.73;-4;19.69;3.66;307.0;14.00;75000;2837.489;-1758.334;1;2;450;451.6;21.7;21.8;29;29.3;24.7;-1.0;
05/03/2025 08:09:22;117;0;9.92;-4;19.68;3.72;303.3;14.00;75009;2837.493;-1758.333;1;2;450;451.6;21.7;21.9;26;26.2;24.7;-1.0;
05/03/2025 08:09:42;117;0;8.13;-4;19.61;2.11;299.9;14.00;75018;2837.497;-1758.332;1;2;450;453.2;21.7;21.8;28;28.0;24.7;-1.0;
05/03/2025 08:10:02;117;0;7.99;-4;19.67;3.17;296.6;14.00;75008;2837.500;-1758.332;1;2;450;453.2;21.7;21.9;28;28.4;24.7;-1.0;
05/03/2025 08:10:22;117;0;9.41;-4;19.48;3.11;293.3;14.00;75005;2837.504;-1758.331;1;2;450;453.2;21.7;21.9;28;28.0;24.7;-1.0;
05/03/2025 08:10:42;117;0;11.96;-4;19.82;3.15;290.0;14.00;75008;2837.507;-1758.329;1;2;450;453.2;21.7;21.8;24;23.9;24.7;-1.0;
05/03/2025 08:11:02;117;0;11.50;-4;19.93;0.79;286.6;14.00;75015;2837.511;-1758.328;1;2;450;453.2;21.7;21.9;24;23.5;24.7;-1.0;
05/03/2025 08:11:22;117;0;9.29;-4;19.51;0.78;283.4;14.00;75010;2837.514;-1758.327;1;2;450;453.2;21.7;21.9;27;27.1;24.7;-1.0;
05/03/2025 08:11:42;117;0;8.61;-4;19.63;2.86;280.2;14.00;75017;2837.517;-1758.326;1;2;450;453.2;21.7;21.8;27;27.5;24.7;-1.0;
05/03/2025 08:12:02;117;0;8.50;-4;19.96;3.05;277.1;14.00;75007;2837.521;-1758.326;1;2;450;453.2;21.7;21.9;27;27.5;24.7;-1.0;
05/03/2025 08:12:22;117;0;7.62;-4;19.42;2.82;273.6;14.00;75021;2837.525;-1758.325;1;2;450;453.2;21.7;21.8;27;27.5;24.7;-1.0;
05/03/2025 08:12:42;117;0;7.79;-4;19.70;2.91;270.4;14.00;75027;2837.528;-1758.324;1;2;450;453.2;21.7;21.9;27;27.5;24.7;-1.0;
05/03/2025 08:13:02;117;0;7.22;-4;19.54;3.02;267.2;14.00;75018;2837.531;-1758.323;1;2;450;453.2;21.7;21.8;27;27.5;24.7;-1.0;
05/03/2025 08:13:22;117;0;7.33;-4;19.48;2.92;264.0;14.00;75030;2837.535;-1758.322;1;2;450;453.2;21.7;21.8;27;27.5;24.7;-1.0;
05/03/2025 08:13:42;117;0;7.41;-4;19.51;2.91;260.9;14.10;75045;2837.538;-1758.322;1;2;450;453.2;21.7;21.8;27;27.5;24.7;-1.0;
05/03/2025 08:14:02;117;0;6.74;-4;19.76;2.96;257.7;14.00;75034;2837.541;-1758.321;1;2;450;453.2;21.7;21.9;27;27.5;24.7;-1.0;
05/03/2025 08:14:22;117;0;5.99;-4;19.75;2.88;254.5;14.10;75050;2837.545;-1758.320;1;2;450;453.2;21.7;21.9;27;27.5;24.7;-1.0;
05/03/2025 08:14:42;117;0;5.15;-4;19.70;2.87;251.4;14.10;75044;2837.548;-1758.320;1;2;450;453.2;21.7;21.8;27;27.5;24.7;-1.0;
05/03/2025 08:15:02;117;0;3.48;-4;19.57;2.87;248.1;14.10;75047;2837.551;-1758.319;1;2;450;453.2;21.7;21.9;29;28.9;24.7;-1.0;
05/03/2025 08:15:22;117;0;2.79;-4;19.76;3.80;244.8;14.10;75060;2837.555;-1758.319;1;2;450;453.2;21.7;21.8;29;29.3;24.7;-1.0;
05/03/2025 08:15:42;117;0;0.67;-4;19.63;3.89;241.8;14.10;75073;2837.558;-1758.319;1;2;450;454.8;21.7;21.8;29;28.9;24.7;-1.0;
05/03/2025 08:16:02;117;0;1.25;-4;19.58;3.76;238.5;14.10;75067;2837.562;-1758.318;1;2;450;453.2;21.7;21.8;29;29.3;24.7;-1.0;
05/03/2025 08:16:22;117;0;2.68;-4;19.53;3.69;235.6;14.10;75073;2837.565;-1758.318;1;2;450;453.2;21.7;21.9;29;28.9;24.7;-1.0;
05/03/2025 08:16:42;117;0;3.47;-4;19.85;3.96;232.1;14.10;75075;2837.568;-1758.318;1;2;450;453.2;21.7;21.9;29;29.3;24.7;-1.0;
05/03/2025 08:17:02;117;0;0.96;-4;19.59;3.59;228.9;14.20;75101;2837.572;-1758.317;1;2;450;453.2;21.7;21.9;29;28.9;24.7;-1.0;
05/03/2025 08:17:22;117;0;1.11;-4;20.00;3.68;225.7;14.20;75107;2837.575;-1758.317;1;2;450;454.8;21.7;21.8;29;29.3;24.7;-1.0;
05/03/2025 08:17:42;117;0;1.31;-4;19.35;3.69;222.2;14.20;75123;2837.579;-1758.317;1;2;450;453.2;21.7;21.9;29;29.3;24.7;-1.0;
05/03/2025 08:18:02;117;0;1.29;-4;19.96;3.83;219.1;14.20;75144;2837.583;-1758.316;1;2;450;453.2;21.7;21.8;29;29.3;24.7;-1.0;
05/03/2025 08:18:22;117;0;2.17;-4;19.69;3.73;215.5;14.20;75152;2837.586;-1758.316;1;2;450;454.8;21.7;21.8;29;28.9;24.7;-1.0;
05/03/2025 08:18:42;117;0;2.20;-4;18.91;3.67;212.3;14.20;75164;2837.590;-1758.316;1;2;450;453.2;21.4;21.4;29;29.3;24.7;-1.0;
05/03/2025 08:19:02;117;0;2.44;-4;20.05;3.72;209.3;14.30;75189;2837.593;-1758.315;1;2;450;453.2;21.4;20.8;29;29.3;24.7;-1.0;
05/03/2025 08:19:22;117;0;1.45;-4;20.76;3.71;206.3;14.30;75211;2837.596;-1758.315;1;2;450;453.2;21.4;20.8;29;28.9;24.7;-1.0;
05/03/2025 08:19:42;117;0;2.25;-4;20.85;3.73;203.2;14.30;75235;2837.599;-1758.315;1;2;450;453.2;21.4;20.8;29;29.3;24.7;-1.0;
05/03/2025 08:20:02;117;0;0.80;-4;21.16;3.73;200.4;14.40;75245;2837.602;-1758.315;1;2;450;453.2;21.4;20.8;29;29.3;24.7;-1.0;
05/03/2025 08:20:22;117;0;359.93;-4;21.00;3.78;197.5;14.40;75267;2837.605;-1758.314;1;2;450;454.8;21.4;20.8;29;29.3;24.7;-1.0;
05/03/2025 08:20:42;117;0;358.46;-4;20.98;3.89;194.8;14.40;75280;2837.608;-1758.314;1;2;450;453.2;21.4;20.8;29;29.3;24.7;-1.0;
05/03/2025 08:21:02;117;0;354.16;-4;21.54;3.63;191.9;14.50;75319;2837.610;-1758.315;1;2;450;454.8;21.4;20.9;29;29.3;24.7;-1.0;
05/03/2025 08:21:22;117;0;350.99;-4;21.60;3.68;188.7;14.50;75328;2837.613;-1758.315;1;2;450;454.8;21.4;21.4;31;31.1;24.7;-1.0;
05/03/2025 08:21:42;117;0;352.27;-4;20.36;4.67;186.0;14.60;75340;2837.616;-1758.315;1;2;450;453.2;21.4;21.6;31;31.6;24.7;-1.0;
05/03/2025 08:22:02;117;0;352.74;-4;20.18;4.82;183.3;14.60;75372;2837.619;-1758.316;1;2;450;454.8;21.4;21.5;31;31.6;24.7;-1.0;
05/03/2025 08:22:22;117;0;354.55;-4;20.31;4.92;180.5;14.60;75387;2837.622;-1758.316;1;2;450;453.2;21.4;21.5;29;28.9;24.7;-1.0;
05/03/2025 08:22:42;117;0;350.27;-4;20.14;3.63;177.8;14.70;75415;2837.624;-1758.316;1;2;450;454.8;21.4;21.5;31;31.1;24.7;-1.0;
05/03/2025 08:23:02;117;0;348.62;-4;20.17;5.33;175.1;14.70;75443;2837.627;-1758.317;1;2;450;454.8;21.4;21.5;31;32.0;24.7;-1.0;
05/03/2025 08:23:22;117;0;347.72;-4;20.40;5.07;172.2;14.80;75470;2837.630;-1758.318;1;2;450;454.8;21.4;21.5;33;32.9;24.7;-1.0;
05/03/2025 08:23:42;117;0;349.75;-4;18.99;5.78;169.3;14.80;75493;2837.633;-1758.318;1;2;450;454.8;21.1;21.1;33;33.4;24.7;-1.0;
05/03/2025 08:24:02;117;0;355.18;-4;20.96;6.16;166.7;14.90;75513;2837.636;-1758.319;1;2;450;454.8;21.1;20.9;29;28.9;24.7;-1.0;
05/03/2025 08:24:22;117;0;357.18;-4;19.70;3.11;163.7;14.90;75544;2837.639;-1758.319;1;2;450;454.8;21.1;20.9;29;28.4;24.7;-1.0;
05/03/2025 08:24:42;117;0;357.41;-4;20.71;3.43;161.2;15.00;75579;2837.641;-1758.319;1;2;450;454.8;21.1;20.9;29;28.4;24.7;-1.0;
05/03/2025 08:25:02;117;0;354.78;-4;19.87;3.60;158.6;15.10;75612;2837.644;-1758.319;1;2;450;454.8;21.1;20.9;29;28.4;24.7;-1.0;
05/03/2025 08:25:22;117;0;349.90;-4;19.93;3.98;156.0;15.10;75633;2837.646;-1758.319;1;2;450;454.8;21.1;20.9;32;32.0;24.7;-1.0;
05/03/2025 08:25:42;117;0;353.86;-4;21.83;4.35;153.3;15.20;75652;2837.649;-1758.319;1;2;450;454.8;21.1;20.9;30;29.8;24.7;-1.0;
05/03/2025 08:26:02;117;0;354.74;-4;21.85;3.15;150.0;15.20;75666;2837.652;-1758.320;1;2;450;453.2;21.1;20.9;30;29.3;24.7;-1.0;
05/03/2025 08:26:22;117;0;354.59;-4;20.18;4.11;146.7;15.30;75690;2837.655;-1758.320;1;2;450;454.8;21.1;20.9;30;29.3;24.7;-1.0;
05/03/2025 08:26:42;117;0;353.04;-4;20.09;2.57;144.2;15.40;75696;2837.658;-1758.320;1;2;450;454.8;21.1;20.9;30;29.3;24.7;-1.0;
05/03/2025 08:27:02;117;0;355.27;-4;20.27;3.49;141.3;15.40;75710;2837.661;-1758.320;1;2;450;454.8;21.1;20.9;30;29.3;24.7;-1.0;
05/03/2025 08:27:22;117;0;355.40;-4;19.75;3.94;138.3;15.50;75732;2837.664;-1758.321;1;2;450;454.8;21.1;20.9;30;29.3;24.7;-1.0;
05/03/2025 08:27:42;117;0;354.26;-4;20.51;3.74;135.8;15.60;75742;2837.666;-1758.321;1;2;450;453.2;21.1;21.1;30;29.3;24.7;-1.0;
05/03/2025 08:28:02;117;0;353.61;-4;21.02;3.49;132.7;15.60;75751;2837.670;-1758.321;1;2;450;454.8;21.1;20.9;30;29.3;24.7;-1.0;
05/03/2025 08:28:22;117;0;351.96;-4;19.86;3.83;129.5;15.70;75766;2837.673;-1758.322;1;2;450;454.8;21.1;20.9;30;29.3;24.7;-1.0;
05/03/2025 08:28:42;117;0;349.79;-4;20.75;4.64;126.3;15.70;75769;2837.676;-1758.322;1;2;450;454.8;21.1;20.9;33;32.9;24.7;-1.0;
05/03/2025 08:29:02;117;0;349.61;-4;20.92;6.05;122.9;15.80;75799;2837.679;-1758.323;1;2;450;454.8;21.1;20.9;33;33.8;24.7;-1.0;
05/03/2025 08:29:22;117;0;352.06;-4;20.43;5.83;119.4;15.90;75801;2837.683;-1758.323;1;2;450;454.8;21.1;20.9;31;31.1;24.7;-1.0;
05/03/2025 08:29:42;117;0;351.95;-4;20.59;4.61;115.9;15.90;75810;2837.687;-1758.324;1;2;450;454.8;21.1;20.9;31;30.7;24.7;-1.0;
05/03/2025 08:30:02;117;0;350.25;-4;21.00;4.54;112.5;16.00;75828;2837.690;-1758.325;1;2;450;454.8;21.1;21.1;31;30.7;24.7;-1.0;
05/03/2025 08:30:22;117;0;350.35;-4;20.75;4.51;108.9;16.10;75843;2837.694;-1758.325;1;2;450;453.2;21.1;20.9;31;30.7;24.7;-1.0;
05/03/2025 08:30:42;117;0;348.82;-4;20.17;4.34;105.4;16.10;75858;2837.698;-1758.326;1;2;450;454.8;21.1;20.9;34;33.8;24.7;-1.0;
05/03/2025 08:31:02;117;0;350.72;-4;20.38;6.38;102.1;16.20;75862;2837.701;-1758.327;1;2;450;454.8;21.1;20.9;32;32.0;24.7;-1.0;
05/03/2025 08:31:22;117;0;351.11;-4;20.60;4.72;98.7;16.20;75881;2837.704;-1758.327;1;2;450;454.8;21.1;20.9;32;31.6;24.7;-1.0;
05/03/2025 08:31:42;117;0;351.08;-4;20.21;4.90;95.5;16.30;75891;2837.708;-1758.328;1;2;450;456.5;21.1;20.9;32;31.6;24.7;-1.0;
05/03/2025 08:32:02;117;0;352.05;-4;20.44;4.82;92.5;16.40;75898;2837.711;-1758.328;1;2;450;453.2;21.1;20.9;32;31.6;24.8;-1.0;
05/03/2025 08:32:22;117;0;350.69;-4;19.99;4.91;89.3;16.40;75911;2837.714;-1758.329;1;2;450;454.8;21.1;20.9;32;31.6;24.7;-1.0;
05/03/2025 08:32:42;117;0;350.95;-4;20.21;4.91;86.2;16.50;75919;2837.717;-1758.329;1;2;450;454.8;21.1;20.9;32;31.6;24.7;-1.0;
05/03/2025 08:33:02;117;0;351.89;-4;21.10;4.80;83.1;16.50;75922;2837.721;-1758.330;1;2;450;454.8;21.1;20.9;32;31.6;24.7;-1.0;
05/03/2025 08:33:22;117;0;353.19;-4;20.77;4.79;80.0;16.60;75937;2837.724;-1758.330;1;2;450;454.8;21.1;20.9;32;31.6;24.7;-1.0;
05/03/2025 08:33:42;117;0;354.34;-4;20.72;4.76;76.7;16.70;75936;2837.727;-1758.330;1;2;450;454.8;21.1;20.9;32;31.6;24.7;-1.0;
05/03/2025 08:34:02;117;0;352.88;-4;20.55;4.57;73.7;16.70;75950;2837.730;-1758.331;1;2;450;453.2;21.1;20.9;32;31.6;24.7;-1.0;
05/03/2025 08:34:22;117;0;351.38;-4;19.99;4.72;70.7;16.80;75967;2837.733;-1758.331;1;2;450;456.5;21.1;20.8;32;31.6;24.7;-1.0;
05/03/2025 08:34:42;117;0;353.61;-4;19.82;4.83;67.7;16.80;75970;2837.736;-1758.332;1;2;450;454.8;21.1;20.9;32;31.6;24.7;-1.0;
05/03/2025 08:35:02;117;0;354.00;-4;19.79;4.60;64.8;16.90;75970;2837.739;-1758.332;1;2;450;454.8;21.1;20.9;30;29.8;24.7;-1.0;
05/03/2025 08:35:22;117;0;354.72;-4;20.33;3.73;62.2;16.90;75974;2837.742;-1758.332;1;2;450;454.8;21.1;20.9;30;29.3;24.7;-1.0;
05/03/2025 08:35:42;117;0;356.09;-4;20.99;3.58;59.2;17.00;75984;2837.745;-1758.332;1;2;450;454.8;21.1;20.9;30;29.3;24.7;-1.0;
05/03/2025 08:36:02;117;0;354.99;-4;20.31;3.77;56.5;17.00;75988;2837.748;-1758.332;1;2;450;451.6;21.1;20.9;30;29.3;24.7;-1.0;
05/03/2025 08:36:22;117;0;353.16;-4;20.70;3.75;53.8;17.10;75988;2837.750;-1758.333;1;2;450;453.2;21.1;20.9;30;29.3;24.7;-1.0;
05/03/2025 08:36:42;117;0;351.57;-4;20.94;3.72;50.7;17.10;75999;2837.753;-1758.333;1;2;450;454.8;21.1;20.9;30;29.3;24.7;-1.0;
05/03/2025 08:37:02;117;0;350.84;-4;20.33;3.66;47.9;17.20;76002;2837.756;-1758.334;1;2;450;454.8;21.1;20.9;32;32.0;24.7;-1.0;
05/03/2025 08:37:22;117;0;352.17;-4;20.59;5.29;45.1;17.20;76003;2837.759;-1758.334;1;2;450;456.5;21.1;20.9;32;32.0;24.7;-1.0;
05/03/2025 08:37:42;117;0;353.43;-4;20.13;5.11;42.5;17.20;76020;2837.761;-1758.334;1;2;450;454.8;21.1;20.9;32;32.0;24.7;-1.0;
05/03/2025 08:38:02;117;0;354.15;-4;21.14;5.53;39.8;17.30;76023;2837.764;-1758.334;1;2;450;454.8;21.1;20.9;32;32.0;24.7;-1.0;
05/03/2025 08:38:22;117;0;355.24;-4;20.82;5.34;36.9;17.40;76034;2837.767;-1758.335;1;2;450;456.5;21.1;20.9;30;29.8;24.7;-1.0;
05/03/2025 08:38:42;117;0;354.63;-4;20.42;3.68;33.9;17.40;76035;2837.770;-1758.335;1;2;450;456.5;21.1;20.9;30;29.3;24.7;-1.0;
05/03/2025 08:39:02;117;0;355.92;-4;20.19;3.51;31.0;17.40;76054;2837.773;-1758.335;1;2;450;456.5;21.1;20.9;30;29.3;24.7;-1.0;
05/03/2025 08:39:22;117;0;355.05;-4;20.80;3.90;27.9;17.50;76059;2837.776;-1758.335;1;2;450;456.5;21.1;20.9;30;29.3;24.7;-1.0;
05/03/2025 08:39:43;117;0;354.36;-4;19.58;3.96;24.7;17.50;76057;2837.780;-1758.335;1;2;450;456.5;21.1;20.9;30;29.3;24.7;-1.0;
05/03/2025 08:40:03;117;0;352.51;-4;20.16;3.63;21.9;17.60;76057;2837.782;-1758.336;1;2;450;454.8;21.1;20.9;30;29.3;24.7;-1.0;
05/03/2025 08:40:23;117;0;352.92;-4;19.90;3.53;19.0;17.60;76065;2837.785;-1758.336;1;2;450;454.8;21.1;20.9;30;28.9;24.7;-1.0;
05/03/2025 08:40:43;117;0;356.21;-4;20.22;3.49;16.2;17.60;76068;2837.788;-1758.336;1;2;450;454.8;21.1;20.9;30;29.3;24.8;-1.0;
05/03/2025 08:41:03;117;0;355.81;-4;21.22;3.78;13.3;17.70;76072;2837.791;-1758.336;1;2;450;454.8;21.1;21.1;30;29.3;24.7;-1.0;
05/03/2025 08:41:23;117;0;356.55;-4;20.87;3.92;10.1;17.70;76078;2837.794;-1758.337;1;2;450;454.8;21.1;20.9;30;29.3;24.7;-1.0;
05/03/2025 08:41:43;117;0;356.78;-4;22.22;3.86;6.8;17.70;76071;2837.798;-1758.337;1;2;450;456.5;21.8;21.8;30;29.3;24.7;-1.0;
05/03/2025 08:42:03;117;0;355.93;-4;19.18;3.96;3.5;17.80;76086;2837.801;-1758.337;1;2;450;453.2;21.8;21.9;30;29.3;24.7;-1.0;
05/03/2025 08:42:06;115;0;354.70;-4;20.43;4.37;3.1;17.80;76083;2837.802;-1758.337;1;2;500;461.3;100.0;60.7;0;-0.5;24.7;-1.0;
05/03/2025 08:42:16;115;0;5.52;-4;5.33;-11.20;1.9;17.80;76057;2837.803;-1758.337;1;2;500;506.5;100.0;100.0;0;-0.5;24.5;-1.0;
05/03/2025 08:42:26;115;0;337.64;-4;-58.12;-11.31;2.1;17.80;75965;2837.803;-1758.337;1;2;500;506.5;100.0;100.4;0;-0.5;24.7;-1.0;
05/03/2025 08:42:46;119;0;5.33;-4;-42.16;-13.73;0.2;17.90;75977;2837.803;-1758.337;1;2;500;506.5;100.0;100.4;0;-0.5;24.7;-1.0;
05/03/2025 08:42:56;119;0;38.17;-4;-60.86;-0.51;0.2;17.90;75970;2837.725;-1758.192;0;2;500;506.5;100.0;100.4;0;-0.5;24.7;-1.0;
05/03/2025 08:43:06;119;0;47.78;-4;-51.77;-12.69;0.2;17.90;75991;2837.725;-1758.192;0;2;500;504.8;100.0;100.4;0;-0.5;24.7;-1.0;
