Timestamp;NavState;SecurityLevel;Heading;Declination;Pitch;Roll;Depth;Temperature;Pa;Lat;Lon;DeadReckoning;DesiredH;BallastCmd;BallastPos;LinCmd;LinPos;AngCmd;AngPos;Voltage;Altitude;
03/03/2025 08:15:31;119;0;65.95;-4;-47.39;-17.26;-0.0;16.70;75530;2837.537;-1759.015;0;136;500;506.5;100.0;100.6;0;-0.9;25.2;-1.0;
03/03/2025 08:15:41;116;0;61.62;-4;-55.14;-14.28;0.0;16.70;75539;2837.538;-1759.030;0;136;500;506.5;100.0;100.6;0;-0.5;25.2;-1.0;
03/03/2025 08:16:06;116;0;59.01;-4;-56.38;-13.68;0.1;16.80;75547;2837.543;-1759.031;0;136;500;506.5;100.0;100.6;0;-0.5;25.2;-1.0;
03/03/2025 08:16:32;116;0;76.01;-4;-53.44;-13.22;-0.2;16.90;75550;2837.545;-1759.032;0;158;500;504.8;100.0;100.6;0;-0.9;25.2;-1.0;
03/03/2025 08:16:43;116;0;71.39;-4;-52.76;-12.64;-0.1;16.90;75553;2837.546;-1759.034;0;158;500;504.8;100.0;100.6;0;-0.9;25.2;-1.0;
03/03/2025 08:17:03;116;0;56.52;-4;-49.50;-3.32;-0.1;17.00;75566;2837.549;-1759.037;0;158;500;506.5;100.0;100.6;0;-0.5;25.2;-1.0;
03/03/2025 08:18:06;116;0;88.99;-4;-58.86;-5.20;-0.1;17.20;75582;2837.556;-1759.043;0;158;500;506.5;100.0;100.7;0;-0.5;25.0;-1.0;
03/03/2025 08:19:40;116;0;52.85;-4;-58.94;-20.22;-0.1;17.60;75622;2837.566;-1759.055;0;158;500;506.5;100.0;100.6;0;-0.5;25.2;-1.0;
03/03/2025 08:21:56;116;0;70.14;-4;-51.21;-15.25;-0.2;18.20;75668;2837.584;-1759.071;0;158;500;506.5;100.0;100.7;0;-0.5;25.2;-1.0;
03/03/2025 08:22:20;116;0;62.34;-4;-50.45;-24.09;-0.0;18.30;75674;2837.584;-1759.071;0;158;500;506.5;100.0;100.6;0;-0.5;25.2;-1.0;
03/03/2025 08:22:40;116;0;44.27;-4;-47.73;-4.30;-0.2;18.40;75668;2837.586;-1759.073;0;158;500;506.5;100.0;100.7;0;-0.9;25.2;-1.0;
03/03/2025 08:22:51;116;0;67.82;-4;-55.42;-8.74;0.1;18.40;75679;2837.588;-1759.075;0;158;500;504.8;100.0;100.6;0;-0.5;25.2;-1.0;
03/03/2025 08:23:04;116;0;69.20;-4;-48.64;-9.84;0.0;18.50;75687;2837.589;-1759.076;0;158;500;504.8;100.0;100.6;0;-0.5;25.2;-1.0;
03/03/2025 08:23:25;110;0;43.20;-4;-51.64;-12.06;-0.1;18.50;75695;2837.589;-1759.076;0;158;-110;385.5;100.0;99.9;-8;-8.1;25.2;-1.0;
03/03/2025 08:23:35;110;0;72.22;-4;-48.96;-21.92;0.1;18.50;76046;2837.589;-1759.076;1;158;-110;240.3;100.0;99.9;-8;-8.6;25.1;-1.0;
03/03/2025 08:23:45;110;0;74.81;-4;-58.39;-13.97;0.5;18.60;76302;2837.589;-1759.076;1;158;-110;87.1;100.0;99.7;-8;-8.6;25.1;-1.0;
03/03/2025 08:23:55;110;0;66.03;-4;-64.44;-4.57;0.7;18.60;76595;2837.588;-1759.076;1;158;-110;-67.7;100.0;99.9;-8;-8.6;25.1;-1.0;
03/03/2025 08:24:05;110;0;61.58;-4;-71.15;-6.19;1.0;18.60;76923;2837.588;-1759.076;1;158;-110;-109.7;43.4;54.8;-8;-8.6;25.1;-1.0;
03/03/2025 08:24:15;110;0;55.84;-4;-56.43;-18.42;2.1;18.60;76965;2837.588;-1759.075;1;158;-110;-111.3;43.4;43.3;-8;-8.6;25.1;-1.0;
03/03/2025 08:24:35;100;0;64.19;-4;-24.03;-16.12;5.4;18.70;76974;2837.589;-1759.072;1;158;-110;-106.5;43.4;42.9;-8;-8.6;25.2;-1.0;
03/03/2025 08:24:55;100;0;74.27;-4;-20.96;-15.90;8.4;18.70;76986;2837.589;-1759.068;1;158;-110;-104.8;43.4;43.6;-70;-69.9;25.2;-1.0;
03/03/2025 08:25:15;100;0;82.12;-4;-21.87;-45.61;11.0;18.80;76990;2837.589;-1759.065;1;158;-110;-103.2;43.4;43.6;-70;-70.4;25.2;-1.0;
03/03/2025 08:25:35;100;0;92.88;-4;-20.58;-45.51;14.1;18.80;77004;2837.588;-1759.060;1;158;-110;-103.2;43.4;43.6;-57;-56.9;25.2;0.0;
03/03/2025 08:25:55;100;0;104.84;-4;-20.70;-38.52;16.9;18.90;77007;2837.586;-1759.057;1;158;-110;-103.2;43.4;43.6;-43;-42.4;25.2;0.0;
03/03/2025 08:26:15;100;0;116.55;-4;-19.66;-31.48;19.5;18.90;77017;2837.584;-1759.053;1;158;-110;-103.2;43.4;43.6;-26;-26.2;25.2;0.0;
03/03/2025 08:26:35;100;0;125.78;-4;-21.59;-23.47;22.4;18.90;77022;2837.581;-1759.050;1;158;-110;-106.5;43.4;43.7;-13;-12.6;25.2;0.0;
03/03/2025 08:26:55;100;0;133.94;-4;-21.13;-16.69;24.9;18.90;77019;2837.578;-1759.048;1;158;-110;-106.5;43.4;43.7;2;1.8;25.2;0.0;
03/03/2025 08:27:15;100;0;138.27;-4;-22.11;-10.52;27.8;18.90;77033;2837.575;-1759.045;1;158;-110;-103.2;42.7;42.4;7;7.2;25.2;0.0;
03/03/2025 08:27:35;100;0;137.46;-4;-20.97;-7.64;30.8;18.90;77028;2837.571;-1759.043;1;158;-110;-103.2;42.7;42.6;7;7.7;25.2;0.0;
03/03/2025 08:27:55;100;0;139.79;-4;-20.71;-7.83;33.7;18.90;77042;2837.568;-1759.040;1;158;-110;-104.8;42.7;42.4;9;9.0;25.2;0.0;
03/03/2025 08:28:15;100;0;140.97;-4;-20.09;-6.52;36.5;18.90;77039;2837.564;-1759.038;1;158;-110;-103.2;42.7;42.4;9;9.5;25.2;0.0;
03/03/2025 08:28:35;100;0;141.79;-4;-20.25;-6.68;39.3;18.90;77048;2837.561;-1759.035;1;158;-110;-103.2;42.7;42.4;9;9.5;25.2;0.0;
03/03/2025 08:28:55;100;0;143.63;-4;-20.79;-6.64;42.2;18.90;77056;2837.557;-1759.033;1;158;-110;-103.2;42.7;42.6;12;12.2;25.2;0.0;
03/03/2025 08:29:15;100;0;142.71;-4;-20.63;-5.16;44.9;18.90;77056;2837.554;-1759.031;1;158;-110;-104.8;42.7;42.4;12;12.6;25.2;0.0;
03/03/2025 08:29:35;100;0;143.40;-4;-20.25;-5.27;47.8;18.90;77056;2837.550;-1759.029;1;158;-110;-103.2;42.7;42.4;12;12.6;25.2;0.0;
03/03/2025 08:29:55;100;0;144.64;-4;-20.51;-5.25;50.7;18.90;77064;2837.546;-1759.026;1;158;-110;-103.2;42.7;42.4;12;12.6;25.2;0.0;
03/03/2025 08:30:15;100;0;145.32;-4;-20.52;-5.13;53.4;18.90;77069;2837.543;-1759.024;1;158;-110;-103.2;42.7;42.4;12;12.6;25.2;0.0;
03/03/2025 08:30:35;100;0;143.19;-4;-20.41;-5.21;56.3;18.90;77078;2837.539;-1759.022;1;158;-110;-103.2;42.7;42.4;12;12.6;25.2;0.0;
03/03/2025 08:30:55;100;0;141.64;-4;-20.68;-5.32;59.2;18.90;77083;2837.536;-1759.020;1;158;-110;-103.2;42.7;42.4;10;9.9;25.2;0.0;
03/03/2025 08:31:15;100;0;142.70;-4;-20.47;-6.80;62.3;18.90;77083;2837.532;-1759.017;1;158;-110;-103.2;42.7;42.4;10;9.5;25.2;0.0;
03/03/2025 08:31:35;100;0;143.61;-4;-20.16;-6.82;65.4;18.90;77096;2837.528;-1759.014;1;158;-110;-103.2;42.7;42.4;12;12.2;25.2;0.0;
03/03/2025 08:31:55;100;0;144.67;-4;-20.20;-5.34;68.5;18.90;77094;2837.524;-1759.012;1;158;-110;-103.2;42.7;42.4;12;12.6;25.2;0.0;
03/03/2025 08:32:15;100;0;147.84;-4;-20.19;-5.21;71.6;18.90;77097;2837.520;-1759.010;1;158;-110;-103.2;42.7;42.4;12;12.6;25.2;0.0;
03/03/2025 08:32:35;100;0;150.06;-4;-20.26;-5.27;74.8;18.90;77096;2837.515;-1759.007;1;158;-110;-103.2;42.7;42.4;12;12.2;25.2;0.0;
03/03/2025 08:32:55;100;0;150.37;-4;-20.41;-5.53;77.7;18.90;77102;2837.511;-1759.005;1;158;-110;-103.2;42.7;42.4;12;12.2;25.2;0.0;
03/03/2025 08:33:15;100;0;153.19;-4;-20.02;-5.30;80.9;19.00;77102;2837.507;-1759.003;1;158;-110;-103.2;42.7;42.4;12;12.6;25.2;0.0;
03/03/2025 08:33:35;100;0;155.12;-4;-20.37;-5.33;83.9;18.90;77111;2837.503;-1759.002;1;158;-110;-104.8;42.7;42.4;12;12.6;25.2;0.0;
03/03/2025 08:33:55;100;0;156.29;-4;-20.19;-5.34;86.9;19.00;77110;2837.499;-1759.000;1;158;-110;-104.8;42.7;42.4;14;14.0;25.2;0.0;
03/03/2025 08:34:15;100;0;158.43;-4;-20.10;-4.24;90.0;18.90;77102;2837.494;-1758.999;1;158;-110;-103.2;42.7;42.4;14;14.4;25.2;0.0;
03/03/2025 08:34:35;100;0;156.29;-4;-20.06;-4.45;92.9;18.90;77106;2837.490;-1758.997;1;158;-110;-103.2;42.7;42.4;14;14.4;25.2;0.0;
03/03/2025 08:34:55;100;0;155.38;-4;-20.14;-4.41;95.9;18.90;77094;2837.486;-1758.995;1;158;-110;-104.8;42.7;42.4;14;14.4;25.2;0.0;
03/03/2025 08:35:15;100;0;154.71;-4;-19.70;-4.44;99.0;19.00;77099;2837.481;-1758.994;1;158;-110;-103.2;42.7;42.4;14;14.4;25.2;0.0;
03/03/2025 08:35:35;100;0;149.37;-4;-19.54;-4.49;101.4;18.90;77079;2837.478;-1758.992;1;158;-110;-103.2;42.7;42.4;14;14.4;25.2;0.0;
03/03/2025 08:35:55;100;0;151.40;-4;-19.58;-4.41;104.3;18.90;77049;2837.474;-1758.990;1;158;-110;-103.2;42.7;42.4;14;14.0;25.2;0.0;
03/03/2025 08:36:15;100;0;155.02;-4;-19.41;-4.43;107.0;18.90;77040;2837.470;-1758.988;1;158;-110;-103.2;42.7;42.4;14;14.4;25.2;0.0;
03/03/2025 08:36:35;100;0;160.16;-4;-19.81;-4.51;109.5;18.90;77022;2837.466;-1758.987;1;158;-110;-104.8;42.7;42.4;16;15.8;25.2;0.0;
03/03/2025 08:36:55;100;0;162.11;-4;-19.80;-3.55;112.3;18.90;77010;2837.462;-1758.986;1;158;-110;-103.2;42.7;42.6;16;16.2;25.2;0.0;
03/03/2025 08:37:15;100;0;162.70;-4;-20.10;-3.51;115.0;18.90;77004;2837.458;-1758.985;1;158;-110;-103.2;42.7;42.6;16;16.2;25.2;0.0;
03/03/2025 08:37:35;100;0;162.65;-4;-20.34;-3.53;117.9;18.80;77001;2837.454;-1758.984;1;158;-110;-104.8;42.7;42.4;16;16.2;25.2;0.0;
03/03/2025 08:37:55;100;0;163.49;-4;-19.96;-3.38;120.9;18.80;76986;2837.449;-1758.983;1;158;-110;-103.2;42.7;42.4;18;18.1;25.2;0.0;
03/03/2025 08:38:15;100;0;162.00;-4;-20.52;-2.33;123.8;18.80;76988;2837.445;-1758.982;1;158;-110;-103.2;42.7;42.4;18;18.5;25.2;0.0;
03/03/2025 08:38:35;100;0;162.41;-4;-20.34;-2.26;126.5;18.80;76979;2837.441;-1758.981;1;158;-110;-103.2;42.7;42.4;18;18.5;25.2;0.0;
03/03/2025 08:38:55;100;0;164.72;-4;-19.00;-1.85;129.3;18.80;76956;2837.437;-1758.980;1;158;-110;-103.2;43.0;43.0;20;19.9;25.2;0.0;
03/03/2025 08:39:15;100;0;166.25;-4;-19.81;-1.28;131.9;18.70;76957;2837.433;-1758.979;1;158;-110;-103.2;43.0;43.3;23;23.0;25.2;0.0;
03/03/2025 08:39:35;100;0;165.62;-4;-20.99;-0.04;134.4;18.70;76947;2837.429;-1758.978;1;158;-110;-103.2;43.0;43.3;23;23.5;25.2;0.0;
03/03/2025 08:39:55;100;0;164.59;-4;-19.87;0.62;136.8;18.70;76945;2837.425;-1758.977;1;158;-110;-104.8;43.0;43.3;21;21.2;25.2;0.0;
03/03/2025 08:40:15;100;0;164.19;-4;-21.12;-1.12;139.2;18.70;76935;2837.422;-1758.977;1;158;-110;-101.6;43.0;43.3;21;21.2;25.2;0.0;
03/03/2025 08:40:35;100;0;159.74;-4;-21.21;-1.27;142.0;18.60;76928;2837.418;-1758.975;1;158;-110;-103.2;43.0;43.3;16;15.8;25.2;0.0;
03/03/2025 08:40:55;100;0;157.09;-4;-21.36;-3.81;144.4;18.60;76920;2837.414;-1758.974;1;158;-110;-103.2;43.0;43.4;16;15.8;25.2;0.0;
03/03/2025 08:41:15;100;0;152.41;-4;-20.96;-3.74;147.0;18.60;76899;2837.411;-1758.973;1;158;-110;-103.2;43.0;43.3;14;14.0;25.2;0.0;
03/03/2025 08:41:35;100;0;147.71;-4;-20.71;-4.91;149.2;18.60;76896;2837.408;-1758.971;1;158;-110;-101.6;43.0;43.3;14;13.5;25.2;0.0;
03/03/2025 08:41:55;100;0;147.12;-4;-20.45;-4.99;151.6;18.50;76881;2837.404;-1758.969;1;158;-110;-103.2;43.0;43.3;14;13.5;25.2;0.0;
03/03/2025 08:42:15;100;0;149.23;-4;-20.22;-4.90;153.7;18.50;76875;2837.401;-1758.968;1;158;-110;-103.2;43.0;43.3;14;13.5;25.2;0.0;
03/03/2025 08:42:35;100;0;143.44;-4;-20.50;-5.06;155.8;18.50;76868;2837.398;-1758.966;1;158;-110;-104.8;43.0;43.3;14;13.5;25.2;0.0;
03/03/2025 08:42:55;100;0;138.36;-4;-20.56;-4.90;158.1;18.50;76840;2837.396;-1758.964;1;158;-110;-103.2;43.0;43.3;9;9.0;25.2;0.0;
03/03/2025 08:43:15;100;0;138.02;-4;-19.98;-7.00;160.2;18.40;76814;2837.393;-1758.962;1;158;-110;-101.6;43.0;43.3;9;9.0;25.2;0.0;
03/03/2025 08:43:35;100;0;143.12;-4;-19.84;-7.18;162.5;18.40;76798;2837.390;-1758.960;1;158;-110;-104.8;43.0;43.4;12;12.2;25.2;0.0;
03/03/2025 08:43:55;100;0;143.67;-4;-20.52;-5.38;164.6;18.30;76789;2837.387;-1758.959;1;158;-110;-103.2;43.0;43.3;12;12.2;25.2;0.0;
03/03/2025 08:44:15;100;0;146.67;-4;-20.28;-5.42;167.0;18.30;76781;2837.384;-1758.957;1;158;-110;-103.2;43.0;43.3;14;14.0;25.2;0.0;
03/03/2025 08:44:35;100;0;149.34;-4;-19.96;-4.47;169.5;18.30;76775;2837.380;-1758.955;1;158;-110;-103.2;43.0;43.4;14;14.0;25.2;0.0;
03/03/2025 08:44:55;100;0;153.91;-4;-19.95;-4.49;171.9;18.20;76761;2837.377;-1758.954;1;158;-110;-101.6;43.0;43.3;14;14.0;25.2;0.0;
03/03/2025 08:45:15;100;0;154.75;-4;-20.06;-4.49;174.3;18.20;76762;2837.373;-1758.953;1;158;-110;-103.2;43.0;43.3;14;14.4;25.2;0.0;
03/03/2025 08:45:35;100;0;152.56;-4;-20.45;-4.46;176.7;18.20;76735;2837.370;-1758.951;1;158;-110;-103.2;43.0;43.3;14;14.0;25.2;0.0;
03/03/2025 08:45:55;100;0;148.27;-4;-19.88;-4.68;179.1;18.10;76722;2837.366;-1758.949;1;158;-110;-103.2;43.0;43.3;14;14.4;25.2;0.0;
03/03/2025 08:46:15;100;0;146.50;-4;-19.12;-3.94;181.5;18.10;76709;2837.363;-1758.948;1;158;-110;-103.2;43.0;43.3;14;14.4;25.2;0.0;
03/03/2025 08:46:35;100;0;147.61;-4;-20.57;-4.49;184.1;18.00;76706;2837.359;-1758.946;1;158;-110;-103.2;43.0;43.3;14;14.0;25.2;0.0;
03/03/2025 08:46:55;100;0;145.01;-4;-19.34;-4.83;187.1;18.00;76707;2837.355;-1758.943;1;158;-110;-103.2;43.0;43.3;14;14.0;25.2;0.0;
03/03/2025 08:47:15;100;0;143.79;-4;-19.72;-4.52;189.9;18.00;76690;2837.352;-1758.941;1;158;-110;-103.2;43.0;43.3;12;11.7;25.2;0.0;
03/03/2025 08:47:35;100;0;143.22;-4;-20.65;-5.81;192.5;17.90;76680;2837.348;-1758.939;1;158;-110;-103.2;43.0;43.3;12;11.3;25.2;0.0;
03/03/2025 08:47:55;100;0;143.19;-4;-20.17;-5.91;195.4;17.90;76677;2837.345;-1758.936;1;158;-110;-103.2;43.0;43.3;12;11.7;25.2;0.0;
03/03/2025 08:48:15;100;0;145.31;-4;-20.16;-5.85;197.9;17.90;76667;2837.341;-1758.935;1;158;-110;-104.8;43.0;43.3;12;11.7;25.2;0.0;
03/03/2025 08:48:35;100;0;147.78;-4;-20.10;-5.80;200.7;17.80;76660;2837.338;-1758.933;1;158;-110;-103.2;43.0;43.3;12;11.3;25.2;0.0;
03/03/2025 08:48:55;100;0;149.15;-4;-20.01;-5.91;203.4;17.80;76655;2837.334;-1758.931;1;158;-110;-103.2;43.0;43.3;14;14.0;25.2;0.0;
03/03/2025 08:49:15;100;0;150.96;-4;-20.12;-4.37;206.0;17.70;76635;2837.330;-1758.929;1;158;-110;-103.2;43.0;43.4;14;14.4;25.2;0.0;
03/03/2025 08:49:35;100;0;149.30;-4;-20.12;-4.42;208.9;17.70;76629;2837.326;-1758.927;1;158;-110;-103.2;43.0;43.3;14;14.4;25.2;0.0;
03/03/2025 08:49:55;100;0;149.20;-4;-20.23;-4.36;211.4;17.70;76609;2837.323;-1758.925;1;158;-110;-103.2;43.0;43.4;14;14.4;25.2;0.0;
03/03/2025 08:50:15;100;0;148.01;-4;-20.28;-4.40;214.3;17.60;76597;2837.319;-1758.923;1;158;-110;-104.8;43.0;43.3;14;14.4;25.2;0.0;
03/03/2025 08:50:35;100;0;146.86;-4;-20.28;-4.42;217.0;17.60;76591;2837.315;-1758.921;1;158;-110;-104.8;43.0;43.3;14;14.4;25.2;0.0;
03/03/2025 08:50:55;100;0;145.55;-4;-20.36;-4.37;219.8;17.50;76579;2837.312;-1758.919;1;158;-110;-103.2;43.0;43.3;14;14.4;25.2;0.0;
03/03/2025 08:51:15;100;0;145.44;-4;-20.28;-4.38;222.5;17.50;76563;2837.308;-1758.917;1;158;-110;-104.8;43.0;43.3;14;14.4;25.2;0.0;
03/03/2025 08:51:35;100;0;143.31;-4;-20.47;-4.27;225.2;17.40;76564;2837.304;-1758.914;1;158;-110;-103.2;43.0;43.3;11;10.8;25.2;0.0;
03/03/2025 08:51:55;100;0;142.48;-4;-20.35;-6.28;227.9;17.40;76539;2837.301;-1758.912;1;158;-110;-101.6;43.0;43.3;11;10.8;25.2;0.0;
03/03/2025 08:52:15;100;0;140.31;-4;-20.33;-6.33;230.5;17.40;76544;2837.298;-1758.910;1;158;-110;-103.2;43.0;43.3;11;10.8;25.2;0.0;
03/03/2025 08:52:35;100;0;138.19;-4;-20.41;-6.23;233.2;17.30;76530;2837.294;-1758.908;1;158;-110;-103.2;43.0;43.3;7;7.2;25.2;0.0;
03/03/2025 08:52:55;100;0;138.77;-4;-19.91;-8.19;236.0;17.30;76525;2837.291;-1758.905;1;158;-110;-103.2;43.0;43.3;7;7.2;25.2;0.0;
03/03/2025 08:53:15;100;0;140.94;-4;-19.55;-8.20;238.5;17.20;76513;2837.288;-1758.903;1;158;-110;-103.2;43.0;43.3;10;9.9;25.2;0.0;
03/03/2025 08:53:35;100;0;142.56;-4;-19.63;-6.56;241.0;17.20;76505;2837.284;-1758.901;1;158;-110;-103.2;43.0;43.3;10;9.9;25.2;0.0;
03/03/2025 08:53:55;100;0;142.98;-4;-19.35;-6.49;243.6;17.20;76506;2837.281;-1758.898;1;158;-110;-103.2;43.0;43.3;10;9.9;25.2;0.0;
03/03/2025 08:54:15;100;0;143.97;-4;-19.72;-6.60;246.0;17.10;76477;2837.278;-1758.896;1;158;-110;-103.2;43.0;43.3;12;12.2;25.2;0.0;
03/03/2025 08:54:35;100;0;147.43;-4;-19.41;-5.41;248.4;17.10;76475;2837.274;-1758.895;1;158;-110;-104.8;43.0;43.3;12;12.2;25.2;0.0;
03/03/2025 08:54:55;100;0;150.20;-4;-19.46;-5.50;250.8;17.10;76462;2837.271;-1758.893;1;158;-110;-103.2;43.0;43.3;12;12.2;25.2;0.0;
03/03/2025 08:55:15;100;0;151.54;-4;-19.56;-5.45;253.2;17.00;76448;2837.267;-1758.891;1;158;-110;-103.2;43.0;43.3;12;12.2;25.2;0.0;
03/03/2025 08:55:35;100;0;154.16;-4;-19.68;-5.43;255.5;17.00;76436;2837.264;-1758.890;1;158;-110;-101.6;43.0;43.3;12;12.2;25.2;0.0;
03/03/2025 08:55:55;100;0;155.57;-4;-19.62;-5.38;257.9;16.90;76433;2837.260;-1758.889;1;158;-110;-103.2;43.0;43.3;14;14.0;25.2;0.0;
03/03/2025 08:56:16;100;0;156.41;-4;-19.64;-4.34;260.4;16.90;76426;2837.257;-1758.888;1;158;-110;-104.8;43.0;43.3;14;14.4;25.2;0.0;
03/03/2025 08:56:36;100;0;159.66;-4;-19.29;-4.18;262.6;16.80;76414;2837.253;-1758.887;1;158;-110;-103.2;43.0;43.3;14;14.9;25.2;0.0;
03/03/2025 08:56:56;100;0;159.30;-4;-20.35;-4.26;265.0;16.80;76411;2837.249;-1758.885;1;158;-110;-103.2;43.0;43.3;14;14.4;25.2;0.0;
03/03/2025 08:57:16;100;0;160.95;-4;-19.72;-4.25;267.0;16.70;76396;2837.246;-1758.885;1;158;-110;-101.6;43.0;43.3;18;18.5;25.2;0.0;
03/03/2025 08:57:36;100;0;161.56;-4;-19.95;-2.25;269.1;16.70;76403;2837.243;-1758.884;1;158;-110;-103.2;43.0;43.3;18;18.5;25.2;0.0;
03/03/2025 08:57:56;100;0;161.94;-4;-19.74;-2.25;271.2;16.70;76399;2837.240;-1758.883;1;158;-110;-103.2;43.0;43.3;18;18.5;25.2;0.0;
03/03/2025 08:58:16;100;0;161.88;-4;-19.82;-2.28;273.3;16.60;76383;2837.236;-1758.882;1;158;-110;-103.2;43.0;43.3;18;18.5;25.2;0.0;
03/03/2025 08:58:36;100;0;162.89;-4;-20.28;-2.32;275.1;16.60;76379;2837.233;-1758.881;1;158;-130;-130.6;43.0;43.3;21;21.7;25.2;0.0;
03/03/2025 08:58:56;100;0;163.75;-4;-19.84;-0.44;277.4;16.50;76446;2837.230;-1758.881;1;158;-130;-132.3;43.0;43.4;21;21.7;25.2;0.0;
03/03/2025 08:59:16;100;0;162.94;-4;-19.78;-0.57;279.7;16.50;76426;2837.226;-1758.880;1;158;-130;-133.9;43.0;43.3;19;19.0;25.2;0.0;
03/03/2025 08:59:36;100;0;167.10;-4;-19.47;-2.15;281.9;16.50;76424;2837.223;-1758.879;1;158;-130;-132.3;43.0;43.3;26;26.2;25.2;0.0;
03/03/2025 08:59:56;100;0;163.63;-4;-20.03;1.77;284.3;16.40;76423;2837.219;-1758.878;1;158;-130;-132.3;43.0;43.3;19;19.0;25.2;0.0;
03/03/2025 09:00:16;100;0;160.55;-4;-19.89;-2.11;286.6;16.40;76406;2837.216;-1758.877;1;158;-130;-132.3;43.0;43.3;17;17.1;25.1;0.0;
03/03/2025 09:00:36;100;0;159.40;-4;-20.02;-3.19;289.2;16.40;76399;2837.212;-1758.876;1;158;-130;-132.3;43.0;43.3;17;16.7;25.2;0.0;
03/03/2025 09:00:56;100;0;155.92;-4;-20.24;-3.12;291.6;16.30;76400;2837.208;-1758.875;1;158;-130;-132.3;43.0;43.2;14;14.0;25.2;0.0;
03/03/2025 09:01:16;100;0;153.00;-4;-19.44;-4.64;294.1;16.30;76396;2837.204;-1758.873;1;158;-130;-133.9;43.0;43.3;14;13.5;25.2;0.0;
03/03/2025 09:01:36;100;0;150.46;-4;-20.11;-4.68;296.8;16.30;76390;2837.201;-1758.871;1;158;-130;-132.3;43.0;43.4;14;13.5;25.2;0.0;
03/03/2025 09:01:56;100;0;147.83;-4;-19.59;-4.82;299.6;16.20;76381;2837.197;-1758.869;1;158;-130;-132.3;43.0;43.3;14;14.0;25.2;0.0;
03/03/2025 09:02:16;100;0;149.50;-4;-19.76;-4.74;302.2;16.20;76380;2837.193;-1758.868;1;158;-130;-132.3;43.0;43.3;14;13.5;25.2;0.0;
03/03/2025 09:02:36;100;0;148.43;-4;-19.27;-4.63;305.1;16.10;76365;2837.189;-1758.865;1;158;-130;-132.3;43.0;43.3;14;13.5;25.2;0.0;
03/03/2025 09:02:56;100;0;149.81;-4;-19.56;-4.61;308.1;16.10;76373;2837.185;-1758.863;1;158;-130;-132.3;43.0;43.3;14;13.5;25.2;0.0;
03/03/2025 09:03:16;100;0;146.34;-4;-19.53;-4.68;311.0;16.10;76360;2837.181;-1758.861;1;158;-130;-133.9;43.0;43.3;14;13.5;25.2;0.0;
03/03/2025 09:03:36;100;0;145.87;-4;-19.78;-4.63;313.9;16.00;76354;2837.178;-1758.859;1;158;-130;-132.3;43.0;43.3;14;13.5;25.2;0.0;
03/03/2025 09:03:56;100;0;146.90;-4;-19.80;-4.67;317.2;16.00;76355;2837.173;-1758.856;1;158;-130;-132.3;43.0;43.3;14;13.5;25.2;0.0;
03/03/2025 09:04:16;100;0;148.77;-4;-19.48;-4.57;320.4;16.00;76337;2837.169;-1758.854;1;158;-130;-133.9;43.0;43.3;14;13.5;25.2;0.0;
03/03/2025 09:04:36;100;0;150.19;-4;-19.55;-4.70;323.5;15.90;76337;2837.165;-1758.852;1;158;-130;-132.3;43.0;43.3;14;13.5;25.2;0.0;
03/03/2025 09:04:56;100;0;152.19;-4;-19.49;-4.67;326.8;15.90;76335;2837.160;-1758.850;1;158;-130;-132.3;43.0;43.3;14;13.5;25.2;0.0;
03/03/2025 09:05:16;100;0;153.55;-4;-19.43;-4.70;330.1;15.90;76332;2837.155;-1758.848;1;158;-130;-132.3;43.0;43.3;14;14.0;25.2;0.0;
03/03/2025 09:05:36;100;0;154.51;-4;-19.53;-4.67;333.4;15.80;76319;2837.151;-1758.846;1;158;-130;-132.3;43.0;43.3;14;13.5;25.2;0.0;
03/03/2025 09:05:56;100;0;154.88;-4;-19.45;-4.65;336.5;15.80;76318;2837.146;-1758.844;1;158;-130;-133.9;43.0;43.4;14;13.5;25.2;0.0;
03/03/2025 09:06:16;100;0;155.29;-4;-19.41;-4.66;339.7;15.80;76316;2837.142;-1758.842;1;158;-130;-132.3;43.0;43.3;14;13.5;25.2;0.0;
03/03/2025 09:06:36;100;0;156.07;-4;-19.41;-4.63;342.9;15.70;76318;2837.137;-1758.840;1;158;-130;-132.3;43.0;43.3;14;13.5;25.2;0.0;
03/03/2025 09:06:56;100;0;156.74;-4;-19.50;-4.68;346.1;15.70;76317;2837.133;-1758.838;1;158;-130;-132.3;43.0;43.3;14;13.5;25.2;0.0;
03/03/2025 09:07:16;100;0;156.81;-4;-19.42;-4.76;349.3;15.70;76313;2837.128;-1758.837;1;158;-130;-132.3;43.0;43.3;14;13.5;25.2;0.0;
03/03/2025 09:07:36;100;0;155.60;-4;-19.49;-4.71;352.6;15.60;76308;2837.123;-1758.835;1;158;-130;-130.6;43.0;43.3;14;13.5;25.2;0.0;
03/03/2025 09:07:56;100;0;153.94;-4;-19.50;-4.61;355.7;15.60;76291;2837.119;-1758.833;1;158;-130;-132.3;43.0;43.3;14;13.5;25.2;0.0;
03/03/2025 09:08:16;100;0;152.39;-4;-19.41;-4.71;359.0;15.60;76306;2837.114;-1758.831;1;158;-130;-132.3;43.0;43.3;14;13.5;25.2;0.0;
03/03/2025 09:08:36;100;0;151.75;-4;-19.36;-4.65;362.2;15.60;76299;2837.110;-1758.828;1;158;-130;-132.3;43.0;43.3;14;13.5;25.2;0.0;
03/03/2025 09:08:56;100;0;151.70;-4;-19.51;-4.72;365.5;15.50;76298;2837.105;-1758.826;1;158;-130;-133.9;43.0;43.3;14;13.5;25.2;0.0;
03/03/2025 09:09:16;100;0;150.98;-4;-19.26;-4.57;368.8;15.50;76294;2837.101;-1758.824;1;158;-130;-132.3;43.0;43.3;14;13.5;25.2;0.0;
03/03/2025 09:09:36;100;0;151.60;-4;-19.36;-4.70;372.0;15.50;76291;2837.096;-1758.822;1;158;-130;-133.9;43.0;43.3;14;13.5;25.2;0.0;
03/03/2025 09:09:56;100;0;150.81;-4;-19.46;-4.70;375.3;15.50;76290;2837.092;-1758.820;1;158;-130;-132.3;43.0;43.3;14;13.5;25.2;0.0;
03/03/2025 09:10:16;100;0;150.43;-4;-19.41;-4.51;378.4;15.40;76303;2837.087;-1758.817;1;158;-130;-132.3;43.0;43.3;14;13.5;25.2;0.0;
03/03/2025 09:10:36;100;0;149.75;-4;-19.42;-4.47;381.7;15.40;76295;2837.083;-1758.815;1;158;-130;-132.3;43.0;43.3;14;13.5;25.2;0.0;
03/03/2025 09:10:56;100;0;148.05;-4;-19.54;-4.60;384.7;15.40;76288;2837.079;-1758.813;1;158;-130;-132.3;43.0;43.3;14;14.0;25.2;0.0;
03/03/2025 09:11:16;100;0;148.46;-4;-19.07;-4.83;388.0;15.30;76277;2837.074;-1758.810;1;158;-130;-132.3;43.0;43.3;14;13.5;25.2;0.0;
03/03/2025 09:11:36;100;0;146.55;-4;-19.00;-4.59;391.0;15.30;76288;2837.070;-1758.808;1;158;-130;-135.5;43.0;43.3;14;13.5;25.2;0.0;
03/03/2025 09:11:56;100;0;147.19;-4;-19.62;-4.52;394.0;15.30;76276;2837.066;-1758.806;1;158;-130;-132.3;43.0;43.3;14;13.5;25.2;0.0;
03/03/2025 09:12:16;100;0;148.11;-4;-19.46;-4.72;397.1;15.30;76274;2837.062;-1758.803;1;158;-130;-130.6;43.0;43.3;14;14.0;25.2;0.0;
03/03/2025 09:12:36;100;0;147.03;-4;-19.58;-4.74;400.0;15.30;76280;2837.058;-1758.801;1;158;-130;-132.3;43.0;43.3;14;13.5;25.2;0.0;
03/03/2025 09:12:56;100;0;145.83;-4;-19.33;-4.69;403.0;15.20;76268;2837.054;-1758.799;1;158;-130;-132.3;43.0;43.3;14;14.0;25.2;0.0;
03/03/2025 09:13:16;100;0;143.92;-4;-19.04;-4.80;405.8;15.20;76268;2837.050;-1758.796;1;158;-130;-132.3;43.0;43.3;12;12.2;25.2;0.0;
03/03/2025 09:13:36;100;0;140.37;-4;-19.02;-5.68;408.4;15.20;76266;2837.047;-1758.794;1;158;-130;-133.9;43.0;43.3;9;9.0;25.2;0.0;
03/03/2025 09:13:56;100;0;139.87;-4;-19.90;-7.06;411.1;15.20;76265;2837.043;-1758.792;1;158;-130;-132.3;43.0;43.3;9;9.0;25.2;0.0;
03/03/2025 09:14:16;100;0;141.11;-4;-18.83;-6.97;414.1;15.10;76267;2837.040;-1758.789;1;158;-130;-132.3;43.4;43.4;9;9.0;25.2;0.0;
03/03/2025 09:14:36;100;0;144.03;-4;-19.12;-7.16;416.8;15.10;76256;2837.036;-1758.787;1;158;-130;-132.3;43.4;43.6;12;12.2;25.2;0.0;
03/03/2025 09:14:56;100;0;146.46;-4;-19.40;-5.20;419.3;15.10;76249;2837.032;-1758.785;1;158;-130;-132.3;43.4;43.7;12;12.6;25.2;0.0;
03/03/2025 09:15:16;100;0;147.56;-4;-19.38;-5.27;421.9;15.10;76239;2837.029;-1758.783;1;158;-130;-132.3;43.4;43.6;12;12.6;25.2;0.0;
03/03/2025 09:15:36;100;0;149.45;-4;-18.80;-5.19;424.3;15.00;76239;2837.025;-1758.781;1;158;-130;-130.6;43.7;43.7;12;12.6;25.2;0.0;
03/03/2025 09:15:56;100;0;150.80;-4;-19.11;-5.13;426.6;15.00;76235;2837.022;-1758.779;1;158;-130;-132.3;43.7;43.7;12;12.2;25.2;0.0;
03/03/2025 09:16:16;100;0;152.54;-4;-19.70;-5.21;428.7;15.00;76221;2837.019;-1758.778;1;158;-130;-132.3;43.7;43.6;12;12.6;25.2;0.0;
03/03/2025 09:16:36;100;0;154.85;-4;-19.37;-5.20;430.9;15.00;76217;2837.015;-1758.777;1;158;-130;-132.3;43.7;43.6;12;12.6;25.2;0.0;
03/03/2025 09:16:56;100;0;156.54;-4;-19.63;-5.24;433.0;15.00;76218;2837.012;-1758.776;1;158;-130;-132.3;43.7;43.7;14;14.0;25.2;0.0;
03/03/2025 09:17:16;100;0;155.01;-4;-20.08;-4.21;435.2;15.00;76226;2837.009;-1758.775;1;158;-130;-132.3;43.7;43.6;14;14.0;25.2;0.0;
03/03/2025 09:17:36;100;0;152.99;-4;-19.72;-4.31;437.4;14.90;76212;2837.006;-1758.773;1;158;-130;-132.3;43.7;43.6;14;14.4;25.2;0.0;
03/03/2025 09:17:56;100;0;151.54;-4;-20.41;-4.30;439.7;14.90;76196;2837.002;-1758.772;1;158;-130;-132.3;43.7;43.7;14;14.4;25.1;0.0;
03/03/2025 09:18:16;100;0;150.43;-4;-20.57;-4.31;442.1;14.90;76202;2836.999;-1758.770;1;158;-130;-132.3;43.7;43.7;14;14.4;25.2;0.0;
03/03/2025 09:18:36;100;0;150.44;-4;-20.65;-4.24;444.6;14.80;76195;2836.996;-1758.769;1;158;-130;-132.3;43.7;43.6;14;14.0;25.2;0.0;
03/03/2025 09:18:56;100;0;151.67;-4;-20.05;-4.36;447.0;14.80;76199;2836.992;-1758.767;1;158;-130;-132.3;43.7;43.7;14;14.4;25.2;0.0;
03/03/2025 09:19:16;100;0;152.97;-4;-19.20;-4.42;449.5;14.80;76184;2836.988;-1758.766;1;158;-130;-132.3;43.7;43.7;14;14.4;25.2;0.0;
03/03/2025 09:19:36;100;0;156.84;-4;-20.84;-4.79;451.7;14.80;76175;2836.985;-1758.764;1;158;-130;-132.3;43.7;43.6;14;14.4;25.2;0.0;
03/03/2025 09:19:56;100;0;157.88;-4;-19.91;-4.16;453.9;14.70;76164;2836.982;-1758.763;1;158;-130;-132.3;43.7;43.6;14;14.4;25.2;0.0;
03/03/2025 09:20:16;100;0;159.50;-4;-19.97;-4.76;456.4;14.70;76160;2836.978;-1758.762;1;158;-130;-132.3;43.7;43.7;14;14.4;25.2;0.0;
03/03/2025 09:20:36;100;0;161.55;-4;-18.95;-4.86;458.8;14.70;76163;2836.974;-1758.761;1;158;-130;-130.6;44.1;44.2;17;17.1;25.2;0.0;
03/03/2025 09:20:56;100;0;170.59;-4;-22.80;-3.17;461.1;14.70;76147;2836.971;-1758.761;1;158;-130;-132.3;43.2;43.0;33;32.9;25.2;0.0;
03/03/2025 09:21:16;100;0;165.86;-4;-20.80;5.05;463.6;14.60;76152;2836.967;-1758.760;1;158;-130;-132.3;43.2;43.0;22;22.1;25.2;0.0;
03/03/2025 09:21:36;100;0;157.68;-4;-19.28;-0.75;466.2;14.60;76142;2836.963;-1758.759;1;158;-130;-132.3;43.2;43.0;15;14.9;25.2;0.0;
03/03/2025 09:21:56;100;0;163.50;-4;-18.74;-4.30;468.7;14.60;76142;2836.959;-1758.758;1;158;-130;-132.3;43.6;43.9;19;19.0;25.2;0.0;
03/03/2025 09:22:16;100;0;166.68;-4;-20.28;-1.78;471.1;14.60;76134;2836.956;-1758.757;1;158;-130;-133.9;43.6;43.9;23;23.0;25.2;0.0;
03/03/2025 09:22:36;100;0;167.54;-4;-21.05;0.29;474.0;14.60;76123;2836.951;-1758.756;1;158;-130;-132.3;43.6;43.9;23;23.5;25.2;0.0;
03/03/2025 09:22:56;100;0;164.42;-4;-20.81;0.29;477.1;14.50;76125;2836.947;-1758.755;1;158;-130;-133.9;43.6;43.9;19;19.0;25.2;0.0;
03/03/2025 09:23:16;100;0;161.83;-4;-20.14;-2.08;480.2;14.50;76112;2836.942;-1758.754;1;158;-130;-130.6;43.6;43.9;17;17.1;25.2;0.0;
03/03/2025 09:23:36;100;0;161.80;-4;-20.28;-3.09;483.3;14.50;76122;2836.938;-1758.753;1;158;-130;-132.3;43.6;43.9;17;16.7;25.1;0.0;
03/03/2025 09:23:56;100;0;159.37;-4;-20.12;-3.16;486.2;14.50;76112;2836.934;-1758.752;1;158;-130;-132.3;43.6;43.9;15;14.9;25.2;0.0;
03/03/2025 09:24:16;100;0;155.98;-4;-20.50;-4.30;489.4;14.40;76112;2836.929;-1758.750;1;158;-130;-132.3;43.6;43.9;15;14.4;25.2;0.0;
03/03/2025 09:24:36;100;0;153.76;-4;-20.44;-4.26;492.6;14.40;76106;2836.925;-1758.748;1;158;-130;-132.3;43.6;43.9;15;14.4;25.2;0.0;
03/03/2025 09:24:56;100;0;153.17;-4;-20.03;-4.22;495.9;14.40;76102;2836.920;-1758.746;1;158;-130;-132.3;43.6;43.9;15;14.4;25.2;0.0;
03/03/2025 09:25:16;100;0;151.31;-4;-20.62;-4.44;499.3;14.40;76099;2836.916;-1758.744;1;158;-130;-132.3;43.6;43.9;15;14.4;25.2;0.0;
03/03/2025 09:25:36;100;0;152.14;-4;-19.73;-4.64;502.6;14.40;76077;2836.911;-1758.741;1;158;-130;-132.3;43.6;43.9;15;14.4;25.2;0.0;
03/03/2025 09:25:56;100;0;150.10;-4;-19.81;-4.30;505.9;14.30;76074;2836.907;-1758.739;1;158;-130;-132.3;43.6;43.9;15;14.4;25.2;0.0;
03/03/2025 09:26:16;100;0;151.91;-4;-19.86;-4.21;508.9;14.30;76077;2836.903;-1758.737;1;158;-130;-132.3;43.6;43.7;15;14.4;25.2;0.0;
03/03/2025 09:26:36;100;0;153.69;-4;-19.48;-4.38;512.1;14.30;76059;2836.898;-1758.735;1;158;-130;-132.3;43.6;43.9;15;14.4;25.2;0.0;
03/03/2025 09:26:56;100;0;154.41;-4;-19.73;-4.35;514.9;14.30;76052;2836.894;-1758.734;1;158;-130;-132.3;43.6;43.9;15;14.4;25.2;0.0;
03/03/2025 09:27:16;100;0;154.52;-4;-19.74;-4.47;517.9;14.20;76054;2836.890;-1758.732;1;158;-130;-132.3;43.6;43.9;15;14.4;25.2;0.0;
03/03/2025 09:27:36;100;0;155.15;-4;-19.67;-4.44;520.5;14.20;76044;2836.886;-1758.730;1;158;-130;-132.3;43.6;43.9;15;14.4;25.2;0.0;
03/03/2025 09:27:56;100;0;151.43;-4;-20.83;-4.34;523.3;14.20;76047;2836.883;-1758.729;1;158;-130;-133.9;43.6;43.9;15;14.4;25.2;0.0;
03/03/2025 09:28:16;100;0;151.58;-4;-19.79;-4.30;526.2;14.20;76042;2836.878;-1758.727;1;158;-130;-135.5;43.6;43.9;15;14.4;25.2;0.0;
03/03/2025 09:28:36;100;0;151.88;-4;-19.89;-4.23;529.4;14.10;76044;2836.874;-1758.725;1;158;-130;-132.3;43.6;43.9;15;14.4;25.2;0.0;
03/03/2025 09:28:56;100;0;150.66;-4;-19.85;-4.19;532.2;14.10;76037;2836.870;-1758.723;1;158;-130;-132.3;43.6;43.9;15;14.4;25.2;0.0;
03/03/2025 09:29:16;100;0;150.03;-4;-19.88;-4.25;535.2;14.10;76034;2836.866;-1758.721;1;158;-130;-133.9;43.6;43.9;15;14.4;25.2;0.0;
03/03/2025 09:29:36;100;0;149.08;-4;-19.09;-4.47;538.0;14.10;76027;2836.862;-1758.719;1;158;-130;-132.3;43.6;43.9;15;14.4;25.2;0.0;
03/03/2025 09:29:56;100;0;145.39;-4;-19.56;-4.45;540.6;14.00;76028;2836.859;-1758.717;1;158;-130;-132.3;43.6;43.9;13;13.1;25.2;0.0;
03/03/2025 09:30:16;100;0;142.57;-4;-20.19;-5.02;543.2;14.00;76008;2836.855;-1758.715;1;158;-130;-130.6;43.6;43.9;13;13.1;25.2;0.0;
03/03/2025 09:30:36;100;0;142.45;-4;-19.15;-5.26;545.9;14.00;76006;2836.852;-1758.712;1;158;-130;-132.3;43.6;43.9;11;10.8;25.2;0.0;
03/03/2025 09:30:57;100;0;144.96;-4;-20.07;-6.27;548.5;14.00;75997;2836.848;-1758.710;1;158;-130;-132.3;43.6;43.9;13;13.1;25.2;0.0;
03/03/2025 09:31:17;100;0;144.08;-4;-19.80;-4.85;551.3;13.90;75995;2836.845;-1758.708;1;158;-130;-132.3;43.6;43.9;13;13.1;25.2;0.0;
03/03/2025 09:31:37;100;0;143.77;-4;-19.81;-4.80;554.1;13.90;75994;2836.841;-1758.706;1;158;-130;-132.3;43.6;43.9;13;13.1;25.2;0.0;
03/03/2025 09:31:57;100;0;143.17;-4;-19.97;-4.59;557.1;13.90;75987;2836.837;-1758.703;1;158;-130;-132.3;43.6;43.9;11;10.8;25.2;0.0;
03/03/2025 09:32:17;100;0;139.50;-4;-20.15;-6.38;559.9;13.90;75977;2836.834;-1758.701;1;158;-130;-133.9;43.6;43.9;8;8.1;25.2;0.0;
03/03/2025 09:32:37;100;0;140.57;-4;-19.07;-7.55;562.8;13.80;75973;2836.830;-1758.698;1;158;-130;-132.3;43.6;43.9;8;7.7;25.2;0.0;
03/03/2025 09:32:57;100;0;147.73;-4;-18.89;-7.85;565.6;13.80;75974;2836.826;-1758.696;1;158;-130;-132.3;43.9;43.9;13;13.1;25.2;0.0;
03/03/2025 09:33:17;100;0;144.57;-4;-17.35;-5.18;568.9;13.80;75961;2836.822;-1758.693;1;158;-130;-132.3;44.7;44.8;11;10.8;25.2;0.0;
03/03/2025 09:33:37;100;0;145.27;-4;-20.88;-6.11;571.7;13.80;75960;2836.818;-1758.691;1;158;-130;-132.3;44.7;45.1;11;10.4;25.2;0.0;
03/03/2025 09:33:57;100;0;147.00;-4;-21.91;-6.28;574.7;13.70;75950;2836.814;-1758.689;1;158;-130;-132.3;44.7;45.1;13;13.1;25.2;0.0;
03/03/2025 09:34:17;100;0;147.13;-4;-21.99;-4.42;577.6;13.70;75956;2836.811;-1758.687;1;158;-130;-132.3;44.7;45.2;13;13.5;25.2;0.0;
03/03/2025 09:34:37;100;0;151.01;-4;-22.34;-4.48;580.8;13.70;75957;2836.807;-1758.685;1;158;-130;-132.3;44.0;44.0;13;13.5;25.2;0.0;
03/03/2025 09:34:57;100;0;148.08;-4;-21.45;-4.97;584.0;13.70;75956;2836.802;-1758.682;1;158;-130;-132.3;44.0;43.9;13;13.5;25.2;0.0;
03/03/2025 09:35:17;100;0;147.51;-4;-21.08;-4.67;587.3;13.70;75937;2836.798;-1758.680;1;158;-130;-132.3;44.0;44.0;13;13.5;25.2;0.0;
03/03/2025 09:35:37;100;0;146.25;-4;-19.79;-4.79;590.4;13.60;75942;2836.794;-1758.678;1;158;-130;-132.3;44.0;43.9;13;13.5;25.2;0.0;
03/03/2025 09:35:57;100;0;150.50;-4;-19.91;-5.13;593.2;13.60;75940;2836.790;-1758.676;1;158;-130;-133.9;44.0;44.0;13;13.5;25.2;0.0;
03/03/2025 09:36:17;100;0;148.41;-4;-19.32;-4.89;595.8;13.60;75932;2836.787;-1758.674;1;158;-130;-132.3;44.0;43.9;13;13.5;25.2;0.0;
03/03/2025 09:36:37;100;0;148.77;-4;-20.11;-4.68;598.4;13.60;75938;2836.783;-1758.672;1;158;-130;-132.3;44.0;43.9;13;13.5;25.2;0.0;
03/03/2025 09:36:57;100;0;155.17;-4;-20.03;-4.78;600.9;13.60;75936;2836.779;-1758.671;1;158;-130;-132.3;44.0;44.0;13;13.5;25.2;0.0;
03/03/2025 09:37:17;100;0;154.13;-4;-20.58;-4.87;603.2;13.60;75931;2836.776;-1758.669;1;158;-130;-132.3;44.0;44.0;13;13.5;25.2;0.0;
03/03/2025 09:37:37;100;0;157.02;-4;-20.71;-4.82;605.7;13.50;75933;2836.773;-1758.668;1;158;-130;-132.3;44.0;43.9;13;13.5;25.2;0.0;
03/03/2025 09:37:57;100;0;155.65;-4;-20.31;-4.62;608.4;13.50;75929;2836.769;-1758.667;1;158;-130;-132.3;44.0;44.0;13;13.5;25.2;0.0;
03/03/2025 09:38:17;100;0;158.10;-4;-20.13;-4.74;610.7;13.50;75922;2836.765;-1758.666;1;158;-130;-132.3;44.0;43.9;15;15.3;25.2;0.0;
03/03/2025 09:38:37;100;0;158.46;-4;-20.40;-3.77;613.2;13.50;75931;2836.761;-1758.664;1;158;-130;-132.3;44.0;43.9;15;15.8;25.2;0.0;
03/03/2025 09:38:57;100;0;158.74;-4;-20.64;-3.72;615.8;13.50;75923;2836.758;-1758.663;1;158;-130;-132.3;44.0;44.0;15;15.8;25.2;0.0;
03/03/2025 09:39:17;100;0;157.19;-4;-20.53;-3.75;618.3;13.40;75916;2836.754;-1758.662;1;158;-130;-130.6;44.0;43.9;15;15.3;25.2;0.0;
03/03/2025 09:39:37;100;0;154.57;-4;-21.49;-3.10;621.0;13.40;75914;2836.750;-1758.660;1;158;-130;-132.3;44.0;43.9;15;15.8;25.2;0.0;
03/03/2025 09:39:57;100;0;152.09;-4;-20.89;-3.55;623.7;13.40;75912;2836.747;-1758.659;1;158;-130;-132.3;44.0;44.0;13;13.1;25.2;0.0;
03/03/2025 09:40:17;100;0;151.52;-4;-20.36;-5.51;626.4;13.40;75924;2836.743;-1758.657;1;158;-130;-132.3;44.0;44.0;13;13.1;25.2;0.0;
03/03/2025 09:40:37;100;0;154.20;-4;-20.74;-5.22;629.2;13.30;75903;2836.739;-1758.655;1;158;-130;-132.3;44.0;43.9;13;12.6;25.2;0.0;
03/03/2025 09:40:57;100;0;154.37;-4;-20.23;-5.16;631.9;13.30;75910;2836.735;-1758.654;1;158;-130;-132.3;44.0;43.9;13;12.6;25.1;0.0;
03/03/2025 09:41:17;100;0;159.97;-4;-20.79;-4.90;634.8;13.30;75899;2836.731;-1758.653;1;158;-130;-132.3;44.0;44.0;15;14.9;25.2;0.0;
03/03/2025 09:41:37;100;0;159.69;-4;-20.27;-4.30;637.7;13.30;75905;2836.727;-1758.651;1;158;-130;-133.9;44.0;43.9;15;15.3;25.2;0.0;
03/03/2025 09:41:57;100;0;160.54;-4;-19.44;-4.13;640.7;13.30;75904;2836.722;-1758.650;1;158;-130;-132.3;44.0;43.9;15;15.3;25.2;0.0;
03/03/2025 09:42:17;100;0;157.24;-4;-19.34;-3.74;643.2;13.30;75904;2836.719;-1758.649;1;158;-130;-133.9;44.0;43.9;15;15.3;25.2;0.0;
03/03/2025 09:42:37;100;0;161.36;-4;-20.20;-4.00;645.7;13.30;75893;2836.715;-1758.648;1;158;-130;-133.9;44.0;43.9;17;17.1;25.2;0.0;
03/03/2025 09:42:57;100;0;161.16;-4;-21.24;-2.89;648.2;13.20;75906;2836.711;-1758.647;1;158;-130;-132.3;44.0;43.9;17;17.6;25.2;0.0;
03/03/2025 09:43:17;100;0;159.66;-4;-20.46;-2.76;651.0;13.20;75893;2836.707;-1758.645;1;158;-130;-132.3;44.0;44.0;15;14.9;25.1;0.0;
03/03/2025 09:43:37;100;0;158.31;-4;-20.64;-4.27;653.7;13.20;75889;2836.703;-1758.644;1;158;-130;-130.6;44.0;44.0;15;14.4;25.2;0.0;
03/03/2025 09:43:57;100;0;158.62;-4;-20.29;-4.25;656.4;13.20;75884;2836.699;-1758.643;1;158;-130;-132.3;44.0;43.9;15;14.4;25.2;0.0;
03/03/2025 09:44:17;100;0;157.45;-4;-20.11;-4.34;659.2;13.20;75888;2836.695;-1758.641;1;158;-130;-132.3;44.0;43.9;15;14.4;25.2;0.0;
03/03/2025 09:44:37;100;0;158.75;-4;-20.20;-4.30;661.9;13.20;75884;2836.691;-1758.640;1;158;-130;-132.3;44.0;43.9;15;14.4;25.2;0.0;
03/03/2025 09:44:57;100;0;157.46;-4;-21.31;-4.22;664.3;13.10;75874;2836.688;-1758.639;1;158;-130;-133.9;44.0;43.9;15;14.9;25.2;0.0;
03/03/2025 09:45:17;100;0;153.93;-4;-20.48;-4.23;667.1;13.10;75879;2836.684;-1758.637;1;158;-130;-132.3;44.0;43.9;15;14.4;25.2;0.0;
03/03/2025 09:45:37;100;0;150.76;-4;-20.59;-4.31;669.7;13.10;75878;2836.680;-1758.635;1;158;-130;-132.3;44.0;43.9;15;14.4;25.2;0.0;
03/03/2025 09:45:57;100;0;149.43;-4;-19.88;-4.33;672.3;13.10;75870;2836.677;-1758.634;1;158;-130;-132.3;44.0;43.9;15;14.4;25.2;0.0;
03/03/2025 09:46:17;100;0;148.03;-4;-20.61;-4.23;674.8;13.10;75882;2836.673;-1758.632;1;158;-130;-133.9;44.0;43.9;15;14.4;25.2;0.0;
03/03/2025 09:46:37;100;0;148.58;-4;-20.34;-4.29;677.5;13.10;75869;2836.669;-1758.630;1;158;-130;-132.3;44.0;43.9;15;14.4;25.2;0.0;
03/03/2025 09:46:57;100;0;148.82;-4;-20.56;-4.30;680.0;13.00;75875;2836.666;-1758.628;1;158;-130;-130.6;44.0;43.9;15;14.4;25.2;0.0;
03/03/2025 09:47:17;100;0;147.94;-4;-20.66;-4.20;682.6;13.00;75862;2836.663;-1758.627;1;158;-130;-132.3;44.0;43.9;15;14.4;25.2;0.0;
03/03/2025 09:47:37;100;0;148.34;-4;-20.05;-4.36;685.5;13.00;75868;2836.659;-1758.624;1;158;-130;-132.3;44.0;43.9;15;14.4;25.1;0.0;
03/03/2025 09:47:57;100;0;147.10;-4;-20.74;-4.17;688.1;13.00;75864;2836.655;-1758.623;1;158;-130;-132.3;44.0;43.9;15;14.4;25.2;0.0;
03/03/2025 09:48:17;100;0;146.56;-4;-20.59;-4.20;690.8;13.00;75864;2836.652;-1758.621;1;158;-130;-132.3;44.0;44.0;13;13.1;25.2;0.0;
03/03/2025 09:48:37;100;0;148.85;-4;-20.00;-5.09;693.4;13.00;75851;2836.648;-1758.619;1;158;-130;-130.6;44.0;43.9;13;12.6;25.2;0.0;
03/03/2025 09:48:57;100;0;145.53;-4;-20.31;-5.14;695.9;12.90;75844;2836.645;-1758.617;1;158;-130;-132.3;44.0;43.9;13;12.6;25.2;0.0;
03/03/2025 09:49:17;100;0;147.95;-4;-19.36;-5.23;698.3;12.90;75858;2836.641;-1758.615;1;158;-130;-132.3;44.0;43.9;13;12.6;25.2;0.0;
03/03/2025 09:49:37;100;0;145.75;-4;-20.78;-5.32;700.6;12.90;75856;2836.638;-1758.613;1;158;-130;-133.9;44.0;43.9;13;12.6;25.2;0.0;
03/03/2025 09:49:57;100;0;150.79;-4;-19.96;-5.13;702.9;12.90;75857;2836.635;-1758.612;1;158;-130;-132.3;44.0;43.9;13;12.6;25.2;0.0;
03/03/2025 09:50:17;100;0;153.06;-4;-19.65;-5.20;705.5;12.90;75852;2836.631;-1758.610;1;158;-130;-132.3;44.0;43.9;13;12.6;25.2;0.0;
03/03/2025 09:50:37;100;0;154.22;-4;-19.59;-5.18;707.7;12.90;75853;2836.628;-1758.609;1;158;-130;-132.3;44.0;43.9;13;12.6;25.2;0.0;
03/03/2025 09:50:57;100;0;155.06;-4;-19.16;-5.17;709.7;12.90;75848;2836.625;-1758.608;1;158;-150;-153.2;44.0;43.9;13;12.6;25.2;0.0;
03/03/2025 09:51:17;100;0;155.26;-4;-20.38;-5.28;711.8;12.90;75890;2836.622;-1758.607;1;158;-150;-151.6;44.0;43.9;13;12.6;25.2;0.0;
03/03/2025 09:51:37;100;0;153.19;-4;-19.18;-4.93;714.0;12.80;75884;2836.618;-1758.605;1;158;-150;-151.6;44.0;43.9;13;12.6;25.2;0.0;
03/03/2025 09:51:57;100;0;156.66;-4;-19.23;-5.22;716.0;12.80;75884;2836.615;-1758.604;1;158;-150;-151.6;44.0;43.9;15;14.9;25.2;0.0;
03/03/2025 09:52:17;100;0;159.39;-4;-18.22;-3.81;717.6;12.80;75874;2836.612;-1758.604;1;158;-170;-171.0;44.6;44.6;18;18.5;25.2;0.0;
03/03/2025 09:52:37;100;0;159.86;-4;-28.21;-0.24;719.4;12.80;75923;2836.610;-1758.603;1;158;-190;-188.7;42.1;42.1;23;23.5;25.2;0.0;
03/03/2025 09:52:57;100;0;145.89;-4;-18.10;0.62;723.3;12.80;75952;2836.605;-1758.600;1;158;-190;-195.2;42.7;43.0;12;12.2;25.2;0.0;
03/03/2025 09:53:17;100;0;153.06;-4;-19.72;-6.25;726.9;12.80;75942;2836.600;-1758.598;1;158;-190;-193.5;42.7;43.0;14;14.0;25.2;0.0;
03/03/2025 09:53:37;100;0;151.42;-4;-15.51;-4.50;730.5;12.70;75938;2836.594;-1758.595;1;158;-190;-191.9;44.0;44.0;14;14.4;25.2;0.0;
03/03/2025 09:53:57;100;0;153.24;-4;-19.04;-4.99;734.1;12.70;75947;2836.589;-1758.592;1;158;-190;-191.9;44.0;44.3;14;14.0;25.2;0.0;
03/03/2025 09:54:17;100;0;159.44;-4;-17.24;-3.44;737.5;12.70;75949;2836.584;-1758.591;1;158;-190;-191.9;44.8;44.8;14;14.4;25.2;0.0;
03/03/2025 09:54:37;100;0;169.50;-4;-19.76;-4.64;739.4;12.70;75932;2836.581;-1758.590;1;158;-210;-208.1;44.8;45.1;32;32.0;25.2;0.0;
03/03/2025 09:54:57;100;0;161.22;-4;-19.35;4.47;741.6;12.70;75966;2836.577;-1758.589;1;158;-210;-211.3;44.8;45.1;17;17.1;25.2;0.0;
03/03/2025 09:55:17;100;0;155.98;-4;-20.02;-2.78;743.2;12.70;75951;2836.575;-1758.589;1;158;-230;-230.6;44.8;45.1;17;17.1;25.2;0.0;
03/03/2025 09:55:37;100;0;155.55;-4;-21.56;-2.46;745.1;12.70;76003;2836.572;-1758.588;1;158;-250;-251.6;44.8;45.2;15;14.9;25.2;0.0;
03/03/2025 09:55:57;100;0;156.55;-4;-22.43;-4.25;747.6;12.60;76024;2836.569;-1758.586;1;158;-250;-253.2;44.1;44.2;15;14.4;25.2;0.0;
03/03/2025 09:56:17;100;0;159.34;-4;-20.48;-3.92;750.9;12.60;76014;2836.564;-1758.585;1;158;-250;-253.2;44.1;44.2;15;14.4;25.2;0.0;
03/03/2025 09:56:37;100;0;155.71;-4;-18.85;-3.59;753.6;12.60;76017;2836.560;-1758.583;1;158;-250;-253.2;44.5;44.5;15;14.4;25.2;0.0;
03/03/2025 09:56:57;100;0;156.13;-4;-19.49;-4.13;756.1;12.60;76002;2836.556;-1758.582;1;158;-250;-253.2;44.5;44.8;15;14.4;25.2;0.0;
03/03/2025 09:57:17;100;0;153.65;-4;-18.21;-3.40;758.2;12.60;75979;2836.553;-1758.581;1;158;-250;-254.8;45.0;45.1;15;14.4;25.2;0.0;
03/03/2025 09:57:37;100;0;157.01;-4;-18.60;-3.86;760.1;12.50;75988;2836.550;-1758.580;1;158;-270;-271.0;45.4;45.4;15;14.9;25.2;0.0;
03/03/2025 09:57:57;100;0;157.94;-4;-21.38;-3.37;761.8;12.50;76021;2836.547;-1758.579;1;158;-290;-291.9;45.4;45.7;18;18.1;25.2;0.0;
03/03/2025 09:58:17;100;0;157.10;-4;-24.41;-3.39;764.3;12.50;76046;2836.544;-1758.578;1;158;-290;-293.5;44.1;44.0;15;14.9;25.2;0.0;
03/03/2025 09:58:37;100;0;166.07;-4;-21.70;-3.34;768.1;12.50;76033;2836.539;-1758.577;1;158;-290;-295.2;44.1;43.9;21;21.2;25.2;0.0;
03/03/2025 09:58:57;100;0;157.44;-4;-23.20;-1.73;772.8;12.40;76023;2836.533;-1758.574;1;158;-290;-296.8;43.1;43.0;14;13.5;25.2;0.0;
03/03/2025 09:59:17;100;0;155.06;-4;-19.43;-4.47;778.3;12.40;76018;2836.526;-1758.571;1;158;-290;-295.2;43.1;42.9;14;13.5;25.2;0.0;
03/03/2025 09:59:37;100;0;153.43;-4;-15.46;-4.05;782.7;12.40;76012;2836.519;-1758.568;1;158;-290;-295.2;44.5;44.5;14;13.5;25.1;0.0;
03/03/2025 09:59:57;100;0;155.60;-4;-18.71;-4.84;786.3;12.40;76016;2836.514;-1758.566;1;158;-290;-295.2;44.9;44.9;14;13.5;25.2;42.4;
03/03/2025 10:00:17;100;0;156.05;-4;-19.76;-4.11;789.8;12.30;76011;2836.509;-1758.564;1;158;-290;-296.8;44.9;45.1;14;13.5;25.2;39.4;
03/03/2025 10:00:37;100;0;153.64;-4;-20.38;-4.53;793.7;12.30;76001;2836.504;-1758.561;1;158;-290;-295.2;44.9;45.1;14;13.5;25.2;35.6;
03/03/2025 10:00:57;100;0;146.72;-4;-20.48;-4.35;797.8;12.30;75976;2836.499;-1758.558;1;158;-290;-296.8;44.9;45.1;14;13.5;25.2;31.6;
03/03/2025 10:01:00;118;0;145.96;-4;-20.92;-4.08;798.4;12.30;75976;2836.498;-1758.558;1;158;450;-296.8;22.1;22.1;8;7.7;25.2;31.1;
03/03/2025 10:01:10;118;0;120.66;-4;-11.16;-7.39;800.0;12.30;75959;2836.496;-1758.556;1;158;450;-166.1;22.1;21.9;8;7.7;24.1;-1.0;
03/03/2025 10:01:20;118;0;108.03;-4;10.95;-7.70;800.7;12.30;75670;2836.496;-1758.554;1;158;450;-41.9;22.1;21.5;8;7.7;23.7;-1.0;
03/03/2025 10:01:30;118;0;100.54;-4;25.94;-8.45;800.3;12.30;75421;2836.495;-1758.554;1;158;450;80.6;22.1;22.1;8;7.2;24.0;-1.0;
03/03/2025 10:01:40;118;0;97.17;-4;31.39;-8.94;799.5;12.30;75165;2836.495;-1758.553;1;158;450;206.5;22.1;22.2;8;7.7;23.9;-1.0;
03/03/2025 10:01:50;118;0;96.27;-4;29.59;-9.01;798.5;12.30;74901;2836.494;-1758.552;1;158;450;329.0;22.1;22.2;8;7.7;23.9;-1.0;
03/03/2025 10:02:00;118;0;97.47;-4;26.17;-8.45;797.0;12.30;74649;2836.494;-1758.551;1;158;450;441.9;22.1;22.1;8;7.2;23.9;-1.0;
03/03/2025 10:02:10;118;0;98.66;-4;22.40;-6.84;795.3;12.30;74406;2836.493;-1758.549;1;158;450;453.2;22.1;22.1;8;7.2;24.0;-1.0;
03/03/2025 10:02:20;118;0;138.44;-4;21.11;-7.37;793.7;12.30;74392;2836.491;-1758.547;1;158;450;453.2;22.1;22.2;8;7.7;25.1;-1.0;
03/03/2025 10:02:40;117;0;131.58;-4;19.59;-7.49;790.8;12.30;74395;2836.488;-1758.544;1;158;450;453.2;22.1;22.2;8;7.7;25.1;-1.0;
03/03/2025 10:03:00;117;0;124.98;-4;18.95;-7.53;787.1;12.30;74389;2836.484;-1758.540;1;158;450;451.6;21.7;21.8;61;60.9;25.2;-1.0;
03/03/2025 10:03:20;117;0;140.35;-4;20.29;20.27;783.7;12.30;74394;2836.480;-1758.537;1;158;450;451.6;21.7;21.6;36;36.1;25.1;-1.0;
03/03/2025 10:03:40;117;0;140.91;-4;19.83;7.13;780.3;12.30;74399;2836.476;-1758.534;1;158;450;453.2;21.7;21.8;36;36.1;25.2;-1.0;
03/03/2025 10:04:00;117;0;140.48;-4;21.46;6.72;776.8;12.30;74400;2836.472;-1758.531;1;158;450;453.2;21.7;21.8;36;36.1;25.1;-1.0;
03/03/2025 10:04:21;117;0;143.00;-4;21.29;7.23;773.1;12.30;74398;2836.468;-1758.528;1;158;450;453.2;21.7;21.8;33;32.9;25.2;-1.0;
03/03/2025 10:04:41;117;0;144.09;-4;21.77;5.47;769.3;12.30;74404;2836.463;-1758.525;1;158;450;453.2;21.7;21.8;33;32.5;25.1;-1.0;
03/03/2025 10:05:01;117;0;144.96;-4;20.23;4.94;765.4;12.30;74406;2836.459;-1758.522;1;158;450;453.2;21.7;21.8;33;32.5;25.1;-1.0;
03/03/2025 10:05:21;117;0;149.35;-4;21.11;5.97;762.0;12.30;74406;2836.454;-1758.519;1;158;450;453.2;21.7;21.8;31;31.1;25.2;-1.0;
03/03/2025 10:05:41;117;0;151.22;-4;21.18;4.35;758.6;12.30;74421;2836.450;-1758.517;1;158;450;451.6;21.7;21.8;31;30.7;25.2;-1.0;
03/03/2025 10:06:01;117;0;151.98;-4;21.38;3.99;755.0;12.20;74425;2836.445;-1758.515;1;158;450;453.2;21.7;21.8;31;30.7;25.2;-1.0;
03/03/2025 10:06:21;117;0;154.86;-4;21.88;4.59;751.3;12.20;74433;2836.440;-1758.513;1;158;450;451.6;21.7;21.8;31;31.1;25.1;-1.0;
03/03/2025 10:06:41;117;0;154.58;-4;19.90;4.04;747.4;12.20;74424;2836.435;-1758.511;1;158;450;453.2;21.7;21.8;31;30.7;25.2;-1.0;
03/03/2025 10:07:01;117;0;156.61;-4;20.40;3.91;743.9;12.20;74439;2836.430;-1758.509;1;158;450;453.2;21.7;21.8;31;31.1;25.2;-1.0;
03/03/2025 10:07:21;117;0;155.51;-4;20.22;4.29;740.2;12.20;74439;2836.425;-1758.507;1;158;450;453.2;21.7;21.6;31;30.7;25.1;-1.0;
03/03/2025 10:07:41;117;0;156.27;-4;20.59;4.30;736.9;12.20;74451;2836.421;-1758.505;1;158;450;453.2;21.7;21.8;31;30.7;25.2;-1.0;
03/03/2025 10:08:01;117;0;159.37;-4;21.26;4.44;733.4;12.20;74451;2836.416;-1758.503;1;158;450;453.2;21.7;21.6;29;28.9;25.2;-1.0;
03/03/2025 10:08:21;117;0;158.84;-4;20.15;3.05;730.0;12.20;74449;2836.411;-1758.502;1;158;450;453.2;21.7;21.8;29;28.4;25.2;-1.0;
03/03/2025 10:08:41;117;0;159.97;-4;19.78;3.05;727.1;12.20;74456;2836.407;-1758.500;1;158;450;453.2;21.7;21.8;29;28.4;25.2;-1.0;
03/03/2025 10:09:01;117;0;159.38;-4;20.46;3.09;724.0;12.10;74444;2836.402;-1758.499;1;158;450;453.2;21.7;21.8;29;28.4;25.2;-1.0;
03/03/2025 10:09:21;117;0;159.78;-4;20.76;3.02;720.8;12.10;74452;2836.398;-1758.497;1;158;450;453.2;21.7;21.6;29;28.4;25.2;-1.0;
03/03/2025 10:09:41;117;0;159.28;-4;20.10;3.06;717.7;12.10;74450;2836.393;-1758.496;1;158;450;453.2;21.7;21.8;29;28.4;25.2;-1.0;
03/03/2025 10:10:01;117;0;163.65;-4;20.28;2.99;714.6;12.10;74445;2836.389;-1758.495;1;158;450;453.2;21.7;21.8;25;24.8;25.2;-1.0;
03/03/2025 10:10:21;117;0;164.09;-4;20.61;0.95;711.7;12.10;74451;2836.385;-1758.494;1;158;450;453.2;21.7;21.8;25;24.4;25.2;-1.0;
03/03/2025 10:10:41;117;0;161.00;-4;20.43;0.79;708.4;12.10;74461;2836.380;-1758.492;1;158;450;453.2;21.7;21.8;28;28.0;25.2;-1.0;
03/03/2025 10:11:01;117;0;160.94;-4;20.18;3.15;705.0;12.10;74465;2836.375;-1758.491;1;158;450;453.2;21.7;21.8;28;28.4;25.1;-1.0;
03/03/2025 10:11:21;117;0;160.94;-4;20.81;3.42;701.8;12.10;74465;2836.371;-1758.490;1;158;450;453.2;21.7;21.6;28;28.0;25.2;-1.0;
03/03/2025 10:11:41;117;0;161.28;-4;20.34;3.17;698.4;12.10;74449;2836.366;-1758.488;1;158;450;453.2;21.7;21.8;28;28.4;25.2;-1.0;
03/03/2025 10:12:01;117;0;162.61;-4;20.94;3.60;694.8;12.10;74466;2836.361;-1758.487;1;158;450;454.8;21.7;21.6;28;28.0;25.2;-1.0;
03/03/2025 10:12:21;117;0;161.66;-4;21.21;3.07;691.2;12.10;74470;2836.356;-1758.485;1;158;450;453.2;21.7;21.8;28;28.4;25.2;-1.0;
03/03/2025 10:12:41;117;0;160.64;-4;20.37;3.37;687.2;12.10;74466;2836.350;-1758.484;1;158;450;453.2;21.7;21.8;28;28.4;25.2;-1.0;
03/03/2025 10:13:01;117;0;161.76;-4;20.05;3.12;683.4;12.10;74475;2836.345;-1758.482;1;158;450;454.8;21.7;21.8;28;28.0;25.2;-1.0;
03/03/2025 10:13:21;117;0;161.31;-4;20.07;3.52;679.4;12.10;74478;2836.339;-1758.480;1;158;450;454.8;21.7;21.6;28;28.0;25.2;-1.0;
03/03/2025 10:13:41;117;0;159.72;-4;20.13;3.14;675.9;12.10;74463;2836.334;-1758.479;1;158;450;453.2;21.7;21.8;28;28.4;25.2;-1.0;
03/03/2025 10:14:01;117;0;159.08;-4;20.53;3.08;672.2;12.10;74478;2836.329;-1758.477;1;158;450;453.2;21.7;21.8;28;28.4;25.2;-1.0;
03/03/2025 10:14:21;117;0;159.73;-4;20.21;3.09;668.3;12.10;74466;2836.324;-1758.475;1;158;450;453.2;21.7;21.8;28;28.4;25.2;-1.0;
03/03/2025 10:14:41;117;0;159.31;-4;18.40;2.80;664.7;12.10;74475;2836.318;-1758.473;1;158;450;453.2;21.3;21.2;28;28.4;25.2;-1.0;
03/03/2025 10:15:01;117;0;160.04;-4;21.81;2.88;661.0;12.10;74478;2836.314;-1758.472;1;158;450;453.2;21.3;20.6;28;28.0;25.2;-1.0;
03/03/2025 10:15:21;117;0;161.45;-4;23.07;3.45;657.1;12.10;74480;2836.309;-1758.470;1;158;450;453.2;22.2;22.2;28;28.4;25.2;-1.0;
03/03/2025 10:15:41;117;0;160.78;-4;20.33;3.49;653.1;12.10;74475;2836.303;-1758.468;1;158;450;453.2;22.2;22.4;28;28.4;25.1;-1.0;
03/03/2025 10:16:01;117;0;161.32;-4;19.31;3.15;649.6;12.10;74466;2836.298;-1758.467;1;158;450;453.2;22.2;22.4;28;28.4;25.2;-1.0;
03/03/2025 10:16:21;117;0;160.92;-4;18.33;3.17;646.3;12.10;74463;2836.293;-1758.465;1;158;450;453.2;21.7;21.6;28;28.0;25.1;-1.0;
03/03/2025 10:16:41;117;0;162.76;-4;20.77;2.88;643.4;12.10;74466;2836.289;-1758.464;1;158;450;453.2;21.7;21.1;26;26.2;25.2;-1.0;
03/03/2025 10:17:01;117;0;158.25;-4;22.99;2.15;639.9;12.10;74458;2836.284;-1758.463;1;158;450;454.8;22.6;22.7;29;29.3;25.2;-1.0;
03/03/2025 10:17:21;117;0;157.11;-4;19.59;3.54;636.3;12.10;74458;2836.279;-1758.461;1;158;450;453.2;22.6;22.8;29;29.3;25.2;-1.0;
03/03/2025 10:17:41;117;0;157.35;-4;19.49;3.77;633.0;12.10;74463;2836.274;-1758.459;1;158;450;453.2;22.6;22.7;29;29.3;25.2;-1.0;
03/03/2025 10:18:01;117;0;158.83;-4;19.21;3.85;629.6;12.10;74455;2836.269;-1758.457;1;158;450;453.2;22.6;22.8;29;28.9;25.2;-1.0;
03/03/2025 10:18:21;117;0;158.39;-4;18.27;3.92;626.1;12.10;74472;2836.264;-1758.455;1;158;450;453.2;22.1;22.1;29;29.3;25.2;-1.0;
03/03/2025 10:18:41;117;0;156.97;-4;20.26;3.35;622.9;12.10;74464;2836.260;-1758.454;1;158;450;453.2;22.1;21.8;29;29.3;25.1;-1.0;
03/03/2025 10:19:01;117;0;160.61;-4;21.46;3.78;619.0;12.10;74463;2836.254;-1758.452;1;158;450;450.0;22.1;21.6;29;28.9;25.2;-1.0;
03/03/2025 10:19:21;117;0;159.00;-4;19.83;3.37;615.1;12.10;74456;2836.249;-1758.450;1;158;450;453.2;22.1;21.6;29;29.3;25.2;-1.0;
03/03/2025 10:19:41;117;0;156.14;-4;21.28;3.49;611.4;12.10;74446;2836.244;-1758.448;1;158;450;454.8;22.1;21.6;29;29.3;25.2;-1.0;
03/03/2025 10:20:01;117;0;154.18;-4;19.69;3.71;607.3;12.10;74451;2836.239;-1758.445;1;158;450;453.2;22.1;21.6;29;28.9;25.2;-1.0;
03/03/2025 10:20:21;117;0;154.62;-4;18.97;3.73;603.6;12.10;74450;2836.234;-1758.443;1;158;450;453.2;21.8;21.8;29;29.3;25.1;-1.0;
03/03/2025 10:20:41;117;0;156.12;-4;20.29;3.51;600.5;12.10;74459;2836.229;-1758.442;1;158;450;454.8;21.8;21.9;29;29.3;25.2;-1.0;
03/03/2025 10:21:01;117;0;155.23;-4;20.39;3.69;596.8;12.10;74445;2836.224;-1758.439;1;158;450;451.6;21.8;21.8;29;29.3;25.2;-1.0;
03/03/2025 10:21:21;117;0;153.99;-4;20.35;3.82;593.2;12.10;74448;2836.219;-1758.437;1;158;450;453.2;21.8;21.8;29;29.3;25.1;-1.0;
03/03/2025 10:21:41;117;0;154.77;-4;20.53;3.60;589.5;12.10;74440;2836.214;-1758.435;1;158;450;454.8;21.8;21.8;29;29.3;25.2;-1.0;
03/03/2025 10:22:01;117;0;154.15;-4;20.43;3.68;585.8;12.10;74446;2836.209;-1758.433;1;158;450;453.2;21.8;21.9;29;29.3;25.2;-1.0;
03/03/2025 10:22:21;117;0;153.40;-4;19.99;3.67;581.9;12.10;74440;2836.204;-1758.431;1;158;450;453.2;21.8;21.8;29;28.9;25.2;-1.0;
03/03/2025 10:22:41;117;0;154.60;-4;20.53;3.72;577.9;12.10;74449;2836.199;-1758.428;1;158;450;453.2;21.8;21.8;29;28.9;25.2;-1.0;
03/03/2025 10:23:01;117;0;155.31;-4;20.36;3.61;574.0;12.10;74463;2836.194;-1758.426;1;158;450;454.8;21.8;21.9;29;29.3;25.2;-1.0;
03/03/2025 10:23:21;117;0;156.69;-4;20.40;3.63;570.0;12.10;74459;2836.188;-1758.424;1;158;450;453.2;21.8;21.8;29;28.9;25.2;-1.0;
03/03/2025 10:23:41;117;0;159.27;-4;20.61;3.61;566.0;12.10;74452;2836.183;-1758.422;1;158;450;453.2;21.8;21.9;29;29.3;25.2;-1.0;
03/03/2025 10:24:01;117;0;159.14;-4;20.41;3.69;561.8;12.10;74469;2836.177;-1758.420;1;158;450;453.2;21.8;21.8;29;29.3;25.2;-1.0;
03/03/2025 10:24:21;117;0;159.45;-4;20.40;3.66;557.7;12.10;74466;2836.171;-1758.418;1;158;450;454.8;21.8;21.8;29;29.3;25.2;-1.0;
03/03/2025 10:24:41;117;0;159.99;-4;20.14;3.75;553.4;12.10;74475;2836.165;-1758.416;1;158;450;453.2;21.8;21.9;29;29.3;25.2;-1.0;
03/03/2025 10:25:01;117;0;160.35;-4;19.98;3.78;549.3;12.10;74472;2836.160;-1758.414;1;158;450;454.8;21.8;21.8;29;29.3;25.2;-1.0;
03/03/2025 10:25:21;117;0;160.34;-4;20.00;3.70;545.0;12.10;74470;2836.154;-1758.412;1;158;450;453.2;21.8;21.8;29;29.3;25.2;-1.0;
03/03/2025 10:25:41;117;0;160.26;-4;20.01;3.69;540.9;12.10;74481;2836.148;-1758.410;1;158;450;453.2;21.8;21.8;29;29.3;25.2;-1.0;
03/03/2025 10:26:01;117;0;160.56;-4;20.09;3.60;537.0;12.10;74478;2836.143;-1758.408;1;158;450;454.8;21.8;21.8;29;29.3;25.2;-1.0;
03/03/2025 10:26:21;117;0;161.31;-4;19.98;3.62;532.8;12.10;74475;2836.137;-1758.407;1;158;450;453.2;21.8;21.8;29;29.3;25.2;-1.0;
03/03/2025 10:26:41;117;0;162.12;-4;20.08;3.68;528.6;12.10;74475;2836.131;-1758.405;1;158;450;453.2;21.8;21.8;27;27.1;25.2;-1.0;
03/03/2025 10:27:01;117;0;161.65;-4;19.81;2.57;524.8;12.10;74475;2836.126;-1758.403;1;158;450;453.2;21.8;21.8;27;27.1;25.2;-1.0;
03/03/2025 10:27:21;117;0;160.35;-4;19.73;2.69;520.8;12.10;74470;2836.120;-1758.401;1;158;450;454.8;21.8;21.8;27;27.1;25.1;-1.0;
03/03/2025 10:27:41;117;0;160.74;-4;19.50;2.55;517.0;12.10;74468;2836.114;-1758.400;1;158;450;453.2;21.8;21.8;27;27.1;25.2;-1.0;
03/03/2025 10:28:01;117;0;161.14;-4;19.59;2.58;513.1;12.10;74472;2836.109;-1758.398;1;158;450;454.8;21.8;21.8;27;27.1;25.2;-1.0;
03/03/2025 10:28:21;117;0;160.47;-4;19.71;2.47;509.4;12.20;74479;2836.104;-1758.396;1;158;450;453.2;21.8;21.9;27;27.1;25.2;-1.0;
03/03/2025 10:28:41;117;0;159.86;-4;19.81;2.59;505.7;12.20;74485;2836.099;-1758.395;1;158;450;454.8;21.8;21.8;27;27.1;25.2;-1.0;
03/03/2025 10:29:01;117;0;159.09;-4;19.96;2.65;501.9;12.20;74485;2836.093;-1758.393;1;158;450;453.2;21.8;21.8;27;27.1;25.2;-1.0;
03/03/2025 10:29:21;117;0;158.48;-4;19.80;2.61;498.3;12.20;74495;2836.088;-1758.391;1;158;450;451.6;21.8;21.8;27;27.1;25.2;-1.0;
03/03/2025 10:29:41;117;0;157.70;-4;19.97;2.58;494.5;12.20;74482;2836.083;-1758.389;1;158;450;454.8;21.8;21.8;27;27.1;25.2;-1.0;
03/03/2025 10:30:01;117;0;158.75;-4;19.64;2.50;490.9;12.20;74487;2836.078;-1758.387;1;158;450;453.2;21.8;21.8;27;27.1;25.1;-1.0;
03/03/2025 10:30:21;117;0;159.52;-4;19.65;2.42;487.3;12.20;74487;2836.073;-1758.385;1;158;450;454.8;21.8;21.8;27;27.1;25.2;-1.0;
03/03/2025 10:30:41;117;0;160.67;-4;19.85;2.57;483.8;12.20;74485;2836.068;-1758.384;1;158;450;454.8;21.8;21.9;27;27.1;25.2;-1.0;
03/03/2025 10:31:01;117;0;160.57;-4;20.08;2.60;480.3;12.20;74492;2836.063;-1758.382;1;158;450;454.8;21.8;21.8;27;27.1;25.1;-1.0;
03/03/2025 10:31:21;117;0;160.85;-4;19.55;2.61;477.1;12.20;74496;2836.058;-1758.381;1;158;450;454.8;21.8;21.8;27;27.1;25.1;-1.0;
03/03/2025 10:31:41;117;0;160.35;-4;19.98;2.67;473.7;12.20;74502;2836.053;-1758.379;1;158;450;454.8;21.8;21.8;27;27.1;25.2;-1.0;
03/03/2025 10:32:01;117;0;160.99;-4;19.55;2.67;470.3;12.20;74505;2836.049;-1758.378;1;158;450;454.8;21.8;21.8;27;27.1;25.2;-1.0;
03/03/2025 10:32:21;117;0;160.93;-4;19.76;2.70;467.3;12.20;74508;2836.044;-1758.377;1;158;450;453.2;21.8;21.8;27;27.1;25.2;-1.0;
03/03/2025 10:32:41;117;0;162.11;-4;19.76;2.59;464.0;12.20;74503;2836.039;-1758.375;1;158;450;454.8;21.8;21.9;27;27.1;25.2;-1.0;
03/03/2025 10:33:01;117;0;162.88;-4;19.63;2.54;461.0;12.30;74507;2836.035;-1758.374;1;158;450;453.2;21.8;21.8;24;23.9;25.2;-1.0;
03/03/2025 10:33:21;117;0;160.88;-4;18.89;0.64;458.1;12.20;74508;2836.031;-1758.373;1;158;450;453.2;21.4;21.1;26;26.2;25.1;-1.0;
03/03/2025 10:33:41;117;0;160.51;-4;21.28;2.49;455.2;12.30;74515;2836.027;-1758.372;1;158;450;454.8;21.4;20.8;26;26.2;25.2;-1.0;
03/03/2025 10:34:01;117;0;159.40;-4;21.60;2.03;452.0;12.30;74512;2836.022;-1758.370;1;158;450;454.8;21.4;20.8;26;26.2;25.2;-1.0;
03/03/2025 10:34:21;117;0;156.92;-4;21.35;2.16;448.7;12.30;74517;2836.018;-1758.368;1;158;450;454.8;21.4;20.8;28;28.0;25.2;-1.0;
03/03/2025 10:34:41;117;0;157.21;-4;21.86;3.43;445.3;12.30;74512;2836.013;-1758.367;1;158;450;454.8;21.4;20.8;28;28.4;25.1;-1.0;
03/03/2025 10:35:01;117;0;157.54;-4;22.06;3.46;442.0;12.30;74529;2836.009;-1758.365;1;158;450;454.8;22.0;22.2;28;28.4;25.2;-1.0;
03/03/2025 10:35:21;117;0;156.87;-4;20.46;3.46;438.7;12.30;74527;2836.004;-1758.363;1;158;450;453.2;22.0;22.2;28;28.4;25.2;-1.0;
03/03/2025 10:35:41;117;0;155.21;-4;19.51;3.48;435.7;12.30;74529;2836.000;-1758.362;1;158;450;454.8;22.0;22.2;28;28.4;25.2;-1.0;
03/03/2025 10:36:01;117;0;153.85;-4;19.61;3.49;432.6;12.30;74532;2835.996;-1758.360;1;158;450;453.2;22.0;22.2;28;28.4;25.2;-1.0;
03/03/2025 10:36:21;117;0;151.45;-4;19.50;3.44;429.6;12.30;74525;2835.992;-1758.358;1;158;450;456.5;22.0;22.2;28;28.4;25.2;-1.0;
03/03/2025 10:36:41;117;0;152.33;-4;19.56;3.30;426.6;12.30;74525;2835.987;-1758.356;1;158;450;454.8;22.0;22.2;28;28.4;25.2;-1.0;
03/03/2025 10:37:01;117;0;150.05;-4;19.51;3.33;423.4;12.30;74527;2835.983;-1758.354;1;158;450;453.2;22.0;22.2;28;28.4;25.1;-1.0;
03/03/2025 10:37:21;117;0;149.33;-4;19.66;3.39;420.2;12.40;74540;2835.979;-1758.352;1;158;450;454.8;22.0;22.2;28;28.4;25.2;-1.0;
03/03/2025 10:37:41;117;0;147.81;-4;19.30;3.35;416.8;12.40;74532;2835.974;-1758.349;1;158;450;453.2;22.0;22.4;28;28.4;25.2;-1.0;
03/03/2025 10:38:01;117;0;147.08;-4;19.36;3.42;413.7;12.40;74547;2835.970;-1758.347;1;158;450;454.8;22.0;22.2;28;28.4;25.2;-1.0;
03/03/2025 10:38:21;117;0;148.05;-4;18.75;3.32;410.5;12.40;74547;2835.966;-1758.344;1;158;450;454.8;21.7;21.6;28;28.4;25.2;-1.0;
03/03/2025 10:38:41;117;0;146.88;-4;20.19;3.37;407.6;12.40;74555;2835.962;-1758.342;1;158;450;456.5;21.7;21.2;28;28.4;25.2;-1.0;
03/03/2025 10:39:01;117;0;145.27;-4;20.31;3.24;404.7;12.40;74563;2835.958;-1758.340;1;158;450;454.8;21.7;21.2;28;28.4;25.2;-1.0;
03/03/2025 10:39:21;117;0;144.75;-4;20.80;2.99;401.4;12.40;74586;2835.954;-1758.337;1;158;450;453.2;21.7;21.1;30;29.8;25.2;-1.0;
03/03/2025 10:39:41;117;0;144.50;-4;21.76;3.87;398.1;12.40;74578;2835.950;-1758.335;1;158;450;454.8;21.7;21.1;30;30.2;25.2;-1.0;
03/03/2025 10:40:02;117;0;144.07;-4;21.05;4.05;394.6;12.50;74588;2835.946;-1758.332;1;158;450;454.8;21.7;21.1;30;30.2;25.2;-1.0;
03/03/2025 10:40:22;117;0;142.21;-4;21.33;4.22;391.2;12.50;74579;2835.942;-1758.329;1;158;450;453.2;21.7;21.1;32;32.0;25.2;-1.0;
03/03/2025 10:40:42;117;0;143.03;-4;21.38;5.30;387.7;12.50;74593;2835.938;-1758.326;1;158;450;453.2;21.7;21.1;32;32.0;25.2;-1.0;
03/03/2025 10:41:02;117;0;145.04;-4;21.06;5.26;384.2;12.50;74610;2835.933;-1758.324;1;158;450;454.8;21.7;21.1;30;29.8;25.2;-1.0;
03/03/2025 10:41:22;117;0;147.61;-4;21.15;3.76;381.0;12.50;74612;2835.929;-1758.321;1;158;450;454.8;21.7;21.1;30;29.8;25.2;-1.0;
03/03/2025 10:41:42;117;0;148.36;-4;21.05;3.59;377.7;12.60;74621;2835.925;-1758.319;1;158;450;454.8;21.7;20.9;30;29.3;25.2;-1.0;
03/03/2025 10:42:02;117;0;149.56;-4;21.24;3.81;374.2;12.60;74621;2835.920;-1758.317;1;158;450;454.8;21.7;21.1;30;29.8;25.2;-1.0;
03/03/2025 10:42:22;117;0;150.03;-4;21.17;3.93;370.9;12.60;74628;2835.916;-1758.314;1;158;450;454.8;21.7;21.1;30;29.8;25.2;-1.0;
03/03/2025 10:42:42;117;0;151.61;-4;21.05;3.72;367.4;12.60;74619;2835.912;-1758.312;1;158;450;454.8;21.7;21.1;30;29.3;25.2;-1.0;
03/03/2025 10:43:02;117;0;152.96;-4;21.16;3.88;364.0;12.60;74621;2835.907;-1758.310;1;158;450;451.6;21.7;21.1;30;29.3;25.2;-1.0;
03/03/2025 10:43:22;117;0;153.76;-4;21.26;3.84;360.7;12.60;74632;2835.903;-1758.308;1;158;450;454.8;21.7;21.1;30;29.8;25.2;-1.0;
03/03/2025 10:43:42;117;0;155.18;-4;21.17;3.75;357.3;12.70;74645;2835.898;-1758.306;1;158;450;454.8;21.7;21.1;30;29.8;25.2;-1.0;
03/03/2025 10:44:02;117;0;155.48;-4;21.28;3.96;353.9;12.70;74641;2835.894;-1758.305;1;158;450;454.8;21.7;21.1;28;28.0;25.1;-1.0;
03/03/2025 10:44:22;117;0;156.40;-4;21.49;2.89;350.5;12.70;74643;2835.889;-1758.303;1;158;450;454.8;21.7;20.9;28;27.5;25.2;-1.0;
03/03/2025 10:44:42;117;0;157.53;-4;21.28;2.92;347.0;12.70;74645;2835.884;-1758.301;1;158;450;454.8;21.7;21.1;28;27.5;25.1;-1.0;
03/03/2025 10:45:02;117;0;159.46;-4;21.18;2.75;343.6;12.70;74647;2835.880;-1758.300;1;158;450;454.8;21.7;21.1;28;27.5;25.2;-1.0;
03/03/2025 10:45:22;117;0;159.35;-4;20.98;2.80;340.2;12.70;74648;2835.875;-1758.298;1;158;450;453.2;21.7;21.1;28;27.5;25.2;-1.0;
03/03/2025 10:45:42;117;0;158.51;-4;20.91;2.83;337.0;12.80;74661;2835.870;-1758.296;1;158;450;454.8;21.7;21.1;28;27.5;25.2;-1.0;
03/03/2025 10:46:02;117;0;158.55;-4;20.79;2.63;333.6;12.80;74661;2835.866;-1758.295;1;158;450;454.8;21.7;21.1;28;27.5;25.2;-1.0;
03/03/2025 10:46:22;117;0;156.95;-4;20.76;2.87;330.5;12.80;74657;2835.862;-1758.293;1;158;450;454.8;21.7;21.1;28;27.5;25.2;-1.0;
03/03/2025 10:46:42;117;0;157.38;-4;20.79;2.87;327.4;12.80;74667;2835.857;-1758.292;1;158;450;454.8;21.7;21.1;28;27.5;25.2;-1.0;
03/03/2025 10:47:02;117;0;156.34;-4;20.98;2.93;324.1;12.80;74672;2835.853;-1758.290;1;158;450;454.8;21.7;21.1;28;27.5;25.1;-1.0;
03/03/2025 10:47:22;117;0;156.71;-4;20.81;2.86;320.9;12.80;74674;2835.848;-1758.288;1;158;450;454.8;21.7;21.1;28;27.5;25.2;-1.0;
03/03/2025 10:47:42;117;0;154.82;-4;20.45;2.79;318.1;12.90;74688;2835.844;-1758.287;1;158;450;454.8;21.7;21.1;28;27.5;25.2;-1.0;
03/03/2025 10:48:02;117;0;152.66;-4;20.50;2.75;315.0;12.90;74694;2835.840;-1758.285;1;158;450;454.8;21.7;21.1;28;27.5;25.2;-1.0;
03/03/2025 10:48:22;117;0;150.12;-4;20.90;2.90;312.1;12.90;74703;2835.836;-1758.283;1;158;450;454.8;21.7;21.1;28;27.5;25.2;-1.0;
03/03/2025 10:48:42;117;0;148.95;-4;21.21;3.32;308.9;12.90;74705;2835.832;-1758.281;1;158;450;454.8;21.7;20.9;28;27.5;25.2;-1.0;
