Timestamp;NavState;SecurityLevel;Heading;Declination;Pitch;Roll;Depth;Temperature;Pa;Lat;Lon;DeadReckoning;DesiredH;BallastCmd;BallastPos;LinCmd;LinPos;AngCmd;AngPos;Voltage;Altitude;
16/02/2025 11:22:38;119;0;50.95;-4;-52.95;-24.85;0.2;19.80;76336;2838.078;-1801.688;0;150;500;508.1;100.0;100.7;0;-0.5;28.4;-1.0;
16/02/2025 11:22:48;116;0;73.75;-4;-55.60;-10.55;0.1;19.80;76339;2838.085;-1801.690;0;150;500;509.7;100.0;100.7;0;-0.5;28.4;-1.0;
16/02/2025 11:23:12;116;0;26.39;-4;-52.30;-25.22;0.1;19.90;76355;2838.088;-1801.692;0;150;500;508.1;100.0;100.7;0;-0.5;28.4;-1.0;
16/02/2025 11:23:38;116;0;353.20;-4;-58.71;-0.40;0.2;19.90;76345;2838.091;-1801.693;0;150;500;509.7;100.0;100.7;0;-0.5;28.4;-1.0;
16/02/2025 11:23:59;116;0;4.70;-4;-46.00;-11.20;0.2;19.90;76356;2838.095;-1801.696;0;150;500;509.7;100.0;100.7;0;-0.5;28.4;-1.0;
16/02/2025 11:24:10;116;0;6.02;-4;-59.05;-19.96;0.1;19.90;76349;2838.096;-1801.697;0;150;500;508.1;100.0;100.7;0;-0.5;28.4;-1.0;
16/02/2025 11:24:53;116;0;327.24;-4;-53.61;-11.54;0.2;20.00;76360;2838.105;-1801.700;0;150;500;509.7;100.0;100.7;0;-0.5;28.4;-1.0;
16/02/2025 11:25:49;116;0;319.96;-4;-56.42;-4.71;0.1;20.10;76379;2838.116;-1801.705;0;150;500;509.7;100.0;100.7;0;-0.5;28.4;-1.0;
16/02/2025 11:26:00;116;0;334.78;-4;-53.73;-21.85;0.2;20.20;76379;2838.118;-1801.707;0;151;500;509.7;100.0;100.7;0;-0.5;28.4;-1.0;
16/02/2025 11:26:20;110;0;330.66;-4;-60.65;-13.83;-0.1;20.20;76370;2838.118;-1801.707;0;151;-50;391.9;100.0;99.6;-11;-10.8;28.4;-1.0;
16/02/2025 11:26:30;110;0;330.56;-4;-54.70;-15.70;0.2;20.20;76741;2838.120;-1801.708;1;151;-50;238.7;100.0;99.6;-11;-11.3;28.4;-1.0;
16/02/2025 11:26:40;110;0;326.83;-4;-59.96;-10.72;0.6;20.30;76986;2838.121;-1801.709;1;151;-50;77.4;100.0;99.7;-11;-10.8;28.4;-1.0;
16/02/2025 11:26:50;110;0;332.14;-4;-73.95;-20.33;0.8;20.30;77324;2838.122;-1801.710;1;151;-50;-50.0;100.0;99.7;-11;-10.8;28.4;-1.0;
16/02/2025 11:27:00;110;0;345.91;-4;-73.96;-17.91;1.5;20.30;77579;2838.124;-1801.712;1;151;-50;-50.0;47.7;47.7;-11;-10.8;28.4;-1.0;
16/02/2025 11:27:20;100;0;358.54;-4;-34.83;-16.92;4.9;20.40;77555;2838.129;-1801.714;1;151;-50;-48.4;47.7;47.3;-11;-11.3;28.4;-1.0;
16/02/2025 11:27:40;100;0;5.24;-4;-28.83;-18.24;8.8;20.40;77562;2838.136;-1801.716;1;151;-50;-45.2;48.1;48.3;-70;-69.9;28.4;-1.0;
16/02/2025 11:28:00;100;0;9.31;-4;-30.94;-44.35;12.5;20.50;77555;2838.141;-1801.718;1;151;-50;-45.2;48.1;48.3;-70;-69.9;28.4;-1.0;
16/02/2025 11:28:20;100;0;18.65;-4;-30.98;-45.33;16.3;20.50;77559;2838.147;-1801.719;1;151;-50;-43.5;48.1;48.2;-70;-70.4;28.4;0.0;
16/02/2025 11:28:40;100;0;28.14;-4;-31.57;-44.31;20.3;20.50;77564;2838.153;-1801.720;1;151;-50;-45.2;48.1;48.3;-70;-70.4;28.4;0.0;
16/02/2025 11:29:00;100;0;35.47;-4;-31.78;-45.17;24.2;20.50;77571;2838.158;-1801.720;1;151;-50;-43.5;48.1;48.3;-70;-69.9;28.4;0.0;
16/02/2025 11:29:20;100;0;46.23;-4;-31.32;-44.87;28.3;20.60;77571;2838.163;-1801.720;1;152;-50;-43.5;48.1;48.3;-70;-69.9;28.4;0.0;
16/02/2025 11:29:40;100;0;55.78;-4;-31.25;-45.62;32.5;20.60;77578;2838.168;-1801.719;1;152;-50;-45.2;48.1;48.3;-70;-70.4;28.4;0.0;
16/02/2025 11:30:00;100;0;65.58;-4;-31.15;-45.01;36.6;20.60;77578;2838.172;-1801.717;1;152;-50;-45.2;48.1;48.3;-70;-70.4;28.4;0.0;
16/02/2025 11:30:20;100;0;73.79;-4;-31.01;-45.30;40.7;20.60;77581;2838.175;-1801.716;1;152;-50;-45.2;48.1;48.2;-70;-70.4;28.4;0.0;
16/02/2025 11:30:40;100;0;84.88;-4;-30.72;-45.34;44.8;20.60;77575;2838.178;-1801.714;1;152;-50;-45.2;48.1;48.2;-58;-58.2;28.4;0.0;
16/02/2025 11:31:00;100;0;96.39;-4;-30.22;-39.11;48.9;20.60;77586;2838.181;-1801.712;1;153;-50;-43.5;48.1;48.3;-44;-44.2;28.4;0.0;
16/02/2025 11:31:20;100;0;107.57;-4;-29.28;-32.03;52.9;20.60;77586;2838.182;-1801.711;1;153;-50;-45.2;48.1;48.3;-30;-29.8;28.4;0.0;
16/02/2025 11:31:40;100;0;117.90;-4;-29.59;-25.16;56.8;20.60;77584;2838.183;-1801.710;1;153;-50;-43.5;48.1;48.5;-12;-12.2;28.4;0.0;
16/02/2025 11:32:00;100;0;125.40;-4;-29.76;-17.02;60.7;20.60;77592;2838.184;-1801.709;1;153;-50;-45.2;48.1;48.5;1;0.9;28.4;0.0;
16/02/2025 11:32:20;100;0;127.52;-4;-30.75;-11.01;64.7;20.60;77595;2838.184;-1801.708;1;153;-50;-43.5;48.1;48.3;4;4.1;28.4;0.0;
16/02/2025 11:32:40;100;0;123.73;-4;-30.87;-9.31;68.5;20.60;77581;2838.185;-1801.707;1;153;-50;-46.8;48.1;48.5;-2;-1.8;28.4;0.0;
16/02/2025 11:33:00;100;0;123.06;-4;-30.24;-12.73;72.6;20.60;77586;2838.186;-1801.706;1;153;-50;-45.2;48.1;48.3;-5;-5.0;28.4;0.0;
16/02/2025 11:33:20;100;0;125.48;-4;-29.42;-14.24;76.5;20.60;77579;2838.186;-1801.705;1;153;-50;-45.2;48.1;48.3;-1;-0.9;28.4;0.0;
16/02/2025 11:33:40;100;0;126.49;-4;-30.38;-11.98;80.3;20.60;77579;2838.187;-1801.705;1;153;-50;-43.5;48.1;48.3;2;1.8;28.4;0.0;
16/02/2025 11:34:00;100;0;124.40;-4;-30.61;-10.49;84.3;20.60;77576;2838.188;-1801.704;1;153;-50;-43.5;48.1;48.5;-1;-0.9;28.4;0.0;
16/02/2025 11:34:20;100;0;126.21;-4;-30.41;-12.33;88.3;20.60;77579;2838.188;-1801.703;1;154;-50;-45.2;48.1;48.3;2;1.8;28.4;0.0;
16/02/2025 11:34:40;100;0;127.95;-4;-30.27;-10.67;92.4;20.60;77582;2838.189;-1801.702;1;154;-50;-43.5;48.1;48.5;2;1.8;28.4;0.0;
16/02/2025 11:35:00;100;0;133.06;-4;-30.64;-10.62;96.3;20.50;77578;2838.189;-1801.702;1;154;-50;-43.5;48.1;48.5;9;9.5;28.4;0.0;
16/02/2025 11:35:20;100;0;134.12;-4;-30.88;-6.76;100.5;20.50;77581;2838.189;-1801.701;1;154;-50;-45.2;48.1;48.3;9;9.5;28.4;0.0;
16/02/2025 11:35:40;100;0;130.50;-4;-30.91;-6.72;104.9;20.50;77575;2838.189;-1801.700;1;154;-50;-45.2;48.1;48.3;6;5.4;28.4;0.0;
16/02/2025 11:36:00;100;0;128.34;-4;-30.20;-9.16;109.1;20.50;77573;2838.190;-1801.699;1;154;-50;-45.2;48.1;48.3;3;3.2;28.4;0.0;
16/02/2025 11:36:20;100;0;130.58;-4;-30.10;-10.36;113.2;20.50;77576;2838.190;-1801.698;1;154;-50;-43.5;48.1;48.3;6;5.9;28.4;0.0;
16/02/2025 11:36:40;100;0;134.48;-4;-29.72;-8.56;117.4;20.50;77581;2838.190;-1801.698;1;154;-50;-43.5;48.1;48.5;9;9.0;28.4;0.0;
16/02/2025 11:37:00;100;0;139.25;-4;-30.21;-7.02;121.5;20.50;77559;2838.190;-1801.697;1;154;-50;-43.5;48.1;48.5;11;11.3;28.4;0.0;
16/02/2025 11:37:20;100;0;139.40;-4;-31.22;-5.88;125.8;20.50;77526;2838.190;-1801.697;1;154;-50;-43.5;48.1;48.5;11;11.7;28.4;0.0;
16/02/2025 11:37:40;100;0;140.53;-4;-30.20;-5.91;130.2;20.40;77488;2838.190;-1801.697;1;154;-50;-45.2;48.1;48.5;11;11.7;28.4;0.0;
16/02/2025 11:38:00;100;0;140.01;-4;-29.69;-5.88;134.5;20.40;77466;2838.189;-1801.696;1;154;-50;-45.2;48.1;48.5;11;11.7;28.4;0.0;
16/02/2025 11:38:20;100;0;141.01;-4;-28.94;-6.02;138.4;20.40;77445;2838.189;-1801.696;1;154;-50;-43.5;48.4;48.5;11;11.7;28.4;0.0;
16/02/2025 11:38:40;100;0;138.94;-4;-30.43;-5.97;142.4;20.40;77410;2838.189;-1801.696;1;154;-50;-43.5;48.4;48.5;11;11.3;28.4;0.0;
16/02/2025 11:39:00;100;0;138.65;-4;-30.36;-5.93;146.6;20.30;77397;2838.189;-1801.695;1;154;-50;-45.2;48.4;48.5;11;11.7;28.4;0.0;
16/02/2025 11:39:20;100;0;143.16;-4;-30.09;-6.00;151.0;20.30;77379;2838.188;-1801.695;1;154;-50;-45.2;48.4;48.5;11;11.3;28.4;0.0;
16/02/2025 11:39:40;100;0;137.86;-4;-30.70;-6.03;155.3;20.30;77355;2838.188;-1801.694;1;154;-50;-45.2;48.4;48.5;11;11.7;28.4;0.0;
16/02/2025 11:40:00;100;0;131.69;-4;-29.76;-5.92;159.6;20.20;77332;2838.188;-1801.693;1;154;-50;-43.5;48.4;48.5;6;5.9;28.4;0.0;
16/02/2025 11:40:20;100;0;135.94;-4;-29.49;-8.87;163.7;20.20;77313;2838.188;-1801.693;1;154;-50;-45.2;48.4;48.3;10;10.4;28.4;0.0;
16/02/2025 11:40:40;100;0;137.34;-4;-29.32;-6.33;167.8;20.10;77304;2838.188;-1801.692;1;154;-50;-43.5;48.4;48.5;10;10.8;28.4;0.0;
16/02/2025 11:41:00;100;0;136.15;-4;-29.96;-6.41;171.6;20.10;77286;2838.189;-1801.692;1;154;-50;-43.5;48.4;48.5;10;10.8;28.4;0.0;
16/02/2025 11:41:20;100;0;136.45;-4;-29.70;-6.26;175.5;20.10;77282;2838.189;-1801.692;1;154;-50;-43.5;48.4;48.3;10;10.8;28.4;0.0;
16/02/2025 11:41:40;100;0;132.26;-4;-29.16;-6.67;179.4;20.00;77273;2838.189;-1801.691;1;154;-50;-45.2;48.4;48.5;7;6.8;28.4;0.0;
16/02/2025 11:42:00;100;0;132.68;-4;-29.87;-8.53;183.1;20.00;77264;2838.189;-1801.691;1;154;-50;-43.5;48.4;48.3;7;6.8;28.4;0.0;
16/02/2025 11:42:20;100;0;136.37;-4;-29.92;-8.61;187.1;19.90;77252;2838.189;-1801.690;1;154;-50;-43.5;48.4;48.5;10;9.9;28.4;0.0;
16/02/2025 11:42:40;100;0;137.60;-4;-30.03;-6.45;191.2;19.90;77251;2838.189;-1801.690;1;154;-50;-43.5;48.4;48.3;10;10.4;28.4;0.0;
16/02/2025 11:43:00;100;0;134.95;-4;-29.11;-6.59;195.3;19.90;77238;2838.189;-1801.689;1;154;-50;-45.2;48.4;48.5;10;10.4;28.4;0.0;
16/02/2025 11:43:18;118;0;132.39;-4;-29.73;-6.50;198.8;19.80;77212;2838.190;-1801.689;1;155;150;-40.3;22.3;22.2;12;12.6;28.4;0.0;
16/02/2025 11:43:28;118;0;122.69;-4;-16.19;-6.20;200.2;19.80;77196;2838.190;-1801.687;1;155;150;88.7;22.3;21.9;12;12.6;28.0;-1.0;
16/02/2025 11:43:38;118;0;117.26;-4;11.31;-5.90;200.8;19.80;76921;2838.190;-1801.688;1;155;150;153.2;22.3;22.2;12;12.6;28.0;-1.0;
16/02/2025 11:43:48;118;0;134.36;-4;23.33;-6.24;200.3;19.80;76803;2838.191;-1801.688;1;155;150;153.2;22.3;22.4;12;12.6;28.4;-1.0;
16/02/2025 11:44:08;117;0;133.69;-4;28.01;-6.28;198.7;19.70;76796;2838.193;-1801.689;1;155;150;154.8;22.3;22.2;12;12.6;28.4;-1.0;
16/02/2025 11:44:28;117;0;132.88;-4;28.60;-6.28;196.6;19.70;76780;2838.195;-1801.691;1;155;150;154.8;21.9;21.6;34;34.3;28.4;-1.0;
16/02/2025 11:44:48;117;0;133.48;-4;30.63;5.56;194.8;19.60;76783;2838.196;-1801.692;1;155;150;153.2;21.9;21.6;34;34.7;28.4;-1.0;
16/02/2025 11:45:08;117;0;130.67;-4;30.92;5.65;193.0;19.60;76790;2838.198;-1801.693;1;155;150;154.8;21.9;21.6;34;34.7;28.4;-1.0;
16/02/2025 11:45:28;117;0;128.74;-4;30.93;5.65;191.0;19.60;76787;2838.199;-1801.693;1;155;150;153.2;21.9;21.6;34;34.7;28.4;-1.0;
16/02/2025 11:45:48;117;0;127.16;-4;31.17;5.65;189.2;19.50;76783;2838.201;-1801.694;1;155;150;150.0;21.9;21.6;34;34.3;28.4;-1.0;
16/02/2025 11:46:08;117;0;125.77;-4;31.37;5.70;187.2;19.50;76776;2838.203;-1801.695;1;155;150;154.8;21.9;21.6;34;34.7;28.4;-1.0;
16/02/2025 11:46:28;117;0;125.43;-4;31.30;5.57;185.2;19.50;76779;2838.204;-1801.696;1;155;150;154.8;21.9;21.6;34;34.3;28.4;-1.0;
16/02/2025 11:46:48;117;0;125.29;-4;31.24;5.63;183.1;19.40;76774;2838.206;-1801.697;1;155;150;153.2;21.9;21.6;34;34.7;28.4;-1.0;
16/02/2025 11:47:08;117;0;125.97;-4;31.19;5.61;181.0;19.40;76773;2838.208;-1801.697;1;155;150;154.8;21.9;21.6;34;34.7;28.4;-1.0;
16/02/2025 11:47:28;117;0;124.19;-4;31.16;5.61;178.9;19.40;76769;2838.209;-1801.698;1;155;150;154.8;21.9;21.6;34;34.7;28.4;-1.0;
16/02/2025 11:47:48;117;0;122.05;-4;31.14;5.61;176.7;19.30;76773;2838.211;-1801.699;1;155;150;154.8;21.9;21.6;36;36.1;28.4;-1.0;
16/02/2025 11:48:08;117;0;121.23;-4;31.62;6.78;174.5;19.30;76759;2838.213;-1801.699;1;155;150;154.8;21.9;21.6;36;36.6;28.4;-1.0;
16/02/2025 11:48:28;117;0;122.24;-4;31.92;6.67;172.1;19.30;76762;2838.214;-1801.700;1;155;150;153.2;21.9;21.6;36;36.6;28.4;-1.0;
16/02/2025 11:48:48;117;0;120.79;-4;31.72;6.62;169.7;19.20;76752;2838.216;-1801.700;1;155;150;154.8;21.9;21.6;40;40.2;28.4;-1.0;
16/02/2025 11:49:08;117;0;119.55;-4;31.36;8.72;167.3;19.20;76760;2838.217;-1801.700;1;155;150;154.8;21.9;21.6;40;40.2;28.4;-1.0;
16/02/2025 11:49:28;117;0;117.19;-4;31.42;8.77;164.9;19.20;76754;2838.219;-1801.701;1;155;150;154.8;21.9;21.6;44;44.2;28.4;-1.0;
16/02/2025 11:49:48;117;0;117.37;-4;31.51;11.07;162.5;19.20;76752;2838.221;-1801.701;1;155;150;153.2;21.9;21.6;44;44.7;28.4;-1.0;
16/02/2025 11:50:08;117;0;121.12;-4;32.20;11.08;160.2;19.10;76760;2838.223;-1801.701;1;155;150;153.2;22.5;22.7;38;37.9;28.4;-1.0;
16/02/2025 11:50:28;117;0;124.34;-4;29.88;7.16;157.9;19.10;76751;2838.224;-1801.702;1;155;150;154.8;22.5;22.7;38;37.5;28.4;-1.0;
16/02/2025 11:50:48;117;0;125.88;-4;30.21;7.22;155.7;19.10;76753;2838.226;-1801.702;1;155;150;154.8;22.5;22.7;35;34.3;28.4;-1.0;
16/02/2025 11:51:09;117;0;128.70;-4;29.58;5.59;153.3;19.10;76760;2838.227;-1801.703;1;155;150;154.8;22.5;22.7;35;34.7;28.4;-1.0;
16/02/2025 11:51:29;117;0;124.24;-4;29.89;5.68;151.0;19.00;76762;2838.228;-1801.703;1;155;150;154.8;22.5;22.7;37;37.0;28.4;-1.0;
16/02/2025 11:51:49;117;0;121.00;-4;29.45;7.20;148.6;19.00;76766;2838.230;-1801.704;1;155;150;154.8;22.5;22.7;42;42.0;28.4;-1.0;
16/02/2025 11:52:09;117;0;119.31;-4;29.71;10.02;146.3;19.00;76761;2838.231;-1801.704;1;155;150;154.8;22.5;22.5;42;42.4;28.4;-1.0;
16/02/2025 11:52:29;117;0;117.88;-4;29.97;9.97;144.1;19.00;76773;2838.233;-1801.704;1;155;150;154.8;22.5;22.7;42;42.4;28.4;-1.0;
16/02/2025 11:52:49;117;0;120.05;-4;29.90;9.93;141.9;19.00;76771;2838.235;-1801.705;1;155;150;151.6;22.5;22.7;42;42.4;28.4;-1.0;
16/02/2025 11:53:09;117;0;123.39;-4;30.38;9.98;139.6;19.00;76775;2838.236;-1801.705;1;155;150;154.8;22.5;22.7;38;37.9;28.4;-1.0;
16/02/2025 11:53:29;117;0;121.50;-4;29.84;6.93;137.3;19.00;76783;2838.238;-1801.705;1;155;150;154.8;22.5;22.7;40;40.2;28.4;-1.0;
16/02/2025 11:53:49;117;0;119.32;-4;29.74;8.89;135.1;19.00;76798;2838.240;-1801.706;1;155;150;154.8;22.5;22.7;40;40.6;28.4;-1.0;
16/02/2025 11:54:09;117;0;117.49;-4;29.89;8.89;132.8;18.90;76815;2838.241;-1801.706;1;155;150;154.8;22.5;22.7;43;43.3;28.4;-1.0;
16/02/2025 11:54:29;117;0;114.60;-4;29.69;10.60;130.6;19.00;76824;2838.243;-1801.707;1;155;150;154.8;22.5;22.7;47;46.9;28.4;-1.0;
16/02/2025 11:54:49;117;0;118.87;-4;29.54;12.50;128.5;18.90;76844;2838.245;-1801.707;1;155;150;154.8;22.5;22.7;40;40.2;28.4;-1.0;
16/02/2025 11:55:09;117;0;118.11;-4;29.22;8.23;126.4;19.00;76867;2838.247;-1801.707;1;155;150;154.8;22.5;22.7;42;42.0;28.4;-1.0;
16/02/2025 11:55:29;117;0;111.51;-4;29.66;9.86;124.4;19.00;76900;2838.249;-1801.708;1;155;170;174.2;22.5;22.7;48;48.3;28.4;-1.0;
16/02/2025 11:55:49;117;0;116.92;-4;29.85;13.24;122.4;19.00;76881;2838.251;-1801.708;1;155;170;174.2;22.5;22.7;41;40.6;28.4;-1.0;
16/02/2025 11:56:09;117;0;116.04;-4;29.02;8.61;120.1;19.00;76893;2838.252;-1801.709;1;155;170;174.2;22.5;22.7;48;47.8;28.4;-1.0;
16/02/2025 11:56:29;117;0;113.33;-4;29.62;13.07;117.9;19.00;76913;2838.254;-1801.709;1;155;170;174.2;22.5;22.5;50;50.1;28.4;-1.0;
16/02/2025 11:56:49;117;0;114.56;-4;29.56;14.49;115.6;19.00;76939;2838.256;-1801.709;1;155;170;175.8;22.5;22.7;50;50.5;28.4;-1.0;
16/02/2025 11:57:09;117;0;116.38;-4;29.65;14.51;113.1;19.00;76939;2838.258;-1801.709;1;155;170;174.2;22.5;22.7;48;47.8;28.4;-1.0;
16/02/2025 11:57:29;117;0;118.03;-4;29.53;12.48;110.7;19.10;76954;2838.259;-1801.710;1;155;170;174.2;22.5;22.5;45;45.1;28.4;-1.0;
16/02/2025 11:57:49;117;0;118.99;-4;29.27;11.16;108.4;19.10;76962;2838.261;-1801.710;1;156;170;174.2;22.5;22.7;45;45.1;28.4;-1.0;
16/02/2025 11:58:09;117;0;121.42;-4;29.55;11.22;106.0;19.10;76960;2838.262;-1801.710;1;156;170;174.2;22.5;22.7;40;40.2;28.4;-1.0;
16/02/2025 11:58:29;117;0;124.33;-4;28.72;8.40;103.6;19.10;76973;2838.264;-1801.710;1;156;170;172.6;22.1;21.8;40;40.2;28.4;-1.0;
16/02/2025 11:58:49;117;0;127.32;-4;30.27;8.31;101.3;19.10;76975;2838.265;-1801.711;1;156;170;174.2;22.1;21.6;36;35.6;28.4;-1.0;
16/02/2025 11:59:09;117;0;126.84;-4;30.31;6.33;98.8;19.10;76979;2838.267;-1801.711;1;156;170;175.8;22.1;21.6;36;36.1;28.4;-1.0;
16/02/2025 11:59:29;117;0;125.95;-4;30.37;6.31;96.5;19.20;76990;2838.268;-1801.712;1;156;170;174.2;22.1;21.6;36;36.1;28.4;-1.0;
16/02/2025 11:59:49;117;0;126.39;-4;30.64;6.24;94.1;19.20;76999;2838.269;-1801.712;1;156;170;175.8;22.1;21.6;36;36.1;28.4;-1.0;
16/02/2025 12:00:09;117;0;124.53;-4;30.39;6.33;91.6;19.20;76989;2838.271;-1801.712;1;156;170;174.2;22.1;21.6;38;37.9;28.4;-1.0;
16/02/2025 12:00:29;117;0;124.55;-4;30.43;7.58;89.1;19.20;77017;2838.272;-1801.713;1;156;170;174.2;22.1;21.6;38;38.4;28.4;-1.0;
16/02/2025 12:00:49;117;0;124.92;-4;30.50;7.61;86.6;19.20;77012;2838.274;-1801.713;1;156;170;174.2;22.1;21.6;38;38.4;28.4;-1.0;
16/02/2025 12:01:09;117;0;126.77;-4;30.26;7.65;84.0;19.20;77007;2838.275;-1801.713;1;156;170;174.2;22.1;21.8;38;38.4;28.4;-1.0;
16/02/2025 12:01:29;117;0;127.45;-4;30.76;7.63;81.5;19.30;77015;2838.276;-1801.714;1;156;170;174.2;22.1;21.6;38;38.4;28.4;-1.0;
16/02/2025 12:01:49;117;0;128.06;-4;30.25;7.63;79.1;19.30;77017;2838.278;-1801.714;1;156;170;174.2;22.1;21.6;36;35.6;28.4;-1.0;
16/02/2025 12:02:09;117;0;128.82;-4;30.77;5.97;76.6;19.30;77022;2838.279;-1801.715;1;156;170;175.8;22.1;21.6;36;35.2;28.4;-1.0;
16/02/2025 12:02:29;117;0;128.72;-4;29.74;5.92;74.2;19.30;77028;2838.280;-1801.715;1;156;170;174.2;22.1;21.6;36;35.2;28.4;-1.0;
16/02/2025 12:02:49;117;0;127.76;-4;30.41;5.95;71.7;19.30;77034;2838.281;-1801.715;1;156;170;174.2;22.1;21.6;36;35.2;28.4;-1.0;
16/02/2025 12:03:09;117;0;127.91;-4;30.47;6.03;69.3;19.30;77045;2838.283;-1801.716;1;156;170;174.2;22.1;21.6;36;35.2;28.4;-1.0;
16/02/2025 12:03:29;117;0;127.86;-4;30.00;5.92;66.8;19.40;77038;2838.284;-1801.716;1;156;170;174.2;22.1;21.6;36;35.2;28.4;-1.0;
16/02/2025 12:03:49;117;0;128.04;-4;30.22;5.97;64.5;19.40;77051;2838.285;-1801.717;1;156;170;174.2;22.1;21.6;36;35.2;28.4;-1.0;
16/02/2025 12:04:09;117;0;127.92;-4;30.94;5.97;62.1;19.40;77046;2838.287;-1801.717;1;156;170;172.6;22.1;21.8;36;35.2;28.4;-1.0;
16/02/2025 12:04:29;117;0;128.78;-4;30.06;6.01;59.8;19.40;77044;2838.288;-1801.718;1;156;170;174.2;22.1;21.6;36;35.2;28.4;-1.0;
16/02/2025 12:04:49;117;0;131.35;-4;29.56;5.84;57.5;19.40;77052;2838.289;-1801.718;1;156;170;174.2;22.1;21.6;36;35.2;28.4;-1.0;
16/02/2025 12:05:09;117;0;132.66;-4;30.15;6.07;55.0;19.40;77043;2838.291;-1801.719;1;156;170;174.2;22.1;21.6;36;35.2;28.4;-1.0;
16/02/2025 12:05:29;117;0;135.74;-4;29.38;5.86;52.7;19.40;77057;2838.292;-1801.720;1;156;170;174.2;22.1;21.6;36;35.2;28.4;-1.0;
16/02/2025 12:05:49;117;0;135.22;-4;29.38;5.90;50.5;19.50;77060;2838.293;-1801.720;1;156;170;174.2;22.1;21.6;36;35.2;28.4;-1.0;
16/02/2025 12:06:09;117;0;132.99;-4;30.99;6.04;48.4;19.50;77073;2838.294;-1801.721;1;156;170;174.2;22.1;21.6;36;35.2;28.4;-1.0;
16/02/2025 12:06:29;117;0;131.15;-4;29.68;6.07;46.2;19.50;77078;2838.296;-1801.722;1;156;170;174.2;22.1;21.6;36;35.2;28.4;-1.0;
16/02/2025 12:06:49;117;0;127.60;-4;30.62;6.03;44.1;19.50;77080;2838.297;-1801.723;1;156;170;174.2;22.1;21.6;36;35.2;28.4;-1.0;
16/02/2025 12:07:09;117;0;125.62;-4;29.75;5.99;41.9;19.50;77087;2838.299;-1801.723;1;156;170;174.2;22.1;21.6;36;35.2;28.4;-1.0;
16/02/2025 12:07:29;117;0;123.04;-4;30.11;6.08;39.8;19.50;77087;2838.300;-1801.724;1;156;170;174.2;22.1;21.6;38;37.9;28.4;-1.0;
16/02/2025 12:07:49;117;0;121.46;-4;29.73;7.74;37.6;19.60;77095;2838.302;-1801.724;1;156;170;174.2;22.1;21.6;38;38.4;28.4;-1.0;
16/02/2025 12:08:09;117;0;119.65;-4;30.39;7.50;35.6;19.60;77088;2838.304;-1801.725;1;156;170;174.2;22.1;21.6;38;38.4;28.4;-1.0;
16/02/2025 12:08:29;117;0;117.60;-4;30.45;7.75;33.5;19.60;77103;2838.306;-1801.725;1;156;170;172.6;22.1;21.6;41;41.1;28.4;-1.0;
16/02/2025 12:08:49;117;0;118.51;-4;31.12;9.48;31.3;19.60;77106;2838.307;-1801.726;1;156;170;174.2;22.1;21.6;41;41.5;28.4;-1.0;
16/02/2025 12:09:09;117;0;118.33;-4;31.24;9.36;28.9;19.60;77108;2838.309;-1801.726;1;156;170;174.2;22.1;21.6;43;43.3;28.4;-1.0;
16/02/2025 12:09:29;117;0;119.49;-4;30.21;10.45;26.6;19.60;77118;2838.311;-1801.726;1;156;170;174.2;22.1;21.6;43;43.8;28.4;-1.0;
16/02/2025 12:09:49;117;0;119.83;-4;31.05;10.49;24.3;19.70;77119;2838.312;-1801.727;1;156;170;174.2;22.1;21.5;40;40.2;28.4;-1.0;
16/02/2025 12:10:09;117;0;120.30;-4;30.05;8.06;22.0;19.70;77118;2838.314;-1801.727;1;156;170;175.8;22.1;21.6;42;42.0;28.4;-1.0;
16/02/2025 12:10:29;117;0;120.96;-4;30.73;9.84;19.8;19.70;77118;2838.316;-1801.728;1;156;170;175.8;22.1;21.6;39;38.8;28.4;-1.0;
16/02/2025 12:10:49;117;0;118.70;-4;31.22;7.33;17.6;19.70;77118;2838.317;-1801.728;1;156;170;174.2;22.1;21.6;41;41.5;28.4;-1.0;
16/02/2025 12:11:09;117;0;121.65;-4;29.11;9.09;15.4;19.70;77125;2838.319;-1801.729;1;156;170;175.8;22.1;21.6;41;41.5;28.4;-1.0;
16/02/2025 12:11:29;117;0;119.99;-4;31.14;9.43;13.1;19.80;77135;2838.321;-1801.729;1;156;170;174.2;22.1;21.6;41;41.5;28.4;-1.0;
16/02/2025 12:11:49;117;0;120.81;-4;29.38;9.64;10.8;19.80;77130;2838.322;-1801.729;1;156;170;174.2;22.1;21.6;41;41.5;28.4;-1.0;
16/02/2025 12:12:09;117;0;120.74;-4;29.62;9.48;8.5;19.80;77136;2838.324;-1801.730;1;156;170;175.8;22.1;21.6;41;41.5;28.4;-1.0;
16/02/2025 12:12:29;117;0;118.01;-4;31.97;10.22;6.2;19.80;77133;2838.326;-1801.730;1;156;170;174.2;22.1;21.6;41;41.5;28.4;-1.0;
16/02/2025 12:12:49;117;0;121.01;-4;28.90;9.97;3.9;19.80;77144;2838.327;-1801.730;1;156;170;174.2;21.8;21.6;43;42.9;28.4;-1.0;
16/02/2025 12:12:56;115;0;119.07;-4;29.85;9.69;3.0;19.80;77130;2838.328;-1801.730;1;156;500;182.3;100.0;65.4;0;-0.5;28.4;-1.0;
16/02/2025 12:13:06;115;0;101.63;-4;12.56;-11.53;2.1;19.80;77102;2838.328;-1801.730;1;156;500;301.6;100.0;100.1;0;-0.5;28.2;-1.0;
16/02/2025 12:13:16;115;0;108.84;-4;-61.81;-16.86;2.6;19.80;76842;2838.330;-1801.731;1;156;500;422.6;100.0;100.7;0;-0.5;28.2;-1.0;
16/02/2025 12:13:26;115;0;104.69;-4;-66.94;-10.63;2.4;19.90;76589;2838.331;-1801.732;1;156;500;506.5;100.0;100.7;0;-0.5;28.2;-1.0;
16/02/2025 12:13:36;115;0;107.81;-4;-37.78;-3.85;-0.3;19.90;76412;2838.332;-1801.731;1;156;500;506.5;100.0;100.7;0;-0.5;28.4;-1.0;
16/02/2025 12:13:56;119;0;76.75;-4;-58.11;-17.63;-0.2;19.90;76433;2838.332;-1801.731;1;156;500;508.1;100.0;100.7;0;-0.5;28.4;-1.0;
16/02/2025 12:14:06;119;0;44.23;-4;-57.20;-11.41;-0.1;19.90;76430;2838.436;-1801.733;0;156;500;509.7;100.0;100.7;0;-0.5;28.4;-1.0;
