Timestamp;NavState;SecurityLevel;Heading;Declination;Pitch;Roll;Depth;Temperature;Pa;Lat;Lon;DeadReckoning;DesiredH;BallastCmd;BallastPos;LinCmd;LinPos;AngCmd;AngPos;Voltage;Altitude;
22/02/2025 04:13:42;119;0;320.17;-4;-65.55;-18.36;0.1;17.40;75663;2837.582;-1801.873;0;318;500;508.1;100.0;100.4;0;-0.5;27.2;-1.0;
22/02/2025 04:13:52;116;0;328.94;-4;-56.07;-5.72;-0.1;17.40;75659;2837.587;-1801.879;0;318;500;508.1;100.0;100.4;0;-0.5;27.2;-1.0;
22/02/2025 04:14:18;116;0;348.64;-4;-50.28;-10.37;-0.1;17.50;75682;2837.597;-1801.892;0;318;500;509.7;100.0;100.4;0;-0.5;27.2;-1.0;
22/02/2025 04:14:38;116;0;339.99;-4;-52.63;-15.34;0.2;17.60;75677;2837.598;-1801.894;0;133;500;508.1;100.0;100.4;0;-0.5;27.2;-1.0;
22/02/2025 04:14:57;116;0;3.67;-4;-45.82;-7.50;-0.1;17.60;75697;2837.600;-1801.898;0;133;500;508.1;100.0;100.4;0;-0.5;27.2;-1.0;
22/02/2025 04:15:17;116;0;28.82;-4;-54.60;-17.93;-0.0;17.60;75687;2837.606;-1801.902;0;133;500;508.1;100.0;100.4;0;-0.5;27.2;-1.0;
22/02/2025 04:16:20;116;0;12.55;-4;-62.31;-32.15;0.1;17.80;75704;2837.618;-1801.915;0;133;500;509.7;100.0;100.4;0;-0.5;27.2;-1.0;
22/02/2025 04:18:05;116;0;353.74;-4;-57.76;-9.41;0.1;18.20;75747;2837.634;-1801.937;0;133;500;509.7;100.0;100.4;0;-0.5;27.2;-1.0;
22/02/2025 04:19:29;116;0;349.20;-4;-53.87;-23.36;-0.1;18.60;75777;2837.649;-1801.954;0;133;500;508.1;100.0;100.4;0;-0.5;27.2;-1.0;
22/02/2025 04:19:40;116;0;329.70;-4;-66.58;-27.05;0.1;18.60;75778;2837.650;-1801.955;0;133;500;506.5;100.0;100.4;0;-0.5;27.2;-1.0;
22/02/2025 04:20:00;110;0;322.65;-4;-60.66;-14.70;-0.1;18.70;75777;2837.650;-1801.955;0;133;-70;391.9;100.0;100.4;-7;-7.2;27.2;-1.0;
22/02/2025 04:20:10;110;0;308.32;-4;-63.39;-11.28;0.1;18.80;76138;2837.650;-1801.955;1;133;-70;241.9;100.0;100.4;-7;-7.7;27.2;-1.0;
22/02/2025 04:20:20;110;0;323.25;-4;-58.10;-20.16;0.5;18.80;76379;2837.651;-1801.956;1;133;-70;82.3;100.0;100.4;-7;-7.7;27.2;-1.0;
22/02/2025 04:20:30;110;0;337.09;-4;-75.23;-11.74;0.9;18.80;76708;2837.651;-1801.956;1;133;-70;-69.4;100.0;100.4;-7;-7.7;27.2;-1.0;
22/02/2025 04:20:40;110;0;348.76;-4;-68.13;-17.01;1.3;18.90;77022;2837.651;-1801.956;1;133;-70;-69.4;43.7;43.7;-7;-7.7;27.2;-1.0;
22/02/2025 04:21:00;100;0;17.94;-4;-33.73;-14.92;5.0;18.90;76986;2837.654;-1801.955;1;133;-70;-67.7;43.7;43.4;-7;-7.7;27.2;-1.0;
22/02/2025 04:21:20;100;0;26.67;-4;-20.79;-15.17;8.2;19.00;76998;2837.658;-1801.954;1;133;-70;-64.5;43.7;43.2;-70;-69.9;27.2;-1.0;
22/02/2025 04:21:40;100;0;35.56;-4;-19.41;-45.61;10.9;19.10;77000;2837.661;-1801.952;1;133;-70;-62.9;43.7;43.2;-70;-70.4;27.2;-1.0;
22/02/2025 04:22:00;100;0;52.41;-4;-19.73;-46.69;13.6;19.10;77005;2837.663;-1801.949;1;133;-70;-61.3;43.7;43.3;-70;-70.4;27.2;0.0;
22/02/2025 04:22:20;100;0;67.65;-4;-20.56;-46.01;16.2;19.20;77001;2837.665;-1801.946;1;133;-70;-61.3;43.7;43.2;-64;-63.6;27.2;0.0;
22/02/2025 04:22:40;100;0;81.77;-4;-20.77;-41.71;18.8;19.20;77008;2837.665;-1801.942;1;133;-70;-61.3;43.7;43.3;-47;-46.5;27.2;0.0;
22/02/2025 04:23:00;100;0;96.72;-4;-19.36;-33.73;21.5;19.20;77016;2837.665;-1801.939;1;133;-70;-61.3;43.7;43.3;-28;-28.0;27.2;0.0;
22/02/2025 04:23:20;100;0;105.21;-4;-19.00;-24.25;23.9;19.20;77009;2837.665;-1801.935;1;133;-70;-61.3;43.7;43.3;-16;-15.8;27.2;0.0;
22/02/2025 04:23:40;100;0;110.22;-4;-19.93;-18.41;26.3;19.20;77019;2837.664;-1801.932;1;133;-70;-64.5;43.7;43.3;-7;-7.2;27.2;0.0;
22/02/2025 04:24:00;100;0;117.47;-4;-20.62;-14.54;28.7;19.20;77027;2837.663;-1801.930;1;133;-70;-61.3;43.7;43.3;5;5.0;27.2;0.0;
22/02/2025 04:24:20;100;0;119.87;-4;-21.20;-8.94;31.2;19.20;77027;2837.661;-1801.927;1;133;-70;-61.3;43.7;43.3;8;8.1;27.2;0.0;
22/02/2025 04:24:40;100;0;121.72;-4;-21.22;-7.26;33.9;19.30;77038;2837.660;-1801.924;1;133;-70;-61.3;43.7;43.3;10;9.9;27.2;0.0;
22/02/2025 04:25:00;100;0;122.06;-4;-21.02;-6.28;36.6;19.20;77042;2837.658;-1801.921;1;133;-70;-61.3;43.7;43.3;10;10.4;27.2;0.0;
22/02/2025 04:25:20;100;0;123.09;-4;-21.54;-6.22;39.3;19.20;77024;2837.657;-1801.918;1;133;-70;-61.3;43.7;43.3;10;10.4;27.2;0.0;
22/02/2025 04:25:40;100;0;122.76;-4;-21.79;-6.28;41.9;19.20;77044;2837.655;-1801.915;1;133;-70;-61.3;43.7;43.3;10;10.4;27.2;0.0;
22/02/2025 04:26:00;100;0;122.54;-4;-21.76;-6.24;44.6;19.20;77047;2837.654;-1801.913;1;133;-70;-61.3;43.7;43.3;10;10.4;27.2;0.0;
22/02/2025 04:26:20;100;0;123.24;-4;-21.10;-6.25;47.2;19.20;77050;2837.652;-1801.910;1;133;-70;-61.3;43.7;43.3;10;10.4;27.2;0.0;
22/02/2025 04:26:40;100;0;124.88;-4;-21.55;-6.28;49.9;19.20;77056;2837.651;-1801.907;1;133;-70;-61.3;43.7;43.3;12;12.2;27.2;0.0;
22/02/2025 04:27:00;100;0;126.84;-4;-21.69;-5.19;52.7;19.20;77056;2837.649;-1801.905;1;133;-70;-61.3;43.7;43.3;12;12.6;27.2;0.0;
22/02/2025 04:27:20;100;0;127.60;-4;-21.48;-5.19;55.6;19.20;77054;2837.647;-1801.902;1;133;-70;-61.3;43.7;43.3;14;14.0;27.2;0.0;
22/02/2025 04:27:40;100;0;125.77;-4;-21.74;-4.23;58.5;19.30;77075;2837.645;-1801.899;1;133;-70;-61.3;43.7;43.3;14;14.4;27.2;0.0;
22/02/2025 04:28:00;100;0;124.69;-4;-21.81;-4.10;61.4;19.30;77078;2837.643;-1801.896;1;133;-70;-61.3;43.7;43.3;12;12.2;27.2;0.0;
22/02/2025 04:28:20;100;0;124.59;-4;-21.35;-5.74;64.2;19.20;77076;2837.642;-1801.893;1;133;-70;-61.3;43.7;43.3;12;11.7;27.2;0.0;
22/02/2025 04:28:40;100;0;125.53;-4;-21.25;-5.68;67.2;19.30;77084;2837.640;-1801.890;1;133;-70;-61.3;43.7;43.3;12;11.7;27.2;0.0;
22/02/2025 04:29:00;100;0;125.53;-4;-21.55;-5.72;70.1;19.30;77081;2837.638;-1801.887;1;133;-70;-62.9;43.7;43.3;12;11.7;27.2;0.0;
22/02/2025 04:29:20;100;0;126.15;-4;-21.37;-5.73;73.1;19.20;77082;2837.636;-1801.884;1;133;-70;-61.3;43.7;43.3;12;11.7;27.2;0.0;
22/02/2025 04:29:40;100;0;126.22;-4;-21.15;-5.74;76.0;19.30;77087;2837.634;-1801.881;1;133;-70;-61.3;43.7;43.4;12;11.7;27.2;0.0;
22/02/2025 04:30:00;100;0;128.70;-4;-21.16;-5.73;79.0;19.30;77098;2837.632;-1801.878;1;133;-70;-62.9;43.7;43.3;14;14.0;27.2;0.0;
22/02/2025 04:30:20;100;0;128.61;-4;-21.02;-4.35;82.0;19.30;77098;2837.630;-1801.875;1;133;-70;-61.3;43.7;43.3;14;14.4;27.2;0.0;
22/02/2025 04:30:40;100;0;127.61;-4;-21.17;-4.38;84.9;19.30;77098;2837.628;-1801.872;1;133;-70;-61.3;43.7;43.3;14;14.4;27.2;0.0;
22/02/2025 04:31:00;100;0;126.99;-4;-21.55;-4.28;87.8;19.30;77101;2837.626;-1801.869;1;133;-70;-61.3;43.7;43.3;14;14.4;27.2;0.0;
22/02/2025 04:31:20;100;0;125.84;-4;-21.26;-4.26;90.7;19.30;77101;2837.624;-1801.866;1;133;-70;-62.9;43.7;43.3;14;14.4;27.2;0.0;
22/02/2025 04:31:40;100;0;124.74;-4;-21.24;-4.31;93.7;19.30;77104;2837.622;-1801.863;1;133;-70;-62.9;43.7;43.4;12;11.7;27.2;0.0;
22/02/2025 04:32:00;100;0;123.16;-4;-21.35;-5.85;96.7;19.20;77102;2837.621;-1801.859;1;133;-70;-62.9;43.7;43.3;12;11.7;27.2;0.0;
22/02/2025 04:32:20;100;0;123.67;-4;-20.84;-5.81;99.7;19.30;77104;2837.619;-1801.856;1;133;-70;-61.3;43.7;43.3;12;11.3;27.2;0.0;
22/02/2025 04:32:40;100;0;124.68;-4;-20.53;-5.87;102.5;19.20;77091;2837.617;-1801.853;1;133;-70;-62.9;43.7;43.3;12;11.7;27.2;0.0;
22/02/2025 04:33:00;100;0;132.03;-4;-20.63;-5.89;105.2;19.20;77065;2837.615;-1801.851;1;133;-70;-64.5;43.7;43.3;14;14.0;27.2;0.0;
22/02/2025 04:33:20;100;0;134.45;-4;-20.77;-4.44;108.0;19.20;77049;2837.613;-1801.848;1;133;-70;-61.3;43.7;43.3;14;14.4;27.2;0.0;
22/02/2025 04:33:40;100;0;128.44;-4;-20.64;-4.52;110.8;19.20;77024;2837.611;-1801.845;1;133;-70;-62.9;43.7;43.3;14;14.0;27.2;0.0;
22/02/2025 04:34:00;100;0;125.72;-4;-20.85;-4.56;113.6;19.20;77015;2837.609;-1801.843;1;133;-70;-62.9;43.7;43.3;12;12.2;27.2;0.0;
22/02/2025 04:34:20;100;0;127.07;-4;-20.46;-5.72;116.3;19.20;77004;2837.607;-1801.840;1;133;-70;-61.3;43.7;43.3;12;11.7;27.2;0.0;
22/02/2025 04:34:40;100;0;128.11;-4;-20.40;-5.77;118.9;19.10;77002;2837.605;-1801.837;1;133;-70;-62.9;43.7;43.3;12;11.7;27.2;0.0;
22/02/2025 04:35:00;100;0;127.96;-4;-20.43;-5.73;121.6;19.10;76984;2837.603;-1801.834;1;133;-70;-61.3;43.7;43.3;12;11.7;27.2;0.0;
22/02/2025 04:35:20;100;0;126.86;-4;-20.53;-5.74;124.3;19.10;76985;2837.602;-1801.831;1;133;-70;-61.3;43.7;43.3;12;11.7;27.2;0.0;
22/02/2025 04:35:40;100;0;127.62;-4;-20.38;-5.72;127.0;19.10;76971;2837.600;-1801.829;1;133;-70;-61.3;43.7;43.4;12;11.7;27.2;0.0;
22/02/2025 04:36:00;100;0;133.34;-4;-20.30;-5.71;129.6;19.10;76966;2837.598;-1801.826;1;133;-70;-62.9;43.7;43.3;12;11.7;27.2;0.0;
22/02/2025 04:36:20;100;0;140.53;-4;-20.19;-5.88;132.1;19.00;76951;2837.595;-1801.824;1;133;-70;-62.9;43.7;43.3;15;14.9;27.2;0.0;
22/02/2025 04:36:40;100;0;142.16;-4;-20.88;-3.83;134.8;19.00;76932;2837.593;-1801.822;1;133;-70;-61.3;43.7;43.3;15;15.8;27.2;0.0;
22/02/2025 04:37:00;100;0;146.05;-4;-20.79;-3.76;137.5;19.00;76928;2837.590;-1801.820;1;133;-70;-62.9;43.7;43.3;20;19.9;27.2;0.0;
22/02/2025 04:37:20;100;0;144.22;-4;-20.84;-1.54;140.1;18.90;76912;2837.588;-1801.818;1;133;-70;-61.3;43.7;43.3;18;18.1;27.2;0.0;
22/02/2025 04:37:40;100;0;139.22;-4;-20.50;-2.83;142.7;18.90;76904;2837.586;-1801.816;1;133;-70;-61.3;43.7;43.4;14;14.0;27.2;0.0;
22/02/2025 04:38:00;100;0;137.42;-4;-20.51;-4.81;145.2;18.90;76895;2837.584;-1801.814;1;133;-70;-59.7;43.7;43.3;14;13.5;27.2;0.0;
22/02/2025 04:38:20;100;0;138.21;-4;-20.96;-4.73;147.8;18.90;76893;2837.582;-1801.812;1;133;-70;-61.3;43.7;43.3;14;14.0;27.2;0.0;
22/02/2025 04:38:40;100;0;140.63;-4;-20.54;-4.65;150.5;18.80;76883;2837.579;-1801.810;1;133;-70;-61.3;43.7;43.3;14;14.0;27.2;0.0;
22/02/2025 04:39:00;100;0;140.31;-4;-20.95;-4.76;153.1;18.80;76886;2837.577;-1801.808;1;133;-70;-62.9;43.7;43.3;14;14.0;27.2;0.0;
22/02/2025 04:39:20;100;0;138.36;-4;-21.00;-4.72;155.9;18.80;76872;2837.575;-1801.806;1;133;-70;-61.3;43.7;43.3;14;14.0;27.2;0.0;
22/02/2025 04:39:40;100;0;137.36;-4;-20.74;-4.76;158.5;18.80;76849;2837.573;-1801.803;1;133;-70;-61.3;43.7;43.3;14;13.5;27.2;0.0;
22/02/2025 04:40:00;100;0;135.29;-4;-20.71;-4.74;161.2;18.70;76855;2837.570;-1801.801;1;133;-70;-61.3;43.7;43.3;14;14.0;27.2;0.0;
22/02/2025 04:40:20;100;0;132.24;-4;-20.70;-4.68;163.9;18.70;76857;2837.568;-1801.798;1;133;-70;-61.3;43.7;43.3;14;14.0;27.2;0.0;
22/02/2025 04:40:40;100;0;133.71;-4;-20.85;-4.72;166.5;18.70;76838;2837.566;-1801.796;1;133;-70;-61.3;43.7;43.3;14;14.0;27.2;0.0;
22/02/2025 04:41:00;100;0;137.01;-4;-20.70;-4.60;169.2;18.60;76831;2837.564;-1801.794;1;133;-70;-62.9;43.7;43.3;14;14.0;27.2;0.0;
22/02/2025 04:41:20;100;0;140.03;-4;-20.69;-4.70;171.9;18.60;76818;2837.562;-1801.792;1;133;-70;-61.3;43.7;43.3;14;14.0;27.2;0.0;
22/02/2025 04:41:40;100;0;140.41;-4;-20.30;-4.80;174.6;18.60;76811;2837.559;-1801.789;1;133;-70;-61.3;43.7;43.3;14;14.0;27.2;0.0;
22/02/2025 04:42:00;100;0;144.48;-4;-20.29;-4.84;177.2;18.50;76798;2837.557;-1801.787;1;133;-70;-62.9;43.7;43.3;18;18.1;27.2;0.0;
22/02/2025 04:42:21;100;0;146.61;-4;-20.57;-2.52;179.6;18.50;76786;2837.555;-1801.786;1;133;-70;-61.3;43.7;43.3;21;21.2;27.2;0.0;
22/02/2025 04:42:41;100;0;148.69;-4;-20.80;-0.80;182.2;18.50;76777;2837.552;-1801.784;1;133;-70;-61.3;43.7;43.3;24;24.4;27.2;0.0;
22/02/2025 04:43:01;100;0;147.61;-4;-20.94;0.72;184.8;18.40;76775;2837.550;-1801.783;1;133;-70;-61.3;43.7;43.3;22;22.1;27.2;0.0;
22/02/2025 04:43:21;100;0;145.35;-4;-20.78;-0.88;187.2;18.40;76766;2837.547;-1801.781;1;133;-70;-61.3;43.7;43.3;20;19.9;27.2;0.0;
22/02/2025 04:43:41;100;0;145.39;-4;-21.22;-1.85;189.8;18.40;76753;2837.545;-1801.779;1;133;-70;-62.9;43.7;43.3;20;19.4;27.2;0.0;
22/02/2025 04:44:01;100;0;143.22;-4;-20.45;-1.96;192.3;18.30;76753;2837.543;-1801.777;1;133;-70;-61.3;43.7;43.3;17;17.1;27.2;0.0;
22/02/2025 04:44:21;100;0;143.34;-4;-20.48;-3.32;194.7;18.30;76749;2837.540;-1801.776;1;133;-70;-61.3;43.7;43.3;17;16.7;27.2;0.0;
22/02/2025 04:44:41;100;0;140.40;-4;-20.61;-3.29;197.1;18.30;76732;2837.538;-1801.774;1;133;-70;-62.9;43.7;43.3;17;16.7;27.2;0.0;
22/02/2025 04:45:01;100;0;139.63;-4;-20.59;-3.37;199.5;18.20;76728;2837.536;-1801.772;1;133;-70;-62.9;43.7;43.3;15;14.9;27.2;0.0;
22/02/2025 04:45:21;100;0;142.07;-4;-20.53;-4.41;201.9;18.20;76727;2837.534;-1801.770;1;133;-70;-61.3;43.7;43.3;17;17.1;27.2;0.0;
22/02/2025 04:45:41;100;0;140.00;-4;-20.49;-2.84;204.2;18.20;76709;2837.532;-1801.768;1;133;-70;-61.3;43.7;43.3;15;14.9;27.2;0.0;
22/02/2025 04:46:01;100;0;137.88;-4;-20.25;-4.34;206.7;18.10;76707;2837.530;-1801.766;1;133;-70;-61.3;43.7;43.3;15;14.9;27.2;0.0;
22/02/2025 04:46:21;100;0;134.93;-4;-20.24;-4.37;208.9;18.10;76709;2837.528;-1801.764;1;133;-70;-61.3;43.7;43.3;15;14.9;27.2;0.0;
22/02/2025 04:46:41;100;0;133.52;-4;-20.31;-4.25;211.1;18.10;76699;2837.527;-1801.762;1;133;-70;-62.9;43.7;43.3;15;14.9;27.2;0.0;
22/02/2025 04:47:01;100;0;131.45;-4;-20.13;-4.36;213.4;18.00;76689;2837.525;-1801.760;1;133;-70;-61.3;43.7;43.3;15;14.9;27.2;0.0;
22/02/2025 04:47:21;100;0;125.62;-4;-20.25;-4.37;215.6;18.00;76680;2837.523;-1801.757;1;133;-70;-62.9;43.7;43.3;13;13.1;27.2;0.0;
22/02/2025 04:47:41;100;0;122.76;-4;-20.16;-5.44;217.8;18.00;76668;2837.522;-1801.755;1;133;-70;-59.7;43.7;43.3;11;10.8;27.2;0.0;
22/02/2025 04:48:01;100;0;121.57;-4;-20.25;-6.27;220.1;17.90;76657;2837.521;-1801.752;1;133;-70;-62.9;43.7;43.3;11;10.8;27.2;0.0;
22/02/2025 04:48:21;100;0;119.70;-4;-20.19;-6.20;222.4;17.90;76658;2837.519;-1801.750;1;133;-70;-61.3;43.7;43.3;8;8.1;27.2;0.0;
22/02/2025 04:48:41;100;0;118.69;-4;-19.91;-7.78;224.7;17.90;76641;2837.518;-1801.747;1;133;-70;-61.3;43.7;43.3;6;5.4;27.2;0.0;
22/02/2025 04:49:01;100;0;125.07;-4;-19.62;-9.19;226.8;17.80;76636;2837.517;-1801.745;1;133;-70;-61.3;43.7;43.3;13;13.1;27.2;0.0;
22/02/2025 04:49:21;100;0;129.23;-4;-20.12;-4.98;229.1;17.80;76606;2837.515;-1801.743;1;133;-70;-61.3;43.7;43.3;13;13.5;27.2;0.0;
22/02/2025 04:49:41;100;0;131.90;-4;-20.05;-4.93;231.4;17.80;76601;2837.514;-1801.740;1;133;-70;-61.3;43.7;43.3;13;13.5;27.2;0.0;
22/02/2025 04:50:01;100;0;133.15;-4;-20.14;-4.96;233.6;17.70;76595;2837.512;-1801.738;1;133;-70;-61.3;43.7;43.4;13;13.5;27.2;0.0;
22/02/2025 04:50:21;100;0;133.44;-4;-20.15;-5.00;235.8;17.70;76580;2837.510;-1801.736;1;133;-70;-61.3;43.7;43.3;13;13.5;27.2;0.0;
22/02/2025 04:50:41;100;0;133.78;-4;-20.04;-4.95;238.0;17.60;76579;2837.508;-1801.734;1;133;-70;-61.3;43.7;43.3;13;13.1;27.2;0.0;
22/02/2025 04:51:01;100;0;135.04;-4;-20.08;-4.98;240.2;17.60;76572;2837.507;-1801.732;1;133;-70;-61.3;43.7;43.3;13;13.5;27.2;0.0;
22/02/2025 04:51:21;100;0;137.03;-4;-20.10;-4.95;242.3;17.60;76566;2837.505;-1801.730;1;133;-70;-61.3;43.7;43.3;13;13.5;27.2;0.0;
22/02/2025 04:51:41;100;0;138.44;-4;-20.21;-4.90;244.5;17.50;76556;2837.503;-1801.729;1;133;-70;-62.9;43.7;43.3;15;14.9;27.2;0.0;
22/02/2025 04:52:01;100;0;139.65;-4;-20.61;-3.91;246.9;17.50;76560;2837.501;-1801.727;1;133;-70;-59.7;43.7;43.3;15;15.3;27.2;0.0;
22/02/2025 04:52:21;100;0;138.60;-4;-20.79;-3.92;249.2;17.50;76547;2837.499;-1801.725;1;133;-70;-61.3;43.7;43.3;15;15.3;27.2;0.0;
22/02/2025 04:52:41;100;0;138.26;-4;-20.65;-3.90;251.5;17.40;76528;2837.497;-1801.723;1;133;-70;-62.9;43.7;43.3;15;15.3;27.2;0.0;
22/02/2025 04:53:01;100;0;139.52;-4;-20.27;-3.90;253.8;17.40;76526;2837.495;-1801.721;1;133;-70;-61.3;43.7;43.3;15;15.3;27.2;0.0;
22/02/2025 04:53:21;100;0;139.88;-4;-20.09;-3.94;256.0;17.40;76516;2837.493;-1801.719;1;133;-70;-62.9;43.7;43.3;15;15.3;27.2;0.0;
22/02/2025 04:53:41;100;0;141.82;-4;-20.05;-3.91;258.0;17.30;76505;2837.491;-1801.718;1;133;-70;-61.3;43.7;43.3;17;17.1;27.2;0.0;
22/02/2025 04:54:01;100;0;140.68;-4;-20.23;-2.77;260.0;17.30;76506;2837.490;-1801.716;1;133;-70;-61.3;43.7;43.3;17;17.6;27.2;0.0;
22/02/2025 04:54:21;100;0;140.41;-4;-19.98;-2.77;262.1;17.20;76492;2837.488;-1801.715;1;133;-70;-61.3;43.7;43.3;17;17.6;27.2;0.0;
22/02/2025 04:54:41;100;0;139.78;-4;-20.16;-2.75;264.1;17.20;76489;2837.486;-1801.713;1;133;-70;-61.3;43.7;43.3;15;14.9;27.2;0.0;
22/02/2025 04:55:01;100;0;137.67;-4;-20.28;-4.33;266.2;17.20;76478;2837.484;-1801.711;1;133;-70;-62.9;43.7;43.3;15;14.9;27.2;0.0;
22/02/2025 04:55:21;100;0;136.30;-4;-20.30;-4.35;268.2;17.10;76464;2837.483;-1801.710;1;133;-70;-61.3;43.7;43.3;15;14.4;27.2;0.0;
22/02/2025 04:55:41;100;0;136.83;-4;-20.16;-4.29;270.4;17.10;76458;2837.481;-1801.708;1;133;-70;-61.3;43.7;43.3;15;14.4;27.2;0.0;
22/02/2025 04:56:01;100;0;140.08;-4;-20.13;-4.31;272.5;17.10;76451;2837.479;-1801.706;1;133;-70;-62.9;43.7;43.3;15;14.4;27.2;0.0;
22/02/2025 04:56:21;100;0;141.64;-4;-20.09;-4.30;274.6;17.00;76447;2837.477;-1801.704;1;133;-70;-62.9;43.7;43.4;17;17.1;27.2;0.0;
22/02/2025 04:56:41;100;0;141.40;-4;-20.13;-2.75;276.6;17.00;76430;2837.475;-1801.703;1;133;-90;-90.3;43.7;43.4;17;17.6;27.2;0.0;
22/02/2025 04:57:01;100;0;139.61;-4;-19.41;-2.73;278.7;16.90;76506;2837.473;-1801.701;1;133;-90;-93.5;43.7;43.3;17;17.6;27.2;0.0;
22/02/2025 04:57:21;100;0;136.51;-4;-19.64;-2.35;280.9;16.90;76485;2837.472;-1801.699;1;133;-90;-91.9;43.7;43.3;15;14.9;27.2;0.0;
22/02/2025 04:57:41;100;0;135.69;-4;-19.61;-4.14;283.2;16.90;76492;2837.470;-1801.697;1;133;-90;-93.5;43.7;43.3;15;14.9;27.2;0.0;
22/02/2025 04:58:01;100;0;134.65;-4;-19.88;-4.10;285.6;16.80;76477;2837.468;-1801.695;1;133;-90;-93.5;43.7;43.3;15;14.9;27.2;0.0;
22/02/2025 04:58:21;100;0;133.41;-4;-19.79;-4.09;288.0;16.80;76484;2837.466;-1801.693;1;133;-90;-95.2;43.7;43.3;15;14.9;27.2;0.0;
22/02/2025 04:58:41;100;0;133.05;-4;-19.73;-4.12;290.5;16.80;76463;2837.464;-1801.690;1;133;-90;-95.2;43.7;43.3;15;14.9;27.2;0.0;
22/02/2025 04:59:01;100;0;132.50;-4;-19.68;-4.04;293.0;16.70;76458;2837.462;-1801.688;1;133;-90;-96.8;43.7;43.4;15;14.9;27.2;0.0;
22/02/2025 04:59:21;100;0;129.81;-4;-20.02;-4.20;295.4;16.70;76458;2837.460;-1801.686;1;133;-90;-96.8;43.7;43.3;15;14.9;27.2;0.0;
22/02/2025 04:59:41;100;0;129.57;-4;-19.92;-4.09;297.9;16.60;76447;2837.458;-1801.683;1;133;-90;-96.8;43.7;43.3;15;14.9;27.2;0.0;
22/02/2025 05:00:01;100;0;127.35;-4;-19.67;-4.11;300.3;16.60;76437;2837.457;-1801.680;1;133;-90;-96.8;43.7;43.3;15;14.4;27.2;0.0;
22/02/2025 05:00:21;100;0;126.00;-4;-19.59;-4.14;302.8;16.60;76439;2837.455;-1801.678;1;133;-90;-95.2;43.7;43.3;13;13.1;27.2;0.0;
22/02/2025 05:00:41;100;0;128.13;-4;-19.77;-5.09;305.3;16.60;76431;2837.453;-1801.675;1;133;-90;-96.8;43.7;43.3;13;13.1;27.2;0.0;
22/02/2025 05:01:01;100;0;128.13;-4;-19.70;-5.09;307.9;16.50;76438;2837.452;-1801.673;1;133;-90;-96.8;43.7;43.3;13;12.6;27.2;0.0;
22/02/2025 05:01:21;100;0;129.96;-4;-19.74;-5.16;310.5;16.50;76418;2837.450;-1801.670;1;133;-90;-96.8;43.7;43.3;13;12.6;27.2;0.0;
22/02/2025 05:01:41;100;0;130.49;-4;-19.67;-5.08;313.1;16.50;76402;2837.448;-1801.667;1;133;-90;-96.8;43.7;43.3;13;12.6;27.2;0.0;
22/02/2025 05:02:01;100;0;132.92;-4;-19.60;-5.06;315.7;16.40;76404;2837.446;-1801.665;1;133;-90;-98.4;43.7;43.3;15;14.9;27.2;0.0;
22/02/2025 05:02:21;100;0;132.95;-4;-19.44;-3.82;318.3;16.40;76381;2837.444;-1801.662;1;133;-90;-96.8;43.7;43.3;15;15.3;27.2;0.0;
22/02/2025 05:02:41;100;0;133.30;-4;-19.62;-3.74;320.9;16.30;76378;2837.442;-1801.660;1;133;-90;-96.8;43.7;43.3;15;15.3;27.2;0.0;
22/02/2025 05:03:01;100;0;133.49;-4;-19.66;-3.75;323.5;16.30;76379;2837.439;-1801.657;1;133;-90;-96.8;43.7;43.3;15;15.3;27.2;0.0;
22/02/2025 05:03:21;100;0;136.14;-4;-19.75;-3.75;326.1;16.30;76365;2837.437;-1801.655;1;133;-90;-96.8;43.7;43.3;15;15.3;27.2;0.0;
22/02/2025 05:03:41;100;0;137.78;-4;-19.70;-3.75;328.8;16.20;76360;2837.435;-1801.653;1;133;-90;-96.8;43.7;43.3;15;15.3;27.2;0.0;
22/02/2025 05:04:01;100;0;136.75;-4;-20.34;-3.76;331.4;16.20;76362;2837.433;-1801.650;1;133;-90;-96.8;43.7;43.4;15;15.3;27.2;0.0;
22/02/2025 05:04:21;100;0;134.86;-4;-19.98;-3.80;334.1;16.20;76349;2837.431;-1801.648;1;133;-90;-96.8;43.7;43.3;15;15.3;27.2;0.0;
22/02/2025 05:04:41;100;0;134.85;-4;-19.99;-3.82;336.8;16.10;76341;2837.428;-1801.645;1;133;-90;-96.8;43.7;43.3;15;15.3;27.2;0.0;
22/02/2025 05:05:01;100;0;134.58;-4;-19.59;-3.74;339.5;16.10;76331;2837.426;-1801.643;1;133;-90;-96.8;43.7;43.3;15;15.3;27.2;0.0;
22/02/2025 05:05:21;100;0;136.33;-4;-19.86;-3.68;342.1;16.10;76323;2837.424;-1801.641;1;133;-90;-96.8;43.7;43.3;15;15.3;27.2;0.0;
22/02/2025 05:05:41;100;0;133.17;-4;-19.32;-3.86;344.8;16.00;76328;2837.422;-1801.638;1;133;-90;-96.8;43.7;43.4;15;15.3;27.2;0.0;
22/02/2025 05:06:01;100;0;130.85;-4;-19.59;-3.82;347.3;16.00;76308;2837.420;-1801.635;1;133;-90;-96.8;43.7;43.3;15;15.3;27.2;0.0;
22/02/2025 05:06:21;100;0;129.14;-4;-19.61;-3.70;349.9;16.00;76295;2837.418;-1801.633;1;133;-90;-95.2;43.7;43.3;15;15.3;27.2;0.0;
22/02/2025 05:06:41;100;0;129.47;-4;-19.30;-3.82;352.7;15.90;76300;2837.416;-1801.630;1;133;-90;-96.8;43.7;43.3;15;15.3;27.2;0.0;
22/02/2025 05:07:01;100;0;128.30;-4;-19.12;-3.82;355.2;15.90;76290;2837.414;-1801.627;1;133;-90;-98.4;43.7;43.4;15;15.3;27.2;0.0;
22/02/2025 05:07:21;100;0;126.34;-4;-19.21;-3.79;357.8;15.90;76284;2837.412;-1801.624;1;133;-90;-96.8;43.7;43.3;15;15.3;27.2;0.0;
22/02/2025 05:07:41;100;0;124.11;-4;-19.29;-3.82;360.3;15.80;76282;2837.410;-1801.621;1;133;-90;-96.8;43.7;43.3;12;12.2;27.2;0.0;
22/02/2025 05:08:01;100;0;124.06;-4;-19.02;-5.49;362.8;15.80;76270;2837.409;-1801.618;1;133;-90;-96.8;43.7;43.3;12;12.2;27.2;0.0;
22/02/2025 05:08:21;100;0;124.37;-4;-18.97;-5.51;365.4;15.80;76263;2837.407;-1801.615;1;133;-90;-95.2;44.0;44.0;12;12.2;27.2;0.0;
22/02/2025 05:08:41;100;0;122.49;-4;-20.23;-5.57;368.0;15.70;76253;2837.406;-1801.613;1;133;-90;-96.8;44.0;44.3;12;12.2;27.2;0.0;
22/02/2025 05:09:01;100;0;125.54;-4;-20.62;-5.47;370.7;15.70;76242;2837.404;-1801.610;1;133;-90;-96.8;44.0;44.3;12;12.2;27.2;0.0;
22/02/2025 05:09:21;100;0;122.27;-4;-20.42;-5.43;373.6;15.60;76236;2837.402;-1801.607;1;133;-90;-96.8;44.0;44.3;12;12.2;27.2;0.0;
22/02/2025 05:09:41;100;0;121.38;-4;-20.13;-5.53;376.4;15.60;76220;2837.400;-1801.603;1;133;-90;-96.8;44.0;44.3;10;9.9;27.2;0.0;
22/02/2025 05:10:01;100;0;122.80;-4;-20.38;-6.55;379.2;15.60;76214;2837.399;-1801.600;1;133;-90;-96.8;44.0;44.3;10;9.9;27.2;0.0;
22/02/2025 05:10:21;100;0;124.63;-4;-20.72;-6.56;382.2;15.50;76213;2837.397;-1801.597;1;133;-90;-96.8;44.0;44.3;12;12.2;27.2;0.0;
22/02/2025 05:10:41;100;0;127.46;-4;-20.89;-5.12;385.2;15.50;76204;2837.395;-1801.594;1;133;-90;-96.8;44.0;44.3;14;14.0;27.2;0.0;
22/02/2025 05:11:01;100;0;127.43;-4;-20.76;-4.16;388.3;15.50;76196;2837.393;-1801.591;1;133;-90;-96.8;44.0;44.3;14;14.4;27.2;0.0;
22/02/2025 05:11:21;100;0;125.64;-4;-20.74;-4.20;391.2;15.50;76192;2837.391;-1801.588;1;133;-90;-95.2;44.0;44.3;14;14.0;27.2;0.0;
22/02/2025 05:11:41;100;0;124.89;-4;-20.69;-4.27;394.2;15.40;76191;2837.389;-1801.585;1;133;-90;-96.8;44.0;44.5;12;11.7;27.2;0.0;
22/02/2025 05:12:01;100;0;126.15;-4;-20.61;-5.64;397.1;15.40;76179;2837.387;-1801.582;1;133;-90;-95.2;44.0;44.3;12;11.3;27.2;0.0;
22/02/2025 05:12:21;100;0;127.69;-4;-20.49;-5.69;400.1;15.30;76178;2837.385;-1801.578;1;133;-90;-96.8;44.0;44.3;14;14.4;27.2;0.0;
22/02/2025 05:12:41;100;0;127.51;-4;-20.74;-4.10;403.0;15.30;76170;2837.383;-1801.575;1;133;-90;-96.8;44.0;44.3;14;14.4;27.2;0.0;
22/02/2025 05:13:01;100;0;126.40;-4;-20.84;-4.12;406.1;15.30;76167;2837.381;-1801.572;1;133;-90;-96.8;44.0;44.3;14;14.4;27.2;0.0;
22/02/2025 05:13:21;100;0;127.30;-4;-20.77;-4.10;409.2;15.30;76165;2837.379;-1801.569;1;133;-90;-96.8;44.0;44.3;14;14.4;27.2;0.0;
22/02/2025 05:13:41;100;0;127.35;-4;-20.79;-4.11;412.1;15.20;76156;2837.377;-1801.566;1;133;-90;-96.8;44.0;44.3;14;14.4;27.2;0.0;
22/02/2025 05:14:01;100;0;126.86;-4;-20.90;-4.14;415.2;15.20;76157;2837.375;-1801.563;1;133;-90;-96.8;44.0;44.3;14;14.4;27.2;0.0;
22/02/2025 05:14:21;100;0;127.40;-4;-20.86;-4.09;418.2;15.20;76150;2837.373;-1801.560;1;133;-90;-96.8;44.0;44.3;14;14.4;27.2;0.0;
22/02/2025 05:14:41;100;0;127.80;-4;-20.85;-4.08;421.3;15.10;76154;2837.371;-1801.557;1;133;-90;-96.8;44.0;44.3;14;14.4;27.2;0.0;
22/02/2025 05:15:01;100;0;127.73;-4;-20.69;-4.09;424.4;15.10;76145;2837.369;-1801.554;1;133;-90;-96.8;44.0;44.3;14;14.4;27.2;0.0;
22/02/2025 05:15:21;100;0;127.51;-4;-20.84;-4.04;427.4;15.10;76140;2837.366;-1801.551;1;133;-90;-96.8;44.0;44.3;14;14.4;27.2;0.0;
22/02/2025 05:15:41;100;0;131.68;-4;-20.52;-3.94;430.4;15.00;76132;2837.364;-1801.548;1;133;-90;-96.8;44.0;44.3;14;14.4;27.2;0.0;
22/02/2025 05:16:01;100;0;137.34;-4;-20.54;-4.09;433.3;15.00;76125;2837.362;-1801.545;1;133;-90;-96.8;44.0;44.3;14;14.4;27.2;0.0;
22/02/2025 05:16:21;100;0;141.54;-4;-20.41;-4.08;436.4;15.00;76112;2837.359;-1801.543;1;133;-90;-96.8;44.0;44.3;16;15.8;27.2;0.0;
22/02/2025 05:16:41;100;0;140.61;-4;-20.61;-3.09;439.3;15.00;76105;2837.356;-1801.540;1;133;-90;-95.2;44.0;44.3;16;16.7;27.2;0.0;
22/02/2025 05:17:01;100;0;137.23;-4;-20.95;-3.15;442.2;14.90;76098;2837.354;-1801.538;1;133;-90;-95.2;44.0;44.3;14;14.0;27.2;0.0;
22/02/2025 05:17:21;100;0;135.73;-4;-20.62;-4.69;445.2;14.90;76103;2837.352;-1801.535;1;133;-90;-96.8;44.0;44.3;14;13.5;27.2;0.0;
22/02/2025 05:17:41;100;0;137.86;-4;-20.54;-4.62;448.2;14.90;76084;2837.349;-1801.533;1;133;-90;-96.8;44.0;44.3;14;14.0;27.2;0.0;
22/02/2025 05:18:01;100;0;140.90;-4;-20.38;-4.66;451.1;14.90;76094;2837.346;-1801.530;1;133;-90;-96.8;44.0;44.3;16;15.8;27.2;0.0;
22/02/2025 05:18:22;100;0;140.50;-4;-20.81;-3.31;453.9;14.80;76095;2837.344;-1801.528;1;133;-90;-95.2;44.0;44.5;16;16.2;27.2;0.0;
22/02/2025 05:18:42;100;0;139.17;-4;-20.85;-3.29;456.9;14.80;76081;2837.341;-1801.526;1;133;-90;-98.4;44.0;44.3;16;16.2;27.2;0.0;
22/02/2025 05:19:02;100;0;138.95;-4;-20.60;-3.28;459.8;14.80;76081;2837.339;-1801.523;1;133;-90;-96.8;44.0;44.3;16;16.2;27.2;0.0;
22/02/2025 05:19:22;100;0;136.91;-4;-20.40;-3.36;462.7;14.70;76061;2837.336;-1801.521;1;133;-90;-96.8;44.0;44.3;14;14.0;27.2;0.0;
22/02/2025 05:19:42;100;0;135.92;-4;-20.19;-4.76;465.5;14.70;76059;2837.334;-1801.518;1;133;-90;-96.8;44.0;44.3;14;13.5;27.2;0.0;
22/02/2025 05:20:02;100;0;133.19;-4;-20.25;-4.80;468.2;14.70;76058;2837.332;-1801.516;1;133;-90;-100.0;44.0;44.3;14;13.5;27.2;0.0;
22/02/2025 05:20:22;100;0;132.65;-4;-20.25;-4.82;470.9;14.60;76045;2837.330;-1801.513;1;133;-90;-96.8;44.0;44.3;14;13.5;27.2;0.0;
22/02/2025 05:20:42;100;0;131.82;-4;-20.06;-4.68;473.6;14.60;76038;2837.328;-1801.510;1;133;-90;-96.8;44.0;44.3;14;13.5;27.2;0.0;
22/02/2025 05:21:02;100;0;131.79;-4;-20.19;-4.86;476.4;14.60;76029;2837.326;-1801.507;1;133;-90;-96.8;44.0;44.3;14;13.5;27.2;0.0;
22/02/2025 05:21:22;100;0;129.10;-4;-20.16;-4.93;479.1;14.60;76030;2837.324;-1801.505;1;133;-90;-96.8;44.0;44.3;14;13.5;27.2;0.0;
22/02/2025 05:21:42;100;0;125.59;-4;-19.94;-4.79;481.7;14.50;76032;2837.322;-1801.502;1;133;-90;-96.8;44.0;44.3;14;13.5;27.2;0.0;
22/02/2025 05:22:02;100;0;125.03;-4;-20.44;-4.69;484.4;14.50;76013;2837.320;-1801.499;1;133;-90;-96.8;44.0;44.3;12;12.2;27.2;0.0;
22/02/2025 05:22:22;100;0;127.20;-4;-20.54;-5.44;487.2;14.50;76009;2837.318;-1801.496;1;133;-90;-96.8;44.0;44.3;12;12.2;27.2;0.0;
22/02/2025 05:22:42;100;0;128.19;-4;-20.45;-5.42;490.1;14.40;76002;2837.316;-1801.493;1;133;-90;-96.8;44.0;44.3;14;14.0;27.2;0.0;
22/02/2025 05:23:02;100;0;126.44;-4;-20.38;-4.20;492.8;14.40;75993;2837.314;-1801.490;1;133;-90;-96.8;44.0;44.5;14;14.9;27.2;0.0;
22/02/2025 05:23:22;100;0;124.94;-4;-20.55;-4.26;495.5;14.40;75987;2837.313;-1801.487;1;133;-90;-96.8;44.0;44.3;12;12.2;27.2;0.0;
22/02/2025 05:23:42;100;0;123.36;-4;-20.34;-5.54;498.3;14.40;75986;2837.311;-1801.484;1;133;-90;-96.8;44.0;44.3;12;11.7;27.2;0.0;
22/02/2025 05:24:02;100;0;122.56;-4;-20.42;-5.55;501.1;14.30;75985;2837.309;-1801.481;1;133;-90;-96.8;44.0;44.3;10;9.9;27.2;0.0;
22/02/2025 05:24:22;100;0;122.23;-4;-20.32;-6.57;503.9;14.30;75973;2837.307;-1801.478;1;133;-90;-96.8;44.0;44.3;10;9.9;27.2;0.0;
22/02/2025 05:24:42;100;0;122.02;-4;-20.33;-6.61;506.7;14.30;75963;2837.306;-1801.475;1;133;-90;-95.2;44.0;44.3;10;9.5;27.2;0.0;
22/02/2025 05:25:02;100;0;122.37;-4;-20.35;-6.59;509.6;14.20;75975;2837.304;-1801.471;1;133;-90;-95.2;44.0;44.3;10;9.9;27.2;0.0;
22/02/2025 05:25:22;100;0;119.82;-4;-20.46;-6.68;512.5;14.20;75965;2837.302;-1801.468;1;133;-90;-96.8;44.0;44.3;7;7.2;27.2;0.0;
22/02/2025 05:25:42;100;0;119.39;-4;-20.12;-7.90;515.4;14.20;75958;2837.301;-1801.465;1;133;-90;-96.8;44.0;44.3;7;7.2;27.2;0.0;
22/02/2025 05:26:02;100;0;120.24;-4;-20.03;-7.88;518.3;14.20;75961;2837.299;-1801.461;1;133;-90;-96.8;44.0;44.3;7;7.2;27.2;0.0;
22/02/2025 05:26:22;100;0;124.74;-4;-19.96;-7.91;521.2;14.10;75949;2837.297;-1801.458;1;133;-90;-95.2;44.0;44.3;12;12.2;27.2;0.0;
22/02/2025 05:26:42;100;0;127.59;-4;-20.14;-5.13;524.2;14.10;75950;2837.295;-1801.455;1;133;-90;-96.8;44.0;44.3;12;12.6;27.2;0.0;
22/02/2025 05:27:02;100;0;130.14;-4;-20.18;-5.11;527.1;14.10;75948;2837.293;-1801.452;1;133;-90;-96.8;44.0;44.5;12;12.6;27.2;0.0;
22/02/2025 05:27:22;100;0;132.63;-4;-20.12;-5.06;530.1;14.10;75951;2837.291;-1801.449;1;133;-90;-96.8;44.0;44.3;12;12.6;27.2;0.0;
22/02/2025 05:27:42;100;0;132.41;-4;-20.11;-5.18;533.0;14.10;75945;2837.288;-1801.446;1;133;-90;-96.8;44.0;44.3;12;12.6;27.2;0.0;
22/02/2025 05:28:02;100;0;133.17;-4;-20.55;-5.18;536.0;14.00;75927;2837.286;-1801.444;1;133;-90;-96.8;44.0;44.3;12;12.6;27.2;0.0;
22/02/2025 05:28:22;100;0;134.79;-4;-20.28;-5.07;539.0;14.00;75928;2837.283;-1801.441;1;133;-90;-96.8;44.0;44.3;14;14.0;27.2;0.0;
22/02/2025 05:28:42;100;0;138.24;-4;-20.53;-4.13;542.0;14.00;75913;2837.281;-1801.438;1;133;-90;-96.8;44.0;44.3;14;14.4;27.2;0.0;
22/02/2025 05:29:02;100;0;144.38;-4;-20.25;-4.19;544.9;13.90;75905;2837.278;-1801.436;1;133;-90;-96.8;44.0;44.3;18;18.5;27.2;0.0;
22/02/2025 05:29:22;100;0;146.66;-4;-20.30;-2.02;547.7;13.90;75910;2837.275;-1801.434;1;133;-90;-96.8;44.0;44.3;21;21.2;27.2;0.0;
22/02/2025 05:29:42;100;0;143.62;-4;-20.64;-0.65;550.6;13.90;75892;2837.273;-1801.432;1;133;-90;-98.4;44.0;44.3;17;17.1;27.2;0.0;
22/02/2025 05:30:02;100;0;140.44;-4;-20.19;-3.16;553.5;13.90;75895;2837.270;-1801.430;1;133;-90;-96.8;44.0;44.3;15;14.9;27.2;0.0;
22/02/2025 05:30:22;100;0;139.24;-4;-19.97;-4.17;556.2;13.80;75881;2837.268;-1801.427;1;133;-90;-96.8;44.0;44.3;15;14.9;27.2;0.0;
22/02/2025 05:30:42;100;0;140.50;-4;-19.68;-4.13;558.8;13.80;75876;2837.265;-1801.425;1;133;-90;-96.8;44.0;44.3;15;14.9;27.2;0.0;
22/02/2025 05:31:02;100;0;140.03;-4;-19.87;-4.25;561.5;13.80;75875;2837.263;-1801.423;1;133;-90;-96.8;44.0;44.3;15;14.9;27.2;0.0;
22/02/2025 05:31:22;100;0;139.59;-4;-19.88;-4.19;564.1;13.80;75860;2837.261;-1801.421;1;133;-90;-95.2;44.0;44.3;15;14.9;27.2;0.0;
22/02/2025 05:31:42;100;0;141.43;-4;-19.65;-4.12;566.7;13.70;75856;2837.258;-1801.419;1;133;-90;-96.8;44.0;44.3;15;14.9;27.2;0.0;
22/02/2025 05:32:02;100;0;139.92;-4;-19.38;-4.15;569.5;13.70;75835;2837.256;-1801.416;1;133;-90;-96.8;44.0;44.3;15;14.9;27.2;0.0;
22/02/2025 05:32:22;100;0;137.12;-4;-19.68;-4.33;572.1;13.70;75841;2837.253;-1801.414;1;133;-90;-96.8;44.0;44.3;15;14.4;27.2;0.0;
22/02/2025 05:32:42;100;0;131.31;-4;-19.70;-4.21;574.7;13.60;75840;2837.251;-1801.411;1;133;-90;-96.8;44.0;44.3;15;14.4;27.2;0.0;
22/02/2025 05:33:02;100;0;126.77;-4;-19.97;-4.36;577.3;13.60;75843;2837.250;-1801.409;1;133;-90;-96.8;44.0;44.3;13;13.1;27.2;0.0;
22/02/2025 05:33:22;100;0;123.02;-4;-19.74;-5.02;579.8;13.60;75836;2837.248;-1801.406;1;133;-90;-96.8;44.0;44.3;11;10.8;27.2;0.0;
22/02/2025 05:33:42;100;0;120.23;-4;-19.19;-6.20;582.4;13.60;75816;2837.247;-1801.403;1;133;-90;-96.8;44.0;44.3;8;8.1;27.2;0.0;
22/02/2025 05:34:02;100;0;120.81;-4;-19.96;-7.49;584.8;13.50;75814;2837.245;-1801.400;1;133;-90;-96.8;44.0;44.3;8;8.1;27.2;0.0;
22/02/2025 05:34:22;100;0;120.65;-4;-19.14;-7.46;587.3;13.50;75809;2837.244;-1801.397;1;133;-90;-95.2;44.0;44.3;8;8.1;27.2;0.0;
22/02/2025 05:34:42;100;0;122.05;-4;-19.33;-7.52;589.8;13.50;75801;2837.242;-1801.394;1;133;-90;-96.8;44.0;44.3;10;9.9;27.2;0.0;
22/02/2025 05:35:02;100;0;122.54;-4;-19.57;-6.26;592.3;13.50;75806;2837.241;-1801.391;1;133;-90;-96.8;44.0;44.3;10;10.4;27.2;0.0;
22/02/2025 05:35:22;100;0;122.25;-4;-19.48;-6.24;594.9;13.40;75794;2837.239;-1801.388;1;133;-90;-96.8;44.0;44.3;10;10.4;27.2;0.0;
22/02/2025 05:35:42;100;0;123.21;-4;-19.43;-6.27;597.3;13.40;75784;2837.238;-1801.386;1;133;-90;-96.8;44.0;44.3;10;10.4;27.2;0.0;
22/02/2025 05:36:02;100;0;124.83;-4;-19.39;-6.24;599.8;13.40;75783;2837.236;-1801.383;1;133;-90;-95.2;44.0;44.3;12;12.2;27.2;0.0;
22/02/2025 05:36:22;100;0;129.19;-4;-19.75;-5.26;602.3;13.40;75789;2837.234;-1801.380;1;133;-90;-96.8;44.0;44.5;12;12.6;27.2;0.0;
22/02/2025 05:36:42;100;0;129.63;-4;-19.86;-5.36;604.8;13.30;75777;2837.232;-1801.378;1;133;-90;-96.8;44.0;44.3;12;12.6;27.2;0.0;
22/02/2025 05:37:02;100;0;131.27;-4;-19.98;-5.29;607.5;13.30;75770;2837.230;-1801.375;1;133;-90;-96.8;44.0;44.3;12;12.6;27.2;0.0;
22/02/2025 05:37:22;100;0;134.39;-4;-19.79;-5.27;610.2;13.30;75760;2837.228;-1801.373;1;133;-90;-96.8;44.0;44.3;12;12.6;27.2;0.0;
22/02/2025 05:37:42;100;0;139.23;-4;-19.73;-5.20;612.8;13.30;75761;2837.226;-1801.370;1;133;-90;-96.8;44.0;44.3;14;14.0;27.2;0.0;
22/02/2025 05:38:02;100;0;142.97;-4;-19.91;-4.29;615.6;13.20;75738;2837.223;-1801.368;1;133;-90;-96.8;44.0;44.5;17;17.6;27.2;0.0;
22/02/2025 05:38:22;100;0;144.96;-4;-19.99;-2.37;618.3;13.20;75753;2837.220;-1801.366;1;133;-90;-96.8;44.0;44.3;19;19.4;27.2;0.0;
22/02/2025 05:38:42;100;0;147.60;-4;-20.09;-1.32;621.2;13.20;75741;2837.218;-1801.364;1;133;-90;-96.8;44.0;44.3;22;22.6;27.2;0.0;
22/02/2025 05:39:02;100;0;148.55;-4;-20.18;0.02;623.9;13.20;75736;2837.215;-1801.362;1;133;-90;-96.8;44.0;44.3;22;22.6;27.2;0.0;
22/02/2025 05:39:22;100;0;147.35;-4;-19.93;-0.12;626.8;13.20;75735;2837.212;-1801.360;1;133;-90;-95.2;44.0;44.3;22;22.6;27.2;0.0;
22/02/2025 05:39:42;100;0;151.33;-4;-20.28;-0.05;629.6;13.10;75726;2837.209;-1801.359;1;133;-90;-96.8;44.0;44.3;28;28.0;27.2;0.0;
22/02/2025 05:40:02;100;0;148.61;-4;-20.46;2.44;632.4;13.10;75713;2837.206;-1801.357;1;133;-90;-96.8;44.0;44.3;23;23.0;27.2;0.0;
22/02/2025 05:40:22;100;0;147.98;-4;-20.09;-0.19;635.2;13.10;75725;2837.203;-1801.355;1;133;-90;-96.8;44.0;44.3;23;23.0;27.2;0.0;
22/02/2025 05:40:42;100;0;146.88;-4;-20.12;-0.26;638.1;13.10;75712;2837.200;-1801.353;1;133;-90;-96.8;44.0;44.3;21;21.2;27.2;0.0;
22/02/2025 05:41:02;100;0;146.42;-4;-20.20;-1.04;641.0;13.00;75708;2837.198;-1801.351;1;133;-90;-96.8;44.0;44.3;21;21.2;27.2;0.0;
22/02/2025 05:41:22;100;0;144.31;-4;-20.44;-1.05;643.9;13.00;75710;2837.195;-1801.349;1;133;-90;-98.4;44.0;44.3;18;18.1;27.2;0.0;
22/02/2025 05:41:42;100;0;137.80;-4;-20.35;-2.56;646.8;13.00;75691;2837.192;-1801.346;1;133;-90;-96.8;44.0;44.3;14;14.0;27.2;0.0;
22/02/2025 05:42:02;100;0;133.53;-4;-19.75;-4.66;649.8;13.00;75695;2837.190;-1801.343;1;133;-90;-96.8;44.0;44.3;14;14.0;27.2;0.0;
22/02/2025 05:42:22;100;0;132.90;-4;-19.54;-4.63;652.5;12.90;75685;2837.188;-1801.341;1;133;-90;-96.8;44.0;44.3;14;14.0;27.2;0.0;
22/02/2025 05:42:42;100;0;132.44;-4;-19.54;-4.63;655.2;12.90;75675;2837.186;-1801.338;1;133;-90;-96.8;44.0;44.3;14;14.0;27.2;0.0;
22/02/2025 05:43:02;100;0;131.89;-4;-19.41;-4.70;658.0;12.90;75674;2837.183;-1801.335;1;133;-90;-96.8;44.0;44.3;14;14.0;27.2;0.0;
22/02/2025 05:43:22;100;0;131.11;-4;-19.39;-4.73;660.7;12.90;75669;2837.181;-1801.333;1;133;-90;-96.8;44.0;44.3;14;14.0;27.2;0.0;
22/02/2025 05:43:42;100;0;130.58;-4;-19.38;-4.66;663.2;12.80;75661;2837.179;-1801.330;1;133;-90;-96.8;44.0;44.3;14;14.0;27.2;0.0;
22/02/2025 05:44:02;100;0;129.58;-4;-19.32;-4.74;665.8;12.80;75652;2837.177;-1801.327;1;133;-90;-96.8;44.0;44.3;14;14.0;27.2;0.0;
22/02/2025 05:44:22;100;0;128.14;-4;-19.30;-4.61;668.5;12.80;75650;2837.175;-1801.324;1;133;-90;-98.4;44.0;44.3;14;14.0;27.2;0.0;
22/02/2025 05:44:42;100;0;126.32;-4;-19.21;-4.78;671.1;12.80;75651;2837.173;-1801.321;1;133;-90;-96.8;44.0;44.3;14;14.0;27.2;0.0;
22/02/2025 05:45:02;100;0;127.38;-4;-18.88;-4.47;673.6;12.70;75648;2837.172;-1801.319;1;133;-90;-96.8;44.3;44.3;14;14.0;27.2;0.0;
22/02/2025 05:45:22;100;0;128.29;-4;-19.49;-4.75;676.2;12.70;75647;2837.170;-1801.316;1;133;-90;-96.8;44.3;44.3;14;14.0;27.2;0.0;
22/02/2025 05:45:42;100;0;127.42;-4;-18.90;-4.58;678.8;12.70;75632;2837.168;-1801.313;1;133;-90;-96.8;44.7;44.6;14;14.0;27.2;0.0;
22/02/2025 05:46:02;100;0;128.02;-4;-19.72;-4.78;681.3;12.70;75628;2837.166;-1801.311;1;133;-90;-96.8;44.7;44.8;14;14.0;27.2;0.0;
22/02/2025 05:46:22;100;0;128.10;-4;-19.80;-4.74;683.8;12.60;75626;2837.164;-1801.308;1;133;-90;-96.8;44.7;44.8;14;14.0;27.2;0.0;
22/02/2025 05:46:42;100;0;126.75;-4;-19.96;-4.69;686.4;12.60;75618;2837.163;-1801.305;1;133;-90;-96.8;44.7;44.6;14;14.0;27.2;0.0;
22/02/2025 05:47:02;100;0;125.98;-4;-19.90;-4.70;689.0;12.60;75606;2837.161;-1801.302;1;133;-90;-96.8;44.7;44.6;12;12.2;27.2;0.0;
22/02/2025 05:47:22;100;0;126.32;-4;-19.73;-5.69;691.5;12.60;75615;2837.159;-1801.300;1;133;-90;-96.8;44.7;44.8;12;11.7;27.2;0.0;
22/02/2025 05:47:42;100;0;129.42;-4;-19.76;-5.69;694.1;12.60;75591;2837.157;-1801.297;1;133;-90;-96.8;44.7;44.8;12;11.7;27.2;0.0;
22/02/2025 05:48:02;100;0;131.27;-4;-19.69;-5.68;696.7;12.50;75595;2837.155;-1801.295;1;133;-90;-96.8;44.7;44.8;14;14.0;27.2;0.0;
22/02/2025 05:48:22;100;0;133.62;-4;-19.93;-4.42;699.2;12.50;75588;2837.153;-1801.292;1;133;-90;-96.8;44.7;44.6;14;14.4;27.2;0.0;
22/02/2025 05:48:42;100;0;133.55;-4;-20.01;-4.48;701.8;12.50;75581;2837.151;-1801.290;1;133;-90;-96.8;44.7;44.6;14;14.4;27.2;0.0;
22/02/2025 05:49:02;100;0;133.29;-4;-19.96;-4.40;704.4;12.50;75579;2837.149;-1801.287;1;133;-90;-96.8;44.7;44.8;14;14.4;27.2;0.0;
22/02/2025 05:49:22;100;0;134.33;-4;-19.83;-4.46;706.9;12.40;75567;2837.147;-1801.285;1;133;-90;-95.2;44.7;44.6;14;14.4;27.2;0.0;
22/02/2025 05:49:42;100;0;135.54;-4;-20.02;-4.43;709.4;12.40;75562;2837.145;-1801.283;1;133;-90;-96.8;44.7;44.8;14;14.4;27.2;0.0;
22/02/2025 05:50:02;100;0;137.22;-4;-20.01;-4.41;712.1;12.40;75547;2837.143;-1801.280;1;133;-90;-96.8;44.7;44.8;14;14.4;27.2;0.0;
22/02/2025 05:50:22;100;0;137.99;-4;-20.39;-4.48;714.8;12.30;75554;2837.141;-1801.278;1;133;-90;-96.8;44.7;44.8;14;14.0;27.2;0.0;
22/02/2025 05:50:42;100;0;137.38;-4;-21.15;-4.44;717.5;12.30;75546;2837.138;-1801.276;1;133;-90;-96.8;44.7;44.8;14;14.0;27.2;0.0;
22/02/2025 05:51:02;100;0;136.90;-4;-20.00;-4.41;720.4;12.30;75544;2837.136;-1801.273;1;133;-90;-96.8;44.7;44.8;14;14.4;27.2;0.0;
22/02/2025 05:51:22;100;0;136.56;-4;-20.58;-4.52;723.2;12.30;75535;2837.133;-1801.271;1;133;-90;-95.2;44.7;44.6;14;14.4;27.2;0.0;
22/02/2025 05:51:42;100;0;136.72;-4;-20.68;-4.62;726.1;12.20;75525;2837.131;-1801.268;1;133;-90;-96.8;44.7;44.8;14;14.4;27.2;0.0;
22/02/2025 05:52:02;100;0;136.59;-4;-20.51;-4.54;729.1;12.20;75519;2837.129;-1801.266;1;133;-90;-96.8;44.7;44.8;14;14.4;27.2;0.0;
22/02/2025 05:52:22;100;0;137.26;-4;-20.42;-4.31;732.1;12.20;75516;2837.126;-1801.263;1;133;-90;-96.8;44.7;44.6;14;14.0;27.2;0.0;
22/02/2025 05:52:42;100;0;135.75;-4;-20.19;-4.45;735.1;12.20;75510;2837.124;-1801.260;1;133;-90;-96.8;44.7;44.8;14;14.4;27.2;0.0;
22/02/2025 05:53:02;100;0;137.62;-4;-20.35;-4.50;737.9;12.20;75513;2837.121;-1801.258;1;133;-90;-96.8;44.7;44.8;14;14.4;27.2;0.0;
22/02/2025 05:53:23;100;0;137.65;-4;-20.01;-4.46;740.8;12.10;75514;2837.119;-1801.255;1;133;-90;-96.8;44.7;44.6;14;14.4;27.2;0.0;
22/02/2025 05:53:43;100;0;138.81;-4;-20.36;-4.24;743.7;12.10;75506;2837.116;-1801.253;1;133;-90;-95.2;44.7;44.8;14;14.0;27.2;0.0;
22/02/2025 05:54:03;100;0;139.16;-4;-20.18;-4.48;746.5;12.10;75506;2837.113;-1801.250;1;133;-90;-96.8;44.7;44.8;14;14.4;27.2;0.0;
22/02/2025 05:54:23;100;0;142.03;-4;-20.61;-4.28;749.5;12.10;75502;2837.111;-1801.248;1;133;-90;-96.8;44.7;44.6;16;15.8;27.2;0.0;
22/02/2025 05:54:43;100;0;142.79;-4;-20.55;-3.22;752.5;12.10;75494;2837.108;-1801.246;1;133;-90;-96.8;44.7;44.8;16;16.7;27.2;0.0;
22/02/2025 05:55:03;100;0;145.79;-4;-20.24;-3.19;755.6;12.00;75489;2837.105;-1801.243;1;133;-90;-96.8;44.7;44.8;20;20.3;27.2;0.0;
22/02/2025 05:55:23;100;0;147.24;-4;-20.48;-1.06;758.6;12.00;75480;2837.102;-1801.241;1;133;-90;-96.8;44.7;44.8;22;22.1;27.2;0.0;
22/02/2025 05:55:43;100;0;146.82;-4;-20.96;-0.10;761.7;12.00;75471;2837.099;-1801.239;1;133;-90;-98.4;44.7;44.8;22;23.0;27.2;0.0;
22/02/2025 05:56:03;100;0;145.16;-4;-20.88;-0.01;764.8;12.00;75471;2837.096;-1801.237;1;133;-90;-96.8;44.7;44.6;19;18.5;27.2;0.0;
22/02/2025 05:56:23;100;0;143.06;-4;-20.55;-1.90;767.9;11.90;75454;2837.093;-1801.235;1;133;-90;-96.8;44.7;44.8;17;17.1;27.2;0.0;
22/02/2025 05:56:43;100;0;140.93;-4;-20.22;-3.22;771.0;11.90;75463;2837.090;-1801.232;1;133;-90;-96.8;44.7;44.8;17;16.7;27.2;0.0;
22/02/2025 05:57:03;100;0;138.39;-4;-20.08;-3.31;773.9;11.90;75459;2837.088;-1801.230;1;133;-90;-96.8;44.7;44.6;15;14.9;27.2;0.0;
22/02/2025 05:57:23;100;0;135.93;-4;-20.10;-4.05;776.9;11.90;75458;2837.085;-1801.227;1;133;-90;-96.8;44.7;44.8;15;14.9;27.2;0.0;
22/02/2025 05:57:43;100;0;131.30;-4;-19.79;-4.12;779.9;11.90;75463;2837.083;-1801.224;1;133;-90;-96.8;44.7;44.8;15;15.3;27.2;0.0;
22/02/2025 05:58:03;100;0;129.63;-4;-20.04;-4.14;782.8;11.80;75448;2837.081;-1801.221;1;133;-90;-96.8;44.7;44.8;15;15.3;27.2;0.0;
22/02/2025 05:58:23;100;0;129.64;-4;-20.03;-4.07;785.6;11.80;75439;2837.079;-1801.218;1;133;-90;-95.2;44.7;44.8;15;14.9;27.2;0.0;
22/02/2025 05:58:43;100;0;129.53;-4;-19.90;-4.03;788.4;11.80;75439;2837.077;-1801.215;1;133;-90;-96.8;44.7;44.8;15;15.3;27.2;0.0;
22/02/2025 05:59:03;100;0;133.61;-4;-19.99;-4.03;791.3;11.80;75443;2837.074;-1801.212;1;133;-90;-96.8;44.7;44.8;15;14.9;27.2;0.0;
22/02/2025 05:59:23;100;0;132.38;-4;-19.94;-4.09;794.2;11.70;75444;2837.072;-1801.210;1;133;-90;-96.8;44.7;44.8;15;14.9;27.2;0.0;
22/02/2025 05:59:43;100;0;131.63;-4;-20.09;-4.07;797.2;11.70;75425;2837.070;-1801.207;1;133;-90;-96.8;44.7;44.6;15;15.3;27.2;0.0;
22/02/2025 06:00:03;100;0;134.65;-4;-19.81;-4.01;800.1;11.70;75422;2837.067;-1801.204;1;133;-90;-96.8;44.7;44.6;15;14.9;27.2;0.0;
22/02/2025 06:00:23;100;0;131.51;-4;-19.54;-4.09;803.0;11.70;75417;2837.065;-1801.201;1;133;-90;-96.8;44.7;44.8;15;14.9;27.2;0.0;
22/02/2025 06:00:43;100;0;130.56;-4;-19.56;-4.12;805.8;11.70;75399;2837.063;-1801.198;1;133;-90;-96.8;44.7;44.8;15;15.3;27.2;0.0;
22/02/2025 06:01:03;100;0;129.83;-4;-19.81;-4.10;808.6;11.60;75396;2837.061;-1801.195;1;133;-90;-96.8;44.7;44.8;15;15.3;27.2;0.0;
22/02/2025 06:01:23;100;0;126.96;-4;-19.84;-4.10;811.4;11.60;75377;2837.059;-1801.192;1;133;-90;-96.8;44.7;44.8;13;12.6;27.2;0.0;
22/02/2025 06:01:43;100;0;125.95;-4;-19.68;-5.30;814.2;11.60;75372;2837.057;-1801.189;1;133;-90;-96.8;44.7;44.8;13;12.6;27.2;0.0;
22/02/2025 06:02:03;100;0;125.09;-4;-19.68;-5.36;817.1;11.60;75368;2837.055;-1801.186;1;133;-90;-96.8;44.7;44.6;13;12.6;27.2;0.0;
22/02/2025 06:02:23;100;0;123.45;-4;-19.79;-5.35;819.9;11.50;75364;2837.053;-1801.183;1;133;-90;-96.8;44.7;44.8;11;10.8;27.2;0.0;
22/02/2025 06:02:43;100;0;121.36;-4;-19.76;-6.32;822.8;11.50;75365;2837.052;-1801.180;1;133;-90;-96.8;44.7;44.8;9;9.0;27.2;0.0;
22/02/2025 06:03:03;100;0;121.45;-4;-19.55;-7.24;825.7;11.50;75355;2837.050;-1801.176;1;133;-90;-96.8;44.7;44.6;9;8.6;27.2;0.0;
22/02/2025 06:03:23;100;0;121.81;-4;-19.33;-7.18;828.5;11.50;75346;2837.048;-1801.173;1;133;-90;-96.8;44.7;44.8;9;8.6;27.2;0.0;
22/02/2025 06:03:43;100;0;125.48;-4;-18.70;-7.39;831.2;11.40;75357;2837.046;-1801.170;1;133;-90;-95.2;45.1;45.4;12;12.2;27.2;0.0;
22/02/2025 06:04:03;100;0;129.67;-4;-20.65;-5.17;833.9;11.40;75334;2837.044;-1801.167;1;133;-90;-96.8;45.1;45.4;14;14.0;27.2;0.0;
22/02/2025 06:04:23;100;0;135.92;-4;-20.92;-4.14;836.8;11.40;75327;2837.042;-1801.165;1;133;-90;-96.8;45.1;45.4;14;14.4;27.2;0.0;
22/02/2025 06:04:43;100;0;139.60;-4;-20.84;-4.24;839.7;11.40;75319;2837.040;-1801.163;1;133;-90;-96.8;45.1;45.4;14;14.9;27.2;0.0;
22/02/2025 06:05:03;100;0;141.72;-4;-20.99;-4.13;842.5;11.30;75320;2837.037;-1801.160;1;133;-90;-96.8;45.1;45.2;16;16.2;27.2;0.0;
22/02/2025 06:05:23;100;0;142.25;-4;-21.14;-3.37;845.4;11.30;75314;2837.035;-1801.158;1;133;-90;-96.8;45.1;45.4;16;16.2;27.2;0.0;
22/02/2025 06:05:43;100;0;141.21;-4;-21.12;-3.29;848.2;11.30;75307;2837.032;-1801.156;1;133;-90;-96.8;45.1;45.4;16;16.2;27.2;0.0;
22/02/2025 06:06:03;100;0;141.12;-4;-21.19;-3.24;851.1;11.30;75314;2837.029;-1801.154;1;133;-90;-95.2;45.1;45.4;16;16.2;27.2;0.0;
22/02/2025 06:06:23;100;0;142.92;-4;-21.60;-3.40;854.0;11.20;75309;2837.027;-1801.152;1;133;-90;-96.8;45.1;45.4;16;16.2;27.2;0.0;
22/02/2025 06:06:43;100;0;145.75;-4;-21.49;-3.35;856.8;11.20;75302;2837.024;-1801.150;1;133;-90;-96.8;45.1;45.4;20;20.3;27.2;0.0;
22/02/2025 06:07:03;100;0;147.86;-4;-20.90;-1.32;859.6;11.20;75305;2837.022;-1801.148;1;133;-90;-96.8;45.1;45.2;23;23.0;27.2;0.0;
22/02/2025 06:07:23;100;0;146.71;-4;-22.18;0.06;862.5;11.20;75298;2837.019;-1801.146;1;133;-90;-98.4;44.4;44.3;21;21.2;27.2;0.0;
22/02/2025 06:07:43;100;0;145.62;-4;-19.79;-1.04;865.3;11.20;75297;2837.016;-1801.144;1;133;-90;-96.8;44.4;44.2;21;21.2;27.2;0.0;
22/02/2025 06:08:03;100;0;147.77;-4;-20.71;-0.90;868.1;11.10;75292;2837.014;-1801.142;1;133;-90;-96.8;44.4;44.3;23;23.0;27.2;0.0;
22/02/2025 06:08:23;100;0;147.14;-4;-19.69;0.12;871.1;11.10;75283;2837.011;-1801.140;1;133;-90;-96.8;44.4;44.2;23;23.5;27.2;0.0;
22/02/2025 06:08:43;100;0;145.37;-4;-19.58;0.07;873.7;11.10;75281;2837.008;-1801.138;1;133;-90;-96.8;44.4;44.2;20;19.9;27.2;0.0;
22/02/2025 06:09:03;100;0;142.97;-4;-19.19;-1.88;876.4;11.10;75279;2837.005;-1801.136;1;133;-90;-96.8;44.4;44.2;17;16.7;27.2;0.0;
22/02/2025 06:09:23;100;0;141.94;-4;-19.22;-3.17;878.9;11.00;75280;2837.003;-1801.134;1;133;-90;-96.8;44.4;44.2;17;17.1;27.2;0.0;
22/02/2025 06:09:43;100;0;142.27;-4;-19.00;-3.00;881.5;11.00;75259;2837.000;-1801.132;1;133;-90;-96.8;44.4;44.2;17;17.1;27.2;0.0;
22/02/2025 06:10:03;100;0;141.82;-4;-18.93;-3.06;884.1;11.00;75256;2836.998;-1801.130;1;133;-90;-96.8;44.7;44.8;17;17.1;27.2;0.0;
22/02/2025 06:10:23;100;0;139.25;-4;-19.61;-3.05;886.6;11.00;75254;2836.996;-1801.128;1;133;-90;-100.0;44.7;44.9;15;14.9;27.2;0.0;
22/02/2025 06:10:43;100;0;137.41;-4;-19.95;-4.48;889.3;11.00;75235;2836.993;-1801.125;1;133;-90;-96.8;44.7;44.9;15;14.4;27.2;0.0;
22/02/2025 06:11:03;100;0;134.39;-4;-20.15;-4.36;891.9;10.90;75242;2836.991;-1801.123;1;133;-90;-96.8;44.7;44.9;15;14.4;27.2;0.0;
22/02/2025 06:11:23;100;0;135.54;-4;-19.52;-4.37;894.5;10.90;75234;2836.989;-1801.121;1;133;-90;-96.8;44.7;44.9;15;14.4;27.2;0.0;
22/02/2025 06:11:43;100;0;135.32;-4;-19.75;-4.37;896.9;10.90;75231;2836.987;-1801.118;1;133;-90;-96.8;44.7;44.9;15;14.4;27.2;0.0;
22/02/2025 06:12:03;100;0;133.65;-4;-20.15;-4.30;899.5;10.90;75232;2836.985;-1801.116;1;133;-90;-96.8;44.7;45.1;15;14.9;27.2;0.0;
22/02/2025 06:12:23;100;0;129.34;-4;-19.83;-4.40;902.1;10.90;75224;2836.983;-1801.113;1;133;-90;-96.8;44.7;44.9;15;14.4;27.2;0.0;
22/02/2025 06:12:43;100;0;126.81;-4;-19.75;-4.35;904.5;10.80;75208;2836.982;-1801.111;1;133;-90;-96.8;44.7;44.9;15;14.4;27.2;0.0;
22/02/2025 06:13:03;100;0;124.38;-4;-19.88;-4.36;907.0;10.80;75201;2836.980;-1801.108;1;133;-90;-96.8;44.7;44.9;12;12.2;27.2;0.0;
22/02/2025 06:13:23;100;0;125.70;-4;-19.66;-5.57;909.5;10.80;75215;2836.978;-1801.105;1;133;-90;-96.8;44.7;44.9;12;12.2;27.2;0.0;
22/02/2025 06:13:43;100;0;126.95;-4;-19.36;-5.53;912.1;10.80;75210;2836.977;-1801.103;1;133;-90;-100.0;44.7;44.8;14;14.0;27.2;0.0;
22/02/2025 06:14:03;100;0;126.46;-4;-20.37;-4.44;914.6;10.70;75200;2836.975;-1801.100;1;133;-90;-96.8;44.7;44.9;14;14.4;27.2;0.0;
22/02/2025 06:14:23;100;0;128.95;-4;-19.49;-4.23;917.3;10.70;75215;2836.973;-1801.097;1;133;-90;-98.4;44.7;44.9;14;14.4;27.2;0.0;
22/02/2025 06:14:43;100;0;131.22;-4;-19.78;-4.44;919.6;10.70;75193;2836.971;-1801.095;1;133;-90;-96.8;44.7;44.9;14;14.4;27.2;0.0;
22/02/2025 06:15:03;100;0;133.04;-4;-19.54;-4.45;922.0;10.70;75196;2836.969;-1801.093;1;133;-90;-95.2;44.7;44.9;14;14.4;27.2;0.0;
22/02/2025 06:15:23;100;0;133.82;-4;-19.46;-4.43;924.5;10.70;75187;2836.967;-1801.090;1;133;-90;-96.8;44.7;44.9;14;14.4;27.2;0.0;
22/02/2025 06:15:43;100;0;134.06;-4;-19.45;-4.36;926.9;10.70;75191;2836.965;-1801.088;1;133;-90;-96.8;44.7;44.9;14;14.4;27.2;0.0;
22/02/2025 06:16:03;100;0;135.09;-4;-19.23;-4.43;929.0;10.60;75181;2836.963;-1801.086;1;133;-90;-96.8;44.7;45.1;14;14.4;27.2;0.0;
22/02/2025 06:16:23;100;0;137.19;-4;-19.51;-4.44;931.3;10.60;75183;2836.962;-1801.084;1;133;-90;-95.2;44.7;44.9;14;14.4;27.2;0.0;
22/02/2025 06:16:43;100;0;139.54;-4;-19.45;-4.45;933.6;10.60;75167;2836.959;-1801.082;1;133;-90;-96.8;44.7;44.9;14;14.4;27.2;0.0;
22/02/2025 06:17:03;100;0;140.57;-4;-19.00;-4.39;935.6;10.60;75167;2836.958;-1801.080;1;133;-90;-95.2;45.0;45.4;16;15.8;27.2;0.0;
22/02/2025 06:17:23;100;0;141.61;-4;-20.28;-3.50;937.9;10.50;75166;2836.955;-1801.078;1;133;-90;-96.8;45.0;45.4;16;16.2;27.2;0.0;
22/02/2025 06:17:43;100;0;142.09;-4;-19.89;-3.69;939.9;10.50;75160;2836.954;-1801.077;1;133;-90;-96.8;45.0;45.4;16;16.2;27.2;0.0;
22/02/2025 06:18:03;100;0;143.37;-4;-20.82;-3.48;942.0;10.50;75158;2836.952;-1801.075;1;133;-90;-95.2;45.0;45.2;18;18.1;27.2;0.0;
22/02/2025 06:18:23;100;0;139.28;-4;-21.38;-2.32;944.2;10.50;75149;2836.950;-1801.074;1;133;-90;-96.8;45.0;45.4;15;14.9;27.2;0.0;
22/02/2025 06:18:43;100;0;139.36;-4;-20.14;-4.26;946.4;10.50;75151;2836.948;-1801.072;1;133;-90;-96.8;45.0;45.4;15;14.9;27.2;0.0;
22/02/2025 06:19:03;100;0;137.96;-4;-20.82;-4.29;948.5;10.40;75156;2836.946;-1801.070;1;133;-90;-95.2;45.0;45.4;15;14.9;27.2;0.0;
22/02/2025 06:19:23;100;0;135.73;-4;-20.65;-4.29;950.9;10.40;75154;2836.944;-1801.068;1;133;-90;-96.8;45.0;45.4;15;14.9;27.2;0.0;
22/02/2025 06:19:43;100;0;135.01;-4;-20.88;-4.35;953.1;10.40;75137;2836.943;-1801.066;1;133;-90;-98.4;45.0;45.4;15;14.9;27.2;0.0;
22/02/2025 06:20:03;100;0;134.26;-4;-20.33;-4.34;955.3;10.40;75131;2836.941;-1801.064;1;133;-90;-95.2;45.0;45.2;15;14.9;27.2;0.0;
22/02/2025 06:20:23;100;0;134.98;-4;-20.25;-4.13;957.6;10.40;75132;2836.939;-1801.062;1;133;-90;-96.8;45.0;45.4;15;14.9;27.2;0.0;
22/02/2025 06:20:43;100;0;135.43;-4;-21.02;-4.31;959.8;10.40;75135;2836.937;-1801.060;1;133;-90;-96.8;45.0;45.4;15;14.9;27.2;0.0;
22/02/2025 06:21:03;100;0;137.90;-4;-20.63;-4.19;961.9;10.30;75126;2836.936;-1801.059;1;133;-90;-95.2;45.0;45.4;15;14.9;27.2;0.0;
22/02/2025 06:21:23;100;0;137.81;-4;-20.53;-4.21;964.1;10.30;75137;2836.934;-1801.057;1;133;-90;-100.0;45.0;45.2;15;14.9;27.2;0.0;
22/02/2025 06:21:43;100;0;137.94;-4;-20.36;-4.24;966.3;10.30;75122;2836.932;-1801.055;1;133;-90;-96.8;45.0;45.4;15;14.9;27.2;0.0;
22/02/2025 06:22:03;100;0;137.36;-4;-20.59;-4.22;968.5;10.30;75123;2836.930;-1801.053;1;133;-90;-96.8;45.0;45.2;15;14.9;27.2;0.0;
22/02/2025 06:22:23;100;0;137.74;-4;-20.62;-4.31;970.8;10.30;75126;2836.928;-1801.051;1;133;-90;-96.8;45.0;45.4;15;14.9;27.2;0.0;
22/02/2025 06:22:43;100;0;137.17;-4;-20.72;-4.18;973.0;10.20;75113;2836.927;-1801.049;1;133;-90;-96.8;45.0;45.4;15;14.9;27.2;0.0;
22/02/2025 06:23:03;100;0;137.32;-4;-20.29;-4.23;975.2;10.20;75123;2836.925;-1801.048;1;133;-90;-95.2;45.0;45.4;15;14.9;27.2;0.0;
22/02/2025 06:23:23;100;0;137.73;-4;-20.46;-4.27;977.4;10.20;75107;2836.923;-1801.046;1;133;-90;-96.8;45.0;45.4;15;14.9;27.2;0.0;
22/02/2025 06:23:43;100;0;137.08;-4;-20.46;-4.29;979.7;10.20;75123;2836.921;-1801.044;1;133;-90;-96.8;45.0;45.4;15;14.9;27.2;0.0;
22/02/2025 06:24:03;100;0;136.98;-4;-20.93;-4.16;981.9;10.20;75111;2836.919;-1801.042;1;133;-90;-96.8;45.0;45.4;15;14.9;27.2;0.0;
22/02/2025 06:24:23;100;0;135.15;-4;-20.04;-4.24;984.1;10.20;75106;2836.917;-1801.040;1;133;-90;-95.2;45.0;45.4;15;14.9;27.2;0.0;
22/02/2025 06:24:43;100;0;136.11;-4;-20.36;-4.28;986.2;10.10;75110;2836.916;-1801.038;1;133;-90;-95.2;45.0;45.4;15;14.9;27.2;0.0;
22/02/2025 06:25:03;100;0;135.46;-4;-20.37;-4.20;988.3;10.10;75103;2836.914;-1801.036;1;133;-90;-96.8;45.0;45.4;15;14.9;27.2;0.0;
22/02/2025 06:25:23;100;0;135.84;-4;-20.39;-4.19;990.4;10.10;75106;2836.912;-1801.034;1;133;-90;-96.8;45.0;45.4;15;14.9;27.2;0.0;
22/02/2025 06:25:43;100;0;137.51;-4;-20.26;-4.31;992.6;10.10;75101;2836.910;-1801.033;1;133;-90;-96.8;45.0;45.4;15;14.9;27.2;0.0;
22/02/2025 06:26:03;100;0;140.19;-4;-20.40;-4.47;994.7;10.10;75097;2836.909;-1801.031;1;133;-90;-96.8;45.0;45.4;15;14.9;27.2;0.0;
22/02/2025 06:26:23;100;0;141.00;-4;-20.83;-4.28;996.9;10.10;75100;2836.907;-1801.029;1;133;-90;-98.4;45.0;45.2;17;17.1;27.2;0.0;
22/02/2025 06:26:42;118;0;144.87;-4;-21.19;-2.89;999.0;10.10;75095;2836.905;-1801.028;1;133;270;-91.9;26.1;26.1;7;7.2;27.2;0.0;
22/02/2025 06:26:52;118;0;116.51;-4;-5.91;-8.60;1000.0;10.10;75076;2836.904;-1801.026;1;133;270;37.1;26.1;25.8;7;7.2;26.0;-1.0;
22/02/2025 06:27:02;118;0;104.74;-4;17.33;-9.08;999.9;10.10;74803;2836.904;-1801.026;1;133;270;159.7;26.1;26.1;7;6.8;25.7;-1.0;
22/02/2025 06:27:13;118;0;102.13;-4;21.23;-8.94;999.3;10.10;74554;2836.904;-1801.025;1;133;270;272.6;26.1;26.4;7;7.2;25.8;-1.0;
22/02/2025 06:27:23;118;0;152.04;-4;20.07;-8.19;998.1;10.00;74339;2836.903;-1801.025;1;133;270;272.6;26.1;26.2;7;7.2;27.1;-1.0;
22/02/2025 06:27:33;118;0;148.86;-4;18.34;-8.61;997.0;10.10;74348;2836.902;-1801.024;1;133;270;272.6;26.1;26.2;7;6.8;27.1;-1.0;
22/02/2025 06:27:53;117;0;144.25;-4;17.58;-8.33;994.7;10.10;74345;2836.899;-1801.022;1;133;270;272.6;26.1;26.2;7;7.2;27.2;-1.0;
22/02/2025 06:28:13;117;0;136.61;-4;18.25;-8.59;992.2;10.10;74343;2836.897;-1801.020;1;133;270;272.6;25.6;25.2;28;28.0;27.1;-1.0;
22/02/2025 06:28:33;117;0;135.22;-4;20.41;2.90;989.8;10.10;74337;2836.895;-1801.018;1;133;270;272.6;25.6;25.0;28;28.4;27.2;-1.0;
22/02/2025 06:28:53;117;0;135.31;-4;21.94;2.80;987.0;10.10;74335;2836.893;-1801.015;1;133;270;272.6;25.6;24.9;28;28.4;27.2;-1.0;
22/02/2025 06:29:13;117;0;136.31;-4;21.72;2.60;983.9;10.10;74335;2836.891;-1801.013;1;133;270;272.6;25.6;24.9;28;28.4;27.2;-1.0;
22/02/2025 06:29:33;117;0;137.31;-4;22.06;2.65;981.0;10.10;74332;2836.888;-1801.010;1;133;270;271.0;26.2;26.2;28;28.4;27.2;-1.0;
22/02/2025 06:29:53;117;0;136.84;-4;20.19;2.86;978.1;10.10;74330;2836.886;-1801.008;1;133;270;272.6;26.2;26.4;28;28.4;27.2;-1.0;
22/02/2025 06:30:13;117;0;136.49;-4;19.45;2.70;975.3;10.10;74322;2836.883;-1801.005;1;133;270;272.6;26.2;26.2;28;28.4;27.2;-1.0;
22/02/2025 06:30:33;117;0;136.86;-4;19.63;2.67;972.5;10.10;74336;2836.881;-1801.003;1;133;270;274.2;26.2;26.4;28;28.4;27.2;-1.0;
22/02/2025 06:30:53;117;0;136.47;-4;19.37;2.81;969.8;10.10;74326;2836.879;-1801.000;1;133;270;269.4;26.2;26.4;28;28.4;27.2;-1.0;
22/02/2025 06:31:13;117;0;135.72;-4;19.30;2.90;967.1;10.00;74322;2836.876;-1800.997;1;133;270;272.6;26.2;26.4;28;28.4;27.2;-1.0;
22/02/2025 06:31:33;117;0;135.60;-4;19.49;2.90;964.3;10.00;74313;2836.874;-1800.995;1;133;270;272.6;26.2;26.4;28;28.0;27.2;-1.0;
22/02/2025 06:31:53;117;0;135.44;-4;19.48;2.74;961.6;10.00;74301;2836.872;-1800.992;1;133;270;272.6;26.2;26.4;28;28.4;27.2;-1.0;
22/02/2025 06:32:13;117;0;134.63;-4;19.55;2.87;958.9;10.00;74307;2836.869;-1800.990;1;133;270;271.0;26.2;26.5;28;28.4;27.2;-1.0;
22/02/2025 06:32:33;117;0;134.86;-4;19.47;2.77;956.0;10.00;74302;2836.867;-1800.987;1;133;270;272.6;26.2;26.4;28;28.0;27.2;-1.0;
22/02/2025 06:32:53;117;0;135.52;-4;19.45;2.71;953.2;10.00;74300;2836.864;-1800.984;1;133;270;272.6;26.2;26.4;28;28.4;27.2;-1.0;
22/02/2025 06:33:13;117;0;134.23;-4;19.43;2.81;950.3;10.00;74303;2836.862;-1800.981;1;133;270;274.2;26.2;26.4;28;28.4;27.2;-1.0;
22/02/2025 06:33:33;117;0;134.96;-4;19.41;2.88;947.6;9.90;74298;2836.860;-1800.979;1;133;270;272.6;26.2;26.4;28;28.4;27.2;-1.0;
22/02/2025 06:33:53;117;0;135.94;-4;19.32;2.81;944.9;9.90;74308;2836.857;-1800.976;1;133;270;272.6;26.2;26.4;28;28.0;27.2;-1.0;
22/02/2025 06:34:13;117;0;137.69;-4;19.42;2.78;942.3;9.90;74292;2836.855;-1800.974;1;133;270;272.6;26.2;26.4;28;28.4;27.2;-1.0;
22/02/2025 06:34:33;117;0;137.62;-4;19.23;2.36;939.7;9.90;74290;2836.853;-1800.972;1;133;270;272.6;26.2;26.4;28;28.4;27.2;-1.0;
22/02/2025 06:34:53;117;0;138.80;-4;19.51;2.83;937.1;9.90;74294;2836.850;-1800.969;1;133;270;272.6;26.2;26.4;28;28.4;27.2;-1.0;
22/02/2025 06:35:13;117;0;139.38;-4;19.30;2.63;934.6;9.90;74279;2836.848;-1800.967;1;133;270;272.6;26.2;26.4;28;28.4;27.2;-1.0;
22/02/2025 06:35:33;117;0;139.97;-4;19.89;2.74;932.1;9.90;74282;2836.846;-1800.965;1;133;270;274.2;26.2;26.4;28;28.4;27.2;-1.0;
22/02/2025 06:35:53;117;0;139.47;-4;19.25;2.90;929.4;9.90;74277;2836.843;-1800.963;1;133;270;272.6;26.2;26.4;28;28.0;27.2;-1.0;
22/02/2025 06:36:13;117;0;141.25;-4;18.99;2.73;927.1;9.80;74283;2836.841;-1800.961;1;133;270;272.6;25.9;25.9;26;26.2;27.2;-1.0;
22/02/2025 06:36:33;117;0;140.66;-4;19.54;1.60;924.8;9.80;74269;2836.839;-1800.959;1;133;270;272.6;25.9;25.9;26;26.2;27.2;-1.0;
22/02/2025 06:36:53;117;0;139.64;-4;19.68;1.52;922.4;9.80;74268;2836.837;-1800.957;1;133;270;272.6;25.9;25.8;26;26.2;27.2;-1.0;
22/02/2025 06:37:13;117;0;137.75;-4;19.50;1.43;919.9;9.80;74274;2836.835;-1800.955;1;133;270;271.0;25.9;25.8;26;26.2;27.2;-1.0;
22/02/2025 06:37:33;117;0;135.82;-4;19.51;1.61;917.5;9.80;74272;2836.833;-1800.953;1;133;270;274.2;25.9;25.9;28;28.0;27.2;-1.0;
22/02/2025 06:37:53;117;0;135.37;-4;19.26;2.78;915.0;9.80;74267;2836.831;-1800.950;1;133;270;272.6;25.9;25.9;28;28.4;27.2;-1.0;
22/02/2025 06:38:13;117;0;135.14;-4;19.81;2.81;912.4;9.80;74275;2836.829;-1800.948;1;133;270;272.6;25.9;25.8;28;28.4;27.2;-1.0;
22/02/2025 06:38:33;117;0;134.91;-4;19.40;2.76;909.8;9.80;74262;2836.826;-1800.946;1;133;270;269.4;25.9;25.9;28;28.4;27.2;-1.0;
22/02/2025 06:38:53;117;0;133.82;-4;19.03;2.82;907.4;9.80;74268;2836.824;-1800.943;1;133;270;272.6;25.9;25.9;28;28.4;27.2;-1.0;
22/02/2025 06:39:13;117;0;133.69;-4;19.47;2.80;904.9;9.80;74274;2836.822;-1800.941;1;133;270;272.6;25.9;25.9;28;28.4;27.2;-1.0;
22/02/2025 06:39:33;117;0;134.21;-4;19.67;2.67;902.6;9.80;74268;2836.820;-1800.939;1;133;270;272.6;25.9;25.9;28;28.4;27.2;-1.0;
22/02/2025 06:39:53;117;0;134.33;-4;19.83;2.69;900.3;9.70;74266;2836.819;-1800.937;1;133;270;271.0;25.9;25.9;28;28.4;27.2;-1.0;
22/02/2025 06:40:13;117;0;134.87;-4;20.05;2.76;897.8;9.70;74274;2836.817;-1800.934;1;133;270;272.6;25.9;25.9;28;28.4;27.2;-1.0;
22/02/2025 06:40:33;117;0;134.69;-4;19.77;2.71;895.2;9.70;74259;2836.814;-1800.932;1;133;270;272.6;25.9;25.8;28;28.4;27.2;-1.0;
22/02/2025 06:40:53;117;0;136.54;-4;19.68;2.68;892.6;9.70;74257;2836.812;-1800.929;1;133;270;272.6;25.9;25.9;28;28.4;27.2;-1.0;
22/02/2025 06:41:13;117;0;136.21;-4;19.37;2.75;890.0;9.70;74251;2836.810;-1800.927;1;133;270;271.0;25.9;25.9;28;28.4;27.2;-1.0;
22/02/2025 06:41:33;117;0;136.71;-4;19.75;2.66;887.5;9.70;74246;2836.808;-1800.925;1;133;270;271.0;25.9;25.8;28;28.4;27.2;-1.0;
22/02/2025 06:41:53;117;0;136.25;-4;19.19;2.75;884.9;9.70;74249;2836.806;-1800.922;1;133;270;272.6;25.9;25.9;28;28.4;27.2;-1.0;
22/02/2025 06:42:13;117;0;137.53;-4;19.59;2.76;882.4;9.70;74250;2836.803;-1800.920;1;133;270;272.6;25.9;25.8;28;28.4;27.2;-1.0;
22/02/2025 06:42:33;117;0;138.44;-4;19.22;2.69;879.8;9.70;74244;2836.801;-1800.918;1;133;270;271.0;25.9;25.9;28;28.4;27.2;-1.0;
22/02/2025 06:42:53;117;0;139.26;-4;19.22;2.79;877.5;9.70;74250;2836.799;-1800.916;1;133;270;272.6;25.9;25.9;28;28.4;27.2;-1.0;
22/02/2025 06:43:13;117;0;139.63;-4;19.50;2.75;875.1;9.70;74253;2836.797;-1800.914;1;133;270;274.2;25.9;25.9;28;28.4;27.2;-1.0;
22/02/2025 06:43:33;117;0;139.34;-4;19.44;2.78;872.8;9.70;74245;2836.795;-1800.912;1;133;270;272.6;25.9;25.9;28;28.4;27.2;-1.0;
22/02/2025 06:43:53;117;0;139.19;-4;19.12;2.75;870.5;9.70;74251;2836.793;-1800.910;1;133;270;272.6;25.9;25.8;28;28.4;27.2;-1.0;
22/02/2025 06:44:13;117;0;139.69;-4;19.26;2.68;868.2;9.60;74249;2836.791;-1800.908;1;133;270;272.6;25.9;25.9;26;26.2;27.2;-1.0;
22/02/2025 06:44:33;117;0;140.69;-4;19.41;1.28;866.1;9.70;74249;2836.789;-1800.906;1;133;270;272.6;25.9;25.9;26;25.7;27.2;-1.0;
22/02/2025 06:44:53;117;0;140.97;-4;19.33;1.33;863.8;9.70;74260;2836.786;-1800.904;1;133;270;274.2;25.9;25.9;26;25.7;27.2;-1.0;
22/02/2025 06:45:13;117;0;140.55;-4;19.38;1.30;861.6;9.60;74255;2836.784;-1800.903;1;133;270;272.6;25.9;25.9;26;25.7;27.2;-1.0;
22/02/2025 06:45:33;117;0;140.04;-4;19.18;1.33;859.4;9.60;74258;2836.782;-1800.901;1;133;270;272.6;25.9;25.9;26;25.7;27.2;-1.0;
22/02/2025 06:45:53;117;0;139.40;-4;19.49;1.27;857.1;9.60;74256;2836.780;-1800.899;1;133;270;272.6;25.9;25.9;26;25.7;27.2;-1.0;
22/02/2025 06:46:13;117;0;140.02;-4;19.35;1.23;854.9;9.60;74254;2836.778;-1800.897;1;133;270;272.6;25.9;25.8;26;25.7;27.2;-1.0;
22/02/2025 06:46:33;117;0;138.10;-4;18.86;1.44;852.7;9.60;74254;2836.776;-1800.895;1;133;270;272.6;25.5;25.5;26;25.7;27.2;-1.0;
22/02/2025 06:46:53;117;0;137.18;-4;21.00;1.21;850.6;9.60;74251;2836.775;-1800.893;1;133;270;272.6;25.5;24.9;26;25.7;27.2;-1.0;
22/02/2025 06:47:13;117;0;135.93;-4;21.26;1.29;848.2;9.60;74251;2836.773;-1800.891;1;133;270;271.0;25.5;24.9;26;25.7;27.2;-1.0;
22/02/2025 06:47:33;117;0;135.43;-4;21.02;1.36;845.9;9.60;74241;2836.771;-1800.889;1;133;270;272.6;25.5;24.9;26;25.7;27.2;-1.0;
22/02/2025 06:47:53;117;0;134.27;-4;20.85;1.32;843.6;9.60;74254;2836.769;-1800.887;1;133;270;272.6;25.5;24.9;26;25.7;27.2;-1.0;
22/02/2025 06:48:13;117;0;132.82;-4;20.76;1.30;841.4;9.60;74243;2836.768;-1800.885;1;133;270;272.6;25.5;24.9;26;25.7;27.2;-1.0;
22/02/2025 06:48:33;117;0;131.53;-4;21.25;1.30;839.3;9.60;74236;2836.766;-1800.883;1;133;270;272.6;25.5;24.9;26;25.7;27.2;-1.0;
