Timestamp;NavState;SecurityLevel;Heading;Declination;Pitch;Roll;Depth;Temperature;Pa;Lat;Lon;DeadReckoning;DesiredH;BallastCmd;BallastPos;LinCmd;LinPos;AngCmd;AngPos;Voltage;Altitude;
12/02/2025 12:35:54;119;0;180.73;-4;-49.25;-8.20;-0.1;20.90;76849;2837.123;-1758.140;0;225;500;509.7;100.0;100.9;0;0.0;29.2;-1.0;
12/02/2025 12:36:04;116;0;190.64;-4;-46.23;-18.01;-0.2;20.90;76864;2837.124;-1758.140;0;225;500;509.7;100.0;100.7;0;0.0;29.2;-1.0;
12/02/2025 12:36:31;116;0;179.35;-4;-49.47;-15.98;0.0;21.00;76879;2837.124;-1758.139;0;225;500;509.7;100.0;100.9;0;0.0;29.2;-1.0;
12/02/2025 12:36:54;116;0;188.91;-4;-55.03;-21.87;0.0;21.00;76878;2837.124;-1758.139;0;193;500;509.7;100.0;100.7;0;0.0;29.2;-1.0;
12/02/2025 12:37:15;116;0;170.46;-4;-55.01;-9.56;-0.0;21.10;76886;2837.125;-1758.138;0;193;500;511.3;100.0;100.9;0;0.0;29.2;-1.0;
12/02/2025 12:37:35;116;0;190.23;-4;-53.71;-11.84;0.1;21.10;76889;2837.125;-1758.138;0;193;500;509.7;100.0;100.9;0;0.0;29.2;-1.0;
12/02/2025 12:38:24;116;0;177.59;-4;-51.11;-11.04;0.1;21.30;76901;2837.126;-1758.141;0;193;500;509.7;100.0;100.9;0;0.0;29.2;-1.0;
12/02/2025 12:39:19;116;0;194.97;-4;-47.27;-17.24;0.1;21.50;76900;2837.126;-1758.139;0;193;500;509.7;100.0;100.9;0;0.0;29.2;-1.0;
12/02/2025 12:39:30;116;0;196.99;-4;-53.03;-18.00;0.1;21.60;76909;2837.127;-1758.138;0;193;500;509.7;100.0;100.9;0;0.0;29.2;-1.0;
12/02/2025 12:39:50;110;0;169.46;-4;-53.87;-7.83;0.1;21.70;76915;2837.127;-1758.138;0;193;-200;390.3;100.0;100.9;0;0.0;29.2;-1.0;
12/02/2025 12:40:00;110;0;169.16;-4;-47.78;-11.33;0.1;21.70;77283;2837.127;-1758.138;1;193;-200;243.5;100.0;100.7;0;-0.5;29.1;-1.0;
12/02/2025 12:40:10;110;0;175.56;-4;-56.29;-15.92;0.5;21.80;77519;2837.127;-1758.138;1;193;-200;82.3;100.0;100.9;0;0.0;29.1;-1.0;
12/02/2025 12:40:20;110;0;180.72;-4;-70.26;-12.41;0.9;21.80;77862;2837.127;-1758.138;1;193;-200;-75.8;100.0;100.9;0;0.0;29.1;-1.0;
12/02/2025 12:40:30;110;0;176.47;-4;-63.14;-16.54;1.0;21.80;78208;2837.127;-1758.138;1;193;-200;-198.4;50.0;49.9;0;0.0;29.1;-1.0;
12/02/2025 12:40:40;110;0;179.09;-4;-50.88;-14.85;2.3;21.80;78452;2837.126;-1758.138;1;193;-200;-198.4;50.0;49.6;0;0.0;29.2;-1.0;
12/02/2025 12:41:00;100;0;189.60;-4;-33.70;-10.50;7.3;21.90;78430;2837.123;-1758.139;1;193;-200;-198.4;50.0;49.5;0;0.0;29.1;-1.0;
12/02/2025 12:41:20;100;0;189.44;-4;-31.27;-11.45;13.5;21.90;78415;2837.117;-1758.140;1;193;-200;-198.4;50.0;49.5;0;0.0;29.2;-1.0;
12/02/2025 12:41:40;100;0;192.88;-4;-30.43;-10.42;19.1;21.90;78424;2837.113;-1758.141;1;193;-200;-198.4;50.0;49.6;0;0.0;29.2;0.0;
12/02/2025 12:42:00;100;0;192.45;-4;-31.20;-10.78;24.7;21.90;78419;2837.108;-1758.142;1;193;-200;-198.4;50.0;49.5;0;0.0;29.2;0.0;
12/02/2025 12:42:20;100;0;192.05;-4;-31.36;-10.67;30.5;21.90;78413;2837.103;-1758.143;1;193;-200;-195.2;50.0;49.5;0;0.0;29.2;0.0;
12/02/2025 12:42:40;100;0;194.05;-4;-31.84;-10.86;36.5;21.90;78408;2837.098;-1758.145;1;193;-200;-196.8;50.0;49.6;0;0.0;29.2;0.0;
12/02/2025 12:43:00;100;0;198.08;-4;-31.67;-10.77;42.6;21.80;78418;2837.094;-1758.146;1;193;-200;-196.8;50.0;49.6;0;0.0;29.2;0.0;
12/02/2025 12:43:20;100;0;202.80;-4;-32.03;-10.79;48.9;21.80;78424;2837.089;-1758.149;1;193;-200;-196.8;49.4;49.0;3;3.6;29.2;0.0;
12/02/2025 12:43:40;100;0;206.49;-4;-30.84;-8.75;55.3;21.80;78419;2837.084;-1758.151;1;193;-200;-196.8;49.4;49.0;7;7.2;29.2;0.0;
12/02/2025 12:44:00;100;0;209.32;-4;-31.19;-7.04;61.4;21.80;78420;2837.079;-1758.154;1;193;-200;-196.8;49.4;49.0;11;11.3;29.1;0.0;
12/02/2025 12:44:20;100;0;206.59;-4;-31.36;-4.88;67.7;21.80;78405;2837.075;-1758.157;1;193;-200;-196.8;49.4;49.2;7;7.2;29.2;0.0;
12/02/2025 12:44:40;100;0;207.77;-4;-31.44;-7.55;74.1;21.70;78400;2837.070;-1758.160;1;193;-200;-196.8;49.4;49.0;9;9.0;29.2;0.0;
12/02/2025 12:45:00;100;0;213.61;-4;-31.66;-6.02;80.4;21.70;78386;2837.065;-1758.163;1;193;-200;-196.8;49.4;49.2;18;18.1;29.2;0.0;
12/02/2025 12:45:20;100;0;220.03;-4;-31.21;-1.71;86.7;21.70;78366;2837.061;-1758.167;1;193;-200;-196.8;49.4;49.0;29;28.9;29.1;0.0;
12/02/2025 12:45:40;100;0;214.08;-4;-32.06;3.58;93.0;21.60;78336;2837.057;-1758.170;1;193;-200;-198.4;48.8;48.5;19;19.0;29.2;0.0;
12/02/2025 12:46:00;100;0;212.62;-4;-31.27;-1.63;99.3;21.60;78315;2837.052;-1758.173;1;193;-200;-196.8;48.8;48.3;17;16.7;29.2;0.0;
12/02/2025 12:46:20;100;0;206.91;-4;-29.42;-2.76;105.0;21.60;78291;2837.048;-1758.176;1;193;-200;-196.8;48.8;48.3;8;7.7;29.2;0.0;
12/02/2025 12:46:40;100;0;204.84;-4;-29.77;-7.11;110.5;21.50;78267;2837.043;-1758.178;1;193;-200;-196.8;48.8;48.3;5;5.0;29.2;0.0;
12/02/2025 12:47:00;100;0;206.71;-4;-29.44;-8.52;116.0;21.50;78248;2837.039;-1758.181;1;193;-200;-196.8;48.8;48.3;8;8.1;29.2;0.0;
12/02/2025 12:47:21;100;0;205.06;-4;-30.34;-6.47;121.7;21.40;78236;2837.034;-1758.183;1;193;-200;-196.8;48.8;48.3;6;5.9;29.2;0.0;
12/02/2025 12:47:41;100;0;207.30;-4;-29.57;-8.04;127.5;21.40;78215;2837.030;-1758.186;1;193;-200;-196.8;48.8;48.3;9;9.0;29.2;0.0;
12/02/2025 12:48:01;100;0;209.25;-4;-29.13;-6.06;133.0;21.30;78203;2837.025;-1758.189;1;193;-200;-196.8;48.8;48.5;12;12.2;29.1;0.0;
12/02/2025 12:48:21;100;0;207.11;-4;-29.88;-4.48;138.6;21.30;78188;2837.021;-1758.191;1;193;-200;-196.8;48.8;48.3;7;7.2;29.2;0.0;
12/02/2025 12:48:41;100;0;200.69;-4;-29.79;-7.39;144.2;21.20;78176;2837.016;-1758.193;1;193;-200;-196.8;48.8;48.3;2;1.4;29.2;0.0;
12/02/2025 12:49:01;100;0;197.92;-4;-28.88;-10.34;149.6;21.20;78168;2837.012;-1758.195;1;193;-200;-196.8;49.1;49.0;2;0.9;29.2;0.0;
12/02/2025 12:49:21;100;0;196.67;-4;-29.49;-10.33;154.8;21.10;78132;2837.007;-1758.196;1;193;-200;-196.8;49.1;49.2;2;0.9;29.2;0.0;
12/02/2025 12:49:41;100;0;203.40;-4;-29.52;-10.24;160.2;21.10;78124;2837.003;-1758.198;1;193;-200;-196.8;49.1;49.2;4;4.1;29.2;0.0;
12/02/2025 12:50:01;100;0;208.93;-4;-29.61;-8.53;165.5;21.00;78105;2836.999;-1758.201;1;193;-200;-196.8;49.1;49.2;10;9.9;29.2;0.0;
12/02/2025 12:50:21;100;0;211.79;-4;-29.92;-5.78;171.0;20.90;78072;2836.995;-1758.204;1;193;-200;-196.8;49.1;49.2;14;14.0;29.2;0.0;
12/02/2025 12:50:41;100;0;210.76;-4;-30.65;-3.78;176.5;20.90;78065;2836.991;-1758.206;1;193;-200;-196.8;49.1;49.2;14;14.4;29.2;0.0;
12/02/2025 12:51:01;100;0;210.54;-4;-31.71;-3.66;182.1;20.90;78048;2836.987;-1758.209;1;193;-200;-196.8;49.1;49.2;12;12.2;29.1;0.0;
12/02/2025 12:51:21;100;0;207.49;-4;-30.43;-4.85;188.1;20.80;78025;2836.982;-1758.212;1;193;-200;-196.8;49.1;49.2;9;9.0;29.2;0.0;
12/02/2025 12:51:41;100;0;204.19;-4;-30.50;-6.58;193.6;20.80;77990;2836.978;-1758.214;1;193;-200;-196.8;49.1;49.2;5;5.0;29.2;0.0;
12/02/2025 12:52:01;100;0;201.40;-4;-30.72;-8.52;199.1;20.70;77980;2836.973;-1758.216;1;193;-200;-196.8;49.1;49.2;3;3.2;29.1;0.0;
12/02/2025 12:52:21;100;0;200.75;-4;-30.33;-9.28;204.8;20.60;77957;2836.969;-1758.218;1;193;-200;-196.8;49.1;49.2;3;2.7;29.2;0.0;
12/02/2025 12:52:41;100;0;203.25;-4;-30.11;-9.35;210.1;20.60;77929;2836.964;-1758.220;1;193;-200;-196.8;49.1;49.2;3;3.2;29.2;0.0;
12/02/2025 12:53:01;100;0;207.04;-4;-29.83;-9.45;215.5;20.50;77914;2836.960;-1758.222;1;193;-200;-196.8;49.1;49.2;8;8.1;29.2;0.0;
12/02/2025 12:53:21;100;0;209.37;-4;-30.16;-6.58;220.9;20.40;77896;2836.956;-1758.225;1;193;-200;-196.8;49.1;49.2;11;10.8;29.1;0.0;
12/02/2025 12:53:41;100;0;205.55;-4;-30.74;-5.37;226.6;20.40;77859;2836.952;-1758.227;1;193;-200;-196.8;49.1;49.2;6;5.9;29.2;0.0;
12/02/2025 12:54:01;100;0;204.12;-4;-30.61;-8.07;232.6;20.30;77841;2836.947;-1758.230;1;193;-200;-196.8;49.1;49.2;6;5.4;29.1;0.0;
12/02/2025 12:54:21;100;0;205.00;-4;-30.01;-8.16;238.5;20.20;77816;2836.942;-1758.232;1;193;-200;-196.8;49.1;49.2;6;5.4;29.2;0.0;
12/02/2025 12:54:41;100;0;207.91;-4;-30.02;-8.06;244.2;20.20;77799;2836.938;-1758.235;1;193;-200;-196.8;49.1;49.2;10;9.9;29.2;0.0;
12/02/2025 12:55:01;100;0;213.01;-4;-29.44;-5.69;250.0;20.10;77782;2836.933;-1758.238;1;193;-200;-196.8;49.1;49.2;18;18.1;29.2;0.0;
12/02/2025 12:55:21;100;0;211.65;-4;-30.28;-1.76;255.6;20.00;77747;2836.929;-1758.241;1;193;-200;-196.8;49.1;49.3;16;15.8;29.2;0.0;
12/02/2025 12:55:41;100;0;210.32;-4;-30.04;-3.28;261.4;20.00;77728;2836.925;-1758.244;1;193;-200;-196.8;49.1;49.2;14;14.0;29.2;0.0;
12/02/2025 12:56:01;100;0;205.65;-4;-30.12;-4.21;267.2;19.90;77702;2836.920;-1758.246;1;193;-200;-196.8;49.1;49.3;7;7.2;29.1;0.0;
12/02/2025 12:56:21;100;0;203.26;-4;-29.68;-7.45;273.1;19.80;77686;2836.915;-1758.248;1;193;-200;-196.8;49.1;49.2;5;5.0;29.2;0.0;
12/02/2025 12:56:41;100;0;203.72;-4;-29.68;-8.48;279.0;19.70;77670;2836.910;-1758.251;1;193;-200;-196.8;49.1;49.2;5;4.5;29.1;0.0;
12/02/2025 12:57:01;100;0;203.47;-4;-30.47;-8.51;285.1;19.70;77656;2836.905;-1758.253;1;193;-200;-196.8;49.1;49.2;5;5.0;29.1;0.0;
12/02/2025 12:57:21;100;0;203.61;-4;-30.52;-8.75;291.2;19.60;77642;2836.901;-1758.256;1;193;-200;-198.4;49.1;49.2;5;5.0;29.2;0.0;
12/02/2025 12:57:41;100;0;203.88;-4;-31.19;-8.53;297.8;19.50;77617;2836.896;-1758.258;1;193;-200;-198.4;49.1;49.2;5;5.0;29.1;0.0;
12/02/2025 12:58:01;100;0;206.45;-4;-29.94;-8.30;304.2;19.50;77612;2836.891;-1758.261;1;193;-200;-196.8;49.1;49.2;9;9.0;29.1;0.0;
12/02/2025 12:58:21;100;0;207.56;-4;-29.94;-6.36;310.2;19.40;77583;2836.886;-1758.264;1;193;-200;-196.8;49.1;49.2;9;9.0;29.1;0.0;
12/02/2025 12:58:41;100;0;209.74;-4;-30.04;-6.23;316.4;19.30;77564;2836.881;-1758.267;1;193;-200;-196.8;49.1;49.2;13;13.1;29.2;0.0;
12/02/2025 12:59:01;100;0;211.25;-4;-29.72;-4.24;322.5;19.30;77545;2836.876;-1758.270;1;193;-200;-196.8;49.1;49.3;16;15.8;29.1;0.0;
12/02/2025 12:59:21;100;0;211.55;-4;-30.39;-2.88;328.6;19.20;77512;2836.872;-1758.273;1;193;-200;-196.8;49.1;49.2;16;16.2;29.2;0.0;
12/02/2025 12:59:41;100;0;208.94;-4;-30.38;-2.81;334.6;19.10;77505;2836.867;-1758.276;1;193;-200;-196.8;49.1;49.2;12;12.2;29.2;0.0;
12/02/2025 13:00:01;100;0;203.76;-4;-30.91;-4.93;340.8;19.10;77479;2836.862;-1758.278;1;193;-200;-196.8;49.1;49.2;6;5.9;29.1;0.0;
12/02/2025 13:00:21;100;0;204.73;-4;-29.60;-8.23;347.1;19.00;77449;2836.857;-1758.281;1;193;-200;-196.8;49.1;49.2;6;5.4;29.2;0.0;
12/02/2025 13:00:41;100;0;210.55;-4;-29.11;-8.39;352.8;18.90;77426;2836.853;-1758.284;1;193;-200;-196.8;49.1;49.2;15;15.3;29.1;0.0;
12/02/2025 13:01:01;100;0;209.39;-4;-29.78;-3.30;358.4;18.80;77393;2836.849;-1758.286;1;193;-200;-196.8;49.1;49.2;13;13.1;29.1;0.0;
12/02/2025 13:01:21;100;0;205.96;-4;-29.80;-4.46;364.2;18.80;77382;2836.844;-1758.289;1;193;-200;-198.4;49.1;49.2;8;8.1;29.2;0.0;
12/02/2025 13:01:41;100;0;205.03;-4;-29.52;-6.93;369.9;18.70;77371;2836.839;-1758.291;1;193;-200;-196.8;49.1;49.2;8;8.1;29.1;0.0;
12/02/2025 13:02:01;100;0;207.31;-4;-29.44;-6.90;375.6;18.60;77347;2836.835;-1758.294;1;193;-200;-196.8;49.1;49.2;10;9.9;29.1;0.0;
12/02/2025 13:02:21;100;0;210.67;-4;-29.09;-5.79;381.2;18.60;77335;2836.830;-1758.297;1;193;-200;-196.8;49.1;49.3;15;14.9;29.1;0.0;
12/02/2025 13:02:41;100;0;211.42;-4;-29.72;-3.16;386.8;18.50;77306;2836.826;-1758.300;1;193;-200;-196.8;49.1;49.2;17;17.6;29.1;0.0;
12/02/2025 13:03:01;100;0;207.91;-4;-30.30;-2.26;392.6;18.40;77292;2836.822;-1758.303;1;193;-200;-196.8;49.1;49.2;11;10.8;29.1;0.0;
12/02/2025 13:03:21;100;0;206.93;-4;-29.58;-5.62;398.4;18.30;77273;2836.817;-1758.305;1;193;-200;-195.2;49.1;49.2;11;10.8;29.2;0.0;
12/02/2025 13:03:41;100;0;204.61;-4;-29.60;-5.61;404.1;18.30;77254;2836.812;-1758.308;1;193;-200;-198.4;49.1;49.3;7;7.2;29.1;0.0;
12/02/2025 13:04:01;100;0;203.62;-4;-30.22;-7.08;410.0;18.20;77247;2836.808;-1758.310;1;193;-200;-196.8;49.1;49.2;7;7.2;29.1;0.0;
12/02/2025 13:04:21;100;0;201.31;-4;-29.93;-7.24;415.8;18.10;77227;2836.803;-1758.312;1;193;-200;-196.8;49.1;49.2;4;4.1;29.2;0.0;
12/02/2025 13:04:41;100;0;199.43;-4;-29.38;-9.15;421.7;18.10;77215;2836.798;-1758.314;1;193;-200;-196.8;49.1;49.2;4;3.6;29.1;0.0;
12/02/2025 13:05:01;100;0;203.79;-4;-28.86;-9.11;427.1;18.00;77194;2836.793;-1758.316;1;193;-200;-196.8;49.5;49.8;7;7.2;29.1;0.0;
12/02/2025 13:05:21;100;0;205.33;-4;-29.82;-7.03;432.8;17.90;77172;2836.789;-1758.318;1;193;-200;-196.8;49.5;49.9;7;8.1;29.1;0.0;
12/02/2025 13:05:41;100;0;207.36;-4;-30.48;-6.99;438.6;17.90;77166;2836.784;-1758.321;1;193;-200;-196.8;49.5;49.8;11;11.3;29.1;0.0;
12/02/2025 13:06:01;100;0;210.11;-4;-30.56;-5.14;444.6;17.80;77147;2836.780;-1758.324;1;193;-200;-196.8;49.5;49.8;15;14.9;29.1;0.0;
12/02/2025 13:06:21;100;0;210.00;-4;-31.03;-3.36;450.5;17.70;77136;2836.775;-1758.327;1;193;-200;-196.8;49.5;49.8;15;15.3;29.2;0.0;
12/02/2025 13:06:41;100;0;209.65;-4;-30.78;-3.31;456.4;17.60;77120;2836.771;-1758.330;1;193;-200;-196.8;49.5;49.8;15;15.3;29.2;0.0;
12/02/2025 13:07:01;100;0;207.91;-4;-30.94;-3.26;462.4;17.60;77110;2836.767;-1758.332;1;193;-200;-196.8;49.5;49.8;12;12.2;29.2;0.0;
12/02/2025 13:07:21;100;0;208.33;-4;-30.91;-4.87;468.5;17.50;77101;2836.762;-1758.335;1;193;-200;-196.8;49.5;49.8;12;12.2;29.1;0.0;
12/02/2025 13:07:41;100;0;210.57;-4;-30.58;-4.80;474.2;17.50;77087;2836.758;-1758.338;1;193;-200;-198.4;49.5;49.8;14;14.0;29.2;0.0;
12/02/2025 13:08:01;100;0;209.78;-4;-30.38;-3.83;480.0;17.40;77062;2836.753;-1758.341;1;193;-200;-198.4;49.5;49.9;14;14.4;29.1;0.0;
12/02/2025 13:08:21;100;0;207.54;-4;-30.78;-3.80;485.8;17.30;77054;2836.749;-1758.343;1;193;-200;-196.8;49.5;49.8;10;9.9;29.2;0.0;
12/02/2025 13:08:41;100;0;204.79;-4;-30.36;-6.13;491.5;17.30;77043;2836.744;-1758.346;1;193;-200;-196.8;49.5;49.8;8;4.5;29.2;0.0;
12/02/2025 13:09:01;100;0;204.37;-4;-30.64;-6.65;497.2;17.20;77034;2836.740;-1758.348;1;193;-200;-198.4;49.5;49.8;8;8.6;29.1;0.0;
12/02/2025 13:09:07;118;0;203.93;-4;-30.46;-6.61;498.9;17.20;77031;2836.739;-1758.348;1;193;200;-190.3;19.5;19.3;-1;-1.4;29.2;0.0;
12/02/2025 13:09:17;118;0;163.52;-4;-18.55;-12.17;500.9;17.10;76994;2836.736;-1758.348;1;193;200;-61.3;19.5;19.1;-1;-1.4;28.5;-1.0;
12/02/2025 13:09:27;118;0;157.74;-4;8.48;-12.49;501.8;17.10;76710;2836.735;-1758.347;1;193;200;66.1;19.5;19.6;-1;-1.4;28.4;-1.0;
12/02/2025 13:09:37;118;0;152.27;-4;25.91;-13.53;501.2;17.10;76447;2836.734;-1758.346;1;193;200;188.7;19.5;19.9;-1;-1.4;28.5;-1.0;
12/02/2025 13:09:47;118;0;155.33;-4;31.69;-14.27;500.1;17.00;76181;2836.733;-1758.346;1;193;200;203.2;19.5;19.9;-1;-1.4;28.4;-1.0;
12/02/2025 13:09:57;118;0;214.90;-4;31.87;-13.90;498.6;17.00;76168;2836.732;-1758.347;1;193;200;203.2;19.5;19.7;-1;-1.4;29.1;-1.0;
12/02/2025 13:10:17;117;0;208.82;-4;31.61;-13.80;495.6;17.00;76158;2836.730;-1758.348;1;193;200;201.6;19.5;19.9;-1;-1.4;29.1;-1.0;
12/02/2025 13:10:37;117;0;201.61;-4;31.82;-13.77;492.2;16.90;76156;2836.727;-1758.349;1;193;200;201.6;19.5;19.9;-1;-1.4;29.1;-1.0;
12/02/2025 13:10:57;117;0;194.19;-4;31.89;-13.85;489.0;16.90;76156;2836.725;-1758.350;1;193;200;203.2;19.5;19.9;-1;-1.4;29.1;-1.0;
12/02/2025 13:11:17;117;0;187.95;-4;31.68;-13.87;485.8;16.80;76139;2836.722;-1758.350;1;193;200;203.2;19.5;19.9;1;0.9;29.1;-1.0;
12/02/2025 13:11:37;117;0;181.97;-4;31.94;-12.33;482.6;16.80;76137;2836.720;-1758.350;1;193;200;203.2;19.5;19.7;5;5.0;29.1;-1.0;
12/02/2025 13:11:57;117;0;174.82;-4;32.51;-10.33;479.2;16.70;76131;2836.717;-1758.350;1;193;200;201.6;20.2;20.2;16;15.8;29.1;-1.0;
12/02/2025 13:12:17;117;0;167.92;-4;32.95;-4.35;476.0;16.60;76120;2836.715;-1758.349;1;193;200;203.2;21.1;21.4;28;28.0;29.1;-1.0;
12/02/2025 13:12:37;117;0;162.65;-4;32.32;2.26;472.6;16.60;76125;2836.712;-1758.348;1;193;200;203.2;21.8;22.1;36;36.1;29.1;-1.0;
12/02/2025 13:12:57;117;0;160.27;-4;31.12;6.64;469.3;16.50;76118;2836.709;-1758.347;1;193;200;203.2;21.8;22.1;40;40.2;29.1;-1.0;
12/02/2025 13:13:17;117;0;158.16;-4;31.93;8.74;466.0;16.50;76109;2836.707;-1758.346;1;193;200;204.8;21.8;22.1;43;42.9;29.1;-1.0;
12/02/2025 13:13:37;117;0;159.85;-4;31.39;10.22;462.8;16.40;76097;2836.704;-1758.345;1;193;200;203.2;21.8;21.9;40;40.2;29.1;-1.0;
12/02/2025 13:13:57;117;0;159.82;-4;31.38;8.17;459.7;16.40;76095;2836.702;-1758.344;1;193;200;203.2;21.8;22.1;40;39.7;29.1;-1.0;
12/02/2025 13:14:17;117;0;159.57;-4;31.33;8.19;456.4;16.30;76089;2836.699;-1758.343;1;193;200;201.6;21.8;22.1;40;39.7;29.1;-1.0;
12/02/2025 13:14:37;117;0;157.91;-4;31.51;8.29;453.3;16.30;76091;2836.697;-1758.341;1;193;200;203.2;21.8;22.1;43;42.9;29.1;-1.0;
12/02/2025 13:14:57;117;0;159.79;-4;31.55;9.83;450.1;16.20;76085;2836.694;-1758.340;1;193;200;203.2;21.8;22.1;40;40.2;29.1;-1.0;
12/02/2025 13:15:17;117;0;158.23;-4;31.10;8.17;446.9;16.20;76083;2836.692;-1758.339;1;193;200;203.2;21.8;22.1;42;42.0;29.1;-1.0;
12/02/2025 13:15:37;117;0;158.15;-4;31.31;9.46;443.9;16.10;76069;2836.689;-1758.338;1;193;200;201.6;21.8;22.1;42;42.4;29.1;-1.0;
12/02/2025 13:15:57;117;0;155.27;-4;31.25;9.69;440.9;16.10;76072;2836.687;-1758.337;1;193;200;203.2;21.8;22.1;46;46.5;29.1;-1.0;
12/02/2025 13:16:17;117;0;154.38;-4;31.71;12.09;437.8;16.10;76071;2836.685;-1758.335;1;193;200;203.2;21.8;22.1;48;47.8;29.1;-1.0;
12/02/2025 13:16:37;117;0;156.43;-4;31.76;12.89;434.7;16.00;76059;2836.682;-1758.334;1;193;200;203.2;21.8;22.1;45;45.1;29.1;-1.0;
12/02/2025 13:16:57;117;0;156.02;-4;31.97;10.74;431.7;16.00;76050;2836.680;-1758.333;1;193;200;203.2;21.8;21.9;45;44.7;29.1;-1.0;
12/02/2025 13:17:17;117;0;153.68;-4;31.79;10.76;428.7;15.90;76060;2836.678;-1758.332;1;193;200;203.2;21.8;22.1;48;47.8;29.1;-1.0;
12/02/2025 13:17:37;117;0;151.54;-4;32.48;13.26;425.8;15.90;76053;2836.676;-1758.330;1;193;200;203.2;22.6;22.8;51;51.0;29.1;-1.0;
12/02/2025 13:17:57;117;0;155.71;-4;30.93;14.77;422.7;15.90;76061;2836.673;-1758.329;1;193;200;203.2;22.6;22.8;46;45.6;29.1;-1.0;
12/02/2025 13:18:17;117;0;157.89;-4;30.28;11.27;420.0;15.80;76049;2836.671;-1758.328;1;193;200;203.2;22.6;22.8;43;42.9;29.1;-1.0;
12/02/2025 13:18:37;117;0;159.80;-4;29.76;9.57;417.2;15.80;76055;2836.669;-1758.327;1;193;200;203.2;22.6;22.8;40;40.2;29.1;-1.0;
12/02/2025 13:18:57;117;0;158.78;-4;29.93;8.05;414.8;15.80;76057;2836.667;-1758.326;1;193;200;201.6;22.6;22.8;42;42.0;29.1;-1.0;
12/02/2025 13:19:17;117;0;163.73;-4;29.72;9.78;412.2;15.80;76052;2836.665;-1758.325;1;193;200;201.6;22.6;22.8;35;35.2;29.1;-1.0;
12/02/2025 13:19:37;117;0;165.43;-4;29.30;5.50;409.6;15.70;76048;2836.663;-1758.324;1;193;200;201.6;22.6;22.8;32;32.0;29.1;-1.0;
12/02/2025 13:19:57;117;0;165.51;-4;29.07;3.75;407.4;15.70;76052;2836.661;-1758.324;1;193;200;203.2;22.6;22.8;32;31.6;29.1;-1.0;
12/02/2025 13:20:17;117;0;165.26;-4;29.22;3.63;405.1;15.70;76039;2836.659;-1758.323;1;193;200;201.6;22.6;22.8;32;31.6;29.1;-1.0;
12/02/2025 13:20:38;117;0;164.99;-4;29.06;3.64;402.7;15.70;76049;2836.656;-1758.322;1;193;200;203.2;22.6;22.8;32;31.6;29.1;-1.0;
12/02/2025 13:20:58;117;0;163.49;-4;28.98;3.70;400.4;15.60;76047;2836.654;-1758.322;1;193;200;203.2;22.3;21.9;35;35.2;29.1;-1.0;
12/02/2025 13:21:18;117;0;166.45;-4;30.17;5.83;398.3;15.60;76043;2836.653;-1758.321;1;193;200;203.2;22.3;21.9;30;29.8;29.1;-1.0;
12/02/2025 13:21:38;117;0;163.46;-4;30.38;2.58;395.9;15.60;76039;2836.651;-1758.320;1;193;200;203.2;22.3;21.9;35;35.2;29.1;-1.0;
12/02/2025 13:21:58;117;0;162.23;-4;31.00;5.93;393.5;15.60;76040;2836.649;-1758.320;1;193;200;203.2;22.3;21.9;37;37.5;29.1;-1.0;
12/02/2025 13:22:18;117;0;157.21;-4;30.78;7.21;391.1;15.50;76041;2836.647;-1758.319;1;193;200;201.6;22.3;21.9;44;44.2;29.1;-1.0;
12/02/2025 13:22:38;117;0;154.11;-4;31.37;10.58;388.5;15.50;76040;2836.645;-1758.318;1;193;200;203.2;22.3;21.9;48;47.8;29.1;-1.0;
12/02/2025 13:22:58;117;0;152.73;-4;31.89;12.98;386.1;15.50;76056;2836.643;-1758.316;1;193;200;203.2;22.3;21.9;50;50.1;29.1;-1.0;
12/02/2025 13:23:18;117;0;153.46;-4;32.23;14.04;383.5;15.50;76049;2836.641;-1758.315;1;193;200;203.2;22.9;23.1;50;50.5;29.1;-1.0;
12/02/2025 13:23:38;117;0;154.45;-4;30.26;14.09;380.7;15.50;76058;2836.639;-1758.314;1;193;200;203.2;22.9;23.1;48;47.8;29.1;-1.0;
12/02/2025 13:23:58;117;0;154.34;-4;29.57;12.20;378.2;15.40;76043;2836.637;-1758.313;1;193;200;203.2;22.9;23.1;48;47.4;29.1;-1.0;
12/02/2025 13:24:18;117;0;155.31;-4;29.27;12.26;375.8;15.40;76049;2836.635;-1758.312;1;193;200;201.6;22.9;23.1;48;47.4;29.1;-1.0;
12/02/2025 13:24:38;117;0;156.07;-4;29.23;12.27;373.3;15.40;76046;2836.633;-1758.311;1;193;200;203.2;22.9;23.3;46;46.0;29.1;-1.0;
12/02/2025 13:24:58;117;0;156.81;-4;29.10;11.26;370.8;15.40;76047;2836.631;-1758.310;1;193;200;201.6;22.9;23.1;46;45.6;29.1;-1.0;
12/02/2025 13:25:18;117;0;154.81;-4;28.55;11.22;368.4;15.40;76047;2836.629;-1758.308;1;193;200;203.2;22.5;22.5;46;45.6;29.1;-1.0;
12/02/2025 13:25:38;117;0;157.66;-4;30.55;11.26;366.0;15.40;76045;2836.627;-1758.308;1;193;200;203.2;22.5;22.2;43;42.4;29.1;-1.0;
12/02/2025 13:25:58;117;0;156.57;-4;30.55;9.24;363.5;15.40;76046;2836.625;-1758.307;1;193;200;200.0;22.5;22.2;45;45.1;29.1;-1.0;
12/02/2025 13:26:18;117;0;157.54;-4;30.84;11.31;360.9;15.40;76044;2836.623;-1758.306;1;193;200;203.2;22.5;22.2;45;45.6;29.1;-1.0;
12/02/2025 13:26:38;117;0;159.05;-4;30.53;11.19;358.2;15.40;76049;2836.621;-1758.305;1;193;200;203.2;22.5;22.2;41;41.1;29.1;-1.0;
12/02/2025 13:26:58;117;0;158.36;-4;30.72;8.43;355.5;15.30;76051;2836.619;-1758.304;1;193;200;203.2;22.5;22.2;41;40.2;29.1;-1.0;
12/02/2025 13:27:18;117;0;157.77;-4;30.38;8.50;352.8;15.30;76045;2836.616;-1758.302;1;193;200;203.2;22.5;22.2;43;42.9;29.1;-1.0;
12/02/2025 13:27:38;117;0;165.07;-4;30.31;10.01;350.2;15.30;76058;2836.614;-1758.302;1;193;200;203.2;22.5;22.2;33;32.9;29.1;-1.0;
12/02/2025 13:27:58;117;0;170.29;-4;29.65;4.14;347.7;15.30;76058;2836.612;-1758.301;1;193;200;203.2;22.5;22.2;24;23.9;29.1;-1.0;
12/02/2025 13:28:18;117;0;170.86;-4;28.88;-0.67;345.2;15.30;76070;2836.610;-1758.301;1;193;200;203.2;22.2;22.2;24;23.5;29.1;-1.0;
12/02/2025 13:28:38;117;0;167.45;-4;28.70;-0.60;342.9;15.30;76075;2836.608;-1758.300;1;193;200;203.2;21.8;21.5;29;28.9;29.1;-1.0;
12/02/2025 13:28:58;117;0;164.54;-4;30.79;2.61;340.6;15.30;76086;2836.606;-1758.300;1;193;200;203.2;21.8;21.4;33;32.9;29.1;-1.0;
12/02/2025 13:29:18;117;0;162.27;-4;31.09;4.61;338.0;15.30;76081;2836.604;-1758.299;1;193;200;203.2;21.8;21.4;37;37.5;29.1;-1.0;
12/02/2025 13:29:38;117;0;160.59;-4;31.85;7.18;335.5;15.30;76098;2836.602;-1758.298;1;193;200;203.2;21.8;21.4;39;38.8;29.1;-1.0;
12/02/2025 13:29:58;117;0;162.03;-4;31.89;7.84;332.9;15.30;76100;2836.600;-1758.297;1;193;200;203.2;21.8;21.5;37;37.0;29.1;-1.0;
12/02/2025 13:30:18;117;0;159.70;-4;31.64;6.53;330.1;15.30;76100;2836.598;-1758.296;1;193;200;203.2;21.8;21.4;41;41.1;29.1;-1.0;
12/02/2025 13:30:38;117;0;158.32;-4;32.05;9.10;327.4;15.30;76101;2836.596;-1758.295;1;193;200;201.6;22.4;22.4;43;43.3;29.1;-1.0;
12/02/2025 13:30:58;117;0;159.27;-4;30.26;10.19;324.8;15.30;76102;2836.593;-1758.294;1;193;200;203.2;22.4;22.4;41;40.6;29.1;-1.0;
12/02/2025 13:31:18;117;0;156.91;-4;30.15;8.47;322.2;15.30;76101;2836.591;-1758.293;1;193;200;203.2;22.4;22.5;45;45.1;29.1;-1.0;
12/02/2025 13:31:38;117;0;155.57;-4;30.46;11.21;319.7;15.30;76112;2836.589;-1758.292;1;193;200;203.2;22.4;22.5;45;45.1;29.1;-1.0;
12/02/2025 13:31:58;117;0;154.53;-4;30.61;11.27;317.0;15.30;76120;2836.587;-1758.291;1;193;200;203.2;22.4;22.5;48;47.8;29.1;-1.0;
12/02/2025 13:32:18;117;0;155.49;-4;30.82;12.95;314.3;15.30;76127;2836.585;-1758.290;1;193;200;203.2;22.4;22.5;46;45.6;29.1;-1.0;
12/02/2025 13:32:38;117;0;156.18;-4;30.39;11.03;311.5;15.30;76139;2836.583;-1758.288;1;193;200;203.2;22.4;22.5;46;45.1;29.1;-1.0;
12/02/2025 13:32:58;117;0;161.76;-4;30.24;11.07;308.9;15.30;76133;2836.581;-1758.288;1;193;200;203.2;22.4;22.5;38;37.9;29.1;-1.0;
12/02/2025 13:33:18;117;0;164.49;-4;29.73;6.73;306.2;15.30;76136;2836.578;-1758.287;1;193;200;203.2;22.4;22.5;34;33.4;29.1;-1.0;
12/02/2025 13:33:38;117;0;164.81;-4;29.46;4.33;303.7;15.30;76139;2836.576;-1758.286;1;193;200;203.2;22.4;22.5;34;32.9;29.1;-1.0;
12/02/2025 13:33:58;117;0;165.48;-4;29.34;4.51;301.1;15.40;76140;2836.574;-1758.285;1;193;200;203.2;22.4;22.5;32;32.0;29.1;-1.0;
12/02/2025 13:34:18;117;0;165.55;-4;29.24;3.43;298.6;15.40;76137;2836.572;-1758.285;1;193;200;203.2;22.4;22.5;32;31.1;29.1;-1.0;
12/02/2025 13:34:38;117;0;167.94;-4;29.21;3.54;296.0;15.40;76145;2836.569;-1758.284;1;193;200;204.8;22.4;22.5;28;28.0;29.1;-1.0;
12/02/2025 13:34:58;117;0;167.72;-4;29.08;1.66;293.4;15.40;76142;2836.567;-1758.283;1;193;200;203.2;22.4;22.5;28;27.5;29.1;-1.0;
12/02/2025 13:35:18;117;0;167.51;-4;29.17;1.56;290.7;15.40;76142;2836.565;-1758.283;1;193;200;203.2;22.4;22.5;28;27.5;29.1;-1.0;
12/02/2025 13:35:38;117;0;168.65;-4;29.03;1.68;288.0;15.40;76139;2836.562;-1758.282;1;193;200;203.2;22.4;22.5;28;27.5;29.1;-1.0;
12/02/2025 13:35:58;117;0;168.29;-4;29.14;1.59;285.4;15.40;76152;2836.560;-1758.281;1;193;200;203.2;22.4;22.5;28;27.5;29.1;-1.0;
12/02/2025 13:36:18;117;0;167.57;-4;29.05;1.61;282.7;15.40;76149;2836.557;-1758.281;1;193;200;204.8;22.4;22.4;28;27.5;29.1;-1.0;
12/02/2025 13:36:38;117;0;166.07;-4;29.16;1.67;279.9;15.40;76152;2836.555;-1758.280;1;193;200;203.2;22.4;22.5;31;31.1;29.1;-1.0;
12/02/2025 13:36:58;117;0;164.13;-4;29.38;3.70;277.1;15.40;76155;2836.553;-1758.279;1;193;200;204.8;22.4;22.5;34;33.8;29.1;-1.0;
12/02/2025 13:37:18;117;0;162.64;-4;29.63;5.16;274.2;15.40;76146;2836.550;-1758.278;1;193;200;203.2;22.4;22.5;37;37.5;29.1;-1.0;
12/02/2025 13:37:38;117;0;162.45;-4;29.82;7.01;271.2;15.40;76157;2836.548;-1758.277;1;193;200;203.2;22.4;22.5;37;37.9;29.1;-1.0;
12/02/2025 13:37:58;117;0;161.23;-4;29.82;7.08;268.3;15.40;76168;2836.545;-1758.276;1;193;200;203.2;22.4;22.5;39;38.8;29.1;-1.0;
12/02/2025 13:38:18;117;0;158.96;-4;29.63;7.83;265.3;15.40;76164;2836.543;-1758.275;1;193;200;203.2;22.4;22.5;42;42.0;29.1;-1.0;
12/02/2025 13:38:38;117;0;155.84;-4;29.76;9.55;262.5;15.40;76184;2836.540;-1758.274;1;193;200;203.2;22.4;22.5;46;46.0;29.1;-1.0;
12/02/2025 13:38:58;117;0;156.05;-4;30.50;11.80;259.7;15.50;76181;2836.538;-1758.273;1;193;200;204.8;22.4;22.5;46;46.5;29.1;-1.0;
12/02/2025 13:39:18;117;0;152.77;-4;30.07;12.08;256.7;15.50;76191;2836.536;-1758.271;1;193;200;204.8;22.4;22.5;50;50.1;29.1;-1.0;
12/02/2025 13:39:38;117;0;153.25;-4;30.35;14.15;253.8;15.50;76188;2836.534;-1758.270;1;193;200;203.2;22.4;22.5;50;50.5;29.1;-1.0;
12/02/2025 13:39:58;117;0;155.52;-4;30.59;14.16;250.9;15.50;76185;2836.531;-1758.269;1;193;200;203.2;22.4;22.5;47;46.9;29.1;-1.0;
12/02/2025 13:40:18;117;0;157.96;-4;30.29;11.91;248.0;15.50;76194;2836.529;-1758.268;1;193;200;203.2;22.4;22.5;43;42.9;29.1;-1.0;
12/02/2025 13:40:38;117;0;156.99;-4;29.95;9.53;245.2;15.50;76190;2836.527;-1758.266;1;193;200;201.6;22.4;22.5;45;45.6;29.1;-1.0;
12/02/2025 13:40:58;117;0;159.84;-4;30.03;11.59;242.3;15.50;76204;2836.524;-1758.265;1;193;200;203.2;22.4;22.5;41;40.6;29.1;-1.0;
12/02/2025 13:41:18;117;0;162.18;-4;29.75;8.37;239.7;15.50;76200;2836.522;-1758.265;1;193;200;204.8;22.4;22.5;37;37.0;29.1;-1.0;
12/02/2025 13:41:38;117;0;160.44;-4;29.39;6.39;236.8;15.50;76216;2836.520;-1758.263;1;193;200;203.2;22.4;22.5;40;40.2;29.1;-1.0;
12/02/2025 13:41:58;117;0;159.85;-4;29.60;8.59;234.2;15.60;76221;2836.517;-1758.263;1;193;200;203.2;22.4;22.5;40;40.6;29.1;-1.0;
12/02/2025 13:42:18;117;0;160.25;-4;29.95;8.46;231.5;15.60;76226;2836.515;-1758.262;1;193;200;203.2;22.4;22.5;40;40.2;29.1;-1.0;
12/02/2025 13:42:38;117;0;166.29;-4;29.79;8.50;228.7;15.60;76232;2836.513;-1758.261;1;193;200;203.2;22.4;22.5;31;30.7;29.1;-1.0;
12/02/2025 13:42:58;117;0;167.80;-4;28.96;3.01;226.1;15.60;76242;2836.511;-1758.260;1;193;200;203.2;22.1;21.9;28;27.5;29.1;-1.0;
12/02/2025 13:43:18;117;0;166.45;-4;29.62;1.39;223.4;15.60;76246;2836.508;-1758.260;1;193;200;204.8;22.1;21.8;31;31.1;29.1;-1.0;
12/02/2025 13:43:38;117;0;167.70;-4;29.81;3.74;220.8;15.60;76263;2836.506;-1758.259;1;193;200;203.2;22.1;21.8;29;28.4;29.1;-1.0;
12/02/2025 13:43:58;117;0;168.15;-4;29.58;1.89;218.2;15.60;76271;2836.504;-1758.258;1;193;200;203.2;22.1;21.8;29;28.4;29.1;-1.0;
12/02/2025 13:44:18;117;0;161.54;-4;29.98;2.06;215.7;15.60;76280;2836.502;-1758.257;1;193;200;204.8;22.1;21.8;38;37.9;29.1;-1.0;
12/02/2025 13:44:38;117;0;162.00;-4;30.06;7.20;213.1;15.70;76284;2836.499;-1758.257;1;193;200;203.2;22.1;21.9;38;38.4;29.1;-1.0;
12/02/2025 13:44:58;117;0;163.18;-4;30.75;7.22;210.6;15.70;76300;2836.497;-1758.256;1;193;200;203.2;22.1;21.9;36;36.1;29.1;-1.0;
12/02/2025 13:45:18;117;0;164.24;-4;30.27;5.81;207.9;15.70;76310;2836.495;-1758.255;1;193;200;204.8;22.1;21.9;34;33.4;29.1;-1.0;
12/02/2025 13:45:38;117;0;165.11;-4;30.26;4.47;205.3;15.80;76323;2836.493;-1758.254;1;193;200;204.8;22.1;21.8;34;32.9;29.1;-1.0;
12/02/2025 13:45:58;117;0;167.57;-4;30.11;4.38;202.7;15.80;76339;2836.491;-1758.254;1;193;200;204.8;22.1;21.8;29;28.4;29.1;-1.0;
12/02/2025 13:46:18;117;0;174.32;-4;29.85;1.87;200.1;15.80;76341;2836.488;-1758.253;1;193;200;204.8;22.1;21.9;17;17.1;29.1;-1.0;
12/02/2025 13:46:38;117;0;170.91;-4;28.77;-4.24;197.6;15.80;76362;2836.486;-1758.253;1;193;200;204.8;21.7;21.5;23;23.0;29.1;-1.0;
12/02/2025 13:46:58;117;0;169.77;-4;30.07;-0.64;195.1;15.80;76376;2836.484;-1758.252;1;193;200;204.8;21.7;21.4;25;25.3;29.1;-1.0;
12/02/2025 13:47:18;117;0;167.51;-4;30.24;0.37;192.5;15.90;76379;2836.482;-1758.252;1;193;200;204.8;21.7;21.4;29;28.9;29.1;-1.0;
12/02/2025 13:47:38;117;0;163.92;-4;30.56;2.69;189.9;15.90;76388;2836.480;-1758.251;1;193;200;204.8;21.7;21.4;35;35.2;29.1;-1.0;
12/02/2025 13:47:58;117;0;160.83;-4;31.20;6.03;187.2;15.90;76404;2836.477;-1758.250;1;193;200;204.8;21.7;21.4;40;40.2;29.1;-1.0;
12/02/2025 13:48:18;117;0;160.09;-4;31.36;8.52;184.4;16.00;76405;2836.475;-1758.249;1;193;200;204.8;21.7;21.5;40;40.2;29.1;-1.0;
12/02/2025 13:48:38;117;0;164.72;-4;31.31;8.49;181.5;16.00;76418;2836.473;-1758.248;1;193;200;204.8;21.7;21.4;34;33.8;29.1;-1.0;
12/02/2025 13:48:58;117;0;163.14;-4;30.46;4.72;178.7;16.00;76423;2836.470;-1758.247;1;193;200;204.8;21.7;21.4;36;36.1;29.1;-1.0;
12/02/2025 13:49:18;117;0;159.86;-4;31.08;6.61;175.9;16.00;76435;2836.468;-1758.247;1;193;200;204.8;21.7;21.4;41;41.1;29.1;-1.0;
12/02/2025 13:49:38;117;0;159.72;-4;31.82;8.82;172.9;16.10;76431;2836.466;-1758.245;1;193;200;204.8;21.7;21.4;41;41.5;29.1;-1.0;
12/02/2025 13:49:58;117;0;156.02;-4;31.36;9.18;169.8;16.10;76455;2836.464;-1758.244;1;193;200;204.8;21.7;21.4;46;46.0;29.1;-1.0;
12/02/2025 13:50:18;117;0;156.52;-4;32.26;12.15;166.7;16.10;76446;2836.461;-1758.243;1;193;200;204.8;22.4;22.4;46;46.5;29.1;-1.0;
12/02/2025 13:50:38;117;0;161.73;-4;30.12;12.13;163.6;16.10;76454;2836.459;-1758.242;1;193;200;204.8;22.4;22.5;38;37.5;29.1;-1.0;
12/02/2025 13:50:58;117;0;167.59;-4;29.12;6.93;160.7;16.10;76464;2836.456;-1758.241;1;193;200;204.8;22.4;22.5;29;28.9;29.1;-1.0;
12/02/2025 13:51:18;117;0;172.26;-4;28.37;2.02;157.9;16.20;76468;2836.453;-1758.241;1;193;200;204.8;21.9;21.5;21;20.8;29.1;-1.0;
12/02/2025 13:51:38;117;0;167.02;-4;29.37;-2.00;155.3;16.20;76469;2836.451;-1758.240;1;193;200;204.8;21.9;21.6;30;29.8;29.1;-1.0;
12/02/2025 13:51:58;117;0;160.90;-4;30.38;2.74;152.5;16.20;76482;2836.449;-1758.239;1;193;200;204.8;21.9;21.6;40;40.6;29.1;-1.0;
12/02/2025 13:52:18;117;0;158.73;-4;30.88;8.69;149.8;16.30;76486;2836.447;-1758.238;1;193;200;204.8;21.9;21.6;43;42.9;29.1;-1.0;
12/02/2025 13:52:38;117;0;155.07;-4;31.26;10.42;146.9;16.30;76495;2836.444;-1758.237;1;193;200;204.8;21.9;21.6;48;47.8;29.1;-1.0;
12/02/2025 13:52:58;117;0;164.25;-4;31.14;12.80;143.9;16.30;76507;2836.442;-1758.236;1;193;200;204.8;21.9;21.6;35;35.2;29.1;-1.0;
12/02/2025 13:53:18;117;0;169.51;-4;30.90;5.48;141.2;16.30;76509;2836.440;-1758.236;1;193;200;204.8;21.9;21.6;26;26.2;29.1;-1.0;
12/02/2025 13:53:38;117;0;165.54;-4;30.45;0.52;138.4;16.40;76528;2836.437;-1758.235;1;193;200;203.2;21.9;21.6;33;32.9;29.1;-1.0;
12/02/2025 13:53:58;117;0;166.17;-4;30.12;4.74;135.6;16.40;76535;2836.435;-1758.234;1;193;200;204.8;21.9;21.6;33;33.4;29.1;-1.0;
12/02/2025 13:54:18;117;0;168.89;-4;30.16;4.78;132.8;16.40;76542;2836.433;-1758.233;1;193;200;204.8;21.9;21.6;27;26.6;29.1;-1.0;
12/02/2025 13:54:38;117;0;167.53;-4;29.87;0.82;130.2;16.50;76560;2836.430;-1758.233;1;193;200;204.8;21.9;21.6;29;28.9;29.1;-1.0;
12/02/2025 13:54:58;117;0;160.60;-4;30.11;2.54;127.5;16.50;76570;2836.428;-1758.232;1;193;200;204.8;21.9;21.8;40;40.2;29.1;-1.0;
12/02/2025 13:55:18;117;0;156.79;-4;31.04;8.60;124.9;16.50;76577;2836.426;-1758.231;1;193;200;204.8;21.9;21.6;45;45.1;29.1;-1.0;
12/02/2025 13:55:38;117;0;163.01;-4;30.74;11.29;122.2;16.50;76590;2836.424;-1758.230;1;193;200;204.8;21.9;21.6;37;36.6;29.1;-1.0;
12/02/2025 13:55:58;117;0;168.09;-4;30.16;6.20;119.8;16.60;76606;2836.422;-1758.229;1;193;200;204.8;21.9;21.6;28;28.0;29.1;-1.0;
12/02/2025 13:56:19;117;0;170.44;-4;29.57;1.56;117.3;16.60;76623;2836.420;-1758.229;1;193;200;206.5;21.9;21.6;24;23.9;29.1;-1.0;
12/02/2025 13:56:39;117;0;172.54;-4;30.40;-0.85;114.9;16.60;76629;2836.417;-1758.229;1;193;200;204.8;21.9;21.6;21;21.2;29.1;-1.0;
12/02/2025 13:56:59;117;0;167.63;-4;29.94;-2.05;112.3;16.70;76653;2836.415;-1758.228;1;193;200;206.5;21.9;21.6;29;28.9;29.1;-1.0;
12/02/2025 13:57:19;117;0;163.38;-4;29.61;2.53;109.6;16.70;76674;2836.413;-1758.227;1;193;200;206.5;21.9;21.6;36;36.1;29.1;-1.0;
12/02/2025 13:57:39;117;0;162.73;-4;29.84;6.34;107.2;16.80;76691;2836.411;-1758.226;1;193;200;204.8;21.9;21.6;36;36.1;29.1;-1.0;
12/02/2025 13:57:59;117;0;161.24;-4;30.17;6.37;104.7;16.80;76709;2836.409;-1758.226;1;193;200;206.5;21.9;21.6;39;38.8;29.1;-1.0;
12/02/2025 13:58:19;117;0;161.21;-4;30.28;7.80;102.5;16.80;76719;2836.407;-1758.225;1;193;200;206.5;21.9;21.6;39;38.8;29.1;-1.0;
12/02/2025 13:58:39;117;0;162.99;-4;30.28;7.72;100.2;16.90;76740;2836.405;-1758.224;1;193;200;206.5;21.9;21.6;37;36.6;29.1;-1.0;
12/02/2025 13:58:59;117;0;163.87;-4;29.93;6.11;97.8;16.90;76749;2836.403;-1758.223;1;193;200;206.5;21.9;21.6;35;34.3;29.1;-1.0;
12/02/2025 13:59:19;117;0;162.62;-4;30.08;5.22;95.6;16.90;76762;2836.401;-1758.223;1;193;200;204.8;21.9;21.6;37;37.5;29.1;-1.0;
12/02/2025 13:59:39;117;0;155.28;-4;30.10;7.06;93.3;17.00;76777;2836.399;-1758.222;1;193;200;206.5;21.9;21.6;48;47.8;29.1;-1.0;
12/02/2025 13:59:59;117;0;153.28;-4;31.54;12.64;91.0;17.10;76803;2836.398;-1758.221;1;193;200;203.2;21.9;21.6;50;50.1;29.1;-1.0;
12/02/2025 14:00:19;117;0;147.82;-4;31.50;14.42;88.5;17.10;76807;2836.396;-1758.219;1;193;200;206.5;21.9;21.6;57;56.9;29.1;-1.0;
12/02/2025 14:00:39;117;0;147.62;-4;31.65;17.72;85.9;17.10;76828;2836.394;-1758.218;1;193;200;206.5;21.9;21.6;57;56.9;29.1;-1.0;
12/02/2025 14:00:59;117;0;153.01;-4;31.97;17.84;83.4;17.20;76845;2836.392;-1758.217;1;193;200;204.8;21.9;21.6;51;51.0;29.1;-1.0;
12/02/2025 14:01:19;117;0;156.32;-4;31.50;13.86;80.8;17.20;76868;2836.390;-1758.216;1;193;200;204.8;21.9;21.6;46;46.0;29.1;-1.0;
12/02/2025 14:01:39;117;0;156.17;-4;31.28;11.13;78.1;17.30;76879;2836.388;-1758.215;1;193;200;206.5;21.9;21.6;46;45.1;29.1;-1.0;
12/02/2025 14:01:59;117;0;157.80;-4;31.07;11.05;75.4;17.30;76886;2836.386;-1758.214;1;193;200;204.8;21.9;21.6;44;43.8;29.1;-1.0;
12/02/2025 14:02:19;117;0;157.48;-4;30.79;9.98;72.8;17.40;76892;2836.384;-1758.212;1;193;200;204.8;21.9;21.6;44;43.3;29.1;-1.0;
12/02/2025 14:02:39;117;0;157.21;-4;30.81;10.10;70.1;17.40;76898;2836.382;-1758.211;1;193;200;204.8;21.9;21.6;44;43.3;29.1;-1.0;
12/02/2025 14:02:59;117;0;158.87;-4;30.77;10.04;67.4;17.40;76900;2836.380;-1758.210;1;193;200;204.8;21.9;21.6;44;43.8;29.1;-1.0;
12/02/2025 14:03:19;117;0;159.96;-4;30.87;10.12;64.7;17.50;76919;2836.378;-1758.209;1;193;200;204.8;21.9;21.8;41;40.6;29.1;-1.0;
12/02/2025 14:03:39;117;0;160.50;-4;30.49;8.26;62.0;17.50;76934;2836.375;-1758.209;1;193;200;204.8;21.9;21.6;41;40.2;29.1;-1.0;
12/02/2025 14:03:59;117;0;161.45;-4;30.51;8.27;59.3;17.60;76940;2836.373;-1758.208;1;193;200;204.8;21.9;21.6;39;38.8;29.1;-1.0;
12/02/2025 14:04:19;117;0;160.95;-4;30.31;7.34;56.6;17.60;76944;2836.371;-1758.207;1;193;200;204.8;21.9;21.6;39;38.4;29.1;-1.0;
12/02/2025 14:04:39;117;0;160.56;-4;30.50;7.35;53.9;17.70;76951;2836.369;-1758.206;1;193;200;204.8;21.9;21.6;39;38.4;29.1;-1.0;
12/02/2025 14:04:59;117;0;160.73;-4;30.68;7.33;51.1;17.70;76954;2836.366;-1758.205;1;193;200;204.8;21.9;21.6;39;38.4;29.1;-1.0;
12/02/2025 14:05:19;117;0;159.44;-4;30.38;7.34;48.3;17.80;76968;2836.364;-1758.204;1;193;200;206.5;21.9;21.6;42;42.0;29.1;-1.0;
12/02/2025 14:05:39;117;0;160.94;-4;30.38;9.52;45.4;17.80;76973;2836.362;-1758.203;1;193;200;204.8;21.9;21.6;40;40.2;29.1;-1.0;
12/02/2025 14:05:59;117;0;162.64;-4;30.55;7.82;42.5;17.80;76973;2836.359;-1758.202;1;193;200;206.5;21.9;21.6;37;37.0;29.1;-1.0;
12/02/2025 14:06:19;117;0;163.23;-4;30.06;6.15;39.7;17.90;76977;2836.357;-1758.201;1;193;200;203.2;21.9;21.6;37;36.1;29.1;-1.0;
12/02/2025 14:06:39;117;0;163.84;-4;29.90;6.03;36.9;17.90;76989;2836.355;-1758.200;1;193;200;204.8;21.9;21.6;37;36.1;29.1;-1.0;
12/02/2025 14:06:59;117;0;164.85;-4;29.92;6.06;34.2;18.00;76982;2836.352;-1758.199;1;193;200;204.8;21.9;21.6;34;33.8;29.1;-1.0;
12/02/2025 14:07:19;117;0;164.81;-4;30.02;4.41;31.3;18.00;76994;2836.350;-1758.199;1;193;200;203.2;21.9;21.6;34;32.9;29.1;-1.0;
12/02/2025 14:07:39;117;0;164.98;-4;29.83;4.40;28.7;18.00;77003;2836.348;-1758.198;1;193;200;206.5;21.9;21.6;34;32.9;29.1;-1.0;
12/02/2025 14:07:59;117;0;163.87;-4;29.41;4.42;25.9;18.10;77010;2836.345;-1758.197;1;193;200;204.8;21.9;21.6;36;36.1;29.1;-1.0;
12/02/2025 14:08:19;117;0;164.40;-4;30.18;6.19;23.1;18.10;77015;2836.343;-1758.196;1;193;200;204.8;21.9;21.6;36;36.6;29.1;-1.0;
12/02/2025 14:08:39;117;0;163.32;-4;30.33;6.44;20.3;18.10;77016;2836.341;-1758.195;1;193;200;206.5;21.9;21.6;36;36.6;29.1;-1.0;
12/02/2025 14:08:59;117;0;163.81;-4;29.65;6.41;17.6;18.20;77017;2836.338;-1758.194;1;193;200;204.8;21.9;21.6;36;36.6;29.1;-1.0;
12/02/2025 14:09:19;117;0;163.84;-4;28.82;6.22;14.9;18.20;77012;2836.336;-1758.194;1;193;200;206.5;21.6;21.5;36;36.6;29.1;-1.0;
12/02/2025 14:09:39;117;0;164.03;-4;30.85;6.30;12.2;18.30;77027;2836.334;-1758.193;1;193;200;206.5;21.6;21.4;36;36.6;29.1;-1.0;
12/02/2025 14:09:59;117;0;161.43;-4;30.64;6.50;9.4;18.30;77035;2836.331;-1758.192;1;193;200;206.5;21.6;21.2;39;38.8;29.1;-1.0;
12/02/2025 14:10:19;117;0;160.32;-4;30.62;7.95;6.5;18.30;77040;2836.329;-1758.191;1;193;200;203.2;21.6;21.2;41;41.1;29.1;-1.0;
12/02/2025 14:10:39;117;0;159.86;-4;31.52;9.66;3.7;18.40;77045;2836.327;-1758.190;1;193;200;204.8;21.6;21.2;41;41.5;29.1;-1.0;
12/02/2025 14:10:43;115;0;159.98;-4;32.07;8.53;3.0;18.40;77047;2836.326;-1758.190;1;193;500;214.5;100.0;66.0;0;-0.5;29.1;-1.0;
12/02/2025 14:10:53;115;0;140.91;-4;12.47;-13.56;1.9;18.40;77021;2836.325;-1758.189;1;193;500;333.9;100.0;100.0;0;-0.5;28.9;-1.0;
12/02/2025 14:11:03;115;0;142.03;-4;-59.05;-10.36;2.5;18.40;76771;2836.325;-1758.188;1;193;500;448.4;100.0;100.6;0;-0.5;28.9;-1.0;
12/02/2025 14:11:13;115;0;130.89;-4;-68.01;-14.83;2.3;18.40;76512;2836.325;-1758.188;1;193;500;508.1;100.0;100.7;0;-0.5;28.9;-1.0;
12/02/2025 14:11:23;115;0;171.22;-4;-23.12;-12.35;0.4;18.50;76403;2836.323;-1758.188;1;193;500;508.1;100.0;100.6;0;-0.5;29.1;-1.0;
12/02/2025 14:11:43;119;0;206.47;-4;-57.15;-3.39;0.6;18.50;76434;2836.323;-1758.188;1;193;500;508.1;100.0;100.6;0;-0.5;29.1;-1.0;
12/02/2025 14:11:53;119;0;214.85;-4;-50.17;-18.07;0.7;18.60;76452;2836.253;-1758.049;0;193;500;509.7;100.0;100.6;0;-0.5;29.1;-1.0;
