Timestamp;NavState;SecurityLevel;Heading;Declination;Pitch;Roll;Depth;Temperature;Pa;Lat;Lon;DeadReckoning;DesiredH;BallastCmd;BallastPos;LinCmd;LinPos;AngCmd;AngPos;Voltage;Altitude;
20/02/2025 04:36:21;119;0;81.60;-4;-57.80;-15.18;-0.1;19.40;76217;2837.622;-1758.725;0;150;500;508.1;100.0;100.6;0;-0.5;27.6;-1.0;
20/02/2025 04:36:31;116;0;84.80;-4;-59.92;-17.50;-0.2;19.40;76227;2837.624;-1758.729;0;150;500;509.7;100.0;100.6;0;-0.5;27.6;-1.0;
20/02/2025 04:36:56;116;0;51.96;-4;-56.27;-4.46;-0.1;19.50;76226;2837.626;-1758.731;0;150;500;509.7;100.0;100.6;0;-0.5;27.6;-1.0;
20/02/2025 04:37:23;116;0;58.56;-4;-53.29;-8.61;-0.1;19.50;76238;2837.628;-1758.733;0;150;500;511.3;100.0;100.6;0;-0.5;27.6;-1.0;
20/02/2025 04:37:34;116;0;62.80;-4;-52.50;-10.17;-0.1;19.50;76230;2837.629;-1758.735;0;150;500;509.7;100.0;100.6;0;-0.5;27.5;-1.0;
20/02/2025 04:38:29;116;0;32.71;-4;-52.19;-8.59;-0.0;19.60;76249;2837.634;-1758.740;0;150;500;509.7;100.0;100.6;0;-0.5;27.6;-1.0;
20/02/2025 04:39:09;116;0;41.98;-4;-55.57;-23.27;-0.1;19.70;76251;2837.639;-1758.744;0;150;500;508.1;100.0;100.6;0;-0.5;27.5;-1.0;
20/02/2025 04:39:56;116;0;50.35;-4;-57.18;-5.88;0.0;19.80;76259;2837.644;-1758.752;0;150;500;509.7;100.0;100.6;0;-0.5;27.5;-1.0;
20/02/2025 04:40:07;116;0;54.96;-4;-54.82;-7.68;-0.1;19.80;76264;2837.645;-1758.753;0;149;500;509.7;100.0;100.6;0;-0.5;27.6;-1.0;
20/02/2025 04:40:27;110;0;63.38;-4;-53.32;-8.59;-0.1;19.90;76266;2837.645;-1758.753;0;149;-50;395.2;100.0;99.9;-13;-13.1;27.6;-1.0;
20/02/2025 04:40:37;110;0;81.78;-4;-54.25;-17.12;0.2;19.90;76624;2837.646;-1758.753;1;149;-50;240.3;100.0;99.7;-13;-13.5;27.5;-1.0;
20/02/2025 04:40:47;110;0;88.79;-4;-62.63;-19.88;0.7;19.90;76877;2837.647;-1758.754;1;149;-50;80.6;100.0;99.9;-13;-13.1;27.5;-1.0;
20/02/2025 04:40:57;110;0;92.97;-4;-67.99;-5.39;0.8;20.00;77212;2837.647;-1758.755;1;149;-50;-48.4;100.0;99.9;-13;-13.5;27.5;-1.0;
20/02/2025 04:41:07;110;0;100.95;-4;-64.86;-17.51;1.2;20.00;77462;2837.648;-1758.755;1;149;-50;-48.4;48.1;48.0;-13;-13.5;27.5;-1.0;
20/02/2025 04:41:27;100;0;113.80;-4;-35.79;-18.03;4.5;20.00;77448;2837.649;-1758.754;1;149;-50;-46.8;48.1;47.7;-13;-13.1;27.6;-1.0;
20/02/2025 04:41:47;100;0;123.41;-4;-30.26;-17.89;8.2;20.10;77449;2837.648;-1758.753;1;149;-50;-45.2;48.1;47.7;1;1.4;27.6;-1.0;
20/02/2025 04:42:07;100;0;126.33;-4;-30.35;-10.59;11.8;20.10;77451;2837.648;-1758.752;1;150;-50;-45.2;48.1;47.7;3;3.2;27.5;-1.0;
20/02/2025 04:42:27;100;0;127.17;-4;-30.45;-10.39;15.4;20.10;77455;2837.648;-1758.751;1;150;-50;-43.5;48.1;47.7;3;3.6;27.6;0.0;
20/02/2025 04:42:47;100;0;129.29;-4;-30.74;-10.05;19.2;20.20;77468;2837.647;-1758.750;1;150;-50;-45.2;48.1;47.7;7;7.2;27.5;0.0;
20/02/2025 04:43:07;100;0;135.05;-4;-30.32;-7.87;23.0;20.20;77465;2837.646;-1758.749;1;150;-50;-45.2;48.1;47.7;10;9.9;27.5;0.0;
20/02/2025 04:43:27;100;0;136.15;-4;-29.15;-6.20;26.9;20.20;77470;2837.645;-1758.747;1;150;-50;-43.5;48.1;47.6;10;10.8;27.5;0.0;
20/02/2025 04:43:47;100;0;138.86;-4;-31.41;-5.98;30.8;20.20;77473;2837.644;-1758.747;1;150;-50;-45.2;48.1;47.7;10;10.8;27.6;0.0;
20/02/2025 04:44:07;100;0;140.49;-4;-30.08;-6.33;34.9;20.20;77473;2837.643;-1758.746;1;150;-50;-45.2;48.1;47.6;10;10.8;27.6;0.0;
20/02/2025 04:44:27;100;0;142.51;-4;-30.10;-5.99;39.1;20.20;77473;2837.641;-1758.745;1;150;-50;-45.2;48.1;47.7;10;10.4;27.5;0.0;
20/02/2025 04:44:47;100;0;136.99;-4;-30.84;-6.32;43.3;20.20;77474;2837.640;-1758.744;1;150;-50;-45.2;48.1;47.7;10;10.8;27.6;0.0;
20/02/2025 04:45:07;100;0;135.67;-4;-30.51;-6.10;47.4;20.20;77466;2837.639;-1758.743;1;150;-50;-45.2;48.1;47.7;10;10.8;27.6;0.0;
20/02/2025 04:45:27;100;0;133.21;-4;-30.24;-6.22;51.6;20.20;77458;2837.638;-1758.741;1;150;-50;-45.2;48.1;47.7;8;8.1;27.6;0.0;
20/02/2025 04:45:47;100;0;133.56;-4;-29.09;-8.07;55.6;20.20;77455;2837.637;-1758.740;1;150;-50;-45.2;48.1;47.7;8;7.7;27.6;0.0;
20/02/2025 04:46:07;100;0;135.76;-4;-29.98;-7.67;59.5;20.20;77455;2837.636;-1758.739;1;150;-50;-45.2;48.1;47.7;10;9.9;27.6;0.0;
20/02/2025 04:46:27;100;0;136.16;-4;-29.61;-6.33;63.4;20.20;77467;2837.635;-1758.738;1;150;-50;-43.5;48.1;47.7;10;10.4;27.5;0.0;
20/02/2025 04:46:47;100;0;136.62;-4;-29.87;-6.44;67.3;20.20;77455;2837.634;-1758.737;1;150;-50;-45.2;48.1;47.7;10;10.4;27.6;0.0;
20/02/2025 04:47:07;100;0;136.39;-4;-30.65;-6.43;71.4;20.20;77455;2837.633;-1758.736;1;150;-50;-45.2;48.1;47.7;10;10.4;27.6;0.0;
20/02/2025 04:47:27;100;0;137.86;-4;-29.38;-6.09;75.8;20.20;77458;2837.631;-1758.734;1;150;-50;-45.2;48.1;47.7;10;10.4;27.6;0.0;
20/02/2025 04:47:47;100;0;138.50;-4;-29.58;-6.19;79.9;20.20;77456;2837.630;-1758.733;1;150;-50;-48.4;48.1;47.7;10;10.4;27.5;0.0;
20/02/2025 04:48:07;100;0;138.83;-4;-29.96;-6.30;84.0;20.20;77454;2837.629;-1758.732;1;150;-50;-45.2;48.1;47.7;10;10.4;27.6;0.0;
20/02/2025 04:48:27;100;0;140.29;-4;-30.26;-6.23;88.2;20.20;77465;2837.628;-1758.731;1;150;-50;-46.8;48.1;47.7;10;10.4;27.5;0.0;
20/02/2025 04:48:47;100;0;138.70;-4;-29.39;-6.39;92.6;20.20;77448;2837.626;-1758.730;1;150;-50;-45.2;48.1;47.7;10;10.8;27.6;0.0;
20/02/2025 04:49:07;100;0;142.85;-4;-30.30;-5.97;96.7;20.20;77457;2837.625;-1758.729;1;150;-50;-45.2;48.1;47.7;10;10.4;27.6;0.0;
20/02/2025 04:49:27;100;0;138.29;-4;-30.48;-6.41;101.1;20.10;77443;2837.623;-1758.728;1;150;-50;-45.2;48.1;47.7;10;10.4;27.5;0.0;
20/02/2025 04:49:47;100;0;137.02;-4;-30.14;-6.24;105.6;20.10;77433;2837.622;-1758.727;1;150;-50;-45.2;48.1;47.7;10;10.4;27.5;0.0;
20/02/2025 04:50:07;100;0;136.44;-4;-29.68;-6.19;109.9;20.10;77431;2837.620;-1758.725;1;150;-50;-45.2;48.1;47.6;10;10.4;27.6;0.0;
20/02/2025 04:50:27;100;0;135.21;-4;-29.38;-6.29;114.2;20.10;77428;2837.619;-1758.724;1;150;-50;-45.2;48.1;47.7;10;10.4;27.6;0.0;
20/02/2025 04:50:47;100;0;128.39;-4;-28.36;-6.25;118.4;20.10;77409;2837.618;-1758.722;1;150;-50;-45.2;48.6;48.9;3;3.2;27.5;0.0;
20/02/2025 04:51:07;100;0;123.00;-4;-30.17;-10.33;122.3;20.10;77398;2837.618;-1758.720;1;150;-50;-43.5;48.6;48.9;-4;-4.1;27.5;0.0;
20/02/2025 04:51:27;100;0;127.44;-4;-30.08;-13.79;126.6;20.00;77377;2837.617;-1758.719;1;150;-50;-45.2;48.6;48.9;2;1.8;27.6;0.0;
20/02/2025 04:51:47;100;0;132.13;-4;-30.63;-10.24;130.9;20.00;77368;2837.616;-1758.717;1;150;-50;-45.2;48.6;48.9;7;7.2;27.6;0.0;
20/02/2025 04:52:07;100;0;134.12;-4;-30.77;-7.60;135.4;20.00;77348;2837.615;-1758.716;1;150;-50;-46.8;48.6;48.9;7;7.7;27.6;0.0;
20/02/2025 04:52:27;100;0;135.81;-4;-30.86;-7.62;139.7;20.00;77340;2837.614;-1758.714;1;151;-50;-45.2;48.6;48.9;9;9.0;27.6;0.0;
20/02/2025 04:52:47;100;0;137.83;-4;-31.01;-6.95;144.2;20.00;77348;2837.612;-1758.713;1;151;-50;-45.2;48.6;48.9;9;9.0;27.5;0.0;
20/02/2025 04:53:07;100;0;140.51;-4;-31.43;-6.82;148.9;19.90;77331;2837.611;-1758.712;1;151;-50;-45.2;48.6;48.9;9;9.0;27.6;0.0;
20/02/2025 04:53:27;100;0;137.00;-4;-30.32;-6.68;153.7;19.90;77332;2837.609;-1758.710;1;151;-50;-45.2;48.6;48.9;9;9.5;27.6;0.0;
20/02/2025 04:53:47;100;0;131.83;-4;-30.69;-6.96;158.0;19.90;77311;2837.608;-1758.709;1;151;-50;-45.2;48.6;48.9;6;5.9;27.5;0.0;
20/02/2025 04:54:07;100;0;135.25;-4;-30.61;-8.84;162.4;19.90;77290;2837.607;-1758.708;1;151;-50;-45.2;48.6;48.9;9;9.0;27.6;0.0;
20/02/2025 04:54:27;100;0;136.70;-4;-30.54;-6.61;166.8;19.80;77282;2837.606;-1758.706;1;151;-50;-45.2;48.6;48.9;9;9.5;27.6;0.0;
20/02/2025 04:54:47;100;0;129.01;-4;-30.20;-6.80;170.9;19.80;77254;2837.605;-1758.705;1;151;-50;-45.2;48.6;48.9;3;3.2;27.6;0.0;
20/02/2025 04:55:07;100;0;128.51;-4;-29.41;-10.22;175.0;19.70;77225;2837.604;-1758.703;1;151;-50;-43.5;48.6;48.9;3;2.7;27.6;0.0;
20/02/2025 04:55:27;100;0;128.60;-4;-29.86;-10.21;178.8;19.70;77207;2837.603;-1758.702;1;151;-50;-45.2;48.6;48.9;3;2.7;27.5;0.0;
20/02/2025 04:55:47;100;0;127.90;-4;-29.65;-10.18;182.5;19.70;77194;2837.603;-1758.701;1;151;-50;-45.2;48.6;48.9;3;3.2;27.5;0.0;
20/02/2025 04:56:07;100;0;127.70;-4;-29.77;-10.16;186.2;19.60;77170;2837.602;-1758.699;1;151;-50;-45.2;48.6;48.9;3;2.7;27.6;0.0;
20/02/2025 04:56:27;100;0;125.98;-4;-29.90;-10.30;189.9;19.60;77155;2837.602;-1758.698;1;151;-50;-45.2;48.6;48.9;0;0.0;27.5;0.0;
20/02/2025 04:56:47;100;0;130.46;-4;-29.80;-11.86;193.7;19.60;77142;2837.601;-1758.697;1;151;-50;-46.8;48.6;48.9;6;6.3;27.6;0.0;
20/02/2025 04:57:07;100;0;137.50;-4;-30.74;-8.28;197.5;19.50;77133;2837.600;-1758.696;1;151;-50;-45.2;48.6;48.7;9;9.0;27.5;0.0;
20/02/2025 04:57:14;118;0;138.73;-4;-30.89;-6.75;198.8;19.50;77128;2837.600;-1758.696;1;151;170;-38.7;22.1;21.9;13;14.0;27.6;0.0;
20/02/2025 04:57:24;118;0;126.18;-4;-18.11;-5.41;200.3;19.50;77098;2837.599;-1758.695;1;151;170;90.3;22.1;21.6;13;13.5;27.2;-1.0;
20/02/2025 04:57:34;118;0;120.81;-4;9.13;-5.01;200.9;19.40;76819;2837.600;-1758.694;1;151;170;172.6;22.1;22.1;13;13.5;27.1;-1.0;
20/02/2025 04:57:44;118;0;137.24;-4;21.64;-5.31;200.2;19.40;76661;2837.600;-1758.695;1;151;170;172.6;22.1;22.2;13;13.5;27.5;-1.0;
20/02/2025 04:58:04;117;0;132.85;-4;27.04;-5.33;198.3;19.40;76659;2837.600;-1758.695;1;151;170;172.6;22.1;22.2;13;14.0;27.6;-1.0;
20/02/2025 04:58:24;117;0;127.58;-4;27.57;-5.37;196.2;19.40;76645;2837.600;-1758.695;1;151;170;174.2;21.4;21.2;36;36.1;27.5;-1.0;
20/02/2025 04:58:44;117;0;123.77;-4;31.17;6.96;194.2;19.30;76640;2837.601;-1758.695;1;151;170;174.2;21.4;21.2;36;36.6;27.6;-1.0;
20/02/2025 04:59:04;117;0;121.86;-4;31.54;6.86;192.0;19.30;76635;2837.601;-1758.695;1;151;170;174.2;21.4;21.2;39;39.3;27.6;-1.0;
20/02/2025 04:59:24;117;0;121.46;-4;31.79;8.50;189.8;19.20;76640;2837.602;-1758.695;1;151;170;174.2;21.4;21.2;39;39.3;27.6;-1.0;
20/02/2025 04:59:44;117;0;122.76;-4;31.92;8.39;187.6;19.20;76637;2837.602;-1758.695;1;151;170;174.2;21.4;21.1;39;39.7;27.6;-1.0;
20/02/2025 05:00:04;117;0;124.44;-4;32.11;8.43;185.4;19.10;76630;2837.603;-1758.695;1;151;170;174.2;22.0;21.9;37;36.6;27.5;-1.0;
20/02/2025 05:00:24;117;0;126.39;-4;30.66;6.73;183.2;19.10;76640;2837.603;-1758.695;1;151;170;175.8;22.0;22.1;37;36.1;27.6;-1.0;
20/02/2025 05:00:44;117;0;129.02;-4;30.55;6.65;181.0;19.10;76634;2837.604;-1758.695;1;151;170;174.2;22.0;22.1;37;36.6;27.5;-1.0;
20/02/2025 05:01:04;117;0;131.59;-4;30.57;6.79;179.0;19.00;76639;2837.604;-1758.695;1;151;170;174.2;22.0;22.1;37;36.1;27.6;-1.0;
20/02/2025 05:01:24;117;0;133.11;-4;30.67;6.76;176.9;19.00;76648;2837.604;-1758.695;1;151;170;174.2;22.0;22.1;37;36.1;27.5;-1.0;
20/02/2025 05:01:44;117;0;137.18;-4;30.46;6.80;174.8;19.00;76641;2837.604;-1758.695;1;151;170;174.2;22.0;22.2;35;35.2;27.5;-1.0;
20/02/2025 05:02:04;117;0;137.23;-4;30.37;5.91;172.8;19.00;76648;2837.605;-1758.696;1;151;190;193.5;22.0;22.1;35;34.7;27.5;-1.0;
20/02/2025 05:02:24;117;0;137.11;-4;29.99;5.88;170.7;18.90;76611;2837.605;-1758.696;1;151;190;193.5;22.0;22.1;35;34.7;27.6;-1.0;
20/02/2025 05:02:44;117;0;140.68;-4;29.89;5.83;168.6;18.90;76609;2837.605;-1758.696;1;151;190;193.5;22.0;22.2;35;34.7;27.6;-1.0;
20/02/2025 05:03:04;117;0;139.91;-4;29.70;5.86;166.5;18.90;76623;2837.605;-1758.697;1;151;190;193.5;22.0;22.1;35;34.7;27.6;-1.0;
20/02/2025 05:03:24;117;0;135.26;-4;29.86;5.80;164.4;18.90;76632;2837.605;-1758.697;1;151;190;193.5;22.0;22.2;35;34.7;27.5;-1.0;
20/02/2025 05:03:44;117;0;131.42;-4;29.68;5.94;162.4;18.90;76652;2837.605;-1758.697;1;151;190;191.9;22.0;22.2;35;34.7;27.6;-1.0;
20/02/2025 05:04:04;117;0;130.81;-4;29.67;5.97;160.4;18.90;76652;2837.606;-1758.697;1;151;190;193.5;22.0;22.2;35;34.7;27.6;-1.0;
20/02/2025 05:04:24;117;0;137.59;-4;29.95;5.89;158.3;18.80;76663;2837.606;-1758.697;1;151;190;193.5;22.0;22.1;35;34.7;27.6;-1.0;
20/02/2025 05:04:44;117;0;135.29;-4;30.02;5.98;156.1;18.80;76677;2837.606;-1758.698;1;151;190;193.5;22.0;22.1;35;34.7;27.5;-1.0;
20/02/2025 05:05:04;117;0;132.25;-4;29.82;6.04;154.1;18.80;76694;2837.606;-1758.698;1;151;190;193.5;22.0;22.1;35;34.7;27.6;-1.0;
20/02/2025 05:05:24;117;0;132.53;-4;30.06;5.96;152.0;18.80;76700;2837.606;-1758.698;1;151;190;193.5;22.0;22.1;35;34.7;27.5;-1.0;
20/02/2025 05:05:44;117;0;131.90;-4;29.32;5.89;149.7;18.80;76704;2837.606;-1758.698;1;151;190;193.5;22.0;22.1;35;34.7;27.5;-1.0;
20/02/2025 05:06:04;117;0;129.28;-4;29.36;5.91;147.5;18.80;76706;2837.607;-1758.698;1;151;190;190.3;22.0;22.1;35;34.7;27.6;-1.0;
20/02/2025 05:06:24;117;0;125.72;-4;29.41;6.08;145.4;18.80;76709;2837.607;-1758.698;1;151;190;191.9;22.0;22.1;37;37.0;27.5;-1.0;
20/02/2025 05:06:44;117;0;125.51;-4;29.96;7.37;143.0;18.80;76713;2837.607;-1758.697;1;151;190;193.5;22.0;22.2;37;37.5;27.6;-1.0;
20/02/2025 05:07:04;117;0;127.28;-4;30.07;7.30;140.5;18.80;76715;2837.607;-1758.697;1;151;190;193.5;22.0;22.2;37;37.0;27.6;-1.0;
20/02/2025 05:07:24;117;0;129.83;-4;29.77;7.18;137.9;18.80;76738;2837.607;-1758.697;1;152;190;193.5;22.0;22.2;37;37.5;27.6;-1.0;
20/02/2025 05:07:44;117;0;135.58;-4;29.62;7.34;135.4;18.80;76739;2837.607;-1758.697;1;152;190;193.5;22.0;22.2;37;37.5;27.6;-1.0;
20/02/2025 05:08:04;117;0;138.53;-4;28.69;7.06;132.8;18.80;76747;2837.607;-1758.697;1;152;190;193.5;21.6;21.5;37;37.5;27.6;-1.0;
20/02/2025 05:08:24;117;0;140.57;-4;30.58;7.10;130.3;18.80;76753;2837.607;-1758.697;1;151;190;195.2;21.6;21.4;35;34.7;27.6;-1.0;
20/02/2025 05:08:44;117;0;139.98;-4;30.35;5.75;127.8;18.80;76773;2837.607;-1758.697;1;151;190;195.2;21.6;21.5;35;34.3;27.6;-1.0;
20/02/2025 05:09:04;117;0;137.50;-4;30.80;5.70;125.3;18.80;76773;2837.606;-1758.697;1;151;190;193.5;21.6;21.4;35;34.3;27.5;-1.0;
20/02/2025 05:09:24;117;0;133.82;-4;30.38;5.70;122.8;18.80;76776;2837.606;-1758.697;1;151;190;195.2;21.6;21.4;35;34.3;27.6;-1.0;
20/02/2025 05:09:44;117;0;131.43;-4;30.15;5.99;120.2;18.80;76781;2837.606;-1758.696;1;151;190;193.5;21.6;21.4;35;34.3;27.5;-1.0;
20/02/2025 05:10:04;117;0;128.47;-4;30.21;5.80;117.7;18.80;76776;2837.606;-1758.696;1;152;190;193.5;21.6;21.4;37;37.5;27.6;-1.0;
20/02/2025 05:10:24;117;0;127.62;-4;31.04;7.61;115.1;18.80;76781;2837.607;-1758.696;1;152;190;193.5;21.6;21.4;37;37.9;27.5;-1.0;
20/02/2025 05:10:44;117;0;126.28;-4;30.62;7.61;112.5;18.80;76786;2837.607;-1758.695;1;152;190;193.5;21.6;21.5;39;38.8;27.6;-1.0;
20/02/2025 05:11:04;117;0;130.95;-4;31.03;8.23;109.9;18.80;76792;2837.607;-1758.695;1;152;190;191.9;21.6;21.4;36;36.1;27.6;-1.0;
20/02/2025 05:11:24;117;0;134.88;-4;30.76;7.06;107.2;18.80;76804;2837.607;-1758.695;1;152;190;193.5;21.6;21.4;36;37.0;27.6;-1.0;
20/02/2025 05:11:44;117;0;139.32;-4;30.69;7.00;104.5;18.90;76809;2837.606;-1758.695;1;152;190;193.5;21.6;21.4;36;37.0;27.5;-1.0;
20/02/2025 05:12:04;117;0;138.76;-4;30.47;7.12;101.9;18.90;76816;2837.606;-1758.695;1;152;190;195.2;21.6;21.4;36;37.0;27.6;-1.0;
20/02/2025 05:12:24;117;0;135.47;-4;30.12;7.15;99.2;18.90;76811;2837.606;-1758.695;1;152;190;193.5;21.6;21.4;36;37.0;27.5;-1.0;
20/02/2025 05:12:45;117;0;134.88;-4;30.30;7.12;96.6;18.90;76819;2837.606;-1758.695;1;152;190;195.2;21.6;21.4;36;37.0;27.6;-1.0;
20/02/2025 05:13:05;117;0;133.29;-4;30.56;7.16;94.0;18.90;76830;2837.606;-1758.695;1;152;190;193.5;21.6;21.4;36;37.0;27.6;-1.0;
20/02/2025 05:13:25;117;0;131.19;-4;30.57;7.12;91.4;18.90;76824;2837.606;-1758.694;1;152;190;193.5;21.6;21.4;36;37.0;27.6;-1.0;
20/02/2025 05:13:45;117;0;131.68;-4;30.16;7.16;88.7;18.90;76849;2837.606;-1758.694;1;152;190;193.5;21.6;21.4;36;37.0;27.5;-1.0;
20/02/2025 05:14:05;117;0;132.16;-4;30.62;7.07;86.1;18.90;76848;2837.606;-1758.694;1;152;190;193.5;21.6;21.4;36;37.0;27.5;-1.0;
20/02/2025 05:14:25;117;0;133.34;-4;30.20;7.09;83.4;18.90;76851;2837.606;-1758.693;1;152;190;193.5;21.6;21.4;36;37.0;27.5;-1.0;
20/02/2025 05:14:45;117;0;134.19;-4;30.58;7.12;80.7;18.90;76850;2837.605;-1758.693;1;152;190;191.9;21.6;21.4;36;37.0;27.6;-1.0;
20/02/2025 05:15:05;117;0;135.16;-4;30.23;7.11;78.0;19.00;76861;2837.605;-1758.693;1;152;190;193.5;21.6;21.4;36;37.0;27.6;-1.0;
20/02/2025 05:15:25;117;0;135.67;-4;30.21;7.09;75.3;19.00;76858;2837.605;-1758.693;1;152;190;193.5;21.6;21.4;36;37.0;27.5;-1.0;
20/02/2025 05:15:45;117;0;135.41;-4;30.31;7.06;72.7;19.00;76866;2837.605;-1758.693;1;152;190;193.5;21.6;21.4;36;37.0;27.6;-1.0;
20/02/2025 05:16:05;117;0;135.04;-4;30.86;7.12;70.0;19.00;76874;2837.605;-1758.693;1;152;190;195.2;21.6;21.5;36;37.0;27.5;-1.0;
20/02/2025 05:16:25;117;0;133.52;-4;30.47;7.30;67.3;19.00;76870;2837.605;-1758.692;1;152;190;193.5;21.6;21.4;36;37.0;27.6;-1.0;
20/02/2025 05:16:45;117;0;133.63;-4;30.51;7.37;64.6;19.00;76870;2837.604;-1758.692;1;152;190;195.2;21.6;21.4;36;37.0;27.6;-1.0;
20/02/2025 05:17:05;117;0;132.49;-4;29.87;7.15;61.9;19.00;76872;2837.604;-1758.692;1;152;190;193.5;21.6;21.4;36;37.0;27.6;-1.0;
20/02/2025 05:17:25;117;0;131.80;-4;30.22;7.11;59.2;19.00;76882;2837.604;-1758.691;1;152;190;195.2;21.6;21.4;36;37.0;27.6;-1.0;
20/02/2025 05:17:45;117;0;131.26;-4;30.69;7.15;56.6;19.10;76894;2837.604;-1758.691;1;152;190;193.5;21.6;21.4;36;37.0;27.5;-1.0;
20/02/2025 05:18:05;117;0;131.09;-4;30.26;7.07;54.0;19.10;76879;2837.604;-1758.691;1;152;190;195.2;21.6;21.4;36;37.0;27.6;-1.0;
20/02/2025 05:18:25;117;0;129.25;-4;30.57;7.13;51.3;19.10;76882;2837.604;-1758.691;1;152;190;193.5;21.6;21.4;36;37.0;27.6;-1.0;
20/02/2025 05:18:45;117;0;128.63;-4;29.95;7.04;48.8;19.10;76890;2837.604;-1758.690;1;152;190;193.5;21.6;21.4;36;37.0;27.5;-1.0;
20/02/2025 05:19:05;117;0;126.69;-4;30.63;7.18;46.3;19.10;76899;2837.605;-1758.690;1;152;190;195.2;21.6;21.4;38;37.9;27.5;-1.0;
20/02/2025 05:19:25;117;0;123.53;-4;30.52;7.95;43.5;19.10;76909;2837.605;-1758.690;1;152;190;193.5;21.6;21.4;43;42.9;27.5;-1.0;
20/02/2025 05:19:45;117;0;130.68;-4;31.18;10.60;40.8;19.10;76906;2837.605;-1758.689;1;152;190;195.2;21.6;21.5;37;36.6;27.6;-1.0;
20/02/2025 05:20:05;117;0;133.48;-4;30.51;6.76;38.2;19.10;76906;2837.605;-1758.689;1;152;190;193.5;21.6;21.4;37;36.1;27.5;-1.0;
20/02/2025 05:20:25;117;0;136.15;-4;30.49;6.67;35.6;19.10;76910;2837.604;-1758.689;1;152;190;193.5;21.6;21.4;37;36.1;27.6;-1.0;
20/02/2025 05:20:45;117;0;131.76;-4;30.04;6.81;33.1;19.20;76929;2837.604;-1758.689;1;152;190;193.5;21.6;21.4;37;36.1;27.6;-1.0;
20/02/2025 05:21:05;117;0;132.88;-4;30.45;6.80;30.5;19.20;76938;2837.604;-1758.689;1;152;190;195.2;21.6;21.4;37;36.6;27.6;-1.0;
20/02/2025 05:21:25;117;0;130.02;-4;30.25;6.52;28.0;19.20;76936;2837.604;-1758.688;1;152;190;195.2;21.6;21.4;37;36.6;27.6;-1.0;
20/02/2025 05:21:45;117;0;124.40;-4;29.88;6.78;25.6;19.20;76938;2837.605;-1758.688;1;152;190;195.2;21.6;21.4;41;41.1;27.5;-1.0;
20/02/2025 05:22:05;117;0;119.45;-4;31.76;9.80;23.1;19.20;76938;2837.605;-1758.688;1;152;190;193.5;21.6;21.4;45;45.1;27.5;-1.0;
20/02/2025 05:22:25;117;0;117.83;-4;31.06;11.96;20.6;19.30;76945;2837.606;-1758.687;1;152;190;193.5;21.6;21.4;49;49.2;27.5;-1.0;
20/02/2025 05:22:45;117;0;118.44;-4;30.14;13.89;18.0;19.30;76945;2837.606;-1758.687;1;152;190;195.2;21.6;21.5;49;49.6;27.6;-1.0;
20/02/2025 05:23:05;117;0;121.70;-4;32.78;13.92;15.2;19.30;76961;2837.606;-1758.686;1;152;190;195.2;22.4;22.5;44;43.8;27.5;-1.0;
20/02/2025 05:23:25;117;0;118.69;-4;28.58;10.59;12.2;19.30;76950;2837.607;-1758.685;1;152;190;193.5;22.0;21.8;54;54.6;27.5;-1.0;
20/02/2025 05:23:45;117;0;124.50;-4;29.91;17.06;9.5;19.30;76957;2837.607;-1758.684;1;152;190;191.9;22.0;21.8;42;42.0;27.6;-1.0;
20/02/2025 05:24:05;117;0;124.53;-4;28.43;9.32;6.8;19.30;76969;2837.607;-1758.684;1;152;190;195.2;21.5;21.4;42;41.1;27.5;-1.0;
20/02/2025 05:24:25;117;0;125.52;-4;30.63;8.89;4.1;19.40;76972;2837.607;-1758.683;1;152;190;195.2;21.5;21.2;42;41.1;27.5;-1.0;
20/02/2025 05:24:33;115;0;123.42;-4;30.47;8.72;3.0;19.30;76966;2837.607;-1758.683;1;152;500;201.6;100.0;63.0;0;-0.9;27.5;-1.0;
20/02/2025 05:24:43;115;0;113.55;-4;12.22;-13.19;2.1;19.40;76937;2837.607;-1758.682;1;153;500;322.6;100.0;100.0;0;-0.9;27.3;-1.0;
20/02/2025 05:24:53;115;0;117.57;-4;-60.00;-14.67;2.7;19.40;76667;2837.608;-1758.683;1;153;500;440.3;100.0;100.6;0;-0.9;27.3;-1.0;
20/02/2025 05:25:03;115;0;102.05;-4;-70.35;-5.89;2.7;19.40;76420;2837.608;-1758.684;1;153;500;506.5;100.0;100.6;0;-0.9;27.3;-1.0;
20/02/2025 05:25:13;115;0;91.05;-4;-34.46;-0.35;-0.2;19.40;76284;2837.609;-1758.682;1;153;500;506.5;100.0;100.4;0;-0.9;27.5;-1.0;
20/02/2025 05:25:33;119;0;92.08;-4;-55.52;-6.15;0.3;19.40;76298;2837.609;-1758.682;1;153;500;508.1;100.0;100.7;0;-0.9;27.6;-1.0;
20/02/2025 05:25:43;119;0;64.22;-4;-41.70;-9.17;-0.1;19.40;76303;2837.557;-1758.644;0;153;500;508.1;100.0;100.6;0;-0.9;27.5;-1.0;
