Timestamp;NavState;SecurityLevel;Heading;Declination;Pitch;Roll;Depth;Temperature;Pa;Lat;Lon;DeadReckoning;DesiredH;BallastCmd;BallastPos;LinCmd;LinPos;AngCmd;AngPos;Voltage;Altitude;
13/02/2025 17:21:58;119;0;237.37;-4;-56.52;-5.22;0.1;17.50;75901;2837.185;-1801.171;0;338;500;509.7;100.0;100.6;0;-0.5;28.7;-1.0;
13/02/2025 17:22:08;116;0;255.28;-4;-55.30;-14.09;0.1;17.60;75897;2837.188;-1801.167;0;338;500;506.5;100.0;100.6;0;-0.5;28.7;-1.0;
13/02/2025 17:22:37;116;0;244.00;-4;-49.70;-0.96;0.0;17.70;75916;2837.191;-1801.166;0;337;500;509.7;100.0;100.6;0;-0.5;28.7;-1.0;
13/02/2025 17:23:04;116;0;243.16;-4;-58.18;-15.56;0.0;17.80;75925;2837.190;-1801.166;0;-9999;500;509.7;100.0;100.6;0;-0.5;28.7;-1.0;
13/02/2025 17:23:21;116;0;241.94;-4;-56.67;-13.27;0.1;17.80;75942;2837.191;-1801.165;0;337;500;509.7;100.0;100.6;0;-0.5;28.7;-1.0;
13/02/2025 17:23:41;116;0;241.77;-4;-52.31;-14.70;0.0;17.90;75948;2837.193;-1801.165;0;337;500;509.7;100.0;100.6;0;-0.5;28.7;-1.0;
13/02/2025 17:23:52;116;0;256.76;-4;-53.06;-9.57;0.0;17.90;75946;2837.193;-1801.165;0;337;500;511.3;100.0;100.6;0;-0.5;28.7;-1.0;
13/02/2025 17:24:54;116;0;252.63;-4;-54.83;-15.15;0.2;18.10;75975;2837.196;-1801.159;0;-9999;500;508.1;100.0;100.6;0;-0.5;28.6;-1.0;
13/02/2025 17:25:59;116;0;255.08;-4;-58.77;-14.10;0.1;18.40;76000;2837.200;-1801.155;0;336;500;508.1;100.0;100.6;0;-0.5;28.7;-1.0;
13/02/2025 17:26:19;116;0;248.28;-4;-54.91;-7.24;0.2;18.50;76004;2837.201;-1801.154;0;335;500;509.7;100.0;100.7;0;-0.5;28.7;-1.0;
13/02/2025 17:26:39;116;0;265.43;-4;-53.53;-15.78;0.2;18.60;76016;2837.202;-1801.153;0;335;500;508.1;100.0;100.6;0;-0.5;28.7;-1.0;
13/02/2025 17:27:42;116;0;254.08;-4;-54.24;-10.56;0.1;18.90;76028;2837.204;-1801.147;0;335;500;509.7;100.0;100.7;0;-0.5;28.7;-1.0;
13/02/2025 17:28:04;116;0;243.01;-4;-53.66;-11.39;0.2;19.00;76040;2837.205;-1801.146;0;334;500;506.5;100.0;100.6;0;-0.5;28.7;-1.0;
13/02/2025 17:28:24;116;0;240.19;-4;-54.16;-16.21;0.1;19.10;76047;2837.206;-1801.145;0;334;500;508.1;100.0;100.6;0;-0.5;28.7;-1.0;
13/02/2025 17:28:44;116;0;251.66;-4;-53.58;-13.34;0.1;19.10;76052;2837.208;-1801.143;0;333;500;509.7;100.0;100.7;0;-0.5;28.7;-1.0;
13/02/2025 17:29:04;116;0;260.30;-4;-53.85;-17.31;0.1;19.20;76060;2837.208;-1801.142;0;333;500;509.7;100.0;100.6;0;-0.5;28.7;-1.0;
13/02/2025 17:29:24;116;0;254.78;-4;-54.16;-17.25;0.2;19.30;76062;2837.210;-1801.141;0;333;500;506.5;100.0;100.6;0;-0.5;28.7;-1.0;
13/02/2025 17:29:44;116;0;264.77;-4;-50.54;-20.92;0.3;19.40;76067;2837.210;-1801.140;0;333;500;509.7;100.0;100.6;0;-0.5;28.7;-1.0;
13/02/2025 17:30:04;116;0;265.52;-4;-53.16;-15.33;0.1;19.40;76092;2837.211;-1801.140;0;333;500;509.7;100.0;100.6;0;-0.5;28.7;-1.0;
13/02/2025 17:30:24;116;0;249.89;-4;-53.50;-10.84;0.1;19.50;76075;2837.211;-1801.141;0;332;500;509.7;100.0;100.6;0;-0.5;28.7;-1.0;
13/02/2025 17:30:44;116;0;249.44;-4;-56.67;-16.80;0.1;19.50;76089;2837.212;-1801.140;0;332;500;508.1;100.0;100.6;0;-0.5;28.7;-1.0;
13/02/2025 17:31:04;116;0;251.87;-4;-53.31;-12.25;0.1;19.60;76096;2837.212;-1801.139;0;332;500;508.1;100.0;100.6;0;-0.5;28.7;-1.0;
13/02/2025 17:31:24;116;0;259.64;-4;-54.58;-9.64;0.1;19.70;76105;2837.213;-1801.139;0;332;500;509.7;100.0;100.6;0;-0.5;28.7;-1.0;
13/02/2025 17:31:44;116;0;260.82;-4;-57.47;-9.49;0.1;19.70;76100;2837.214;-1801.138;0;332;500;508.1;100.0;100.6;0;-0.5;28.7;-1.0;
13/02/2025 17:32:04;116;0;268.85;-4;-53.35;-18.79;0.1;19.80;76106;2837.214;-1801.136;0;332;500;508.1;100.0;100.6;0;-0.5;28.7;-1.0;
13/02/2025 17:32:24;116;0;248.28;-4;-55.00;-8.76;0.1;19.80;76105;2837.215;-1801.135;0;332;500;508.1;100.0;100.6;0;-0.5;28.7;-1.0;
13/02/2025 17:32:44;116;0;234.22;-4;-55.02;-8.30;0.1;19.90;76117;2837.216;-1801.134;0;332;500;509.7;100.0;100.7;0;-0.5;28.7;-1.0;
13/02/2025 17:33:04;116;0;252.20;-4;-48.78;-13.94;0.1;19.90;76117;2837.218;-1801.133;0;331;500;508.1;100.0;100.6;0;-0.5;28.7;-1.0;
13/02/2025 17:33:26;116;0;272.33;-4;-59.06;-17.64;0.2;20.00;76131;2837.218;-1801.130;0;331;500;508.1;100.0;100.6;0;-0.5;28.7;-1.0;
13/02/2025 17:33:46;116;0;284.02;-4;-51.50;-14.73;0.2;20.00;76129;2837.219;-1801.129;0;331;500;508.1;100.0;100.7;0;-0.5;28.7;-1.0;
13/02/2025 17:33:57;116;0;264.17;-4;-55.93;-9.77;0.1;20.10;76139;2837.220;-1801.129;0;331;500;509.7;100.0;100.6;0;-0.5;28.7;-1.0;
13/02/2025 17:34:17;116;0;267.70;-4;-54.01;-13.37;0.2;20.10;76139;2837.221;-1801.128;0;331;500;509.7;100.0;100.6;0;-0.5;28.7;-1.0;
13/02/2025 17:34:37;116;0;266.74;-4;-58.55;-8.17;0.1;20.20;76142;2837.222;-1801.126;0;330;500;508.1;100.0;100.7;0;-0.5;28.7;-1.0;
13/02/2025 17:34:57;116;0;265.35;-4;-55.28;-8.59;0.2;20.20;76138;2837.224;-1801.126;0;330;500;508.1;100.0;100.7;0;-0.5;28.7;-1.0;
13/02/2025 17:35:17;116;0;265.05;-4;-53.62;-15.82;0.2;20.30;76145;2837.225;-1801.124;0;330;500;508.1;100.0;100.7;0;-0.5;28.7;-1.0;
13/02/2025 17:35:37;116;0;287.43;-4;-50.82;-12.84;0.0;20.30;76164;2837.227;-1801.122;0;330;500;508.1;100.0;100.6;0;0.0;28.7;-1.0;
13/02/2025 17:35:54;116;0;303.93;-4;-53.59;-17.22;0.0;20.30;76164;2837.227;-1801.121;0;329;500;509.7;100.0;100.6;0;-0.5;28.7;-1.0;
13/02/2025 17:36:17;116;0;294.32;-4;-52.39;-16.56;0.1;20.40;76157;2837.229;-1801.121;0;329;500;508.1;100.0;100.6;0;-0.5;28.7;-1.0;
13/02/2025 17:36:28;116;0;286.73;-4;-52.42;-11.65;0.1;20.40;76170;2837.229;-1801.120;0;329;500;509.7;100.0;100.6;0;-0.5;28.7;-1.0;
13/02/2025 17:36:48;110;0;279.78;-4;-53.22;-16.66;0.2;20.40;76158;2837.229;-1801.120;0;329;-100;395.2;100.0;99.9;-12;-12.6;28.7;-1.0;
13/02/2025 17:36:58;110;0;276.42;-4;-55.89;-26.65;0.1;20.40;76510;2837.229;-1801.120;1;329;-100;246.8;100.0;99.9;-12;-12.6;28.7;-1.0;
13/02/2025 17:37:08;110;0;279.96;-4;-56.91;-18.37;0.6;20.40;76748;2837.229;-1801.120;1;329;-100;85.5;100.0;99.9;-12;-12.6;28.7;-1.0;
13/02/2025 17:37:18;110;0;249.95;-4;-69.32;-15.41;1.0;20.50;77089;2837.229;-1801.120;1;329;-100;-80.6;100.0;99.9;-12;-12.6;28.7;-1.0;
13/02/2025 17:37:28;110;0;247.29;-4;-64.51;-15.62;1.5;20.50;77450;2837.229;-1801.120;1;329;-100;-100.0;49.2;49.2;-12;-12.6;28.6;-1.0;
13/02/2025 17:37:38;110;0;266.55;-4;-50.22;-19.08;3.3;20.50;77432;2837.229;-1801.121;1;329;-100;-101.6;49.2;48.9;-12;-12.6;28.7;-1.0;
13/02/2025 17:37:58;100;0;282.54;-4;-31.91;-18.30;7.3;20.50;77425;2837.230;-1801.125;1;329;-100;-98.4;49.2;48.7;-12;-12.6;28.7;-1.0;
13/02/2025 17:38:18;100;0;285.58;-4;-30.23;-17.82;12.3;20.50;77410;2837.231;-1801.130;1;330;-100;-98.4;49.2;48.6;-42;-42.0;28.7;-1.0;
13/02/2025 17:38:38;100;0;294.36;-4;-29.90;-31.67;16.9;20.50;77402;2837.232;-1801.134;1;330;-100;-98.4;49.2;49.3;-31;-30.7;28.7;0.0;
13/02/2025 17:38:58;100;0;304.98;-4;-30.01;-25.65;21.4;20.50;77413;2837.234;-1801.137;1;330;-100;-98.4;49.2;49.6;-14;-13.5;28.7;0.0;
13/02/2025 17:39:18;100;0;311.20;-4;-31.10;-17.73;26.1;20.50;77409;2837.237;-1801.141;1;331;-100;-96.8;49.2;49.6;-5;-5.0;28.7;0.0;
13/02/2025 17:39:38;100;0;315.00;-4;-32.10;-13.59;30.9;20.50;77404;2837.240;-1801.144;1;331;-100;-96.8;48.6;48.3;1;1.4;28.7;0.0;
13/02/2025 17:39:58;100;0;319.52;-4;-30.44;-10.66;35.6;20.50;77410;2837.243;-1801.147;1;331;-100;-96.8;48.6;48.3;6;5.9;28.7;0.0;
13/02/2025 17:40:18;100;0;321.73;-4;-30.09;-8.38;40.2;20.40;77406;2837.246;-1801.150;1;331;-100;-98.4;48.6;48.2;8;8.6;28.7;0.0;
13/02/2025 17:40:38;100;0;322.13;-4;-29.93;-7.02;44.8;20.40;77413;2837.249;-1801.152;1;331;-100;-96.8;48.6;48.3;8;9.0;28.7;0.0;
13/02/2025 17:40:58;100;0;321.59;-4;-30.10;-7.06;49.4;20.40;77416;2837.252;-1801.155;1;331;-100;-98.4;48.6;48.3;8;8.6;28.7;0.0;
13/02/2025 17:41:18;100;0;321.91;-4;-30.64;-7.03;54.1;20.40;77419;2837.255;-1801.158;1;331;-100;-96.8;48.6;48.2;8;9.0;28.7;0.0;
13/02/2025 17:41:38;100;0;321.81;-4;-29.93;-7.02;58.8;20.40;77410;2837.258;-1801.161;1;331;-100;-96.8;48.6;48.3;8;9.0;28.7;0.0;
13/02/2025 17:41:58;100;0;321.55;-4;-29.94;-7.07;63.5;20.40;77421;2837.262;-1801.164;1;332;-100;-96.8;48.6;48.3;8;9.0;28.7;0.0;
13/02/2025 17:42:18;100;0;321.13;-4;-30.60;-7.00;68.1;20.40;77425;2837.265;-1801.166;1;332;-100;-96.8;48.6;48.3;8;9.0;28.7;0.0;
13/02/2025 17:42:38;100;0;320.73;-4;-30.07;-7.05;72.8;20.30;77428;2837.268;-1801.169;1;332;-100;-98.4;48.6;48.2;6;5.9;28.7;0.0;
13/02/2025 17:42:58;100;0;321.00;-4;-30.03;-8.88;77.6;20.30;77430;2837.271;-1801.172;1;332;-100;-96.8;48.6;48.2;6;5.4;28.7;0.0;
13/02/2025 17:43:18;100;0;321.78;-4;-30.13;-8.87;82.3;20.30;77438;2837.274;-1801.175;1;332;-100;-98.4;48.6;48.3;6;5.4;28.7;0.0;
13/02/2025 17:43:38;100;0;322.39;-4;-30.30;-8.83;87.0;20.30;77436;2837.277;-1801.178;1;332;-100;-95.2;48.6;48.2;8;8.1;28.7;0.0;
13/02/2025 17:43:58;100;0;322.49;-4;-30.16;-7.10;91.8;20.30;77442;2837.281;-1801.181;1;332;-100;-96.8;48.6;48.3;8;8.6;28.7;0.0;
13/02/2025 17:44:18;100;0;322.27;-4;-29.96;-7.10;96.5;20.30;77440;2837.284;-1801.184;1;332;-100;-96.8;48.6;48.3;8;9.0;28.7;0.0;
13/02/2025 17:44:38;100;0;322.27;-4;-29.92;-7.13;101.2;20.30;77454;2837.287;-1801.186;1;333;-100;-96.8;48.6;48.3;8;8.6;28.7;0.0;
13/02/2025 17:44:58;100;0;321.96;-4;-30.20;-7.14;105.9;20.30;77444;2837.290;-1801.189;1;333;-100;-96.8;48.6;48.3;6;5.4;28.7;0.0;
13/02/2025 17:45:18;100;0;322.82;-4;-29.74;-8.98;110.5;20.20;77464;2837.294;-1801.192;1;333;-100;-95.2;48.6;48.3;6;5.4;28.7;0.0;
13/02/2025 17:45:38;100;0;323.66;-4;-29.78;-8.95;115.1;20.20;77454;2837.297;-1801.195;1;333;-100;-96.8;48.6;48.3;8;8.1;28.7;0.0;
13/02/2025 17:45:58;100;0;324.11;-4;-29.75;-7.20;119.7;20.20;77454;2837.300;-1801.197;1;333;-100;-96.8;48.6;48.3;8;8.6;28.7;0.0;
13/02/2025 17:46:18;100;0;326.20;-4;-29.36;-7.30;124.1;20.20;77440;2837.303;-1801.200;1;333;-100;-98.4;48.6;48.2;8;8.6;28.7;0.0;
13/02/2025 17:46:38;100;0;327.33;-4;-29.86;-7.25;128.5;20.20;77444;2837.306;-1801.202;1;333;-100;-96.8;48.6;48.3;10;9.9;28.7;0.0;
13/02/2025 17:46:58;100;0;328.19;-4;-29.94;-6.41;133.0;20.20;77444;2837.310;-1801.204;1;333;-100;-96.8;48.6;48.3;10;9.9;28.7;0.0;
13/02/2025 17:47:18;100;0;321.67;-4;-30.50;-6.31;137.6;20.20;77422;2837.313;-1801.207;1;334;-100;-96.8;48.6;48.2;5;4.5;28.7;0.0;
13/02/2025 17:47:38;100;0;317.38;-4;-29.24;-9.43;142.1;20.10;77371;2837.316;-1801.210;1;334;-100;-96.8;48.6;48.3;0;0.0;28.7;0.0;
13/02/2025 17:47:58;100;0;313.52;-4;-28.99;-11.69;146.4;20.10;77329;2837.318;-1801.213;1;334;-100;-100.0;48.9;49.0;-6;-5.9;28.7;0.0;
13/02/2025 17:48:18;100;0;317.25;-4;-28.88;-14.65;150.6;20.10;77294;2837.321;-1801.216;1;334;-100;-96.8;49.2;49.5;0;0.0;28.7;0.0;
13/02/2025 17:48:38;100;0;321.12;-4;-30.24;-11.24;154.8;20.00;77273;2837.324;-1801.219;1;335;-100;-96.8;49.2;49.5;4;4.5;28.7;0.0;
13/02/2025 17:48:58;100;0;324.15;-4;-30.73;-9.16;159.3;20.00;77267;2837.327;-1801.221;1;335;-100;-98.4;49.2;49.5;7;7.7;28.7;0.0;
13/02/2025 17:49:18;100;0;327.99;-4;-31.13;-7.51;163.8;19.90;77258;2837.330;-1801.224;1;335;-100;-96.8;49.2;49.6;9;9.0;28.7;0.0;
13/02/2025 17:49:38;100;0;328.52;-4;-31.37;-6.83;168.6;19.90;77243;2837.334;-1801.226;1;335;-100;-98.4;49.2;49.6;9;9.5;28.7;0.0;
13/02/2025 17:49:58;100;0;327.83;-4;-32.18;-6.61;173.5;19.80;77220;2837.337;-1801.228;1;335;-100;-96.8;48.6;48.6;9;9.5;28.7;0.0;
13/02/2025 17:50:18;100;0;324.39;-4;-31.35;-6.68;178.5;19.80;77210;2837.340;-1801.231;1;335;-100;-100.0;48.6;48.5;6;5.9;28.7;0.0;
13/02/2025 17:50:38;100;0;323.62;-4;-30.42;-8.80;183.5;19.80;77189;2837.344;-1801.234;1;335;-100;-96.8;48.6;48.5;6;5.4;28.7;0.0;
13/02/2025 17:50:58;100;0;330.56;-4;-30.07;-8.77;188.3;19.70;77165;2837.348;-1801.236;1;336;-100;-98.4;48.6;48.3;9;9.0;28.7;0.0;
13/02/2025 17:51:18;100;0;332.32;-4;-30.06;-6.79;193.2;19.70;77151;2837.351;-1801.238;1;336;-100;-100.0;48.6;48.3;9;9.5;28.7;0.0;
13/02/2025 17:51:38;100;0;329.07;-4;-29.71;-6.89;197.8;19.60;77116;2837.355;-1801.241;1;336;-100;-96.8;48.6;48.5;9;9.5;28.7;0.0;
13/02/2025 17:51:42;118;0;329.62;-4;-29.63;-6.93;198.8;19.60;77117;2837.355;-1801.241;1;336;220;-91.9;23.1;23.1;12;12.6;28.7;0.0;
13/02/2025 17:51:52;118;0;358.85;-4;-17.69;-5.93;200.4;19.60;77091;2837.358;-1801.241;1;335;220;38.7;23.1;22.8;12;12.6;28.3;-1.0;
13/02/2025 17:52:02;118;0;4.16;-4;6.24;-5.84;201.2;19.60;76801;2837.359;-1801.241;1;335;220;162.9;23.1;22.5;12;12.6;28.3;-1.0;
13/02/2025 17:52:12;118;0;2.66;-4;20.21;-6.51;200.9;19.60;76535;2837.359;-1801.241;1;335;220;222.6;23.1;23.3;12;12.6;28.3;-1.0;
13/02/2025 17:52:22;118;0;329.54;-4;23.54;-6.22;199.9;19.50;76424;2837.360;-1801.242;1;335;220;222.6;23.1;23.4;12;12.6;28.7;-1.0;
13/02/2025 17:52:42;117;0;323.80;-4;24.54;-6.18;198.0;19.50;76421;2837.362;-1801.243;1;335;220;222.6;23.1;23.4;12;12.6;28.7;-1.0;
13/02/2025 17:53:02;117;0;321.55;-4;24.65;-6.24;195.8;19.40;76412;2837.364;-1801.244;1;336;220;222.6;21.5;21.4;41;41.1;28.7;-1.0;
13/02/2025 17:53:23;117;0;324.28;-4;29.88;9.37;193.5;19.40;76411;2837.365;-1801.246;1;336;220;222.6;21.5;21.4;38;37.5;28.7;-1.0;
13/02/2025 17:53:43;117;0;324.21;-4;30.72;6.86;190.7;19.30;76414;2837.367;-1801.247;1;336;220;222.6;21.5;21.2;38;37.0;28.7;-1.0;
13/02/2025 17:54:03;117;0;321.49;-4;30.52;6.90;188.0;19.30;76417;2837.369;-1801.249;1;336;220;222.6;21.5;21.2;41;41.1;28.7;-1.0;
13/02/2025 17:54:23;117;0;320.16;-4;30.94;9.31;185.2;19.20;76434;2837.370;-1801.250;1;336;220;219.4;21.5;21.2;43;43.3;28.7;-1.0;
13/02/2025 17:54:43;117;0;323.70;-4;31.06;10.43;182.4;19.20;76436;2837.372;-1801.252;1;336;220;222.6;21.5;21.2;39;38.4;28.7;-1.0;
13/02/2025 17:55:03;117;0;328.15;-4;30.93;7.61;179.6;19.10;76433;2837.374;-1801.253;1;336;220;222.6;21.5;21.2;36;36.1;28.7;-1.0;
13/02/2025 17:55:23;117;0;330.49;-4;30.75;6.09;176.8;19.10;76440;2837.376;-1801.255;1;336;220;222.6;21.5;21.2;36;35.6;28.7;-1.0;
13/02/2025 17:55:43;117;0;330.63;-4;30.36;6.11;174.0;19.10;76458;2837.378;-1801.256;1;336;220;222.6;21.5;21.2;36;35.6;28.7;-1.0;
13/02/2025 17:56:03;117;0;330.95;-4;30.97;6.20;170.9;19.00;76460;2837.381;-1801.257;1;337;220;222.6;21.5;21.2;36;35.6;28.7;-1.0;
13/02/2025 17:56:23;117;0;328.35;-4;30.62;6.12;167.9;19.00;76474;2837.383;-1801.259;1;337;220;222.6;21.5;21.2;36;35.6;28.7;-1.0;
13/02/2025 17:56:43;117;0;325.84;-4;30.80;6.20;164.9;19.00;76479;2837.385;-1801.260;1;337;220;222.6;21.5;21.2;38;38.4;28.7;-1.0;
13/02/2025 17:57:03;117;0;325.47;-4;30.71;7.77;161.9;19.00;76478;2837.387;-1801.262;1;337;220;222.6;21.5;21.2;38;38.8;28.7;-1.0;
13/02/2025 17:57:23;117;0;325.65;-4;30.99;7.72;158.8;19.00;76471;2837.389;-1801.263;1;337;220;224.2;21.5;21.2;38;38.8;28.7;-1.0;
13/02/2025 17:57:43;117;0;325.26;-4;30.81;7.73;155.6;18.90;76491;2837.391;-1801.265;1;337;220;222.6;21.5;21.1;38;38.8;28.7;-1.0;
13/02/2025 17:58:03;117;0;324.85;-4;31.42;7.84;152.5;18.90;76482;2837.393;-1801.267;1;337;220;222.6;21.5;21.2;38;38.8;28.7;-1.0;
13/02/2025 17:58:23;117;0;328.59;-4;30.66;7.79;149.2;18.90;76488;2837.396;-1801.268;1;338;220;222.6;21.5;21.2;38;38.8;28.7;-1.0;
13/02/2025 17:58:43;117;0;335.44;-4;30.19;7.86;146.2;18.90;76512;2837.398;-1801.269;1;338;220;222.6;21.5;21.2;35;34.7;28.6;-1.0;
13/02/2025 17:59:03;117;0;338.46;-4;30.58;5.85;143.2;18.90;76527;2837.400;-1801.270;1;338;220;222.6;21.5;21.2;35;35.2;28.7;-1.0;
13/02/2025 17:59:23;117;0;344.99;-4;29.31;5.60;140.2;18.90;76544;2837.403;-1801.271;1;337;220;222.6;21.5;21.2;32;32.0;28.7;-1.0;
13/02/2025 17:59:43;117;0;346.68;-4;29.97;4.33;137.5;18.90;76587;2837.405;-1801.272;1;337;220;222.6;21.5;21.4;32;32.5;28.7;-1.0;
13/02/2025 18:00:03;117;0;347.40;-4;29.99;4.29;134.8;18.90;76619;2837.407;-1801.272;1;337;220;222.6;21.5;21.2;30;29.3;28.7;-1.0;
13/02/2025 18:00:23;117;0;344.92;-4;29.76;2.38;132.1;18.90;76640;2837.410;-1801.273;1;337;220;224.2;21.5;21.2;32;32.0;28.7;-1.0;
13/02/2025 18:00:43;117;0;343.34;-4;29.96;4.30;129.3;18.90;76648;2837.412;-1801.274;1;337;220;222.6;21.5;21.2;32;32.5;28.7;-1.0;
13/02/2025 18:01:03;117;0;342.31;-4;29.96;4.34;126.6;18.90;76661;2837.414;-1801.274;1;337;220;222.6;21.5;21.2;34;33.8;28.7;-1.0;
13/02/2025 18:01:23;117;0;341.91;-4;30.49;5.44;123.8;18.90;76667;2837.416;-1801.275;1;337;220;224.2;21.5;21.2;34;34.3;28.7;-1.0;
13/02/2025 18:01:43;117;0;341.11;-4;30.15;5.45;120.9;18.90;76671;2837.419;-1801.276;1;337;220;222.6;21.5;21.2;34;34.3;28.7;-1.0;
13/02/2025 18:02:03;117;0;340.22;-4;30.13;5.47;117.9;19.00;76683;2837.421;-1801.277;1;336;220;222.6;21.5;21.2;34;34.3;28.7;-1.0;
13/02/2025 18:02:23;117;0;340.09;-4;29.98;5.49;115.1;19.00;76693;2837.423;-1801.278;1;336;220;222.6;21.5;21.2;34;34.3;28.7;-1.0;
13/02/2025 18:02:43;117;0;340.39;-4;30.30;5.38;112.4;19.00;76712;2837.426;-1801.279;1;336;220;222.6;21.5;21.2;34;34.3;28.7;-1.0;
13/02/2025 18:03:03;117;0;339.86;-4;30.15;5.44;109.6;19.00;76712;2837.428;-1801.280;1;336;220;222.6;21.5;21.2;34;34.3;28.7;-1.0;
13/02/2025 18:03:23;117;0;339.48;-4;30.06;5.49;106.7;19.00;76723;2837.430;-1801.280;1;336;220;222.6;21.5;21.2;34;34.3;28.7;-1.0;
13/02/2025 18:03:43;117;0;338.74;-4;30.01;5.42;104.0;19.00;76727;2837.432;-1801.281;1;336;220;222.6;21.5;21.2;34;34.3;28.7;-1.0;
13/02/2025 18:04:03;117;0;338.01;-4;30.10;5.45;101.2;19.00;76727;2837.434;-1801.282;1;336;220;222.6;21.5;21.4;34;34.3;28.7;-1.0;
13/02/2025 18:04:23;117;0;337.86;-4;30.22;5.51;98.5;19.00;76735;2837.437;-1801.283;1;336;220;222.6;21.5;21.2;34;34.3;28.7;-1.0;
13/02/2025 18:04:43;117;0;338.20;-4;30.17;5.46;95.7;19.10;76740;2837.439;-1801.284;1;336;220;222.6;21.5;21.2;34;34.3;28.7;-1.0;
13/02/2025 18:05:03;117;0;337.48;-4;30.23;5.44;92.9;19.10;76742;2837.441;-1801.285;1;336;220;222.6;21.5;21.2;34;34.3;28.7;-1.0;
13/02/2025 18:05:23;117;0;337.53;-4;30.14;5.48;90.2;19.10;76747;2837.443;-1801.286;1;336;220;222.6;21.5;21.2;34;34.3;28.7;-1.0;
13/02/2025 18:05:43;117;0;337.98;-4;30.08;5.45;87.3;19.10;76746;2837.445;-1801.287;1;336;220;222.6;21.5;21.4;34;34.3;28.7;-1.0;
13/02/2025 18:06:03;117;0;338.26;-4;30.17;5.46;84.7;19.10;76749;2837.448;-1801.288;1;336;220;222.6;21.5;21.2;34;34.3;28.7;-1.0;
13/02/2025 18:06:23;117;0;338.20;-4;30.11;5.48;81.9;19.10;76749;2837.450;-1801.289;1;335;220;222.6;21.5;21.2;34;34.3;28.7;-1.0;
13/02/2025 18:06:43;117;0;338.50;-4;30.12;5.46;79.1;19.10;76765;2837.452;-1801.290;1;335;220;222.6;21.5;21.2;34;34.3;28.7;-1.0;
13/02/2025 18:07:03;117;0;338.80;-4;30.18;5.48;76.4;19.20;76762;2837.454;-1801.291;1;335;220;222.6;21.5;21.2;34;34.3;28.7;-1.0;
13/02/2025 18:07:23;117;0;339.13;-4;30.14;5.48;73.7;19.20;76770;2837.456;-1801.292;1;335;220;222.6;21.5;21.2;34;34.3;28.7;-1.0;
13/02/2025 18:07:43;117;0;338.29;-4;30.07;5.48;70.9;19.20;76767;2837.459;-1801.293;1;335;220;222.6;21.5;21.2;34;34.3;28.7;-1.0;
13/02/2025 18:08:03;117;0;338.31;-4;30.28;5.47;68.2;19.20;76766;2837.461;-1801.294;1;335;220;224.2;21.5;21.2;34;34.3;28.7;-1.0;
13/02/2025 18:08:23;117;0;338.16;-4;30.26;5.45;65.3;19.20;76763;2837.463;-1801.295;1;335;220;222.6;21.5;21.2;34;34.3;28.7;-1.0;
13/02/2025 18:08:43;117;0;337.16;-4;30.05;5.48;62.6;19.20;76773;2837.465;-1801.296;1;335;220;222.6;21.5;21.2;34;34.3;28.7;-1.0;
13/02/2025 18:09:03;117;0;337.10;-4;30.20;5.47;59.8;19.20;76776;2837.467;-1801.297;1;335;220;222.6;21.5;21.2;34;34.3;28.7;-1.0;
13/02/2025 18:09:23;117;0;336.74;-4;30.19;5.46;57.1;19.20;76778;2837.469;-1801.298;1;335;220;224.2;21.5;21.2;34;34.3;28.7;-1.0;
13/02/2025 18:09:43;117;0;337.05;-4;30.01;5.46;54.2;19.20;76778;2837.472;-1801.299;1;334;220;222.6;21.5;21.2;34;34.3;28.7;-1.0;
13/02/2025 18:10:03;117;0;336.87;-4;30.07;5.46;51.5;19.30;76785;2837.474;-1801.300;1;334;220;222.6;21.5;21.2;34;34.3;28.7;-1.0;
13/02/2025 18:10:23;117;0;337.14;-4;30.08;5.47;48.6;19.30;76779;2837.476;-1801.301;1;334;220;222.6;21.5;21.2;34;34.3;28.7;-1.0;
13/02/2025 18:10:43;117;0;336.72;-4;29.87;5.49;45.8;19.30;76779;2837.478;-1801.302;1;334;220;222.6;21.5;21.2;34;34.3;28.7;-1.0;
13/02/2025 18:11:03;117;0;336.25;-4;30.44;5.45;43.0;19.30;76779;2837.481;-1801.303;1;334;220;222.6;21.5;21.2;34;34.3;28.7;-1.0;
13/02/2025 18:11:23;117;0;336.10;-4;29.97;5.53;40.3;19.30;76784;2837.483;-1801.304;1;334;220;222.6;21.5;21.2;34;34.3;28.7;-1.0;
13/02/2025 18:11:43;117;0;335.35;-4;29.81;5.49;37.4;19.30;76793;2837.485;-1801.305;1;334;220;222.6;21.5;21.4;34;34.3;28.7;-1.0;
13/02/2025 18:12:03;117;0;334.96;-4;30.16;5.55;34.6;19.40;76795;2837.487;-1801.306;1;334;220;224.2;21.5;21.2;34;34.3;28.7;-1.0;
13/02/2025 18:12:23;117;0;336.15;-4;30.21;5.43;31.8;19.40;76798;2837.489;-1801.307;1;334;220;222.6;21.5;21.2;34;34.3;28.7;-1.0;
13/02/2025 18:12:43;117;0;334.73;-4;29.93;5.48;29.0;19.40;76792;2837.491;-1801.308;1;334;220;222.6;21.5;21.2;34;34.3;28.7;-1.0;
13/02/2025 18:13:03;117;0;335.15;-4;30.18;5.52;26.3;19.40;76796;2837.494;-1801.309;1;333;220;222.6;21.5;21.2;34;34.3;28.7;-1.0;
13/02/2025 18:13:23;117;0;335.29;-4;29.80;5.52;23.4;19.40;76799;2837.496;-1801.310;1;333;220;222.6;21.5;21.2;34;34.3;28.7;-1.0;
13/02/2025 18:13:43;117;0;335.50;-4;30.11;5.57;20.5;19.40;76796;2837.498;-1801.312;1;333;220;224.2;21.5;21.2;34;34.3;28.7;-1.0;
13/02/2025 18:14:03;117;0;335.00;-4;29.92;5.50;17.7;19.40;76803;2837.500;-1801.313;1;333;220;222.6;21.5;21.2;34;34.3;28.7;-1.0;
13/02/2025 18:14:23;117;0;333.35;-4;29.99;5.57;14.9;19.40;76806;2837.502;-1801.314;1;333;220;222.6;21.5;21.2;34;34.3;28.7;-1.0;
13/02/2025 18:14:43;117;0;332.41;-4;30.30;5.48;12.1;19.40;76809;2837.505;-1801.315;1;333;220;222.6;21.5;21.2;34;34.3;28.7;-1.0;
13/02/2025 18:15:03;117;0;331.66;-4;29.98;5.53;9.3;19.40;76807;2837.507;-1801.316;1;333;220;219.4;21.5;21.2;34;34.3;28.7;-1.0;
13/02/2025 18:15:23;117;0;329.70;-4;29.87;5.39;6.5;19.40;76813;2837.509;-1801.318;1;333;220;222.6;21.5;21.2;34;34.3;28.7;-1.0;
13/02/2025 18:15:43;117;0;330.05;-4;30.77;5.62;3.8;19.50;76813;2837.511;-1801.319;1;333;220;222.6;21.5;21.2;34;34.3;28.7;-1.0;
13/02/2025 18:15:48;115;0;332.01;-4;31.41;5.88;3.0;19.50;76813;2837.511;-1801.319;1;333;500;230.6;100.0;65.1;0;-0.5;28.7;-1.0;
13/02/2025 18:15:58;115;0;342.99;-4;12.35;-13.42;1.8;19.50;76808;2837.513;-1801.320;1;333;500;350.0;100.0;100.0;0;-0.5;28.5;-1.0;
13/02/2025 18:16:08;115;0;315.52;-4;-55.30;-11.39;2.4;19.50;76550;2837.513;-1801.320;1;333;500;464.5;100.0;100.6;0;-0.5;28.5;-1.0;
13/02/2025 18:16:18;115;0;267.03;-4;-66.37;-17.73;2.3;19.50;76291;2837.513;-1801.320;1;333;500;506.5;100.0;100.7;0;-0.5;28.5;-1.0;
13/02/2025 18:16:28;115;0;259.71;-4;-40.25;-6.19;-0.6;19.50;76220;2837.513;-1801.322;1;336;500;506.5;100.0;100.6;0;-0.5;28.7;-1.0;
13/02/2025 18:16:48;119;0;253.99;-4;-65.79;-23.35;-0.1;19.60;76244;2837.513;-1801.322;1;336;500;509.7;100.0;100.7;0;-0.5;28.7;-1.0;
13/02/2025 18:16:58;119;0;253.51;-4;-54.13;-11.96;-0.3;19.60;76243;2837.594;-1801.270;0;336;500;509.7;100.0;100.7;0;-0.5;28.7;-1.0;
