Timestamp;NavState;SecurityLevel;Heading;Declination;Pitch;Roll;Depth;Temperature;Pa;Lat;Lon;DeadReckoning;DesiredH;BallastCmd;BallastPos;LinCmd;LinPos;AngCmd;AngPos;Voltage;Altitude;
19/02/2025 05:14:49;119;0;33.77;-4;-53.27;-14.27;0.0;19.30;76316;2837.140;-1758.316;0;217;500;509.7;100.0;100.7;0;-0.9;27.8;-1.0;
19/02/2025 05:14:59;116;0;32.66;-4;-53.99;-27.78;-0.2;19.30;76320;2837.140;-1758.315;0;214;500;509.7;100.0;100.6;0;-0.9;27.8;-1.0;
19/02/2025 05:15:24;116;0;44.60;-4;-49.44;-16.69;0.0;19.40;76322;2837.140;-1758.316;0;215;500;509.7;100.0;100.6;0;-0.9;27.8;-1.0;
19/02/2025 05:15:33;116;0;35.04;-4;-60.85;-24.60;-0.1;19.40;76321;2837.140;-1758.314;0;214;500;509.7;100.0;100.6;0;-0.9;27.8;-1.0;
19/02/2025 05:15:40;116;0;41.77;-4;-59.89;-9.55;-0.1;19.40;76326;2837.140;-1758.314;0;215;500;509.7;100.0;100.7;0;-0.9;27.8;-1.0;
19/02/2025 05:16:05;116;0;56.75;-4;-55.92;-14.67;0.1;19.40;76316;2837.142;-1758.317;0;-9999;500;509.7;100.0;100.6;0;-0.9;27.7;-1.0;
19/02/2025 05:16:21;116;0;35.04;-4;-47.15;-12.89;0.1;19.50;76343;2837.142;-1758.315;0;279;500;508.1;100.0;100.6;0;-0.9;27.7;-1.0;
19/02/2025 05:16:32;116;0;34.47;-4;-53.81;-2.98;0.0;19.50;76333;2837.141;-1758.313;0;279;500;506.5;100.0;100.6;0;-0.9;27.8;-1.0;
19/02/2025 05:17:17;116;0;31.54;-4;-59.06;-6.72;-0.1;19.60;76340;2837.143;-1758.311;0;279;500;508.1;100.0;100.6;0;-0.5;27.8;-1.0;
19/02/2025 05:18:03;116;0;47.78;-4;-62.23;-11.02;-0.1;19.70;76354;2837.144;-1758.309;0;279;500;509.7;100.0;100.6;0;-0.9;27.7;-1.0;
19/02/2025 05:18:13;116;0;46.15;-4;-48.87;-24.38;0.1;19.70;76357;2837.145;-1758.310;0;279;500;508.1;100.0;100.6;0;-0.5;27.8;-1.0;
19/02/2025 05:18:33;110;0;12.46;-4;-54.86;-16.70;0.0;19.70;76362;2837.145;-1758.310;0;279;-50;396.8;100.0;100.6;-12;-12.6;27.8;-1.0;
19/02/2025 05:18:43;110;0;28.61;-4;-46.75;-33.36;-0.1;19.80;76704;2837.145;-1758.311;1;279;-50;248.4;100.0;100.6;-12;-12.6;27.7;-1.0;
19/02/2025 05:18:53;110;0;36.66;-4;-63.10;-17.44;0.4;19.80;76947;2837.145;-1758.310;1;279;-50;88.7;100.0;100.6;-12;-12.6;27.8;-1.0;
19/02/2025 05:19:03;110;0;32.15;-4;-71.69;-15.71;0.8;19.80;77280;2837.145;-1758.310;1;279;-50;-48.4;100.0;100.6;-12;-12.6;27.7;-1.0;
19/02/2025 05:19:13;110;0;49.45;-4;-68.40;-23.09;1.3;19.90;77561;2837.146;-1758.310;1;279;-50;-48.4;50.0;49.8;-12;-12.6;27.8;-1.0;
19/02/2025 05:19:33;100;0;39.10;-4;-40.70;-16.25;4.7;19.90;77533;2837.147;-1758.309;1;278;-50;-48.4;50.0;49.5;-12;-12.6;27.8;-1.0;
19/02/2025 05:19:53;100;0;49.48;-4;-30.42;-17.63;9.3;20.00;77547;2837.150;-1758.306;1;278;-50;-45.2;46.9;46.5;70;69.9;27.8;-1.0;
19/02/2025 05:20:13;100;0;46.20;-4;-32.09;23.57;13.6;20.00;77541;2837.153;-1758.303;1;278;-50;-45.2;43.2;43.2;70;70.4;27.8;-1.0;
19/02/2025 05:20:33;100;0;33.98;-4;-28.69;24.48;17.4;20.00;77565;2837.156;-1758.301;1;278;-50;-43.5;40.6;40.6;70;69.9;27.8;0.0;
19/02/2025 05:20:53;100;0;16.25;-4;-19.59;24.06;20.9;20.00;77557;2837.160;-1758.300;1;278;-50;-45.2;40.6;40.5;70;69.9;27.8;0.0;
19/02/2025 05:21:13;100;0;6.76;-4;-17.27;23.52;23.9;20.00;77562;2837.165;-1758.299;1;278;-50;-45.2;41.5;41.5;70;70.4;27.8;0.0;
19/02/2025 05:21:33;100;0;355.65;-4;-18.31;24.30;26.7;20.00;77564;2837.169;-1758.300;1;278;-50;-45.2;42.0;42.1;70;69.9;27.8;0.0;
19/02/2025 05:21:53;100;0;344.23;-4;-20.27;23.77;29.6;20.10;77569;2837.173;-1758.301;1;278;-50;-43.5;42.0;42.3;70;70.4;27.8;0.0;
19/02/2025 05:22:13;100;0;332.45;-4;-19.45;23.78;32.3;20.10;77569;2837.176;-1758.303;1;278;-50;-43.5;42.0;42.4;70;70.4;27.8;0.0;
19/02/2025 05:22:33;100;0;320.92;-4;-21.64;23.96;35.0;20.10;77566;2837.179;-1758.306;1;278;-50;-45.2;42.0;42.4;65;65.0;27.8;0.0;
19/02/2025 05:22:53;100;0;307.85;-4;-19.16;20.39;37.7;20.10;77582;2837.181;-1758.309;1;278;-50;-45.2;42.0;42.4;47;46.5;27.8;0.0;
19/02/2025 05:23:13;100;0;297.99;-4;-19.95;11.08;40.2;20.10;77588;2837.183;-1758.312;1;278;-50;-43.5;42.0;42.3;32;32.0;27.8;0.0;
19/02/2025 05:23:33;100;0;291.87;-4;-19.86;4.00;42.9;20.10;77582;2837.184;-1758.316;1;278;-50;-43.5;42.0;42.3;21;21.2;27.8;0.0;
19/02/2025 05:23:53;100;0;291.93;-4;-17.88;-1.17;45.4;20.10;77589;2837.186;-1758.320;1;278;-50;-43.5;42.6;42.7;21;20.8;27.8;0.0;
19/02/2025 05:24:13;100;0;288.95;-4;-18.10;-1.24;47.8;20.10;77589;2837.187;-1758.324;1;278;-50;-43.5;43.2;43.2;18;18.1;27.8;0.0;
19/02/2025 05:24:33;100;0;287.12;-4;-20.04;-3.16;50.1;20.10;77594;2837.188;-1758.327;1;278;-50;-41.9;43.2;43.2;16;15.3;27.8;0.0;
19/02/2025 05:24:53;100;0;286.22;-4;-19.04;-4.35;52.4;20.10;77594;2837.189;-1758.331;1;278;-50;-43.5;43.2;43.2;16;14.9;27.8;0.0;
19/02/2025 05:25:13;100;0;284.79;-4;-20.05;-4.12;54.8;20.10;77590;2837.190;-1758.334;1;278;-50;-43.5;43.2;43.2;14;14.0;27.8;0.0;
19/02/2025 05:25:33;100;0;279.41;-4;-20.52;-5.13;57.5;20.10;77593;2837.191;-1758.338;1;278;-50;-43.5;43.2;43.2;11;10.4;27.8;0.0;
19/02/2025 05:25:53;100;0;278.72;-4;-20.14;-6.71;60.1;20.20;77607;2837.191;-1758.342;1;278;-50;-41.9;43.2;43.2;11;9.9;27.8;0.0;
19/02/2025 05:26:13;100;0;277.24;-4;-19.99;-6.59;62.9;20.10;77599;2837.192;-1758.346;1;278;-50;-41.9;43.2;43.3;11;9.9;27.8;0.0;
19/02/2025 05:26:33;100;0;275.79;-4;-19.83;-6.72;65.6;20.20;77596;2837.192;-1758.350;1;278;-50;-43.5;43.2;43.2;11;10.4;27.8;0.0;
19/02/2025 05:26:53;100;0;277.04;-4;-19.86;-6.77;68.3;20.20;77595;2837.193;-1758.354;1;278;-50;-45.2;43.2;43.2;11;9.9;27.8;0.0;
19/02/2025 05:27:13;100;0;278.21;-4;-19.54;-6.67;71.0;20.20;77593;2837.194;-1758.358;1;278;-50;-43.5;43.2;43.2;11;9.9;27.8;0.0;
19/02/2025 05:27:33;100;0;277.26;-4;-19.19;-6.75;73.4;20.20;77592;2837.194;-1758.362;1;278;-50;-43.5;43.2;43.2;11;10.4;27.8;0.0;
19/02/2025 05:27:53;100;0;277.10;-4;-18.81;-6.70;76.0;20.20;77589;2837.195;-1758.366;1;278;-50;-41.9;43.5;43.6;11;9.9;27.8;0.0;
19/02/2025 05:28:13;100;0;276.81;-4;-20.02;-6.65;78.4;20.20;77593;2837.195;-1758.370;1;278;-50;-43.5;43.5;43.7;11;9.9;27.8;0.0;
19/02/2025 05:28:33;100;0;277.66;-4;-20.40;-6.73;81.0;20.20;77587;2837.196;-1758.374;1;278;-50;-41.9;43.5;43.7;11;9.9;27.8;0.0;
19/02/2025 05:28:53;100;0;281.55;-4;-20.50;-6.74;83.5;20.20;77578;2837.197;-1758.378;1;278;-50;-43.5;43.5;43.7;11;9.9;27.8;0.0;
19/02/2025 05:29:13;100;0;287.65;-4;-20.41;-6.64;86.2;20.10;77562;2837.198;-1758.381;1;278;-50;-43.5;43.5;43.7;16;15.8;27.8;0.0;
19/02/2025 05:29:33;100;0;290.58;-4;-20.74;-3.37;88.9;20.20;77561;2837.199;-1758.385;1;278;-50;-43.5;43.5;43.7;21;21.2;27.8;0.0;
19/02/2025 05:29:53;100;0;291.24;-4;-21.66;-0.67;91.7;20.10;77556;2837.201;-1758.389;1;278;-50;-41.9;43.5;43.9;21;22.1;27.8;0.0;
19/02/2025 05:30:13;100;0;291.40;-4;-21.27;-0.62;94.5;20.10;77546;2837.202;-1758.393;1;278;-50;-43.5;43.5;43.9;21;21.7;27.8;0.0;
19/02/2025 05:30:33;100;0;287.84;-4;-20.90;-0.67;97.2;20.10;77544;2837.203;-1758.397;1;278;-50;-41.9;43.5;43.7;17;17.1;27.8;0.0;
19/02/2025 05:30:53;100;0;282.85;-4;-20.95;-3.50;100.0;20.10;77526;2837.204;-1758.400;1;278;-50;-41.9;43.5;43.7;13;12.6;27.8;0.0;
19/02/2025 05:31:13;100;0;285.37;-4;-20.33;-5.41;102.6;20.10;77511;2837.205;-1758.404;1;278;-50;-43.5;43.5;43.7;15;14.9;27.8;0.0;
19/02/2025 05:31:34;100;0;290.49;-4;-20.36;-4.01;105.2;20.10;77504;2837.207;-1758.408;1;277;-50;-43.5;43.5;43.7;22;22.1;27.8;0.0;
19/02/2025 05:31:54;100;0;293.74;-4;-20.69;-0.45;107.8;20.10;77487;2837.208;-1758.412;1;277;-50;-43.5;43.5;43.9;28;28.0;27.8;0.0;
19/02/2025 05:32:14;100;0;285.52;-4;-20.94;2.58;110.4;20.00;77475;2837.209;-1758.415;1;277;-50;-43.5;43.5;43.9;16;15.8;27.8;0.0;
19/02/2025 05:32:34;100;0;280.89;-4;-20.77;-4.00;113.0;20.00;77455;2837.210;-1758.419;1;277;-50;-43.5;43.5;43.9;12;12.2;27.8;0.0;
19/02/2025 05:32:54;100;0;278.62;-4;-20.00;-5.95;115.6;20.00;77445;2837.211;-1758.423;1;277;-50;-43.5;43.5;43.7;12;11.7;27.8;0.0;
19/02/2025 05:33:14;100;0;275.79;-4;-20.17;-5.91;118.2;20.00;77439;2837.211;-1758.427;1;277;-50;-43.5;43.5;43.9;12;11.7;27.8;0.0;
19/02/2025 05:33:34;100;0;269.98;-4;-19.89;-5.99;120.7;20.00;77427;2837.211;-1758.431;1;277;-50;-43.5;43.5;43.9;12;11.7;27.8;0.0;
19/02/2025 05:33:54;100;0;273.00;-4;-20.45;-5.99;123.2;19.90;77405;2837.212;-1758.434;1;277;-50;-45.2;43.5;43.9;12;11.7;27.8;0.0;
19/02/2025 05:34:14;100;0;277.08;-4;-20.26;-5.90;125.8;19.90;77397;2837.212;-1758.438;1;277;-50;-43.5;43.5;43.9;12;11.7;27.8;0.0;
19/02/2025 05:34:34;100;0;278.87;-4;-20.18;-5.91;128.5;19.90;77382;2837.213;-1758.442;1;277;-50;-41.9;43.5;43.9;12;11.7;27.8;0.0;
19/02/2025 05:34:54;100;0;280.35;-4;-20.36;-5.92;131.1;19.80;77372;2837.214;-1758.446;1;277;-50;-43.5;43.5;43.9;12;11.7;27.8;0.0;
19/02/2025 05:35:14;100;0;281.95;-4;-20.42;-6.13;133.7;19.80;77375;2837.214;-1758.450;1;277;-50;-43.5;43.5;43.9;12;11.7;27.8;0.0;
19/02/2025 05:35:34;100;0;282.71;-4;-20.61;-5.85;136.4;19.80;77374;2837.215;-1758.454;1;277;-50;-43.5;43.5;43.9;14;14.0;27.8;0.0;
19/02/2025 05:35:54;100;0;283.07;-4;-20.67;-4.38;139.1;19.80;77360;2837.216;-1758.458;1;277;-50;-43.5;43.5;43.9;14;14.4;27.8;0.0;
19/02/2025 05:36:14;100;0;284.93;-4;-20.64;-4.45;142.0;19.70;77352;2837.217;-1758.462;1;277;-50;-41.9;43.5;43.9;14;14.4;27.8;0.0;
19/02/2025 05:36:34;100;0;286.91;-4;-20.85;-4.49;144.8;19.70;77353;2837.219;-1758.466;1;277;-50;-41.9;43.5;43.9;16;15.8;27.8;0.0;
19/02/2025 05:36:54;100;0;287.79;-4;-21.64;-3.41;147.7;19.70;77343;2837.220;-1758.470;1;277;-50;-43.5;43.5;43.9;19;19.0;27.8;0.0;
19/02/2025 05:37:14;100;0;281.20;-4;-21.37;-1.88;150.9;19.70;77335;2837.221;-1758.475;1;277;-50;-41.9;43.5;43.9;12;11.7;27.8;0.0;
19/02/2025 05:37:34;100;0;276.65;-4;-20.44;-5.95;154.1;19.60;77309;2837.221;-1758.479;1;277;-50;-40.3;43.5;43.9;12;11.3;27.8;0.0;
19/02/2025 05:37:54;100;0;273.99;-4;-20.11;-5.93;157.0;19.60;77310;2837.222;-1758.484;1;277;-50;-43.5;43.5;43.9;12;11.3;27.8;0.0;
19/02/2025 05:38:14;100;0;272.27;-4;-20.52;-6.02;159.9;19.60;77303;2837.222;-1758.488;1;277;-50;-43.5;43.5;43.9;12;11.7;27.8;0.0;
19/02/2025 05:38:34;100;0;267.87;-4;-19.49;-5.87;162.9;19.60;77276;2837.222;-1758.493;1;277;-50;-43.5;43.5;43.9;10;9.9;27.8;0.0;
19/02/2025 05:38:54;100;0;264.54;-4;-19.29;-6.89;165.5;19.50;77280;2837.222;-1758.497;1;277;-50;-41.9;43.5;43.9;8;8.1;27.8;0.0;
19/02/2025 05:39:14;100;0;262.81;-4;-19.47;-7.92;168.1;19.50;77266;2837.222;-1758.501;1;277;-50;-41.9;43.5;43.9;8;7.7;27.8;0.0;
19/02/2025 05:39:34;100;0;265.99;-4;-19.22;-7.99;170.6;19.40;77254;2837.222;-1758.505;1;277;-50;-43.5;43.5;43.9;10;9.9;27.8;0.0;
19/02/2025 05:39:54;100;0;265.46;-4;-20.23;-6.59;173.1;19.40;77252;2837.222;-1758.509;1;277;-50;-41.9;43.5;43.9;10;10.4;27.8;0.0;
19/02/2025 05:40:14;100;0;265.82;-4;-20.34;-6.58;175.7;19.40;77237;2837.222;-1758.513;1;277;-50;-43.5;43.5;43.9;10;10.4;27.8;0.0;
19/02/2025 05:40:34;100;0;264.48;-4;-19.69;-6.56;178.4;19.40;77232;2837.221;-1758.517;1;277;-50;-41.9;43.5;43.9;10;10.4;27.8;0.0;
19/02/2025 05:40:54;100;0;262.80;-4;-19.71;-6.56;180.9;19.30;77225;2837.221;-1758.521;1;277;-50;-43.5;43.5;43.9;7;7.2;27.8;0.0;
19/02/2025 05:41:14;100;0;263.53;-4;-20.12;-8.32;183.6;19.30;77208;2837.221;-1758.525;1;277;-50;-43.5;43.5;43.9;7;7.2;27.8;0.0;
19/02/2025 05:41:34;100;0;262.84;-4;-20.24;-8.19;186.3;19.30;77212;2837.221;-1758.529;1;277;-50;-43.5;43.5;43.9;7;6.8;27.8;0.0;
19/02/2025 05:41:54;100;0;261.51;-4;-20.25;-8.37;189.0;19.20;77188;2837.220;-1758.533;1;278;-50;-43.5;43.5;43.9;3;2.7;27.8;0.0;
19/02/2025 05:42:14;100;0;262.39;-4;-19.87;-10.38;191.6;19.20;77192;2837.220;-1758.537;1;278;-50;-41.9;43.5;43.9;5;5.0;27.8;0.0;
19/02/2025 05:42:34;100;0;263.74;-4;-20.46;-9.06;194.4;19.10;77185;2837.220;-1758.541;1;278;-50;-41.9;43.5;43.9;5;5.4;27.8;0.0;
19/02/2025 05:42:54;100;0;268.69;-4;-19.58;-9.05;197.1;19.10;77165;2837.220;-1758.545;1;278;-50;-43.5;43.5;43.9;10;9.9;27.8;0.0;
19/02/2025 05:43:14;100;0;267.52;-4;-19.16;-6.43;199.7;19.10;77165;2837.220;-1758.549;1;278;-50;-43.5;43.5;43.9;10;10.4;27.8;0.0;
19/02/2025 05:43:34;100;0;269.73;-4;-19.59;-6.61;202.1;19.00;77134;2837.220;-1758.553;1;278;-50;-41.9;43.5;43.7;10;10.4;27.8;0.0;
19/02/2025 05:43:54;100;0;271.97;-4;-19.75;-6.46;204.6;19.00;77130;2837.220;-1758.557;1;278;-50;-43.5;43.5;43.9;10;10.4;27.8;0.0;
19/02/2025 05:44:14;100;0;272.41;-4;-20.25;-6.52;207.0;19.00;77123;2837.221;-1758.560;1;278;-50;-43.5;43.5;43.9;10;10.4;27.8;0.0;
19/02/2025 05:44:34;100;0;272.62;-4;-20.16;-6.45;209.6;18.90;77115;2837.221;-1758.564;1;278;-50;-43.5;43.5;43.9;10;10.4;27.8;0.0;
19/02/2025 05:44:54;100;0;272.81;-4;-19.44;-6.41;212.5;18.90;77102;2837.221;-1758.569;1;278;-50;-43.5;43.5;43.9;10;10.4;27.8;0.0;
19/02/2025 05:45:14;100;0;271.96;-4;-19.06;-6.56;215.1;18.90;77094;2837.222;-1758.573;1;278;-50;-43.5;43.5;43.9;10;10.4;27.8;0.0;
19/02/2025 05:45:34;100;0;273.28;-4;-19.54;-6.50;217.7;18.80;77084;2837.222;-1758.577;1;278;-50;-41.9;43.5;43.9;10;10.4;27.8;0.0;
19/02/2025 05:45:54;100;0;274.12;-4;-19.72;-6.41;220.1;18.80;77077;2837.222;-1758.581;1;278;-50;-43.5;43.5;43.9;10;10.4;27.8;0.0;
19/02/2025 05:46:14;100;0;272.91;-4;-19.83;-6.42;222.7;18.70;77061;2837.223;-1758.584;1;278;-50;-43.5;43.5;43.9;10;10.4;27.8;0.0;
19/02/2025 05:46:34;100;0;272.79;-4;-19.48;-6.57;225.4;18.70;77060;2837.223;-1758.589;1;278;-50;-43.5;43.5;43.9;10;10.4;27.8;0.0;
19/02/2025 05:46:54;100;0;272.76;-4;-19.47;-6.34;227.8;18.70;77060;2837.223;-1758.593;1;278;-50;-41.9;43.5;43.9;10;10.4;27.8;0.0;
19/02/2025 05:47:14;100;0;274.29;-4;-19.71;-6.49;230.3;18.70;77051;2837.224;-1758.596;1;278;-50;-43.5;43.5;43.9;10;10.4;27.8;0.0;
19/02/2025 05:47:34;100;0;276.69;-4;-19.75;-6.50;232.8;18.60;77039;2837.224;-1758.600;1;278;-50;-43.5;43.5;43.9;10;10.4;27.8;0.0;
19/02/2025 05:47:54;100;0;278.83;-4;-20.07;-6.49;235.2;18.60;77051;2837.225;-1758.604;1;278;-50;-43.5;43.5;43.9;10;10.4;27.8;0.0;
19/02/2025 05:48:14;100;0;279.96;-4;-19.50;-6.70;237.7;18.60;77038;2837.226;-1758.608;1;278;-50;-43.5;43.5;43.9;10;10.4;27.8;0.0;
19/02/2025 05:48:34;100;0;283.77;-4;-19.50;-6.45;240.0;18.50;77035;2837.227;-1758.611;1;278;-50;-43.5;43.5;43.9;13;13.1;27.8;0.0;
19/02/2025 05:48:54;100;0;292.34;-4;-19.72;-4.91;242.3;18.50;77028;2837.228;-1758.614;1;278;-50;-43.5;43.5;43.9;23;23.0;27.8;0.0;
19/02/2025 05:49:14;100;0;288.26;-4;-20.74;-0.05;244.7;18.50;76985;2837.229;-1758.618;1;278;-50;-43.5;43.5;44.0;18;18.1;27.8;0.0;
19/02/2025 05:49:34;100;0;285.12;-4;-20.55;-2.82;247.1;18.40;76985;2837.230;-1758.621;1;278;-50;-41.9;43.5;43.9;14;14.0;27.8;0.0;
19/02/2025 05:49:54;100;0;282.79;-4;-20.55;-4.83;249.7;18.40;76966;2837.231;-1758.625;1;278;-50;-41.9;43.5;43.9;14;14.0;27.8;0.0;
19/02/2025 05:50:14;100;0;279.32;-4;-20.77;-4.92;252.2;18.30;76957;2837.231;-1758.628;1;277;-50;-45.2;43.5;43.9;12;12.2;27.8;0.0;
19/02/2025 05:50:34;100;0;278.75;-4;-20.78;-5.59;254.8;18.30;76950;2837.232;-1758.632;1;277;-50;-43.5;43.5;43.9;12;12.2;27.7;0.0;
19/02/2025 05:50:54;100;0;278.35;-4;-20.35;-5.67;257.4;18.30;76940;2837.233;-1758.636;1;277;-50;-43.5;43.5;43.9;12;12.2;27.8;0.0;
19/02/2025 05:51:14;100;0;277.07;-4;-20.17;-5.69;259.9;18.20;76921;2837.233;-1758.640;1;277;-50;-43.5;43.5;43.9;12;12.2;27.8;0.0;
19/02/2025 05:51:34;100;0;277.46;-4;-20.29;-5.72;262.4;18.20;76919;2837.234;-1758.644;1;277;-50;-43.5;43.5;43.9;12;12.2;27.8;0.0;
19/02/2025 05:51:54;100;0;278.30;-4;-19.99;-5.71;265.1;18.10;76913;2837.235;-1758.648;1;277;-50;-45.2;43.5;43.9;12;12.2;27.8;0.0;
19/02/2025 05:52:14;100;0;278.16;-4;-20.20;-5.69;267.6;18.10;76900;2837.235;-1758.652;1;277;-50;-43.5;43.5;43.9;12;12.2;27.8;0.0;
19/02/2025 05:52:34;100;0;277.26;-4;-19.87;-5.71;270.3;18.10;76904;2837.236;-1758.656;1;277;-50;-43.5;43.5;43.9;12;12.2;27.8;0.0;
19/02/2025 05:52:54;100;0;276.53;-4;-19.82;-5.65;272.9;18.00;76881;2837.236;-1758.660;1;277;-50;-43.5;43.5;43.9;12;12.2;27.8;0.0;
19/02/2025 05:53:14;100;0;274.98;-4;-19.72;-5.71;275.4;18.00;76875;2837.237;-1758.663;1;277;-50;-43.5;43.5;43.7;12;12.2;27.8;0.0;
19/02/2025 05:53:34;100;0;275.54;-4;-19.55;-5.73;277.9;17.90;76861;2837.237;-1758.667;1;277;-50;-43.5;43.5;43.9;12;12.2;27.8;0.0;
19/02/2025 05:53:54;100;0;275.62;-4;-19.37;-5.68;280.4;17.90;76856;2837.238;-1758.671;1;277;-50;-43.5;43.5;43.9;12;12.2;27.8;0.0;
19/02/2025 05:54:14;100;0;276.65;-4;-19.59;-5.71;283.0;17.90;76848;2837.238;-1758.675;1;277;-50;-43.5;43.5;43.9;12;12.2;27.8;0.0;
19/02/2025 05:54:34;100;0;277.78;-4;-19.52;-5.78;285.5;17.80;76843;2837.239;-1758.679;1;277;-50;-43.5;43.5;43.9;12;12.2;27.8;0.0;
19/02/2025 05:54:54;100;0;278.27;-4;-19.45;-5.71;288.0;17.80;76831;2837.240;-1758.683;1;277;-50;-43.5;43.5;43.9;12;12.2;27.8;0.0;
19/02/2025 05:55:14;100;0;278.55;-4;-19.49;-5.71;290.6;17.70;76828;2837.240;-1758.687;1;277;-50;-41.9;43.5;43.9;12;12.2;27.8;0.0;
19/02/2025 05:55:34;100;0;278.44;-4;-19.51;-5.77;293.2;17.70;76812;2837.241;-1758.691;1;277;-50;-43.5;43.5;43.9;12;12.2;27.8;0.0;
19/02/2025 05:55:54;100;0;280.65;-4;-19.42;-5.72;295.8;17.70;76814;2837.242;-1758.695;1;277;-50;-41.9;43.5;43.7;12;12.2;27.8;0.0;
19/02/2025 05:56:14;100;0;278.13;-4;-19.56;-5.73;298.4;17.60;76796;2837.242;-1758.699;1;277;-50;-43.5;43.5;43.9;12;12.2;27.8;0.0;
19/02/2025 05:56:34;100;0;272.35;-4;-18.82;-5.90;300.8;17.60;76777;2837.243;-1758.703;1;277;-50;-43.5;43.9;43.9;12;12.2;27.8;0.0;
19/02/2025 05:56:54;100;0;271.11;-4;-19.41;-5.73;303.3;17.60;76742;2837.243;-1758.707;1;277;-50;-43.5;43.9;43.9;12;12.2;27.8;0.0;
19/02/2025 05:57:14;100;0;272.74;-4;-19.06;-5.78;305.8;17.50;76727;2837.243;-1758.711;1;277;-50;-41.9;43.9;43.9;12;12.2;27.8;0.0;
19/02/2025 05:57:34;100;0;272.62;-4;-19.47;-5.89;308.4;17.50;76714;2837.244;-1758.715;1;277;-50;-43.5;43.9;43.9;12;12.2;27.8;0.0;
19/02/2025 05:57:54;100;0;274.86;-4;-19.28;-5.67;311.1;17.40;76703;2837.244;-1758.719;1;277;-50;-43.5;43.9;43.9;12;12.2;27.8;0.0;
19/02/2025 05:58:14;100;0;274.49;-4;-19.52;-5.79;313.6;17.40;76694;2837.245;-1758.723;1;277;-50;-43.5;43.9;43.9;12;12.2;27.8;0.0;
19/02/2025 05:58:34;100;0;275.73;-4;-19.47;-5.68;316.2;17.30;76682;2837.245;-1758.727;1;277;-50;-43.5;43.9;43.9;12;12.2;27.8;0.0;
19/02/2025 05:58:54;100;0;279.17;-4;-19.15;-5.68;318.7;17.30;76670;2837.246;-1758.731;1;277;-50;-43.5;43.9;43.7;12;12.2;27.8;0.0;
19/02/2025 05:59:14;100;0;280.74;-4;-19.22;-5.72;321.1;17.20;76655;2837.247;-1758.734;1;277;-50;-41.9;43.9;43.9;12;11.7;27.8;0.0;
19/02/2025 05:59:34;100;0;281.64;-4;-18.94;-5.72;323.5;17.20;76645;2837.247;-1758.738;1;277;-50;-43.5;44.2;44.2;12;12.2;27.8;0.0;
19/02/2025 05:59:54;100;0;281.97;-4;-20.14;-5.69;325.8;17.20;76631;2837.248;-1758.742;1;277;-50;-41.9;44.2;44.3;12;12.2;27.8;0.0;
19/02/2025 06:00:14;100;0;282.40;-4;-20.79;-5.73;328.2;17.10;76628;2837.249;-1758.745;1;277;-50;-41.9;44.2;44.5;14;14.0;27.8;0.0;
19/02/2025 06:00:34;100;0;278.02;-4;-20.59;-4.58;330.7;17.10;76610;2837.250;-1758.749;1;277;-50;-43.5;44.2;44.5;12;12.2;27.8;0.0;
19/02/2025 06:00:54;100;0;276.89;-4;-20.02;-5.63;333.1;17.00;76604;2837.250;-1758.752;1;277;-50;-43.5;44.2;44.5;12;11.7;27.8;0.0;
19/02/2025 06:01:14;100;0;276.73;-4;-20.42;-5.78;335.4;17.00;76598;2837.251;-1758.756;1;277;-50;-43.5;44.2;44.5;12;12.2;27.8;0.0;
19/02/2025 06:01:34;100;0;276.65;-4;-20.49;-5.81;337.8;17.00;76596;2837.251;-1758.759;1;277;-50;-43.5;44.2;44.5;12;12.2;27.8;0.0;
19/02/2025 06:01:54;100;0;271.28;-4;-20.59;-5.79;340.1;16.90;76579;2837.251;-1758.763;1;277;-50;-43.5;44.2;44.5;12;11.7;27.8;0.0;
19/02/2025 06:02:14;100;0;267.91;-4;-19.55;-5.78;342.5;16.90;76570;2837.251;-1758.767;1;277;-50;-41.9;44.2;44.5;12;12.2;27.8;0.0;
19/02/2025 06:02:34;100;0;266.34;-4;-20.91;-5.78;344.6;16.90;76568;2837.251;-1758.770;1;277;-50;-41.9;44.2;44.5;10;8.6;27.8;0.0;
19/02/2025 06:02:54;100;0;262.81;-4;-20.66;-6.24;347.2;16.80;76550;2837.251;-1758.773;1;277;-50;-41.9;44.2;44.5;7;7.2;27.8;0.0;
19/02/2025 06:03:14;100;0;262.45;-4;-20.34;-8.18;349.5;16.80;76541;2837.251;-1758.777;1;277;-50;-43.5;44.2;44.5;7;7.2;27.8;0.0;
19/02/2025 06:03:34;100;0;263.35;-4;-20.46;-8.13;351.9;16.70;76529;2837.251;-1758.781;1;277;-50;-43.5;44.2;44.5;7;7.2;27.8;0.0;
19/02/2025 06:03:54;100;0;264.34;-4;-20.42;-8.10;354.4;16.70;76520;2837.251;-1758.784;1;277;-50;-43.5;44.2;44.5;9;9.5;27.8;0.0;
19/02/2025 06:04:14;100;0;265.25;-4;-20.41;-6.82;356.7;16.60;76508;2837.251;-1758.788;1;277;-50;-43.5;44.2;44.5;9;9.5;27.8;0.0;
19/02/2025 06:04:34;100;0;266.28;-4;-20.35;-6.82;359.2;16.60;76500;2837.251;-1758.792;1;277;-50;-41.9;44.2;44.5;9;9.5;27.8;0.0;
19/02/2025 06:04:54;100;0;266.81;-4;-20.27;-6.87;361.5;16.60;76500;2837.251;-1758.795;1;278;-50;-43.5;44.2;44.5;9;9.5;27.8;0.0;
19/02/2025 06:05:14;100;0;267.38;-4;-20.46;-6.84;363.9;16.50;76495;2837.251;-1758.799;1;278;-50;-43.5;44.2;44.5;9;9.5;27.8;0.0;
19/02/2025 06:05:35;100;0;268.71;-4;-20.60;-6.87;366.3;16.50;76494;2837.251;-1758.803;1;278;-50;-41.9;44.2;44.5;9;9.5;27.8;0.0;
19/02/2025 06:05:55;100;0;271.08;-4;-20.55;-6.82;368.8;16.50;76490;2837.251;-1758.806;1;278;-50;-41.9;44.2;44.5;11;10.8;27.8;0.0;
19/02/2025 06:06:15;100;0;275.97;-4;-20.58;-5.82;371.2;16.40;76481;2837.251;-1758.810;1;278;-50;-43.5;44.2;44.5;11;11.7;27.8;0.0;
19/02/2025 06:06:35;100;0;278.18;-4;-20.71;-5.77;373.9;16.40;76480;2837.252;-1758.814;1;278;-50;-43.5;44.2;44.5;11;11.7;27.8;0.0;
19/02/2025 06:06:55;100;0;280.17;-4;-20.83;-5.77;376.5;16.30;76468;2837.253;-1758.817;1;278;-50;-41.9;44.2;44.5;11;11.7;27.8;0.0;
19/02/2025 06:07:15;100;0;280.73;-4;-21.12;-5.88;379.2;16.30;76449;2837.254;-1758.821;1;278;-50;-43.5;44.2;44.5;11;11.7;27.8;0.0;
19/02/2025 06:07:35;100;0;280.81;-4;-20.94;-5.74;381.9;16.30;76451;2837.254;-1758.825;1;277;-50;-41.9;44.2;44.6;11;11.7;27.8;0.0;
19/02/2025 06:07:55;100;0;280.39;-4;-20.66;-5.83;384.6;16.20;76450;2837.255;-1758.829;1;277;-50;-41.9;44.2;44.5;11;11.7;27.8;0.0;
19/02/2025 06:08:15;100;0;278.38;-4;-20.97;-5.83;387.3;16.20;76437;2837.256;-1758.833;1;277;-50;-43.5;44.2;44.5;11;11.7;27.8;0.0;
19/02/2025 06:08:35;100;0;276.89;-4;-20.77;-5.82;390.1;16.20;76437;2837.256;-1758.837;1;277;-50;-45.2;44.2;44.5;11;11.7;27.8;0.0;
19/02/2025 06:08:55;100;0;277.01;-4;-20.35;-5.83;392.7;16.10;76427;2837.257;-1758.841;1;277;-50;-41.9;44.2;44.5;11;11.7;27.8;0.0;
19/02/2025 06:09:15;100;0;277.01;-4;-20.20;-5.90;395.3;16.10;76409;2837.258;-1758.845;1;277;-50;-41.9;44.2;44.5;11;11.7;27.8;0.0;
19/02/2025 06:09:35;100;0;277.24;-4;-20.10;-5.86;397.7;16.10;76399;2837.258;-1758.849;1;277;-50;-43.5;44.2;44.5;11;11.7;27.8;0.0;
19/02/2025 06:09:55;100;0;277.80;-4;-20.20;-5.86;400.2;16.00;76393;2837.259;-1758.852;1;277;-50;-43.5;44.2;44.5;11;11.7;27.8;0.0;
19/02/2025 06:10:15;100;0;277.12;-4;-20.29;-5.93;402.7;16.00;76376;2837.259;-1758.856;1;277;-50;-41.9;44.2;44.5;11;11.7;27.8;0.0;
19/02/2025 06:10:35;100;0;276.74;-4;-20.16;-5.86;405.3;16.00;76382;2837.260;-1758.860;1;277;-50;-43.5;44.2;44.5;11;11.7;27.8;0.0;
19/02/2025 06:10:55;100;0;275.02;-4;-20.89;-5.88;407.7;15.90;76381;2837.260;-1758.864;1;277;-50;-41.9;44.2;44.5;11;11.7;27.8;0.0;
19/02/2025 06:11:15;100;0;273.09;-4;-20.20;-5.92;410.3;15.90;76367;2837.261;-1758.868;1;277;-50;-43.5;44.2;44.5;11;11.7;27.8;0.0;
19/02/2025 06:11:35;100;0;275.56;-4;-20.73;-5.95;412.8;15.90;76355;2837.261;-1758.871;1;277;-50;-43.5;44.2;44.5;11;11.7;27.7;0.0;
19/02/2025 06:11:55;100;0;273.95;-4;-19.64;-6.00;415.4;15.80;76359;2837.261;-1758.875;1;277;-50;-43.5;44.2;44.5;11;11.7;27.8;0.0;
19/02/2025 06:12:15;100;0;275.07;-4;-19.41;-5.90;417.9;15.80;76350;2837.262;-1758.879;1;277;-50;-45.2;44.2;44.5;11;11.7;27.8;0.0;
19/02/2025 06:12:35;100;0;274.07;-4;-20.67;-5.84;420.6;15.80;76345;2837.262;-1758.883;1;277;-50;-43.5;44.2;44.5;11;11.7;27.8;0.0;
19/02/2025 06:12:55;100;0;276.62;-4;-20.40;-5.76;423.5;15.70;76336;2837.263;-1758.888;1;277;-50;-43.5;44.2;44.5;11;11.7;27.8;0.0;
19/02/2025 06:13:15;100;0;278.16;-4;-20.23;-5.86;426.3;15.70;76326;2837.264;-1758.892;1;277;-50;-45.2;44.2;44.5;11;11.7;27.8;0.0;
19/02/2025 06:13:35;100;0;279.82;-4;-20.48;-5.81;429.2;15.60;76334;2837.264;-1758.896;1;277;-50;-43.5;44.2;44.5;11;11.7;27.8;0.0;
19/02/2025 06:13:55;100;0;280.20;-4;-19.91;-5.99;432.1;15.60;76329;2837.265;-1758.900;1;277;-50;-43.5;44.2;44.5;11;11.7;27.8;0.0;
19/02/2025 06:14:15;100;0;280.14;-4;-20.12;-5.89;435.0;15.60;76323;2837.266;-1758.905;1;277;-50;-46.8;44.2;44.5;11;11.7;27.8;0.0;
19/02/2025 06:14:35;100;0;280.94;-4;-20.42;-5.75;437.9;15.60;76310;2837.267;-1758.909;1;277;-50;-43.5;44.2;44.5;11;11.7;27.8;0.0;
19/02/2025 06:14:55;100;0;284.98;-4;-20.36;-5.76;441.1;15.50;76297;2837.268;-1758.914;1;277;-50;-41.9;44.2;44.5;15;14.9;27.8;0.0;
19/02/2025 06:15:15;100;0;286.25;-4;-21.01;-3.96;444.1;15.50;76293;2837.269;-1758.918;1;277;-50;-43.5;44.2;44.5;15;15.3;27.8;0.0;
19/02/2025 06:15:35;100;0;288.34;-4;-20.54;-4.08;447.4;15.50;76283;2837.271;-1758.923;1;277;-50;-41.9;44.2;44.5;18;18.1;27.8;0.0;
19/02/2025 06:15:55;100;0;289.15;-4;-20.94;-2.00;450.4;15.40;76279;2837.272;-1758.927;1;277;-50;-41.9;44.2;44.5;18;19.0;27.8;0.0;
19/02/2025 06:16:15;100;0;291.02;-4;-21.18;-2.72;453.6;15.40;76270;2837.274;-1758.931;1;277;-50;-43.5;44.2;44.5;22;22.1;27.8;0.0;
19/02/2025 06:16:35;100;0;288.28;-4;-20.27;-0.67;456.7;15.40;76260;2837.275;-1758.936;1;277;-50;-41.9;44.2;44.5;18;17.6;27.8;0.0;
19/02/2025 06:16:55;100;0;286.19;-4;-21.22;-2.99;459.7;15.30;76258;2837.276;-1758.940;1;277;-50;-41.9;44.2;44.5;16;15.8;27.8;0.0;
19/02/2025 06:17:15;100;0;285.59;-4;-20.23;-4.12;462.7;15.30;76240;2837.278;-1758.944;1;277;-50;-43.5;44.2;44.5;16;15.3;27.8;0.0;
19/02/2025 06:17:35;100;0;283.62;-4;-20.18;-4.20;465.6;15.30;76236;2837.279;-1758.949;1;277;-50;-41.9;44.2;44.5;16;15.3;27.8;0.0;
19/02/2025 06:17:55;100;0;283.33;-4;-20.06;-3.96;468.5;15.30;76236;2837.280;-1758.953;1;277;-50;-45.2;44.2;44.5;14;14.0;27.8;0.0;
19/02/2025 06:18:15;100;0;282.12;-4;-20.14;-4.91;471.3;15.20;76227;2837.281;-1758.957;1;277;-50;-41.9;44.2;44.5;14;14.0;27.8;0.0;
19/02/2025 06:18:35;100;0;282.22;-4;-20.26;-4.96;474.0;15.20;76228;2837.282;-1758.961;1;277;-50;-45.2;44.2;44.5;14;14.0;27.8;0.0;
19/02/2025 06:18:55;100;0;282.98;-4;-19.33;-4.75;476.9;15.20;76223;2837.283;-1758.965;1;277;-50;-41.9;44.2;44.5;14;14.0;27.8;0.0;
19/02/2025 06:19:15;100;0;284.94;-4;-20.07;-4.90;479.6;15.10;76206;2837.284;-1758.969;1;277;-50;-41.9;44.2;44.5;16;15.8;27.8;0.0;
19/02/2025 06:19:35;100;0;283.54;-4;-20.60;-3.55;482.5;15.10;76204;2837.285;-1758.974;1;277;-50;-45.2;44.2;44.5;14;14.0;27.8;0.0;
19/02/2025 06:19:55;100;0;280.96;-4;-20.24;-4.97;485.5;15.10;76192;2837.286;-1758.978;1;277;-50;-41.9;44.2;44.5;14;13.5;27.8;0.0;
19/02/2025 06:20:15;100;0;279.43;-4;-20.19;-5.01;488.5;15.00;76185;2837.286;-1758.982;1;277;-50;-41.9;44.2;44.5;14;13.5;27.8;0.0;
19/02/2025 06:20:35;100;0;278.28;-4;-20.21;-5.01;491.4;15.00;76192;2837.287;-1758.987;1;277;-50;-43.5;44.2;44.5;12;12.2;27.8;0.0;
19/02/2025 06:20:55;100;0;277.87;-4;-20.14;-5.85;494.3;15.00;76179;2837.288;-1758.991;1;277;-50;-43.5;44.2;44.5;12;12.2;27.8;0.0;
19/02/2025 06:21:15;100;0;276.90;-4;-20.10;-5.86;497.3;15.00;76172;2837.288;-1758.996;1;277;-50;-43.5;44.2;44.5;12;11.7;27.8;0.0;
19/02/2025 06:21:35;100;0;277.85;-4;-19.97;-5.72;500.1;14.90;76171;2837.289;-1759.000;1;277;-50;-43.5;44.2;44.5;12;11.7;27.8;0.0;
19/02/2025 06:21:55;100;0;278.22;-4;-19.84;-5.81;503.0;14.90;76175;2837.290;-1759.004;1;277;-50;-43.5;44.2;44.5;12;12.2;27.8;0.0;
19/02/2025 06:22:15;100;0;281.90;-4;-20.15;-5.69;505.9;14.90;76171;2837.291;-1759.009;1;277;-50;-43.5;44.2;44.5;12;12.2;27.8;0.0;
19/02/2025 06:22:35;100;0;283.12;-4;-20.30;-5.71;508.9;14.90;76173;2837.292;-1759.013;1;277;-50;-41.9;44.2;44.5;14;14.0;27.8;0.0;
19/02/2025 06:22:55;100;0;280.77;-4;-20.36;-4.49;511.8;14.80;76161;2837.293;-1759.017;1;277;-50;-41.9;44.2;44.5;14;14.4;27.8;0.0;
19/02/2025 06:23:15;100;0;279.27;-4;-19.96;-4.43;514.8;14.80;76144;2837.293;-1759.022;1;277;-50;-43.5;44.2;44.5;14;14.4;27.8;0.0;
19/02/2025 06:23:35;100;0;280.81;-4;-19.70;-4.38;517.6;14.80;76138;2837.294;-1759.026;1;277;-50;-41.9;44.2;44.5;14;14.4;27.8;0.0;
19/02/2025 06:23:55;100;0;280.49;-4;-19.80;-4.39;520.3;14.80;76136;2837.295;-1759.030;1;277;-50;-41.9;44.2;44.5;14;14.4;27.8;0.0;
19/02/2025 06:24:15;100;0;280.14;-4;-19.32;-4.45;522.9;14.70;76129;2837.296;-1759.034;1;277;-50;-43.5;44.2;44.5;14;14.4;27.8;0.0;
19/02/2025 06:24:35;100;0;279.98;-4;-20.18;-4.38;525.4;14.70;76127;2837.297;-1759.038;1;277;-50;-40.3;44.2;44.5;14;14.4;27.8;0.0;
19/02/2025 06:24:55;100;0;280.62;-4;-20.21;-4.21;527.8;14.70;76111;2837.297;-1759.042;1;277;-50;-43.5;44.2;44.5;14;14.4;27.8;0.0;
19/02/2025 06:25:15;100;0;278.15;-4;-19.51;-4.74;530.2;14.60;76116;2837.298;-1759.045;1;277;-50;-41.9;44.2;44.5;14;14.4;27.8;0.0;
19/02/2025 06:25:35;100;0;279.94;-4;-19.12;-4.88;532.6;14.60;76109;2837.299;-1759.049;1;277;-50;-41.9;44.2;44.5;14;14.4;27.8;0.0;
19/02/2025 06:25:55;100;0;284.36;-4;-18.34;-4.88;534.8;14.60;76096;2837.299;-1759.052;1;277;-50;-41.9;44.7;44.9;16;16.2;27.8;0.0;
19/02/2025 06:26:15;100;0;280.02;-4;-21.68;-3.38;536.9;14.60;76094;2837.300;-1759.055;1;277;-50;-45.2;44.7;45.1;13;13.1;27.8;0.0;
19/02/2025 06:26:35;100;0;281.75;-4;-20.77;-5.40;539.3;14.50;76096;2837.301;-1759.059;1;277;-50;-45.2;44.7;45.1;13;12.6;27.8;0.0;
19/02/2025 06:26:55;100;0;284.06;-4;-20.77;-5.47;541.7;14.50;76086;2837.302;-1759.062;1;277;-50;-41.9;44.7;44.9;16;15.8;27.8;0.0;
19/02/2025 06:27:15;100;0;283.01;-4;-21.31;-3.69;544.0;14.50;76071;2837.303;-1759.066;1;277;-50;-43.5;44.7;45.1;16;16.2;27.8;0.0;
19/02/2025 06:27:35;100;0;282.12;-4;-21.41;-3.64;546.3;14.50;76078;2837.303;-1759.069;1;277;-50;-45.2;44.7;45.1;16;16.2;27.8;0.0;
19/02/2025 06:27:55;100;0;281.63;-4;-21.47;-3.66;548.8;14.40;76079;2837.304;-1759.073;1;277;-50;-41.9;44.7;45.1;14;14.0;27.7;0.0;
19/02/2025 06:28:15;100;0;283.07;-4;-20.96;-5.06;551.2;14.40;76060;2837.305;-1759.076;1;277;-50;-43.5;44.7;45.1;14;13.5;27.8;0.0;
19/02/2025 06:28:35;100;0;283.12;-4;-21.17;-5.00;553.5;14.40;76050;2837.306;-1759.079;1;277;-50;-43.5;44.7;45.1;14;13.5;27.8;0.0;
19/02/2025 06:28:55;100;0;289.43;-4;-21.20;-5.12;555.8;14.40;76055;2837.307;-1759.083;1;277;-50;-43.5;44.7;45.1;22;22.1;27.8;0.0;
19/02/2025 06:29:15;100;0;294.63;-4;-21.65;-0.55;558.1;14.30;76042;2837.308;-1759.086;1;277;-50;-43.5;44.7;45.1;31;31.1;27.8;0.0;
19/02/2025 06:29:35;100;0;291.27;-4;-21.98;3.89;560.6;14.30;76045;2837.310;-1759.089;1;277;-50;-43.5;44.7;45.1;25;24.4;27.8;0.0;
19/02/2025 06:29:55;100;0;289.22;-4;-21.89;0.74;563.2;14.30;76030;2837.311;-1759.092;1;277;-50;-43.5;44.7;45.1;22;22.1;27.8;0.0;
19/02/2025 06:30:15;100;0;286.61;-4;-21.51;-0.96;565.6;14.20;76015;2837.312;-1759.096;1;277;-50;-43.5;44.7;45.1;19;19.0;27.8;0.0;
19/02/2025 06:30:35;100;0;284.50;-4;-21.31;-2.27;568.0;14.20;76003;2837.313;-1759.099;1;277;-50;-43.5;44.7;45.1;17;17.1;27.8;0.0;
19/02/2025 06:30:55;100;0;284.03;-4;-21.18;-3.38;570.4;14.20;75998;2837.313;-1759.103;1;277;-50;-41.9;44.7;45.1;17;17.1;27.8;0.0;
19/02/2025 06:31:15;100;0;286.63;-4;-20.90;-3.30;572.7;14.20;76000;2837.314;-1759.106;1;277;-50;-43.5;44.7;45.1;19;19.0;27.8;0.0;
19/02/2025 06:31:35;100;0;283.59;-4;-21.40;-2.06;575.0;14.10;75978;2837.315;-1759.109;1;277;-50;-43.5;44.7;45.1;16;15.8;27.8;0.0;
19/02/2025 06:31:55;100;0;281.04;-4;-21.60;-3.93;577.4;14.10;75981;2837.316;-1759.113;1;277;-50;-43.5;44.7;45.1;14;14.0;27.8;0.0;
19/02/2025 06:32:15;100;0;280.16;-4;-21.15;-4.97;579.8;14.10;75979;2837.317;-1759.116;1;277;-50;-41.9;44.7;45.1;14;13.5;27.8;0.0;
19/02/2025 06:32:35;100;0;279.85;-4;-21.32;-5.09;582.0;14.10;75958;2837.317;-1759.119;1;277;-50;-43.5;44.7;45.1;14;13.5;27.8;0.0;
19/02/2025 06:32:55;100;0;279.14;-4;-21.31;-5.04;584.3;14.00;75952;2837.318;-1759.123;1;277;-50;-43.5;44.7;45.1;14;13.5;27.8;0.0;
19/02/2025 06:33:15;100;0;279.56;-4;-21.10;-5.09;586.6;14.00;75958;2837.319;-1759.126;1;277;-50;-41.9;44.7;45.1;14;13.5;27.8;0.0;
19/02/2025 06:33:35;100;0;279.86;-4;-21.19;-5.06;589.0;14.00;75948;2837.319;-1759.129;1;277;-50;-43.5;44.7;45.1;14;13.5;27.8;0.0;
19/02/2025 06:33:55;100;0;279.18;-4;-21.08;-5.08;591.3;14.00;75935;2837.320;-1759.133;1;277;-50;-41.9;44.7;45.1;14;13.5;27.8;0.0;
19/02/2025 06:34:15;100;0;277.28;-4;-21.12;-5.11;593.7;13.90;75927;2837.320;-1759.136;1;277;-50;-41.9;44.7;45.1;14;13.5;27.8;0.0;
19/02/2025 06:34:35;100;0;274.25;-4;-20.71;-5.07;595.9;13.90;75916;2837.321;-1759.140;1;277;-50;-43.5;44.7;45.1;14;13.5;27.8;0.0;
19/02/2025 06:34:55;100;0;275.55;-4;-20.61;-5.07;598.0;13.90;75914;2837.321;-1759.143;1;277;-50;-41.9;44.7;45.1;14;13.5;27.8;0.0;
19/02/2025 06:35:15;100;0;276.25;-4;-20.47;-5.18;600.1;13.90;75918;2837.322;-1759.146;1;277;-50;-41.9;44.7;45.2;14;13.5;27.8;0.0;
19/02/2025 06:35:35;100;0;278.70;-4;-20.55;-5.08;602.1;13.80;75903;2837.322;-1759.149;1;277;-50;-43.5;44.7;45.1;14;13.5;27.8;0.0;
19/02/2025 06:35:55;100;0;278.30;-4;-20.77;-5.05;604.1;13.80;75907;2837.323;-1759.152;1;277;-50;-41.9;44.7;45.1;14;13.5;27.8;0.0;
19/02/2025 06:36:15;100;0;276.06;-4;-20.99;-5.04;606.1;13.80;75888;2837.323;-1759.155;1;277;-70;-67.7;44.7;45.1;14;13.5;27.8;0.0;
19/02/2025 06:36:35;100;0;274.34;-4;-20.24;-4.99;608.3;13.80;75950;2837.324;-1759.158;1;277;-70;-67.7;44.7;45.2;14;13.5;27.8;0.0;
19/02/2025 06:36:55;100;0;272.83;-4;-20.68;-4.95;610.5;13.70;75953;2837.324;-1759.161;1;277;-70;-69.4;44.7;45.1;14;13.5;27.8;0.0;
19/02/2025 06:37:15;100;0;270.77;-4;-20.31;-4.99;612.9;13.70;75947;2837.324;-1759.165;1;277;-70;-69.4;44.7;45.1;14;13.5;27.8;0.0;
19/02/2025 06:37:35;100;0;268.96;-4;-20.60;-5.00;615.2;13.70;75937;2837.324;-1759.169;1;277;-70;-72.6;44.7;45.1;14;13.5;27.8;0.0;
19/02/2025 06:37:55;100;0;267.70;-4;-20.72;-4.92;617.5;13.70;75940;2837.324;-1759.172;1;277;-70;-74.2;44.7;45.1;14;13.5;27.8;0.0;
19/02/2025 06:38:15;100;0;265.30;-4;-20.39;-5.01;619.9;13.60;75942;2837.324;-1759.176;1;277;-70;-72.6;44.7;45.1;11;10.8;27.8;0.0;
19/02/2025 06:38:35;100;0;264.68;-4;-19.94;-6.21;622.4;13.60;75923;2837.324;-1759.179;1;277;-70;-74.2;44.7;45.2;11;10.8;27.8;0.0;
19/02/2025 06:38:55;100;0;264.66;-4;-20.52;-6.23;624.7;13.60;75919;2837.324;-1759.183;1;277;-70;-74.2;44.7;45.1;11;10.8;27.8;0.0;
19/02/2025 06:39:16;100;0;265.72;-4;-20.58;-6.27;627.2;13.60;75923;2837.324;-1759.186;1;277;-70;-72.6;44.7;45.1;11;10.8;27.8;0.0;
19/02/2025 06:39:36;100;0;266.31;-4;-21.06;-6.27;629.6;13.50;75913;2837.324;-1759.190;1;277;-70;-72.6;44.7;45.1;11;10.8;27.8;0.0;
19/02/2025 06:39:56;100;0;270.32;-4;-20.29;-6.56;632.2;13.50;75919;2837.324;-1759.194;1;277;-70;-72.6;44.7;45.1;13;13.1;27.8;0.0;
19/02/2025 06:40:16;100;0;274.51;-4;-21.14;-4.95;634.6;13.50;75910;2837.325;-1759.198;1;277;-70;-72.6;44.7;45.1;13;13.1;27.8;0.0;
19/02/2025 06:40:36;100;0;277.89;-4;-19.87;-4.89;637.1;13.50;75906;2837.325;-1759.201;1;277;-70;-72.6;44.7;45.1;13;13.1;27.8;0.0;
19/02/2025 06:40:56;100;0;281.37;-4;-20.31;-4.90;639.5;13.40;75891;2837.326;-1759.205;1;277;-70;-72.6;44.7;45.2;15;14.9;27.8;0.0;
19/02/2025 06:41:16;100;0;283.00;-4;-20.77;-4.00;642.1;13.40;75884;2837.327;-1759.209;1;277;-70;-74.2;44.7;45.1;15;15.3;27.8;0.0;
19/02/2025 06:41:36;100;0;284.94;-4;-20.77;-4.11;644.7;13.40;75880;2837.328;-1759.212;1;277;-70;-72.6;44.7;45.1;17;17.1;27.7;0.0;
19/02/2025 06:41:56;100;0;285.15;-4;-20.73;-2.85;647.4;13.30;75868;2837.329;-1759.216;1;277;-70;-72.6;44.7;45.1;17;17.6;27.8;0.0;
19/02/2025 06:42:16;100;0;284.05;-4;-20.89;-2.85;650.1;13.30;75857;2837.330;-1759.220;1;277;-70;-74.2;44.7;45.1;17;17.6;27.8;0.0;
19/02/2025 06:42:36;100;0;282.85;-4;-20.72;-2.84;652.9;13.30;75853;2837.331;-1759.224;1;277;-70;-72.6;44.7;45.1;17;17.6;27.8;0.0;
19/02/2025 06:42:56;100;0;280.11;-4;-20.84;-2.90;655.7;13.30;75855;2837.332;-1759.228;1;277;-70;-72.6;44.7;45.1;14;14.0;27.8;0.0;
19/02/2025 06:43:16;100;0;279.64;-4;-20.87;-4.58;658.5;13.20;75848;2837.332;-1759.232;1;277;-70;-74.2;44.7;45.1;14;14.0;27.8;0.0;
19/02/2025 06:43:36;100;0;280.79;-4;-20.80;-4.45;661.4;13.20;75846;2837.333;-1759.236;1;277;-70;-72.6;44.7;45.1;14;14.0;27.8;0.0;
19/02/2025 06:43:56;100;0;282.59;-4;-20.70;-4.57;664.2;13.20;75825;2837.334;-1759.240;1;277;-70;-72.6;44.7;45.1;14;14.0;27.8;0.0;
19/02/2025 06:44:16;100;0;281.40;-4;-20.37;-4.65;667.1;13.20;75827;2837.335;-1759.245;1;276;-70;-72.6;44.7;45.1;14;14.0;27.8;0.0;
19/02/2025 06:44:36;100;0;281.42;-4;-20.45;-4.41;670.0;13.10;75810;2837.336;-1759.249;1;276;-70;-72.6;44.7;45.1;14;14.0;27.8;0.0;
19/02/2025 06:44:56;100;0;281.42;-4;-20.93;-4.45;673.1;13.10;75812;2837.337;-1759.253;1;276;-70;-72.6;44.7;45.2;14;14.0;27.8;0.0;
19/02/2025 06:45:16;100;0;281.01;-4;-20.30;-4.55;676.0;13.10;75805;2837.338;-1759.258;1;276;-70;-74.2;44.7;45.1;14;14.0;27.8;0.0;
19/02/2025 06:45:36;100;0;280.75;-4;-20.84;-4.71;679.0;13.10;75806;2837.339;-1759.262;1;276;-70;-71.0;44.7;45.1;14;14.0;27.8;0.0;
19/02/2025 06:45:56;100;0;279.31;-4;-20.62;-4.67;681.9;13.00;75796;2837.339;-1759.266;1;276;-70;-72.6;44.7;45.1;14;14.0;27.8;0.0;
19/02/2025 06:46:16;100;0;278.43;-4;-20.71;-4.71;684.9;13.00;75785;2837.340;-1759.271;1;276;-70;-72.6;44.7;45.1;14;14.0;27.8;0.0;
19/02/2025 06:46:36;100;0;281.82;-4;-19.91;-4.51;687.8;13.00;75780;2837.341;-1759.275;1;276;-70;-72.6;44.7;45.1;14;14.0;27.8;0.0;
19/02/2025 06:46:56;100;0;279.86;-4;-20.49;-5.11;690.6;13.00;75779;2837.342;-1759.279;1;276;-70;-72.6;44.7;45.1;14;14.0;27.7;0.0;
19/02/2025 06:47:16;100;0;277.64;-4;-19.59;-5.14;693.4;12.90;75765;2837.342;-1759.283;1;276;-70;-74.2;44.7;45.1;14;14.0;27.8;0.0;
19/02/2025 06:47:36;100;0;273.00;-4;-19.76;-4.71;696.0;12.90;75764;2837.343;-1759.287;1;276;-70;-72.6;44.7;45.1;14;14.0;27.8;0.0;
19/02/2025 06:47:56;100;0;274.15;-4;-19.95;-4.62;698.6;12.90;75759;2837.343;-1759.291;1;276;-70;-72.6;44.7;45.1;14;14.0;27.8;0.0;
19/02/2025 06:48:16;100;0;273.96;-4;-19.99;-4.60;701.3;12.90;75771;2837.344;-1759.295;1;276;-70;-72.6;44.7;45.1;14;14.0;27.8;0.0;
19/02/2025 06:48:36;100;0;274.23;-4;-19.89;-4.57;703.8;12.80;75756;2837.344;-1759.299;1;276;-70;-72.6;44.7;45.1;14;14.0;27.8;0.0;
19/02/2025 06:48:56;100;0;274.26;-4;-20.20;-4.67;706.3;12.80;75755;2837.344;-1759.303;1;276;-70;-72.6;44.7;45.1;14;14.0;27.8;0.0;
19/02/2025 06:49:16;100;0;274.96;-4;-20.49;-4.72;708.9;12.80;75748;2837.345;-1759.307;1;276;-70;-74.2;44.7;45.1;14;14.0;27.8;0.0;
19/02/2025 06:49:36;100;0;276.72;-4;-20.01;-4.64;711.5;12.80;75744;2837.345;-1759.311;1;276;-70;-72.6;44.7;45.1;14;14.0;27.8;0.0;
19/02/2025 06:49:56;100;0;276.52;-4;-19.76;-4.84;714.1;12.70;75740;2837.346;-1759.315;1;276;-70;-72.6;44.7;45.1;14;14.0;27.8;0.0;
19/02/2025 06:50:16;100;0;277.64;-4;-20.50;-4.70;716.7;12.70;75726;2837.347;-1759.319;1;276;-70;-74.2;44.7;45.1;14;14.0;27.8;0.0;
19/02/2025 06:50:36;100;0;279.26;-4;-20.49;-4.62;719.4;12.70;75721;2837.347;-1759.323;1;276;-70;-74.2;44.7;45.1;14;14.0;27.8;0.0;
19/02/2025 06:50:56;100;0;280.23;-4;-20.40;-4.45;722.1;12.70;75722;2837.348;-1759.327;1;276;-70;-74.2;44.7;45.1;14;14.0;27.8;0.0;
19/02/2025 06:51:16;100;0;279.15;-4;-19.97;-4.60;724.9;12.60;75718;2837.349;-1759.331;1;276;-70;-72.6;44.7;45.2;14;14.0;27.8;0.0;
19/02/2025 06:51:36;100;0;277.39;-4;-19.73;-4.60;727.4;12.60;75716;2837.349;-1759.335;1;276;-70;-72.6;44.7;45.1;14;14.0;27.8;0.0;
19/02/2025 06:51:56;100;0;279.34;-4;-20.93;-4.71;730.1;12.60;75703;2837.350;-1759.339;1;276;-70;-72.6;44.7;45.1;14;14.0;27.8;0.0;
19/02/2025 06:52:16;100;0;280.12;-4;-19.90;-4.38;732.9;12.60;75706;2837.351;-1759.343;1;276;-70;-72.6;44.7;45.1;14;14.0;27.8;0.0;
19/02/2025 06:52:36;100;0;279.51;-4;-20.27;-4.69;735.5;12.50;75700;2837.352;-1759.347;1;276;-70;-72.6;44.7;45.1;14;14.0;27.8;0.0;
19/02/2025 06:52:56;100;0;280.17;-4;-20.08;-4.72;738.0;12.50;75689;2837.352;-1759.351;1;276;-70;-72.6;44.7;45.1;14;14.0;27.8;0.0;
19/02/2025 06:53:16;100;0;280.55;-4;-20.31;-4.74;740.6;12.50;75685;2837.353;-1759.355;1;276;-70;-71.0;44.7;45.1;16;15.8;27.8;0.0;
19/02/2025 06:53:36;100;0;279.28;-4;-20.34;-3.66;743.3;12.50;75665;2837.354;-1759.359;1;276;-70;-72.6;44.7;45.1;16;16.2;27.8;0.0;
19/02/2025 06:53:56;100;0;271.82;-4;-20.12;-3.84;746.1;12.50;75671;2837.354;-1759.363;1;276;-70;-72.6;44.7;45.1;14;13.5;27.8;0.0;
19/02/2025 06:54:16;100;0;269.41;-4;-20.05;-4.85;748.8;12.40;75658;2837.354;-1759.367;1;276;-70;-74.2;44.7;45.1;14;14.0;27.8;0.0;
19/02/2025 06:54:36;100;0;269.13;-4;-20.43;-4.71;751.5;12.40;75657;2837.354;-1759.371;1;276;-70;-72.6;44.7;45.1;14;14.0;27.8;0.0;
19/02/2025 06:54:56;100;0;268.28;-4;-20.38;-4.43;754.4;12.40;75646;2837.354;-1759.375;1;276;-70;-72.6;44.7;45.1;14;14.0;27.8;0.0;
19/02/2025 06:55:16;100;0;266.81;-4;-20.18;-4.74;757.3;12.40;75646;2837.354;-1759.380;1;276;-70;-74.2;44.7;45.1;14;14.0;27.8;0.0;
19/02/2025 06:55:36;100;0;267.54;-4;-20.06;-4.77;760.1;12.30;75647;2837.354;-1759.384;1;276;-70;-74.2;44.7;45.1;14;14.0;27.8;0.0;
19/02/2025 06:55:56;100;0;267.82;-4;-20.60;-4.79;762.9;12.30;75629;2837.354;-1759.388;1;276;-70;-72.6;44.7;45.1;14;14.0;27.8;0.0;
19/02/2025 06:56:16;100;0;267.05;-4;-19.75;-4.92;765.9;12.30;75633;2837.354;-1759.393;1;276;-70;-72.6;44.7;45.1;14;14.0;27.8;0.0;
19/02/2025 06:56:36;100;0;267.06;-4;-20.31;-4.77;768.8;12.30;75626;2837.354;-1759.397;1;276;-70;-74.2;44.7;45.1;14;14.0;27.8;0.0;
19/02/2025 06:56:56;100;0;266.23;-4;-20.10;-4.70;771.8;12.20;75610;2837.354;-1759.402;1;276;-70;-72.6;44.7;45.1;12;12.2;27.8;0.0;
19/02/2025 06:57:16;100;0;264.48;-4;-19.74;-5.72;774.9;12.20;75612;2837.354;-1759.406;1;276;-70;-72.6;44.7;45.1;12;11.7;27.8;0.0;
19/02/2025 06:57:36;100;0;266.98;-4;-19.58;-5.80;777.8;12.20;75602;2837.354;-1759.411;1;276;-70;-72.6;44.7;45.1;12;11.7;27.8;0.0;
19/02/2025 06:57:56;100;0;266.91;-4;-19.54;-5.79;780.8;12.20;75603;2837.354;-1759.415;1;276;-70;-72.6;44.7;45.1;12;11.7;27.8;0.0;
19/02/2025 06:58:16;100;0;267.42;-4;-19.24;-5.77;783.7;12.20;75601;2837.354;-1759.420;1;276;-70;-72.6;44.7;45.1;12;11.7;27.8;0.0;
19/02/2025 06:58:36;100;0;268.73;-4;-19.75;-5.45;786.6;12.10;75592;2837.354;-1759.424;1;276;-70;-72.6;44.7;45.1;12;11.7;27.8;0.0;
19/02/2025 06:58:56;100;0;268.73;-4;-19.44;-5.75;789.5;12.10;75592;2837.354;-1759.429;1;276;-70;-72.6;44.7;45.1;12;11.7;27.8;0.0;
19/02/2025 06:59:16;100;0;269.97;-4;-20.09;-5.63;792.4;12.10;75577;2837.354;-1759.433;1;276;-70;-72.6;44.7;45.1;14;14.0;27.7;0.0;
19/02/2025 06:59:36;100;0;273.89;-4;-19.58;-4.24;795.2;12.10;75575;2837.355;-1759.437;1;276;-70;-74.2;44.7;45.1;14;14.4;27.8;0.0;
19/02/2025 06:59:56;100;0;272.26;-4;-20.03;-4.54;797.9;12.00;75573;2837.355;-1759.442;1;276;-70;-72.6;44.7;45.1;14;14.4;27.8;0.0;
19/02/2025 07:00:03;118;0;271.93;-4;-20.02;-4.49;798.9;12.00;75565;2837.355;-1759.443;1;276;150;-69.4;34.0;34.0;10;9.9;27.8;0.0;
19/02/2025 07:00:13;118;0;122.29;-4;-11.01;-7.40;799.9;12.00;75552;2837.354;-1759.442;1;277;150;56.5;34.0;33.7;10;9.5;26.6;-1.0;
19/02/2025 07:00:23;118;0;79.27;-4;-0.55;-7.32;800.6;12.00;75283;2837.355;-1759.441;1;276;150;151.6;34.0;33.6;10;9.5;26.6;-1.0;
19/02/2025 07:00:33;118;0;278.61;-4;1.15;-8.09;800.7;12.00;75095;2837.355;-1759.441;1;276;150;151.6;34.0;33.6;10;9.9;27.7;-1.0;
19/02/2025 07:00:53;117;0;274.28;-4;2.40;-7.54;800.7;12.00;75103;2837.355;-1759.442;1;276;150;153.2;34.0;33.6;10;9.5;27.8;-1.0;
19/02/2025 07:01:13;117;0;274.91;-4;3.90;-7.69;800.6;12.00;75103;2837.355;-1759.442;1;276;150;153.2;29.2;29.0;-18;-18.1;27.8;-1.0;
19/02/2025 07:01:33;117;0;271.28;-4;15.23;-22.15;800.0;12.00;75095;2837.355;-1759.443;1;276;150;154.8;27.7;27.4;34;33.8;27.8;-1.0;
19/02/2025 07:01:53;117;0;271.95;-4;20.44;5.37;799.0;12.00;75099;2837.355;-1759.445;1;276;150;154.8;27.7;27.1;34;34.3;27.8;-1.0;
19/02/2025 07:02:13;117;0;270.87;-4;19.84;5.60;797.8;12.00;75092;2837.356;-1759.447;1;276;150;153.2;27.7;27.1;34;33.8;27.7;-1.0;
19/02/2025 07:02:33;117;0;272.73;-4;20.58;5.20;796.9;11.90;75077;2837.356;-1759.448;1;276;150;154.8;27.7;27.1;34;34.3;27.8;-1.0;
19/02/2025 07:02:53;117;0;271.07;-4;21.56;5.23;796.0;11.90;75078;2837.356;-1759.450;1;276;150;154.8;27.7;27.0;34;33.8;27.8;-1.0;
19/02/2025 07:03:13;117;0;271.11;-4;20.42;5.45;794.9;11.90;75074;2837.356;-1759.451;1;276;150;154.8;27.7;27.1;34;34.3;27.8;-1.0;
19/02/2025 07:03:33;117;0;271.89;-4;21.24;5.51;794.1;11.80;75067;2837.356;-1759.453;1;276;150;154.8;27.7;27.1;34;34.3;27.8;-1.0;
19/02/2025 07:03:53;117;0;272.29;-4;21.03;5.38;793.2;11.80;75068;2837.357;-1759.454;1;276;150;154.8;27.7;27.1;34;34.3;27.8;-1.0;
19/02/2025 07:04:13;117;0;274.96;-4;20.85;5.43;792.3;11.80;75061;2837.357;-1759.455;1;276;150;154.8;27.7;27.0;34;34.3;27.8;-1.0;
19/02/2025 07:04:33;117;0;277.19;-4;20.88;5.40;791.4;11.80;75064;2837.357;-1759.457;1;276;150;154.8;27.7;27.7;32;31.6;27.8;-1.0;
19/02/2025 07:04:53;117;0;276.23;-4;19.97;3.95;790.5;11.80;75069;2837.358;-1759.458;1;276;150;154.8;27.7;28.0;32;31.6;27.8;-1.0;
19/02/2025 07:05:13;117;0;276.19;-4;19.66;4.06;789.7;11.80;75067;2837.358;-1759.460;1;276;150;154.8;27.7;28.0;32;31.6;27.8;-1.0;
19/02/2025 07:05:33;117;0;278.06;-4;19.64;4.00;788.8;11.80;75064;2837.358;-1759.461;1;276;150;154.8;27.7;27.8;32;31.6;27.8;-1.0;
19/02/2025 07:05:53;117;0;277.73;-4;20.22;4.11;788.0;11.70;75062;2837.359;-1759.462;1;276;150;154.8;27.7;28.0;30;29.8;27.8;-1.0;
19/02/2025 07:06:13;117;0;277.78;-4;19.69;3.21;787.2;11.70;75050;2837.359;-1759.464;1;276;150;154.8;27.7;27.8;30;29.8;27.7;-1.0;
19/02/2025 07:06:33;117;0;279.26;-4;19.76;3.15;786.3;11.70;75049;2837.359;-1759.465;1;276;150;154.8;27.7;27.8;30;29.8;27.8;-1.0;
19/02/2025 07:06:53;117;0;281.99;-4;19.96;3.17;785.4;11.70;75046;2837.360;-1759.467;1;276;150;154.8;27.7;27.8;26;26.2;27.8;-1.0;
19/02/2025 07:07:13;117;0;278.57;-4;19.76;1.22;784.5;11.60;75039;2837.360;-1759.468;1;276;150;154.8;27.7;27.8;31;31.1;27.8;-1.0;
19/02/2025 07:07:33;117;0;280.34;-4;20.35;4.14;783.5;11.60;75037;2837.360;-1759.470;1;276;150;154.8;27.7;28.0;31;31.6;27.8;-1.0;
19/02/2025 07:07:53;117;0;281.16;-4;19.43;4.10;782.4;11.60;75029;2837.361;-1759.472;1;276;150;154.8;27.7;27.8;31;31.6;27.8;-1.0;
19/02/2025 07:08:13;117;0;283.65;-4;19.59;4.20;781.5;11.60;75039;2837.361;-1759.473;1;276;150;153.2;27.7;27.8;25;24.8;27.8;-1.0;
19/02/2025 07:08:33;117;0;287.29;-4;20.01;0.44;780.6;11.60;75039;2837.362;-1759.474;1;276;170;172.6;27.7;28.0;18;18.1;27.8;-1.0;
19/02/2025 07:08:53;117;0;288.06;-4;18.66;-3.34;779.6;11.60;74999;2837.362;-1759.476;1;276;190;193.5;27.3;27.4;18;17.6;27.8;-1.0;
19/02/2025 07:09:13;117;0;286.39;-4;19.97;-3.31;778.5;11.60;74947;2837.363;-1759.478;1;276;210;214.5;27.3;27.0;23;23.0;27.8;-1.0;
19/02/2025 07:09:33;117;0;284.44;-4;19.34;-0.25;777.1;11.60;74912;2837.364;-1759.480;1;276;230;233.9;27.3;27.0;27;27.1;27.8;-1.0;
19/02/2025 07:09:53;117;0;278.89;-4;18.89;2.11;775.7;11.60;74867;2837.364;-1759.482;1;276;250;253.2;27.0;27.0;32;32.0;27.8;-1.0;
19/02/2025 07:10:13;117;0;279.97;-4;18.92;4.55;774.1;11.50;74828;2837.365;-1759.485;1;276;270;274.2;26.7;26.5;32;32.0;27.8;-1.0;
19/02/2025 07:10:33;117;0;284.92;-4;20.38;4.70;772.3;11.50;74789;2837.365;-1759.487;1;276;290;293.5;26.7;26.8;27;27.1;27.7;-1.0;
19/02/2025 07:10:53;117;0;278.14;-4;18.85;1.82;770.4;11.50;74751;2837.366;-1759.491;1;276;310;311.3;26.3;25.8;33;32.9;27.8;-1.0;
19/02/2025 07:11:13;117;0;285.34;-4;19.90;5.11;768.2;11.50;74712;2837.367;-1759.494;1;276;310;311.3;26.3;26.7;28;28.0;27.8;-1.0;
19/02/2025 07:11:33;117;0;285.06;-4;19.19;2.25;766.1;11.50;74718;2837.368;-1759.497;1;276;310;311.3;26.3;26.5;28;27.5;27.8;-1.0;
19/02/2025 07:11:53;117;0;284.37;-4;19.00;2.30;763.8;11.50;74707;2837.369;-1759.501;1;276;310;312.9;26.0;26.1;28;27.5;27.7;-1.0;
19/02/2025 07:12:13;117;0;283.88;-4;18.95;2.42;761.4;11.50;74719;2837.369;-1759.504;1;276;310;311.3;25.7;25.8;30;29.8;27.7;-1.0;
19/02/2025 07:12:33;117;0;282.89;-4;19.12;3.63;759.0;11.50;74706;2837.370;-1759.508;1;276;310;312.9;25.7;25.6;30;30.2;27.8;-1.0;
19/02/2025 07:12:53;117;0;279.42;-4;20.65;3.58;756.6;11.50;74711;2837.371;-1759.511;1;276;310;312.9;25.7;25.8;32;32.0;27.8;-1.0;
19/02/2025 07:13:14;117;0;272.37;-4;19.19;4.79;754.5;11.50;74706;2837.371;-1759.515;1;276;310;312.9;25.7;25.6;32;32.5;27.7;-1.0;
19/02/2025 07:13:34;117;0;273.30;-4;20.76;4.95;752.3;11.50;74708;2837.372;-1759.518;1;276;310;312.9;25.7;25.6;32;32.5;27.8;-1.0;
19/02/2025 07:13:54;117;0;275.94;-4;18.56;5.02;750.2;11.50;74692;2837.372;-1759.521;1;276;310;311.3;25.3;25.2;32;32.5;27.7;-1.0;
19/02/2025 07:14:14;117;0;279.75;-4;22.37;4.73;748.0;11.50;74713;2837.373;-1759.524;1;276;310;311.3;26.0;26.1;32;32.5;27.8;-1.0;
19/02/2025 07:14:34;117;0;280.53;-4;19.67;4.51;745.8;11.40;74701;2837.373;-1759.528;1;276;310;311.3;26.0;26.2;32;32.5;27.8;-1.0;
19/02/2025 07:14:54;117;0;278.42;-4;20.85;4.24;743.4;11.40;74698;2837.374;-1759.531;1;276;310;311.3;26.0;26.2;32;32.5;27.7;-1.0;
19/02/2025 07:15:14;117;0;278.85;-4;17.80;4.86;741.1;11.40;74698;2837.375;-1759.535;1;276;310;312.9;25.3;25.3;32;32.5;27.7;-1.0;
19/02/2025 07:15:34;117;0;281.19;-4;21.88;4.94;739.1;11.40;74694;2837.375;-1759.538;1;276;330;333.9;25.3;24.7;32;32.5;27.7;-1.0;
19/02/2025 07:15:54;117;0;282.81;-4;21.52;4.65;736.8;11.40;74645;2837.376;-1759.541;1;276;330;332.3;25.3;24.7;30;29.8;27.8;-1.0;
19/02/2025 07:16:14;117;0;282.88;-4;21.85;2.99;734.4;11.40;74648;2837.377;-1759.544;1;276;330;333.9;25.3;24.7;30;29.3;27.7;-1.0;
19/02/2025 07:16:34;117;0;280.49;-4;21.59;3.65;731.9;11.40;74648;2837.378;-1759.548;1;276;330;333.9;25.3;25.3;32;32.5;27.7;-1.0;
19/02/2025 07:16:54;117;0;280.07;-4;21.17;4.93;729.8;11.40;74641;2837.378;-1759.551;1;276;330;332.3;25.3;25.3;32;32.5;27.8;-1.0;
19/02/2025 07:17:14;117;0;280.41;-4;20.64;4.90;727.6;11.40;74641;2837.379;-1759.554;1;276;330;333.9;25.3;25.3;32;32.5;27.8;-1.0;
19/02/2025 07:17:34;117;0;285.27;-4;20.36;4.66;725.8;11.40;74636;2837.380;-1759.557;1;276;350;353.2;25.3;25.3;26;25.7;27.7;-1.0;
19/02/2025 07:17:54;117;0;279.50;-4;21.00;1.26;723.9;11.40;74602;2837.380;-1759.560;1;276;370;372.6;25.3;25.3;32;32.0;27.8;-1.0;
19/02/2025 07:18:14;117;0;287.38;-4;20.12;5.18;721.8;11.40;74563;2837.381;-1759.563;1;276;370;372.6;25.3;25.3;25;24.8;27.8;-1.0;
19/02/2025 07:18:34;117;0;284.47;-4;18.11;1.22;719.9;11.30;74565;2837.382;-1759.566;1;276;390;393.5;24.8;24.6;28;28.0;27.7;-1.0;
19/02/2025 07:18:54;117;0;281.70;-4;19.94;2.95;717.8;11.30;74506;2837.383;-1759.569;1;276;390;391.9;24.8;24.2;31;31.1;27.8;-1.0;
19/02/2025 07:19:14;117;0;284.05;-4;20.49;4.52;715.9;11.40;74521;2837.383;-1759.572;1;276;410;411.3;24.8;24.2;28;28.0;27.8;-1.0;
19/02/2025 07:19:34;117;0;288.72;-4;20.92;2.43;713.9;11.30;74475;2837.384;-1759.575;1;276;430;433.9;24.8;24.2;21;20.8;27.8;-1.0;
19/02/2025 07:19:54;117;0;270.65;-4;18.77;1.02;712.0;11.30;74426;2837.385;-1759.578;1;276;450;453.2;24.4;24.3;33;32.9;27.8;-1.0;
19/02/2025 07:20:14;117;0;278.14;-4;20.06;5.54;710.1;11.30;74381;2837.385;-1759.581;1;276;470;471.0;24.4;24.2;33;32.9;27.7;-1.0;
19/02/2025 07:20:34;117;0;279.31;-4;18.93;5.13;708.0;11.30;74333;2837.386;-1759.584;1;276;470;471.0;24.1;24.2;33;32.9;27.7;-1.0;
19/02/2025 07:20:54;117;0;282.26;-4;19.33;4.72;705.5;11.30;74334;2837.387;-1759.588;1;276;470;469.4;24.1;24.2;30;29.3;27.8;-1.0;
19/02/2025 07:21:14;117;0;283.97;-4;18.80;3.94;703.1;11.30;74338;2837.388;-1759.592;1;276;470;472.6;23.7;23.7;30;29.3;27.8;-1.0;
19/02/2025 07:21:34;117;0;281.19;-4;19.08;3.30;700.8;11.30;74338;2837.388;-1759.595;1;276;470;471.0;23.7;23.3;30;29.3;27.7;-1.0;
19/02/2025 07:21:54;117;0;282.12;-4;19.88;3.47;698.4;11.30;74332;2837.389;-1759.599;1;276;470;471.0;23.7;23.3;30;29.3;27.8;-1.0;
19/02/2025 07:22:14;117;0;282.47;-4;19.98;3.13;696.0;11.30;74325;2837.390;-1759.602;1;276;470;469.4;23.7;23.3;30;29.3;27.8;-1.0;
19/02/2025 07:22:34;117;0;281.96;-4;20.24;3.74;693.5;11.30;74325;2837.391;-1759.606;1;276;470;469.4;23.7;23.3;30;29.3;27.8;-1.0;
19/02/2025 07:22:54;117;0;282.60;-4;20.66;3.70;691.0;11.30;74322;2837.392;-1759.610;1;276;470;471.0;23.7;23.3;30;29.3;27.7;-1.0;
19/02/2025 07:23:14;117;0;281.73;-4;20.50;3.43;688.2;11.30;74319;2837.393;-1759.614;1;276;470;471.0;23.7;23.3;30;29.3;27.8;-1.0;
19/02/2025 07:23:34;117;0;281.38;-4;21.87;3.53;685.1;11.30;74321;2837.393;-1759.618;1;276;470;469.4;23.7;23.1;30;29.3;27.8;-1.0;
19/02/2025 07:23:54;117;0;280.74;-4;20.23;3.61;681.9;11.30;74315;2837.394;-1759.623;1;276;470;471.0;23.7;23.1;30;29.3;27.7;-1.0;
19/02/2025 07:24:14;117;0;279.07;-4;20.31;3.54;678.7;11.30;74310;2837.395;-1759.628;1;276;470;471.0;23.7;23.9;32;32.5;27.8;-1.0;
19/02/2025 07:24:34;117;0;279.83;-4;19.41;5.16;675.8;11.30;74313;2837.396;-1759.632;1;276;470;471.0;23.7;24.0;32;32.5;27.8;-1.0;
19/02/2025 07:24:54;117;0;282.19;-4;20.24;5.29;672.8;11.30;74308;2837.397;-1759.637;1;276;470;471.0;23.7;24.0;30;29.8;27.8;-1.0;
19/02/2025 07:25:14;117;0;281.11;-4;18.44;3.57;669.8;11.30;74308;2837.398;-1759.642;1;276;470;471.0;23.3;23.1;30;29.8;27.8;-1.0;
19/02/2025 07:25:34;117;0;282.39;-4;20.35;3.66;667.0;11.30;74314;2837.399;-1759.646;1;276;470;471.0;23.3;23.0;30;29.8;27.7;-1.0;
19/02/2025 07:25:54;117;0;282.78;-4;21.05;3.65;663.9;11.30;74306;2837.400;-1759.650;1;276;470;471.0;23.3;22.7;30;29.8;27.7;-1.0;
19/02/2025 07:26:14;117;0;282.85;-4;21.22;3.60;660.8;11.30;74308;2837.401;-1759.655;1;276;470;471.0;23.3;22.5;30;29.8;27.8;-1.0;
19/02/2025 07:26:34;117;0;281.86;-4;21.40;3.78;657.4;11.30;74311;2837.402;-1759.659;1;276;470;471.0;23.3;22.5;30;29.8;27.7;-1.0;
19/02/2025 07:26:54;117;0;281.57;-4;21.30;3.67;654.3;11.30;74314;2837.403;-1759.664;1;275;470;471.0;23.3;22.5;30;29.8;27.8;-1.0;
19/02/2025 07:27:14;117;0;282.07;-4;21.12;3.58;651.1;11.30;74314;2837.404;-1759.668;1;275;470;471.0;23.3;22.5;30;29.8;27.8;-1.0;
19/02/2025 07:27:34;117;0;281.05;-4;21.52;3.61;647.9;11.30;74323;2837.405;-1759.673;1;275;470;471.0;23.3;22.5;30;29.8;27.8;-1.0;
19/02/2025 07:27:54;117;0;280.29;-4;21.26;3.52;644.8;11.20;74318;2837.406;-1759.677;1;275;470;469.4;23.3;22.5;30;29.8;27.7;-1.0;
19/02/2025 07:28:14;117;0;277.72;-4;21.15;3.76;641.9;11.30;74331;2837.406;-1759.681;1;275;470;471.0;23.3;23.4;32;32.0;27.7;-1.0;
19/02/2025 07:28:34;117;0;275.99;-4;20.47;5.28;639.1;11.30;74331;2837.407;-1759.686;1;275;470;471.0;23.3;23.4;32;32.5;27.8;-1.0;
19/02/2025 07:28:54;117;0;276.60;-4;20.59;5.22;636.4;11.30;74337;2837.407;-1759.690;1;275;470;471.0;23.3;23.4;32;32.5;27.8;-1.0;
19/02/2025 07:29:14;117;0;278.25;-4;20.21;5.17;633.8;11.20;74329;2837.408;-1759.694;1;275;470;471.0;23.3;23.4;32;32.5;27.8;-1.0;
19/02/2025 07:29:34;117;0;279.08;-4;20.58;5.24;631.1;11.30;74350;2837.409;-1759.697;1;275;470;471.0;23.3;23.4;32;32.5;27.8;-1.0;
19/02/2025 07:29:54;117;0;280.94;-4;20.38;5.22;628.4;11.30;74351;2837.410;-1759.702;1;275;470;469.4;23.3;23.4;30;29.8;27.8;-1.0;
19/02/2025 07:30:14;117;0;282.37;-4;20.14;3.65;625.7;11.30;74361;2837.411;-1759.706;1;275;470;471.0;23.3;23.4;28;27.1;27.8;-1.0;
19/02/2025 07:30:34;117;0;282.54;-4;20.13;2.58;623.0;11.30;74361;2837.411;-1759.710;1;275;470;471.0;23.3;23.6;28;27.1;27.7;-1.0;
19/02/2025 07:30:54;117;0;282.15;-4;20.10;2.61;620.4;11.30;74361;2837.412;-1759.713;1;275;470;471.0;23.3;23.4;28;27.5;27.8;-1.0;
19/02/2025 07:31:14;117;0;280.61;-4;19.89;2.56;617.8;11.30;74363;2837.413;-1759.717;1;275;470;471.0;23.3;23.4;30;29.8;27.8;-1.0;
19/02/2025 07:31:34;117;0;280.63;-4;20.18;3.99;615.2;11.30;74355;2837.414;-1759.721;1;275;470;472.6;23.3;23.4;30;29.8;27.8;-1.0;
19/02/2025 07:31:54;117;0;280.67;-4;20.14;3.94;612.6;11.30;74358;2837.415;-1759.725;1;275;470;471.0;23.3;23.4;30;29.8;27.8;-1.0;
19/02/2025 07:32:14;117;0;281.03;-4;20.26;3.86;610.0;11.30;74365;2837.416;-1759.729;1;275;470;471.0;23.3;23.4;30;29.8;27.7;-1.0;
19/02/2025 07:32:34;117;0;282.99;-4;20.56;3.91;607.3;11.30;74364;2837.416;-1759.733;1;275;470;471.0;23.3;23.4;27;26.6;27.7;-1.0;
19/02/2025 07:32:54;117;0;282.46;-4;20.08;2.34;604.4;11.30;74368;2837.417;-1759.737;1;275;470;471.0;23.3;23.4;29;29.3;27.7;-1.0;
19/02/2025 07:33:14;117;0;283.01;-4;20.12;3.56;601.7;11.30;74375;2837.418;-1759.741;1;275;470;471.0;23.3;23.4;27;27.1;27.8;-1.0;
19/02/2025 07:33:34;117;0;282.14;-4;19.91;2.25;599.0;11.30;74378;2837.419;-1759.745;1;275;470;471.0;23.3;23.4;27;26.6;27.7;-1.0;
19/02/2025 07:33:54;117;0;281.76;-4;20.06;2.07;596.2;11.30;74372;2837.420;-1759.749;1;275;470;472.6;23.3;23.4;27;26.6;27.7;-1.0;
19/02/2025 07:34:14;117;0;280.33;-4;19.80;2.08;593.5;11.30;74372;2837.421;-1759.754;1;275;470;471.0;23.3;23.3;29;28.9;27.7;-1.0;
19/02/2025 07:34:34;117;0;280.88;-4;20.47;3.73;590.7;11.30;74377;2837.422;-1759.758;1;275;470;472.6;23.3;23.4;29;29.3;27.8;-1.0;
19/02/2025 07:34:54;117;0;281.77;-4;20.26;3.73;587.8;11.30;74374;2837.423;-1759.762;1;275;470;469.4;23.3;23.4;29;29.8;27.8;-1.0;
19/02/2025 07:35:14;117;0;282.26;-4;20.20;3.64;584.9;11.40;74382;2837.424;-1759.766;1;275;470;471.0;23.3;23.4;29;29.3;27.8;-1.0;
19/02/2025 07:35:34;117;0;281.75;-4;19.99;3.76;581.9;11.40;74382;2837.425;-1759.771;1;275;470;471.0;23.3;23.4;29;29.3;27.7;-1.0;
19/02/2025 07:35:54;117;0;282.81;-4;20.20;3.65;579.0;11.40;74389;2837.426;-1759.775;1;275;470;471.0;23.3;23.4;29;29.3;27.8;-1.0;
19/02/2025 07:36:14;117;0;282.26;-4;20.38;3.77;576.0;11.40;74403;2837.427;-1759.780;1;275;470;472.6;23.3;23.4;29;29.3;27.7;-1.0;
19/02/2025 07:36:34;117;0;280.20;-4;20.15;3.71;572.8;11.40;74389;2837.428;-1759.784;1;275;470;472.6;23.3;23.4;29;29.8;27.8;-1.0;
19/02/2025 07:36:54;117;0;279.33;-4;19.97;3.66;569.7;11.40;74405;2837.428;-1759.789;1;275;470;472.6;23.3;23.4;29;29.8;27.8;-1.0;
19/02/2025 07:37:14;117;0;278.01;-4;19.76;3.70;566.7;11.40;74417;2837.429;-1759.793;1;275;470;472.6;23.3;23.4;31;31.1;27.8;-1.0;
19/02/2025 07:37:34;117;0;278.80;-4;19.85;4.95;563.5;11.40;74423;2837.430;-1759.798;1;275;470;471.0;23.3;23.4;31;32.0;27.7;-1.0;
19/02/2025 07:37:54;117;0;279.28;-4;20.12;4.92;560.4;11.40;74424;2837.431;-1759.803;1;275;470;472.6;23.3;23.4;31;32.0;27.7;-1.0;
19/02/2025 07:38:14;117;0;279.42;-4;20.00;4.99;557.2;11.50;74427;2837.431;-1759.808;1;275;470;471.0;23.3;23.4;31;31.6;27.8;-1.0;
19/02/2025 07:38:34;117;0;279.80;-4;19.88;4.83;554.1;11.50;74431;2837.432;-1759.812;1;275;470;471.0;23.3;23.4;31;32.0;27.8;-1.0;
19/02/2025 07:38:54;117;0;279.74;-4;20.14;4.94;550.9;11.50;74434;2837.433;-1759.817;1;275;470;471.0;23.3;23.4;31;32.0;27.8;-1.0;
19/02/2025 07:39:14;117;0;279.49;-4;20.00;4.93;547.7;11.50;74438;2837.434;-1759.822;1;275;470;472.6;23.3;23.4;31;32.0;27.8;-1.0;
19/02/2025 07:39:34;117;0;277.74;-4;19.87;5.00;544.6;11.50;74431;2837.435;-1759.827;1;275;470;471.0;23.3;23.4;31;32.0;27.8;-1.0;
19/02/2025 07:39:54;117;0;276.65;-4;19.89;4.99;541.5;11.50;74430;2837.435;-1759.831;1;275;470;472.6;23.3;23.4;31;32.0;27.7;-1.0;
19/02/2025 07:40:14;117;0;276.34;-4;20.04;4.91;538.4;11.50;74447;2837.436;-1759.836;1;275;470;471.0;23.3;23.4;31;32.0;27.8;-1.0;
19/02/2025 07:40:34;117;0;276.01;-4;19.91;4.92;535.3;11.50;74447;2837.437;-1759.840;1;275;470;471.0;23.3;23.4;31;32.0;27.7;-1.0;
19/02/2025 07:40:54;117;0;277.75;-4;19.98;4.87;532.2;11.50;74441;2837.437;-1759.845;1;275;470;471.0;23.3;23.4;31;32.0;27.7;-1.0;
19/02/2025 07:41:14;117;0;279.55;-4;20.17;4.83;529.3;11.60;74468;2837.438;-1759.850;1;275;470;472.6;23.3;23.4;31;32.0;27.8;-1.0;
19/02/2025 07:41:34;117;0;280.84;-4;20.05;4.85;526.1;11.60;74464;2837.439;-1759.854;1;275;470;472.6;23.3;23.4;29;28.9;27.8;-1.0;
19/02/2025 07:41:54;117;0;280.35;-4;19.87;3.04;523.1;11.60;74463;2837.440;-1759.859;1;275;470;472.6;23.3;23.4;29;28.4;27.8;-1.0;
19/02/2025 07:42:14;117;0;280.12;-4;19.67;3.09;520.0;11.60;74471;2837.441;-1759.863;1;275;470;469.4;23.3;23.4;29;28.4;27.8;-1.0;
19/02/2025 07:42:34;117;0;279.83;-4;19.60;3.00;517.1;11.60;74470;2837.442;-1759.868;1;275;470;472.6;23.3;23.4;29;28.4;27.7;-1.0;
19/02/2025 07:42:54;117;0;278.82;-4;19.68;3.07;514.1;11.60;74467;2837.442;-1759.872;1;275;470;472.6;23.3;23.4;29;28.4;27.7;-1.0;
19/02/2025 07:43:14;117;0;278.82;-4;19.72;3.11;511.2;11.60;74479;2837.443;-1759.876;1;275;470;471.0;23.3;23.4;29;28.4;27.7;-1.0;
19/02/2025 07:43:34;117;0;278.36;-4;19.71;3.00;508.4;11.70;74482;2837.444;-1759.881;1;274;470;471.0;23.3;23.4;29;28.4;27.8;-1.0;
19/02/2025 07:43:54;117;0;278.45;-4;19.64;3.06;505.5;11.70;74475;2837.444;-1759.885;1;274;470;471.0;23.3;23.4;29;28.4;27.8;-1.0;
19/02/2025 07:44:14;117;0;278.57;-4;19.67;3.06;502.6;11.70;74486;2837.445;-1759.889;1;274;470;471.0;23.3;23.3;29;28.4;27.8;-1.0;
19/02/2025 07:44:34;117;0;279.34;-4;19.62;3.00;499.8;11.70;74489;2837.446;-1759.894;1;274;470;472.6;23.3;23.4;29;28.4;27.8;-1.0;
19/02/2025 07:44:54;117;0;279.25;-4;19.61;3.01;497.0;11.70;74476;2837.447;-1759.898;1;274;470;472.6;23.3;23.4;29;28.4;27.8;-1.0;
19/02/2025 07:45:14;117;0;279.41;-4;19.55;3.01;494.3;11.70;74494;2837.447;-1759.902;1;274;470;472.6;23.3;23.4;29;28.4;27.8;-1.0;
19/02/2025 07:45:34;117;0;277.98;-4;19.59;3.10;491.5;11.70;74493;2837.448;-1759.906;1;274;470;472.6;23.3;23.4;29;28.4;27.8;-1.0;
19/02/2025 07:45:54;117;0;276.61;-4;19.49;3.08;488.9;11.80;74498;2837.449;-1759.910;1;274;470;472.6;23.3;23.4;29;28.4;27.8;-1.0;
19/02/2025 07:46:14;117;0;277.43;-4;19.75;3.04;486.2;11.80;74490;2837.449;-1759.914;1;274;470;471.0;23.3;23.4;29;28.4;27.8;-1.0;
19/02/2025 07:46:34;117;0;278.73;-4;19.70;3.01;483.6;11.80;74517;2837.450;-1759.918;1;274;470;472.6;23.3;23.4;29;28.4;27.7;-1.0;
19/02/2025 07:46:54;117;0;279.54;-4;19.65;2.91;480.8;11.80;74514;2837.451;-1759.922;1;274;470;471.0;23.3;23.4;29;28.4;27.8;-1.0;
