Timestamp;NavState;SecurityLevel;Heading;Declination;Pitch;Roll;Depth;Temperature;Pa;Lat;Lon;DeadReckoning;DesiredH;BallastCmd;BallastPos;LinCmd;LinPos;AngCmd;AngPos;Voltage;Altitude;
21/02/2025 03:22:37;119;0;269.16;-4;-63.80;-24.42;-0.1;17.50;75727;2835.091;-1758.863;0;79;500;508.1;100.0;100.4;0;-0.5;27.4;-1.0;
21/02/2025 03:22:47;116;0;267.50;-4;-53.62;-13.53;-0.2;17.50;75716;2835.093;-1758.869;0;78;500;508.1;100.0;100.6;0;-0.5;27.4;-1.0;
21/02/2025 03:23:12;116;0;293.67;-4;-57.33;-14.53;-0.2;17.60;75742;2835.096;-1758.871;0;79;500;508.1;100.0;100.4;0;-0.5;27.4;-1.0;
21/02/2025 03:23:48;116;0;320.10;-4;-54.90;-24.32;-0.2;17.70;75747;2835.097;-1758.871;0;81;500;509.7;100.0;100.4;0;0.0;27.4;-1.0;
21/02/2025 03:24:11;116;0;331.98;-4;-55.75;-14.02;-0.2;17.70;75744;2835.101;-1758.872;0;81;500;509.7;100.0;100.6;0;-0.5;27.4;-1.0;
21/02/2025 03:24:31;116;0;344.30;-4;-58.78;-8.88;-0.2;17.80;75760;2835.103;-1758.873;0;82;500;508.1;100.0;100.4;0;-0.5;27.4;-1.0;
21/02/2025 03:24:42;116;0;351.49;-4;-52.13;-13.52;-0.2;17.80;75750;2835.104;-1758.873;0;83;500;508.1;100.0;100.4;0;-0.5;27.4;-1.0;
21/02/2025 03:25:02;110;0;348.92;-4;-55.80;-16.62;0.1;17.90;75761;2835.104;-1758.873;0;84;-70;393.5;100.0;100.6;-7;-7.2;27.4;-1.0;
21/02/2025 03:25:12;110;0;350.28;-4;-58.15;-10.84;0.2;17.90;76116;2835.104;-1758.873;1;84;-70;243.5;100.0;100.6;-7;-7.7;27.3;-1.0;
21/02/2025 03:25:22;110;0;346.75;-4;-62.25;-18.83;0.6;17.90;76361;2835.105;-1758.874;1;84;-70;85.5;100.0;100.6;-7;-7.7;27.3;-1.0;
21/02/2025 03:25:32;110;0;347.11;-4;-65.44;-27.00;0.9;18.00;76696;2835.105;-1758.874;1;84;-70;-67.7;100.0;100.6;-7;-7.7;27.3;-1.0;
21/02/2025 03:25:42;110;0;1.29;-4;-67.03;-25.67;1.2;18.00;77006;2835.105;-1758.874;1;84;-70;-67.7;42.8;42.9;-7;-7.7;27.4;-1.0;
21/02/2025 03:26:02;100;0;11.62;-4;-32.50;-15.59;4.6;18.00;76974;2835.107;-1758.873;1;85;-70;-69.4;42.8;42.4;-7;-7.7;27.4;-1.0;
21/02/2025 03:26:22;100;0;20.46;-4;-19.54;-15.51;8.4;18.10;76987;2835.112;-1758.871;1;87;-70;-62.9;42.8;43.0;-63;-63.2;27.4;-1.0;
21/02/2025 03:26:42;100;0;28.42;-4;-18.46;-42.42;11.1;18.10;76998;2835.115;-1758.869;1;88;-70;-61.3;43.3;43.6;-53;-52.8;27.4;-1.0;
21/02/2025 03:27:02;100;0;41.72;-4;-18.93;-36.78;13.9;18.20;77001;2835.117;-1758.867;1;89;-70;-61.3;43.6;43.6;-38;-37.9;27.4;0.0;
21/02/2025 03:27:22;100;0;54.73;-4;-19.56;-29.30;16.6;18.20;77006;2835.119;-1758.863;1;90;-70;-61.3;43.6;43.6;-22;-21.7;27.4;0.0;
21/02/2025 03:27:42;100;0;65.96;-4;-20.54;-21.17;19.4;18.20;77024;2835.120;-1758.860;1;90;-70;-61.3;43.6;43.7;-4;-4.1;27.4;0.0;
21/02/2025 03:28:02;100;0;74.23;-4;-20.65;-12.97;22.3;18.20;77023;2835.121;-1758.856;1;90;-70;-61.3;43.6;43.7;9;9.0;27.4;0.0;
21/02/2025 03:28:22;100;0;79.44;-4;-21.55;-6.81;25.1;18.30;77026;2835.122;-1758.852;1;91;-70;-61.3;43.6;43.9;12;12.2;27.4;0.0;
21/02/2025 03:28:42;100;0;81.25;-4;-21.90;-5.16;28.0;18.30;77031;2835.122;-1758.849;1;91;-70;-61.3;43.6;43.7;12;12.6;27.4;0.0;
21/02/2025 03:29:02;100;0;82.32;-4;-22.07;-5.19;31.0;18.30;77030;2835.122;-1758.845;1;91;-70;-61.3;43.0;43.0;14;14.9;27.4;0.0;
21/02/2025 03:29:22;100;0;82.12;-4;-21.24;-4.20;34.0;18.30;77040;2835.123;-1758.841;1;91;-70;-61.3;43.0;42.7;14;14.9;27.4;0.0;
21/02/2025 03:29:42;100;0;82.73;-4;-20.66;-4.18;36.9;18.40;77040;2835.123;-1758.837;1;91;-70;-62.9;43.0;42.7;14;14.4;27.4;0.0;
21/02/2025 03:30:02;100;0;82.94;-4;-20.32;-4.20;39.7;18.40;77042;2835.123;-1758.833;1;92;-70;-61.3;43.0;42.7;14;14.4;27.4;0.0;
21/02/2025 03:30:22;100;0;84.30;-4;-20.84;-4.12;42.7;18.40;77049;2835.123;-1758.829;1;92;-70;-59.7;43.0;42.7;14;14.9;27.4;0.0;
21/02/2025 03:30:42;100;0;83.64;-4;-20.35;-4.14;45.6;18.40;77046;2835.124;-1758.824;1;92;-70;-61.3;43.0;42.9;14;14.9;27.4;0.0;
21/02/2025 03:31:02;100;0;82.91;-4;-20.71;-4.15;48.4;18.40;77061;2835.124;-1758.820;1;92;-70;-61.3;43.0;42.7;14;14.9;27.4;0.0;
21/02/2025 03:31:22;100;0;82.70;-4;-20.54;-4.12;51.3;18.40;77059;2835.124;-1758.817;1;92;-70;-61.3;43.0;42.7;14;14.9;27.4;0.0;
21/02/2025 03:31:42;100;0;81.80;-4;-19.98;-4.26;54.3;18.50;77057;2835.125;-1758.812;1;93;-70;-61.3;43.0;42.7;12;12.2;27.4;0.0;
21/02/2025 03:32:02;100;0;82.12;-4;-20.38;-5.66;57.1;18.50;77062;2835.125;-1758.808;1;93;-70;-61.3;43.0;42.7;12;11.7;27.4;0.0;
21/02/2025 03:32:22;100;0;82.64;-4;-20.15;-5.66;60.0;18.50;77070;2835.125;-1758.804;1;93;-70;-62.9;43.0;42.7;12;11.7;27.4;0.0;
21/02/2025 03:32:42;100;0;83.04;-4;-19.87;-5.73;62.7;18.50;77067;2835.125;-1758.800;1;94;-70;-61.3;43.0;42.7;12;11.7;27.4;0.0;
21/02/2025 03:33:02;100;0;83.08;-4;-19.78;-5.75;65.5;18.50;77080;2835.126;-1758.796;1;94;-70;-61.3;43.0;42.9;12;11.7;27.4;0.0;
21/02/2025 03:33:22;100;0;83.26;-4;-19.75;-5.73;68.2;18.50;77076;2835.126;-1758.793;1;94;-70;-61.3;43.0;42.7;12;11.7;27.4;0.0;
21/02/2025 03:33:42;100;0;83.48;-4;-19.67;-5.77;70.9;18.60;77084;2835.126;-1758.789;1;95;-70;-61.3;43.0;42.7;12;11.7;27.4;0.0;
21/02/2025 03:34:02;100;0;84.85;-4;-19.96;-5.75;73.5;18.60;77091;2835.126;-1758.785;1;95;-70;-61.3;43.0;42.9;12;11.7;27.4;0.0;
21/02/2025 03:34:22;100;0;86.66;-4;-19.86;-5.72;76.2;18.60;77082;2835.126;-1758.781;1;95;-70;-61.3;43.0;42.7;12;11.7;27.4;0.0;
21/02/2025 03:34:42;100;0;89.68;-4;-19.93;-5.65;78.8;18.60;77101;2835.126;-1758.777;1;95;-70;-61.3;43.0;42.7;14;14.0;27.4;0.0;
21/02/2025 03:35:02;100;0;92.69;-4;-19.86;-4.46;81.5;18.60;77097;2835.126;-1758.774;1;95;-70;-61.3;43.0;42.7;14;14.4;27.4;0.0;
21/02/2025 03:35:22;100;0;94.12;-4;-19.96;-4.51;84.2;18.60;77103;2835.125;-1758.770;1;95;-70;-61.3;43.0;42.7;14;14.4;27.4;0.0;
21/02/2025 03:35:42;100;0;97.24;-4;-19.93;-4.49;86.9;18.70;77116;2835.125;-1758.766;1;95;-70;-61.3;43.0;42.7;14;14.0;27.4;0.0;
21/02/2025 03:36:02;100;0;99.08;-4;-19.97;-4.47;89.5;18.70;77107;2835.124;-1758.762;1;95;-70;-59.7;43.0;42.7;14;14.0;27.4;0.0;
21/02/2025 03:36:22;100;0;99.92;-4;-20.02;-4.45;92.2;18.70;77101;2835.123;-1758.758;1;94;-70;-61.3;43.0;42.7;16;15.8;27.4;0.0;
21/02/2025 03:36:42;100;0;92.94;-4;-19.81;-3.47;94.7;18.70;77095;2835.123;-1758.755;1;94;-70;-61.3;43.0;42.7;14;13.5;27.4;0.0;
21/02/2025 03:37:02;100;0;90.54;-4;-19.81;-5.08;97.3;18.70;77098;2835.123;-1758.751;1;94;-70;-59.7;43.0;42.7;14;13.1;27.4;0.0;
21/02/2025 03:37:22;100;0;90.11;-4;-20.22;-5.05;99.9;18.70;77091;2835.123;-1758.747;1;94;-70;-61.3;43.0;42.7;14;13.1;27.4;0.0;
21/02/2025 03:37:42;100;0;88.92;-4;-20.07;-4.96;102.6;18.70;77096;2835.123;-1758.744;1;94;-70;-61.3;43.0;42.7;14;13.1;27.4;0.0;
21/02/2025 03:38:02;100;0;86.87;-4;-20.07;-4.99;105.1;18.70;77096;2835.123;-1758.740;1;95;-70;-62.9;43.0;42.7;14;13.1;27.4;0.0;
21/02/2025 03:38:22;100;0;82.07;-4;-20.05;-5.01;107.7;18.70;77074;2835.123;-1758.736;1;96;-70;-61.3;43.0;42.7;10;9.9;27.4;0.0;
21/02/2025 03:38:42;100;0;82.55;-4;-19.79;-6.88;110.2;18.70;77068;2835.123;-1758.733;1;97;-70;-61.3;43.0;42.7;10;9.5;27.4;0.0;
21/02/2025 03:39:02;100;0;90.21;-4;-18.96;-7.00;112.6;18.70;77051;2835.123;-1758.729;1;98;-70;-61.3;43.3;43.7;14;14.0;27.4;0.0;
21/02/2025 03:39:22;100;0;90.88;-4;-20.12;-4.52;115.0;18.70;77045;2835.123;-1758.726;1;98;-70;-61.3;43.3;43.7;14;14.4;27.4;0.0;
21/02/2025 03:39:42;100;0;92.08;-4;-20.61;-4.49;117.2;18.70;77047;2835.122;-1758.723;1;98;-70;-59.7;43.3;43.6;14;14.4;27.4;0.0;
21/02/2025 03:40:02;100;0;101.29;-4;-21.68;-4.39;119.6;18.70;77023;2835.122;-1758.720;1;97;-70;-61.3;43.3;43.6;14;14.4;27.4;0.0;
21/02/2025 03:40:22;100;0;102.82;-4;-20.64;-4.45;122.2;18.70;77011;2835.121;-1758.716;1;94;-70;-61.3;43.3;43.6;19;19.0;27.4;0.0;
21/02/2025 03:40:42;100;0;100.04;-4;-20.40;-1.94;124.5;18.70;77002;2835.120;-1758.713;1;91;-70;-61.3;43.3;43.7;19;19.4;27.4;0.0;
21/02/2025 03:41:02;100;0;98.56;-4;-20.50;-1.86;126.9;18.70;76977;2835.120;-1758.710;1;85;-70;-61.3;43.3;43.7;25;24.8;27.4;0.0;
21/02/2025 03:41:22;100;0;95.14;-4;-20.86;0.97;129.2;18.70;76986;2835.119;-1758.707;1;69;-70;-61.3;43.3;43.7;46;46.0;27.4;0.0;
21/02/2025 03:41:42;100;0;85.80;-4;-21.53;11.50;131.6;18.60;76970;2835.119;-1758.703;1;326;-70;-61.3;43.3;43.6;70;69.9;27.4;0.0;
21/02/2025 03:42:02;100;0;73.92;-4;-22.60;23.73;134.2;18.60;76954;2835.120;-1758.700;1;273;-70;-61.3;42.5;42.4;70;70.4;27.4;0.0;
21/02/2025 03:42:22;100;0;62.89;-4;-20.56;23.63;136.7;18.60;76951;2835.121;-1758.697;1;260;-70;-61.3;42.5;42.3;70;70.4;27.4;0.0;
21/02/2025 03:42:42;100;0;53.33;-4;-20.34;23.56;139.1;18.60;76939;2835.123;-1758.694;1;252;-70;-62.9;42.5;42.3;70;70.4;27.4;0.0;
21/02/2025 03:43:02;100;0;42.00;-4;-20.05;23.58;141.6;18.60;76930;2835.125;-1758.692;1;245;-70;-61.3;42.5;42.3;70;70.4;27.4;0.0;
21/02/2025 03:43:22;100;0;35.39;-4;-20.70;23.72;144.0;18.50;76929;2835.127;-1758.690;1;239;-70;-64.5;42.5;42.3;70;70.4;27.4;0.0;
21/02/2025 03:43:42;100;0;25.28;-4;-20.41;23.74;146.6;18.50;76915;2835.130;-1758.689;1;233;-70;-64.5;42.5;42.1;70;70.4;27.4;0.0;
21/02/2025 03:44:02;100;0;16.07;-4;-20.10;23.59;149.0;18.50;76903;2835.133;-1758.688;1;228;-70;-61.3;42.5;42.1;70;70.4;27.4;0.0;
21/02/2025 03:44:22;100;0;5.74;-4;-20.19;23.65;151.5;18.50;76895;2835.136;-1758.687;1;223;-70;-61.3;42.5;42.3;70;70.4;27.4;0.0;
21/02/2025 03:44:42;100;0;356.09;-4;-20.38;23.74;153.9;18.50;76882;2835.139;-1758.688;1;217;-70;-59.7;42.5;42.3;70;70.4;27.4;0.0;
21/02/2025 03:45:02;100;0;342.20;-4;-19.52;23.47;156.4;18.40;76886;2835.142;-1758.689;1;211;-70;-61.3;42.5;42.1;70;70.4;27.4;0.0;
21/02/2025 03:45:23;100;0;329.53;-4;-19.55;23.57;158.8;18.40;76874;2835.144;-1758.691;1;206;-70;-61.3;42.5;42.1;70;70.4;27.4;0.0;
21/02/2025 03:45:43;100;0;317.63;-4;-19.97;23.60;161.2;18.40;76859;2835.146;-1758.693;1;200;-70;-61.3;42.5;42.1;70;70.4;27.4;0.0;
21/02/2025 03:46:03;100;0;306.14;-4;-20.11;23.62;163.6;18.40;76862;2835.148;-1758.696;1;194;-70;-61.3;42.5;42.1;70;70.4;27.4;0.0;
21/02/2025 03:46:23;100;0;295.84;-4;-20.45;23.65;166.0;18.30;76857;2835.149;-1758.699;1;188;-70;-61.3;42.5;42.1;70;70.4;27.4;0.0;
21/02/2025 03:46:43;100;0;284.05;-4;-20.68;23.76;168.5;18.30;76848;2835.150;-1758.703;1;182;-70;-61.3;42.5;42.1;70;70.4;27.4;0.0;
21/02/2025 03:47:03;100;0;276.82;-4;-20.39;23.77;171.1;18.30;76843;2835.150;-1758.707;1;176;-70;-61.3;42.5;42.1;70;70.4;27.4;0.0;
21/02/2025 03:47:23;100;0;265.85;-4;-20.19;23.64;173.5;18.30;76835;2835.149;-1758.710;1;169;-70;-61.3;42.5;42.1;70;70.4;27.4;0.0;
21/02/2025 03:47:43;100;0;252.89;-4;-19.82;23.61;175.9;18.20;76818;2835.148;-1758.714;1;163;-70;-61.3;42.5;42.3;70;70.4;27.4;0.0;
21/02/2025 03:48:03;100;0;244.75;-4;-21.04;23.79;178.4;18.20;76813;2835.147;-1758.717;1;157;-70;-61.3;42.5;42.1;70;70.4;27.4;0.0;
21/02/2025 03:48:23;100;0;232.91;-4;-20.18;23.70;181.0;18.20;76803;2835.145;-1758.720;1;150;-70;-61.3;42.5;42.1;70;70.4;27.4;0.0;
21/02/2025 03:48:43;100;0;219.31;-4;-19.55;23.47;183.7;18.20;76787;2835.142;-1758.723;1;143;-70;-61.3;42.5;42.1;70;70.4;27.4;0.0;
21/02/2025 03:49:03;100;0;207.68;-4;-19.66;23.59;186.2;18.10;76769;2835.139;-1758.724;1;136;-70;-61.3;42.5;42.1;70;70.4;27.4;0.0;
21/02/2025 03:49:23;100;0;196.41;-4;-19.80;23.59;188.7;18.10;76759;2835.136;-1758.726;1;130;-70;-61.3;42.5;42.1;70;70.4;27.4;0.0;
21/02/2025 03:49:43;100;0;185.39;-4;-20.17;23.67;191.2;18.00;76754;2835.132;-1758.726;1;123;-70;-61.3;42.5;42.1;70;70.4;27.4;0.0;
21/02/2025 03:50:03;100;0;175.50;-4;-20.23;23.58;193.9;18.00;76753;2835.129;-1758.726;1;114;-70;-61.3;42.5;42.1;70;70.4;27.4;0.0;
21/02/2025 03:50:23;100;0;165.28;-4;-20.06;23.70;196.5;18.00;76728;2835.125;-1758.725;1;106;-70;-61.3;42.5;42.1;70;70.4;27.4;0.0;
21/02/2025 03:50:43;100;0;152.33;-4;-19.46;23.62;199.2;17.90;76717;2835.122;-1758.723;1;97;-70;-61.3;42.5;42.3;70;70.4;27.4;0.0;
21/02/2025 03:51:03;100;0;140.45;-4;-19.54;23.56;201.8;17.90;76711;2835.119;-1758.721;1;87;-70;-61.3;42.5;42.1;70;70.4;27.4;0.0;
21/02/2025 03:51:23;100;0;129.85;-4;-19.63;23.57;204.4;17.90;76697;2835.117;-1758.718;1;76;-70;-62.9;42.5;42.1;70;70.4;27.4;0.0;
21/02/2025 03:51:43;100;0;119.21;-4;-19.54;23.56;207.0;17.90;76701;2835.115;-1758.715;1;62;-70;-61.3;42.5;42.3;70;70.4;27.4;0.0;
21/02/2025 03:52:03;100;0;109.20;-4;-19.78;23.63;209.5;17.80;76688;2835.114;-1758.711;1;46;-70;-61.3;42.5;42.3;70;70.4;27.4;0.0;
21/02/2025 03:52:23;100;0;98.42;-4;-19.91;23.72;212.3;17.80;76688;2835.113;-1758.707;1;23;-70;-61.3;42.5;42.1;70;70.4;27.4;0.0;
21/02/2025 03:52:43;100;0;88.07;-4;-19.89;23.73;214.8;17.80;76669;2835.113;-1758.704;1;357;-70;-61.3;42.5;42.3;70;70.4;27.4;0.0;
21/02/2025 03:53:03;100;0;76.61;-4;-19.76;23.73;217.5;17.70;76669;2835.114;-1758.700;1;330;-70;-61.3;42.5;42.1;70;70.4;27.4;0.0;
21/02/2025 03:53:23;100;0;66.98;-4;-20.17;23.87;220.2;17.70;76656;2835.115;-1758.696;1;307;-70;-61.3;42.5;42.1;70;70.4;27.4;0.0;
21/02/2025 03:53:43;100;0;57.00;-4;-19.97;23.81;222.8;17.60;76655;2835.117;-1758.693;1;289;-70;-61.3;42.5;42.1;70;70.4;27.4;0.0;
21/02/2025 03:54:03;100;0;45.68;-4;-19.03;23.67;225.4;17.60;76648;2835.119;-1758.691;1;275;-70;-61.3;42.5;42.1;70;70.4;27.4;0.0;
21/02/2025 03:54:23;100;0;37.06;-4;-19.66;23.55;227.9;17.60;76632;2835.121;-1758.688;1;265;-70;-61.3;42.5;42.1;70;70.4;27.4;0.0;
21/02/2025 03:54:43;100;0;28.58;-4;-19.82;23.58;230.3;17.60;76626;2835.124;-1758.687;1;256;-70;-61.3;42.5;42.1;70;70.4;27.4;0.0;
21/02/2025 03:55:03;100;0;19.65;-4;-19.99;23.73;232.9;17.50;76622;2835.127;-1758.686;1;247;-70;-61.3;42.5;42.3;70;70.4;27.4;0.0;
21/02/2025 03:55:23;100;0;10.37;-4;-19.78;23.67;235.4;17.50;76620;2835.130;-1758.685;1;240;-70;-59.7;42.5;42.1;70;70.4;27.4;0.0;
21/02/2025 03:55:43;100;0;1.86;-4;-19.85;23.68;237.8;17.40;76597;2835.133;-1758.685;1;233;-70;-61.3;42.5;42.1;70;70.4;27.4;0.0;
21/02/2025 03:56:03;100;0;351.29;-4;-19.49;23.58;240.3;17.40;76604;2835.136;-1758.686;1;226;-70;-61.3;42.5;42.1;70;70.4;27.4;0.0;
21/02/2025 03:56:23;100;0;339.77;-4;-19.50;23.66;242.7;17.40;76586;2835.139;-1758.687;1;219;-70;-62.9;42.5;42.1;70;70.4;27.4;0.0;
21/02/2025 03:56:43;100;0;328.12;-4;-19.51;23.65;245.2;17.30;76580;2835.141;-1758.689;1;212;-70;-61.3;42.5;42.1;70;70.4;27.4;0.0;
21/02/2025 03:57:03;100;0;316.76;-4;-19.37;23.57;247.7;17.30;76570;2835.143;-1758.692;1;205;-70;-61.3;42.5;42.1;70;70.4;27.4;0.0;
21/02/2025 03:57:23;100;0;306.20;-4;-19.66;23.60;250.1;17.30;76565;2835.145;-1758.695;1;198;-70;-61.3;42.5;42.1;70;70.4;27.4;0.0;
21/02/2025 03:57:43;100;0;295.52;-4;-19.75;23.62;252.6;17.20;76545;2835.146;-1758.698;1;192;-70;-61.3;42.5;42.3;70;70.4;27.4;0.0;
21/02/2025 03:58:03;100;0;284.83;-4;-19.72;23.69;255.1;17.20;76560;2835.147;-1758.702;1;185;-70;-61.3;42.5;42.1;70;70.4;27.4;0.0;
21/02/2025 03:58:23;100;0;273.81;-4;-19.68;23.66;257.6;17.20;76548;2835.147;-1758.705;1;178;-70;-61.3;42.5;42.1;70;70.4;27.4;0.0;
21/02/2025 03:58:43;100;0;263.84;-4;-19.87;23.63;260.2;17.10;76528;2835.146;-1758.709;1;170;-70;-61.3;42.5;42.1;70;70.4;27.4;0.0;
21/02/2025 03:59:03;100;0;254.73;-4;-19.80;23.67;262.7;17.10;76535;2835.145;-1758.713;1;163;-70;-61.3;42.5;42.1;70;70.4;27.4;0.0;
21/02/2025 03:59:23;100;0;244.63;-4;-20.22;23.81;265.3;17.10;76525;2835.144;-1758.716;1;156;-70;-61.3;42.5;42.3;70;70.4;27.4;0.0;
21/02/2025 03:59:43;100;0;232.23;-4;-20.02;23.79;268.0;17.10;76512;2835.141;-1758.719;1;148;-70;-59.7;42.5;42.1;70;70.4;27.4;0.0;
21/02/2025 04:00:03;100;0;218.36;-4;-19.42;23.76;270.7;17.00;76511;2835.138;-1758.722;1;139;-70;-59.7;42.5;42.3;70;70.4;27.4;0.0;
21/02/2025 04:00:23;100;0;204.77;-4;-19.13;23.68;273.3;17.00;76509;2835.135;-1758.724;1;131;-70;-61.3;42.5;42.1;70;70.4;27.4;0.0;
21/02/2025 04:00:43;100;0;190.92;-4;-19.11;23.61;275.7;16.90;76490;2835.132;-1758.724;1;123;-70;-59.7;42.5;42.3;70;70.4;27.4;0.0;
21/02/2025 04:01:03;100;0;180.14;-4;-19.62;23.69;278.2;16.90;76476;2835.129;-1758.725;1;115;-70;-61.3;42.5;42.3;70;70.4;27.4;0.0;
21/02/2025 04:01:23;100;0;169.26;-4;-19.51;23.61;280.7;16.90;76464;2835.125;-1758.724;1;106;-70;-61.3;42.5;42.1;70;70.4;27.4;0.0;
21/02/2025 04:01:43;100;0;159.56;-4;-19.71;23.64;283.2;16.80;76459;2835.122;-1758.723;1;97;-70;-61.3;42.5;42.1;70;70.4;27.4;0.0;
21/02/2025 04:02:03;100;0;148.88;-4;-19.80;23.74;285.7;16.80;76461;2835.119;-1758.721;1;87;-70;-59.7;42.5;42.3;70;70.4;27.4;0.0;
21/02/2025 04:02:23;100;0;136.02;-4;-19.14;23.64;288.1;16.80;76438;2835.117;-1758.719;1;75;-70;-61.3;42.5;42.1;70;70.4;27.4;0.0;
21/02/2025 04:02:43;100;0;124.75;-4;-19.04;23.59;290.5;16.70;76433;2835.115;-1758.716;1;62;-70;-61.3;42.5;42.3;70;70.4;27.4;0.0;
21/02/2025 04:03:03;100;0;113.89;-4;-19.30;23.65;292.8;16.70;76426;2835.113;-1758.713;1;48;-70;-61.3;42.5;42.3;70;70.4;27.4;0.0;
21/02/2025 04:03:23;100;0;101.14;-4;-19.15;23.53;295.1;16.70;76413;2835.112;-1758.709;1;31;-70;-61.3;42.5;42.1;70;70.4;27.4;0.0;
21/02/2025 04:03:43;100;0;89.15;-4;-19.17;23.58;297.4;16.60;76402;2835.112;-1758.706;1;12;-70;-61.3;42.5;42.3;70;70.4;27.4;0.0;
21/02/2025 04:04:03;100;0;78.06;-4;-19.14;23.51;299.6;16.60;76393;2835.113;-1758.703;1;350;-70;-61.3;42.5;42.1;70;70.4;27.4;0.0;
21/02/2025 04:04:23;100;0;67.42;-4;-19.05;23.52;301.9;16.60;76389;2835.114;-1758.699;1;327;-70;-61.3;42.5;42.3;70;70.4;27.4;0.0;
21/02/2025 04:04:43;100;0;56.72;-4;-19.25;23.59;304.1;16.50;76384;2835.115;-1758.697;1;307;-70;-59.7;42.5;42.3;70;70.4;27.4;0.0;
21/02/2025 04:05:03;100;0;46.22;-4;-19.66;23.62;306.3;16.50;76381;2835.117;-1758.694;1;289;-70;-59.7;42.5;42.3;70;70.4;27.4;0.0;
21/02/2025 04:05:23;100;0;35.09;-4;-19.67;23.84;308.8;16.50;76379;2835.119;-1758.692;1;273;-70;-61.3;42.5;42.3;70;70.4;27.4;0.0;
21/02/2025 04:05:43;100;0;21.28;-4;-19.32;23.59;311.1;16.40;76376;2835.122;-1758.691;1;259;-70;-61.3;42.5;42.1;70;70.4;27.4;0.0;
21/02/2025 04:06:03;100;0;9.21;-4;-18.73;23.45;313.5;16.40;76361;2835.125;-1758.691;1;246;-70;-61.3;42.9;43.0;70;70.4;27.4;0.0;
21/02/2025 04:06:23;100;0;359.11;-4;-21.06;23.83;315.9;16.40;76351;2835.128;-1758.691;1;235;-70;-61.3;42.9;43.3;70;70.4;27.4;0.0;
21/02/2025 04:06:43;100;0;345.81;-4;-19.85;23.72;318.3;16.30;76347;2835.131;-1758.692;1;225;-70;-59.7;42.9;43.3;70;70.4;27.4;0.0;
21/02/2025 04:07:03;100;0;335.31;-4;-20.89;23.72;320.7;16.30;76340;2835.133;-1758.693;1;215;-70;-59.7;42.9;43.2;70;70.4;27.3;0.0;
21/02/2025 04:07:23;100;0;325.79;-4;-20.99;23.71;323.2;16.30;76343;2835.136;-1758.695;1;206;-70;-61.3;42.9;43.3;70;70.4;27.4;0.0;
21/02/2025 04:07:43;100;0;315.67;-4;-20.57;23.65;325.7;16.20;76329;2835.138;-1758.698;1;197;-70;-61.3;42.9;43.3;70;70.4;27.4;0.0;
21/02/2025 04:08:03;100;0;304.60;-4;-20.69;23.58;328.1;16.20;76320;2835.139;-1758.701;1;188;-70;-61.3;42.9;43.3;70;70.4;27.4;0.0;
21/02/2025 04:08:23;100;0;292.01;-4;-20.39;23.68;330.6;16.20;76315;2835.140;-1758.704;1;179;-70;-59.7;42.9;43.3;70;70.4;27.4;0.0;
21/02/2025 04:08:43;100;0;279.78;-4;-20.54;23.66;332.9;16.10;76299;2835.141;-1758.708;1;171;-70;-59.7;42.9;43.3;70;70.4;27.4;0.0;
21/02/2025 04:09:03;100;0;267.85;-4;-20.62;23.66;335.5;16.10;76304;2835.140;-1758.711;1;163;-70;-59.7;42.9;43.3;70;70.4;27.4;0.0;
21/02/2025 04:09:23;100;0;257.73;-4;-21.08;23.80;337.9;16.10;76292;2835.139;-1758.715;1;154;-70;-61.3;42.9;43.3;70;70.4;27.3;0.0;
21/02/2025 04:09:43;100;0;247.90;-4;-21.16;23.83;340.5;16.00;76283;2835.138;-1758.718;1;146;-70;-61.3;42.9;43.3;70;70.4;27.4;0.0;
21/02/2025 04:10:03;100;0;234.34;-4;-20.44;23.70;343.0;16.00;76276;2835.136;-1758.721;1;137;-70;-61.3;42.9;43.3;70;70.4;27.4;0.0;
21/02/2025 04:10:23;100;0;222.41;-4;-20.56;23.76;345.5;16.00;76261;2835.134;-1758.724;1;128;-70;-59.7;42.9;43.3;70;70.4;27.4;0.0;
21/02/2025 04:10:43;100;0;209.04;-4;-20.27;23.68;348.0;15.90;76259;2835.131;-1758.725;1;120;-70;-61.3;42.9;43.3;70;70.4;27.4;0.0;
21/02/2025 04:11:03;100;0;196.28;-4;-20.22;23.66;350.3;15.90;76247;2835.128;-1758.726;1;111;-70;-62.9;42.9;43.3;70;70.4;27.4;0.0;
21/02/2025 04:11:23;100;0;184.29;-4;-20.39;23.59;352.7;15.90;76237;2835.125;-1758.727;1;103;-70;-59.7;42.9;43.3;70;70.4;27.4;0.0;
21/02/2025 04:11:43;100;0;171.63;-4;-20.41;23.75;355.0;15.80;76233;2835.121;-1758.726;1;94;-70;-61.3;42.9;43.3;70;70.4;27.4;0.0;
21/02/2025 04:12:03;100;0;157.80;-4;-20.58;23.71;357.3;15.80;76223;2835.119;-1758.725;1;86;-70;-59.7;42.9;43.3;70;70.4;27.4;0.0;
21/02/2025 04:12:23;100;0;143.11;-4;-20.19;23.71;359.8;15.80;76225;2835.116;-1758.723;1;76;-70;-61.3;42.9;43.3;70;70.4;27.4;0.0;
21/02/2025 04:12:43;100;0;131.73;-4;-20.55;23.71;362.1;15.70;76215;2835.114;-1758.721;1;67;-70;-59.7;42.9;43.3;70;70.4;27.4;0.0;
21/02/2025 04:13:03;100;0;119.85;-4;-20.55;23.70;364.6;15.70;76213;2835.112;-1758.718;1;57;-70;-61.3;42.9;43.3;70;70.4;27.4;0.0;
21/02/2025 04:13:23;100;0;110.09;-4;-20.89;23.79;367.0;15.70;76201;2835.111;-1758.715;1;46;-70;-61.3;42.9;43.3;70;70.4;27.4;0.0;
21/02/2025 04:13:43;100;0;96.50;-4;-20.38;23.67;369.5;15.60;76192;2835.110;-1758.711;1;34;-70;-61.3;42.9;43.3;70;70.4;27.4;0.0;
21/02/2025 04:14:03;100;0;84.53;-4;-20.56;23.74;371.9;15.60;76177;2835.111;-1758.708;1;20;-70;-59.7;42.9;43.3;70;70.4;27.4;0.0;
21/02/2025 04:14:23;100;0;73.21;-4;-20.74;23.77;374.4;15.60;76170;2835.111;-1758.705;1;3;-70;-62.9;42.9;43.3;70;70.4;27.4;0.0;
21/02/2025 04:14:43;100;0;60.88;-4;-20.12;23.59;376.9;15.50;76179;2835.113;-1758.701;1;343;-70;-59.7;42.9;43.3;70;70.4;27.4;0.0;
21/02/2025 04:15:03;100;0;49.82;-4;-20.77;23.74;379.3;15.50;76167;2835.114;-1758.699;1;322;-70;-59.7;42.9;43.2;70;70.4;27.4;0.0;
21/02/2025 04:15:23;100;0;38.40;-4;-20.54;23.74;381.8;15.50;76162;2835.117;-1758.697;1;298;-70;-61.3;42.9;43.3;70;70.4;27.4;0.0;
21/02/2025 04:15:43;100;0;29.33;-4;-20.40;23.71;384.2;15.40;76161;2835.119;-1758.695;1;276;-70;-61.3;42.9;43.3;70;70.4;27.4;0.0;
21/02/2025 04:16:03;100;0;18.88;-4;-20.73;23.77;386.7;15.40;76152;2835.122;-1758.694;1;258;-70;-61.3;42.9;43.3;70;70.4;27.4;0.0;
21/02/2025 04:16:23;100;0;8.46;-4;-20.95;23.77;389.1;15.40;76139;2835.125;-1758.694;1;242;-70;-61.3;42.9;43.4;70;70.4;27.4;0.0;
21/02/2025 04:16:43;100;0;359.53;-4;-20.65;23.75;391.6;15.30;76137;2835.128;-1758.694;1;230;-70;-59.7;42.9;43.3;70;70.4;27.4;0.0;
21/02/2025 04:17:03;100;0;349.84;-4;-20.82;23.85;394.2;15.30;76127;2835.131;-1758.695;1;218;-70;-61.3;42.9;43.3;70;70.4;27.4;0.0;
21/02/2025 04:17:23;100;0;340.65;-4;-20.90;23.88;396.7;15.30;76134;2835.133;-1758.696;1;208;-70;-61.3;42.9;43.3;70;70.4;27.4;0.0;
21/02/2025 04:17:43;100;0;330.40;-4;-20.57;23.78;399.3;15.20;76116;2835.136;-1758.698;1;199;-70;-61.3;42.9;43.4;70;70.4;27.4;0.0;
21/02/2025 04:18:03;100;0;321.10;-4;-20.73;23.66;401.7;15.20;76106;2835.138;-1758.700;1;191;-70;-61.3;42.9;43.3;70;70.4;27.4;0.0;
21/02/2025 04:18:23;100;0;309.96;-4;-20.35;23.64;404.2;15.20;76110;2835.140;-1758.703;1;183;-70;-62.9;42.9;43.2;70;70.4;27.4;0.0;
21/02/2025 04:18:43;100;0;299.86;-4;-20.55;23.76;406.7;15.20;76098;2835.141;-1758.706;1;175;-70;-59.7;42.9;43.3;70;70.4;27.4;0.0;
21/02/2025 04:19:03;100;0;287.69;-4;-20.28;23.64;409.1;15.10;76099;2835.142;-1758.709;1;168;-70;-61.3;42.9;43.3;70;70.4;27.4;0.0;
21/02/2025 04:19:23;100;0;277.09;-4;-20.50;23.69;411.6;15.10;76084;2835.142;-1758.713;1;161;-70;-61.3;42.9;43.3;70;70.4;27.4;0.0;
21/02/2025 04:19:43;100;0;266.82;-4;-20.44;23.66;414.0;15.10;76086;2835.142;-1758.716;1;153;-70;-61.3;42.9;43.3;70;70.4;27.4;0.0;
21/02/2025 04:20:03;100;0;256.43;-4;-20.55;23.64;416.5;15.00;76071;2835.141;-1758.720;1;147;-70;-61.3;42.9;43.3;70;70.4;27.4;0.0;
21/02/2025 04:20:23;100;0;245.18;-4;-20.76;23.74;418.9;15.00;76075;2835.140;-1758.723;1;140;-70;-61.3;42.9;43.2;70;70.4;27.4;0.0;
21/02/2025 04:20:44;100;0;234.04;-4;-20.42;23.71;421.3;15.00;76054;2835.138;-1758.726;1;132;-70;-61.3;42.9;43.3;70;70.4;27.4;0.0;
21/02/2025 04:21:04;100;0;223.09;-4;-20.59;23.68;423.7;15.00;76060;2835.135;-1758.728;1;126;-70;-59.7;42.9;43.3;70;70.4;27.4;0.0;
21/02/2025 04:21:24;100;0;210.51;-4;-20.54;23.75;426.1;14.90;76045;2835.133;-1758.730;1;119;-70;-61.3;42.9;43.2;70;70.4;27.4;0.0;
21/02/2025 04:21:44;100;0;196.71;-4;-20.28;23.66;428.6;14.90;76052;2835.129;-1758.731;1;111;-70;-61.3;42.9;43.3;70;70.4;27.4;0.0;
21/02/2025 04:22:04;100;0;182.17;-4;-20.40;23.85;431.2;14.90;76045;2835.126;-1758.732;1;104;-70;-61.3;42.9;43.3;70;70.4;27.4;0.0;
21/02/2025 04:22:24;100;0;170.33;-4;-20.28;23.76;433.8;14.80;76032;2835.123;-1758.731;1;96;-70;-64.5;42.9;43.3;70;70.4;27.4;0.0;
21/02/2025 04:22:44;100;0;158.72;-4;-20.63;23.69;436.2;14.80;76031;2835.119;-1758.730;1;89;-70;-61.3;42.9;43.3;70;70.4;27.4;0.0;
21/02/2025 04:23:04;100;0;146.88;-4;-20.39;23.76;438.7;14.80;76016;2835.117;-1758.728;1;81;-70;-59.7;42.9;43.3;70;70.4;27.4;0.0;
21/02/2025 04:23:24;100;0;134.59;-4;-20.78;23.79;441.3;14.80;76022;2835.114;-1758.725;1;73;-70;-61.3;42.9;43.3;70;70.4;27.4;0.0;
21/02/2025 04:23:44;100;0;122.27;-4;-20.44;23.59;443.8;14.70;76007;2835.112;-1758.722;1;65;-70;-59.7;42.9;43.3;70;70.4;27.4;0.0;
21/02/2025 04:24:04;100;0;112.43;-4;-20.58;23.52;446.2;14.70;76019;2835.111;-1758.719;1;56;-70;-59.7;42.9;43.3;70;70.4;27.4;0.0;
21/02/2025 04:24:24;100;0;101.40;-4;-20.28;23.65;448.8;14.70;76004;2835.110;-1758.716;1;47;-70;-59.7;42.9;43.3;70;69.9;27.4;0.0;
21/02/2025 04:24:44;100;0;91.04;-4;-20.14;23.83;451.2;14.60;75997;2835.110;-1758.712;1;36;-70;-61.3;42.9;43.3;70;70.4;27.4;0.0;
21/02/2025 04:25:04;100;0;82.55;-4;-20.60;23.61;453.7;14.60;75997;2835.110;-1758.709;1;23;-70;-61.3;42.9;43.3;70;70.4;27.4;0.0;
21/02/2025 04:25:24;100;0;73.15;-4;-20.94;23.79;456.2;14.60;75996;2835.111;-1758.706;1;9;-70;-59.7;42.9;43.3;70;70.4;27.4;0.0;
21/02/2025 04:25:44;100;0;65.21;-4;-20.53;23.64;458.9;14.60;75985;2835.112;-1758.702;1;349;-70;-61.3;42.9;43.3;70;70.4;27.4;0.0;
21/02/2025 04:26:04;100;0;54.63;-4;-20.66;23.83;461.5;14.50;75985;2835.114;-1758.699;1;326;-70;-59.7;42.9;43.2;70;70.4;27.4;0.0;
21/02/2025 04:26:24;100;0;44.95;-4;-20.64;23.80;464.1;14.50;75983;2835.116;-1758.697;1;302;-70;-59.7;42.9;43.3;70;70.4;27.4;0.0;
21/02/2025 04:26:44;100;0;35.39;-4;-20.51;23.77;466.7;14.50;75976;2835.119;-1758.695;1;280;-70;-62.9;42.9;43.3;70;70.4;27.4;0.0;
21/02/2025 04:27:04;100;0;26.45;-4;-20.59;23.77;469.3;14.50;75972;2835.121;-1758.693;1;263;-70;-61.3;42.9;43.3;70;70.4;27.4;0.0;
21/02/2025 04:27:24;100;0;16.81;-4;-20.35;23.71;471.9;14.40;75965;2835.124;-1758.692;1;248;-70;-59.7;42.9;43.3;70;70.4;27.4;0.0;
21/02/2025 04:27:44;100;0;7.37;-4;-20.45;23.72;474.4;14.40;75952;2835.127;-1758.692;1;236;-70;-61.3;42.9;43.3;70;70.4;27.4;0.0;
21/02/2025 04:28:04;100;0;357.90;-4;-20.43;23.73;477.0;14.40;75959;2835.130;-1758.692;1;225;-70;-61.3;42.9;43.3;70;70.4;27.4;0.0;
21/02/2025 04:28:24;100;0;347.86;-4;-20.11;23.83;479.6;14.40;75949;2835.133;-1758.693;1;216;-70;-61.3;42.9;43.3;70;70.4;27.4;0.0;
21/02/2025 04:28:44;100;0;338.77;-4;-20.28;23.63;481.9;14.40;75949;2835.136;-1758.694;1;208;-70;-61.3;42.9;43.3;70;70.4;27.4;0.0;
21/02/2025 04:29:04;100;0;328.25;-4;-20.43;23.76;484.5;14.30;75937;2835.139;-1758.696;1;200;-70;-61.3;42.9;43.3;70;70.4;27.4;0.0;
21/02/2025 04:29:24;100;0;316.60;-4;-20.22;23.79;487.0;14.30;75930;2835.141;-1758.699;1;192;-70;-61.3;42.9;43.3;70;70.4;27.4;0.0;
21/02/2025 04:29:44;100;0;304.63;-4;-20.17;23.76;489.5;14.30;75932;2835.143;-1758.702;1;185;-70;-61.3;42.9;43.3;70;70.4;27.4;0.0;
21/02/2025 04:30:04;100;0;291.73;-4;-19.78;23.66;491.9;14.20;75929;2835.144;-1758.705;1;177;-70;-61.3;42.9;43.3;70;70.4;27.4;0.0;
21/02/2025 04:30:24;100;0;280.78;-4;-19.82;23.50;494.4;14.20;75925;2835.144;-1758.709;1;170;-70;-61.3;42.9;43.2;70;70.4;27.4;0.0;
21/02/2025 04:30:44;100;0;269.77;-4;-20.22;23.59;496.7;14.20;75918;2835.144;-1758.712;1;163;-70;-62.9;42.9;43.3;70;70.4;27.4;0.0;
21/02/2025 04:31:04;100;0;259.05;-4;-20.27;23.70;499.2;14.20;75905;2835.143;-1758.716;1;156;-70;-59.7;42.9;43.3;70;70.4;27.4;0.0;
21/02/2025 04:31:24;100;0;249.25;-4;-20.11;23.71;501.6;14.10;75912;2835.142;-1758.719;1;148;-70;-61.3;42.9;43.2;70;70.4;27.4;0.0;
21/02/2025 04:31:44;100;0;240.15;-4;-20.26;23.61;504.0;14.10;75911;2835.140;-1758.722;1;141;-70;-61.3;42.9;43.3;70;70.4;27.4;0.0;
21/02/2025 04:32:04;100;0;227.02;-4;-20.32;23.68;506.3;14.10;75903;2835.138;-1758.725;1;134;-70;-61.3;42.9;43.3;70;70.4;27.4;0.0;
21/02/2025 04:32:24;100;0;212.16;-4;-20.00;23.85;508.8;14.10;75896;2835.135;-1758.727;1;127;-70;-61.3;42.9;43.3;70;70.4;27.4;0.0;
21/02/2025 04:32:44;100;0;200.68;-4;-20.09;23.73;511.2;14.10;75901;2835.132;-1758.728;1;119;-70;-61.3;42.9;43.3;70;70.4;27.4;0.0;
21/02/2025 04:33:04;100;0;188.53;-4;-20.07;23.69;513.7;14.00;75885;2835.129;-1758.729;1;112;-70;-61.3;42.9;43.2;70;70.4;27.4;0.0;
21/02/2025 04:33:24;100;0;179.16;-4;-20.64;23.77;516.0;14.00;75875;2835.126;-1758.729;1;104;-70;-61.3;42.9;43.3;70;70.4;27.4;0.0;
21/02/2025 04:33:44;100;0;168.42;-4;-20.17;23.74;518.5;14.00;75889;2835.122;-1758.728;1;96;-70;-61.3;42.9;43.3;70;70.4;27.4;0.0;
21/02/2025 04:34:04;100;0;157.25;-4;-20.35;23.83;520.8;14.00;75875;2835.119;-1758.727;1;88;-70;-61.3;42.9;43.3;70;70.4;27.4;0.0;
21/02/2025 04:34:24;100;0;144.87;-4;-20.30;23.87;523.2;13.90;75878;2835.117;-1758.725;1;80;-70;-61.3;42.9;43.3;70;70.4;27.4;0.0;
21/02/2025 04:34:44;100;0;131.17;-4;-19.77;23.69;525.6;13.90;75869;2835.115;-1758.723;1;72;-70;-61.3;42.9;43.3;70;70.4;27.4;0.0;
21/02/2025 04:35:04;100;0;121.20;-4;-19.97;23.70;527.9;13.90;75863;2835.113;-1758.720;1;63;-70;-61.3;42.9;43.3;70;70.4;27.4;0.0;
21/02/2025 04:35:24;100;0;112.43;-4;-20.06;23.64;530.1;13.90;75860;2835.112;-1758.717;1;53;-70;-59.7;42.9;43.3;70;70.4;27.4;0.0;
21/02/2025 04:35:44;100;0;99.54;-4;-20.12;23.73;532.2;13.90;75855;2835.111;-1758.714;1;44;-70;-59.7;42.9;43.3;70;70.4;27.4;0.0;
21/02/2025 04:36:04;100;0;86.20;-4;-19.79;23.73;534.5;13.80;75847;2835.111;-1758.711;1;33;-70;-61.3;42.9;43.3;70;70.4;27.4;0.0;
21/02/2025 04:36:24;100;0;73.27;-4;-19.69;23.66;536.7;13.80;75837;2835.112;-1758.708;1;21;-70;-61.3;42.9;43.3;70;70.4;27.4;0.0;
21/02/2025 04:36:44;100;0;61.52;-4;-19.93;23.75;538.8;13.80;75834;2835.113;-1758.705;1;7;-70;-59.7;42.9;43.3;70;70.4;27.4;0.0;
21/02/2025 04:37:04;100;0;50.51;-4;-20.02;23.82;541.1;13.80;75831;2835.114;-1758.703;1;347;-70;-61.3;42.9;43.3;70;70.4;27.4;0.0;
21/02/2025 04:37:24;100;0;39.96;-4;-20.08;23.94;543.3;13.70;75824;2835.116;-1758.701;1;319;-70;-61.3;42.9;43.3;70;70.4;27.4;0.0;
21/02/2025 04:37:44;100;0;28.04;-4;-19.88;23.77;545.5;13.70;75815;2835.119;-1758.699;1;285;-70;-61.3;42.9;43.2;70;70.4;27.4;0.0;
21/02/2025 04:38:04;100;0;17.65;-4;-20.04;23.78;547.8;13.70;75810;2835.121;-1758.698;1;254;-70;-61.3;42.9;43.2;70;70.4;27.4;0.0;
21/02/2025 04:38:24;100;0;7.75;-4;-20.09;23.74;550.0;13.70;75811;2835.124;-1758.698;1;234;-70;-61.3;42.9;43.3;70;70.4;27.4;0.0;
21/02/2025 04:38:44;100;0;356.49;-4;-20.03;23.67;552.2;13.60;75804;2835.127;-1758.698;1;218;-70;-61.3;42.9;43.3;70;70.4;27.4;0.0;
21/02/2025 04:39:04;100;0;344.86;-4;-19.95;23.81;554.5;13.60;75812;2835.129;-1758.699;1;205;-70;-61.3;42.9;43.3;70;70.4;27.4;0.0;
21/02/2025 04:39:24;100;0;333.24;-4;-19.71;23.75;556.6;13.60;75802;2835.132;-1758.701;1;195;-70;-61.3;42.9;43.3;70;70.4;27.4;0.0;
21/02/2025 04:39:44;100;0;321.58;-4;-19.67;23.60;558.9;13.60;75800;2835.134;-1758.703;1;185;-70;-61.3;42.9;43.3;70;70.4;27.4;0.0;
21/02/2025 04:40:04;100;0;312.49;-4;-19.98;23.58;561.0;13.60;75794;2835.135;-1758.705;1;177;-70;-61.3;42.9;43.3;70;70.4;27.4;0.0;
21/02/2025 04:40:24;100;0;300.57;-4;-19.93;23.59;563.2;13.50;75792;2835.137;-1758.708;1;169;-70;-61.3;42.9;43.3;70;70.4;27.4;0.0;
21/02/2025 04:40:44;100;0;289.51;-4;-20.03;23.69;565.4;13.50;75790;2835.137;-1758.711;1;161;-70;-61.3;42.9;43.3;70;70.4;27.4;0.0;
21/02/2025 04:41:04;100;0;279.03;-4;-19.74;23.57;567.6;13.50;75775;2835.138;-1758.714;1;153;-70;-61.3;42.9;43.3;70;70.4;27.4;0.0;
21/02/2025 04:41:24;100;0;267.08;-4;-19.84;23.66;569.7;13.50;75767;2835.137;-1758.717;1;146;-70;-61.3;42.9;43.3;70;70.4;27.4;0.0;
21/02/2025 04:41:44;100;0;254.21;-4;-19.66;23.67;571.8;13.40;75755;2835.136;-1758.720;1;139;-70;-61.3;42.9;43.3;70;70.4;27.4;0.0;
21/02/2025 04:42:04;100;0;240.01;-4;-19.55;23.74;573.9;13.40;75753;2835.135;-1758.723;1;132;-70;-61.3;42.9;43.3;70;70.4;27.4;0.0;
21/02/2025 04:42:24;100;0;227.27;-4;-19.76;23.62;576.0;13.40;75756;2835.133;-1758.725;1;125;-70;-59.7;42.9;43.3;70;70.4;27.3;0.0;
21/02/2025 04:42:44;100;0;215.54;-4;-20.07;23.71;578.2;13.40;75732;2835.131;-1758.727;1;117;-70;-62.9;42.9;43.3;70;70.4;27.4;0.0;
21/02/2025 04:43:04;100;0;204.92;-4;-20.19;24.00;580.4;13.40;75724;2835.128;-1758.729;1;110;-70;-59.7;42.9;43.3;70;70.4;27.4;0.0;
21/02/2025 04:43:24;100;0;191.93;-4;-19.80;23.73;582.7;13.30;75725;2835.125;-1758.730;1;102;-70;-61.3;42.9;43.2;70;70.4;27.4;0.0;
21/02/2025 04:43:44;100;0;179.82;-4;-20.03;23.80;585.0;13.30;75716;2835.122;-1758.730;1;94;-70;-59.7;42.9;43.3;70;70.4;27.4;0.0;
21/02/2025 04:44:04;100;0;166.77;-4;-19.93;23.84;587.2;13.30;75722;2835.119;-1758.729;1;87;-70;-61.3;42.9;43.3;70;70.4;27.4;0.0;
21/02/2025 04:44:24;100;0;153.63;-4;-19.41;24.03;589.4;13.30;75706;2835.116;-1758.728;1;79;-70;-61.3;42.9;43.3;70;70.4;27.4;0.0;
21/02/2025 04:44:44;100;0;140.88;-4;-19.86;23.74;591.7;13.20;75706;2835.114;-1758.726;1;71;-70;-61.3;42.9;43.3;70;70.4;27.4;0.0;
21/02/2025 04:45:04;100;0;128.53;-4;-19.49;23.67;594.0;13.20;75700;2835.111;-1758.723;1;63;-70;-59.7;42.9;43.3;70;70.4;27.4;0.0;
21/02/2025 04:45:24;100;0;117.02;-4;-19.22;23.54;596.2;13.20;75700;2835.110;-1758.720;1;54;-70;-61.3;42.9;43.3;70;70.4;27.4;0.0;
21/02/2025 04:45:44;100;0;105.31;-4;-19.70;23.64;598.3;13.20;75689;2835.109;-1758.717;1;46;-70;-61.3;42.9;43.2;70;70.4;27.4;0.0;
21/02/2025 04:46:04;100;0;95.28;-4;-19.36;23.78;600.5;13.10;75693;2835.109;-1758.714;1;37;-70;-61.3;42.9;43.3;70;70.4;27.4;0.0;
21/02/2025 04:46:24;100;0;82.13;-4;-19.52;23.52;602.7;13.10;75692;2835.109;-1758.711;1;28;-70;-61.3;42.9;43.3;70;70.4;27.4;0.0;
21/02/2025 04:46:44;100;0;69.88;-4;-19.49;23.53;604.9;13.10;75675;2835.110;-1758.708;1;17;-70;-61.3;42.9;43.3;70;70.4;27.4;0.0;
21/02/2025 04:47:04;100;0;59.72;-4;-20.17;23.72;607.2;13.10;75671;2835.111;-1758.705;1;5;-70;-59.7;42.9;43.3;70;70.4;27.3;0.0;
21/02/2025 04:47:24;100;0;48.39;-4;-19.76;23.74;609.6;13.10;75677;2835.113;-1758.702;1;348;-70;-61.3;42.9;43.3;70;70.4;27.4;0.0;
21/02/2025 04:47:44;100;0;38.77;-4;-19.90;23.81;612.1;13.00;75662;2835.115;-1758.700;1;324;-70;-59.7;42.9;43.3;70;70.4;27.4;0.0;
21/02/2025 04:48:04;100;0;27.64;-4;-19.55;23.68;614.6;13.00;75665;2835.118;-1758.698;1;294;-70;-61.3;42.9;43.3;70;70.4;27.4;0.0;
21/02/2025 04:48:24;100;0;15.95;-4;-20.03;23.90;617.2;13.00;75649;2835.121;-1758.698;1;262;-70;-62.9;42.9;43.3;70;70.4;27.4;0.0;
21/02/2025 04:48:44;100;0;3.77;-4;-19.69;23.85;619.8;13.00;75636;2835.124;-1758.697;1;235;-70;-59.7;42.9;43.3;70;70.4;27.4;0.0;
21/02/2025 04:49:04;100;0;352.75;-4;-19.77;23.78;622.4;12.90;75638;2835.127;-1758.698;1;217;-70;-61.3;42.9;43.2;70;70.4;27.4;0.0;
21/02/2025 04:49:24;100;0;339.98;-4;-19.71;23.75;625.1;12.90;75636;2835.130;-1758.699;1;202;-70;-61.3;42.9;43.3;70;70.4;27.4;0.0;
21/02/2025 04:49:44;100;0;328.06;-4;-19.65;23.93;627.8;12.90;75626;2835.133;-1758.702;1;189;-70;-61.3;42.9;43.3;70;70.4;27.4;0.0;
21/02/2025 04:50:04;100;0;313.94;-4;-19.10;23.73;630.5;12.90;75627;2835.135;-1758.704;1;178;-70;-61.3;42.9;43.3;70;70.4;27.4;0.0;
21/02/2025 04:50:24;100;0;297.76;-4;-18.69;23.62;633.2;12.90;75624;2835.137;-1758.708;1;168;-70;-61.3;43.3;43.3;70;70.4;27.4;0.0;
21/02/2025 04:50:44;100;0;285.21;-4;-19.02;23.70;635.7;12.80;75615;2835.138;-1758.712;1;158;-70;-61.3;43.3;43.3;70;70.4;27.4;0.0;
21/02/2025 04:51:04;100;0;272.51;-4;-18.27;23.71;638.2;12.80;75608;2835.138;-1758.716;1;149;-70;-61.3;43.8;43.7;70;70.4;27.4;0.0;
21/02/2025 04:51:24;100;0;261.95;-4;-20.75;23.60;640.7;12.80;75621;2835.137;-1758.719;1;141;-70;-61.3;43.8;43.9;70;70.4;27.4;0.0;
21/02/2025 04:51:44;100;0;248.87;-4;-20.98;23.54;643.2;12.80;75609;2835.136;-1758.723;1;133;-70;-61.3;43.8;43.9;70;70.4;27.4;0.0;
21/02/2025 04:52:04;100;0;236.18;-4;-20.82;23.56;645.8;12.70;75600;2835.134;-1758.726;1;125;-70;-59.7;43.8;43.9;70;70.4;27.4;0.0;
21/02/2025 04:52:24;100;0;224.78;-4;-20.98;23.55;648.4;12.70;75587;2835.131;-1758.729;1;118;-70;-61.3;43.8;43.9;70;70.4;27.4;0.0;
21/02/2025 04:52:44;100;0;210.59;-4;-21.22;23.63;651.0;12.70;75587;2835.128;-1758.731;1;110;-70;-61.3;43.8;43.9;70;70.4;27.4;0.0;
21/02/2025 04:53:04;100;0;196.43;-4;-20.84;23.84;653.7;12.70;75589;2835.125;-1758.732;1;101;-70;-61.3;43.8;43.7;70;70.4;27.4;0.0;
21/02/2025 04:53:24;100;0;181.17;-4;-21.40;23.74;656.4;12.70;75577;2835.121;-1758.732;1;93;-70;-59.7;43.8;43.9;70;70.4;27.4;0.0;
21/02/2025 04:53:44;100;0;164.36;-4;-21.03;23.89;659.3;12.60;75572;2835.118;-1758.731;1;85;-70;-61.3;43.8;43.9;70;70.4;27.4;0.0;
21/02/2025 04:54:04;100;0;150.49;-4;-20.77;23.82;662.2;12.60;75564;2835.115;-1758.729;1;76;-70;-61.3;43.8;43.9;70;70.4;27.4;0.0;
21/02/2025 04:54:24;100;0;138.48;-4;-20.75;23.61;665.1;12.60;75563;2835.112;-1758.726;1;67;-70;-61.3;43.8;43.7;70;70.4;27.4;0.0;
21/02/2025 04:54:45;100;0;124.80;-4;-21.01;23.65;667.8;12.60;75558;2835.110;-1758.723;1;58;-70;-59.7;43.8;43.9;70;70.4;27.4;0.0;
21/02/2025 04:55:05;100;0;113.00;-4;-20.65;23.58;670.6;12.60;75546;2835.108;-1758.720;1;49;-70;-61.3;43.8;43.9;70;70.4;27.4;0.0;
21/02/2025 04:55:25;100;0;102.17;-4;-20.30;23.85;673.3;12.50;75541;2835.107;-1758.716;1;39;-70;-61.3;43.8;43.9;70;70.4;27.4;0.0;
21/02/2025 04:55:45;100;0;90.52;-4;-20.63;23.57;676.0;12.50;75531;2835.107;-1758.712;1;29;-70;-61.3;43.8;43.9;70;70.4;27.4;0.0;
21/02/2025 04:56:05;100;0;78.95;-4;-20.69;23.48;678.7;12.50;75526;2835.107;-1758.709;1;18;-70;-61.3;43.8;43.7;70;70.4;27.4;0.0;
21/02/2025 04:56:25;100;0;67.02;-4;-20.79;23.58;681.5;12.50;75519;2835.109;-1758.705;1;5;-70;-61.3;43.8;43.7;70;70.4;27.4;0.0;
21/02/2025 04:56:45;100;0;56.71;-4;-20.74;23.55;684.1;12.40;75523;2835.110;-1758.702;1;350;-70;-61.3;43.8;43.9;70;70.4;27.4;0.0;
21/02/2025 04:57:05;100;0;46.06;-4;-20.86;23.53;686.8;12.40;75507;2835.112;-1758.699;1;331;-70;-61.3;43.8;43.9;70;70.4;27.4;0.0;
21/02/2025 04:57:25;100;0;36.24;-4;-20.71;23.54;689.6;12.40;75507;2835.115;-1758.697;1;309;-70;-61.3;43.8;43.9;70;70.4;27.4;0.0;
21/02/2025 04:57:45;100;0;29.05;-4;-21.06;23.63;692.3;12.40;75506;2835.118;-1758.695;1;287;-70;-61.3;43.8;43.9;70;70.4;27.4;0.0;
21/02/2025 04:58:05;100;0;19.58;-4;-20.94;23.55;695.0;12.40;75514;2835.121;-1758.694;1;265;-70;-61.3;43.8;43.9;70;70.4;27.4;0.0;
21/02/2025 04:58:25;100;0;10.05;-4;-21.09;23.64;697.6;12.30;75497;2835.124;-1758.694;1;248;-70;-61.3;43.8;43.9;70;70.4;27.4;0.0;
21/02/2025 04:58:45;100;0;1.64;-4;-21.00;23.64;700.3;12.30;75494;2835.127;-1758.694;1;233;-70;-61.3;43.8;43.9;70;70.4;27.4;0.0;
21/02/2025 04:59:05;100;0;352.73;-4;-21.23;23.69;702.9;12.30;75485;2835.130;-1758.694;1;221;-70;-61.3;43.8;43.9;70;70.4;27.4;0.0;
21/02/2025 04:59:25;100;0;343.70;-4;-21.03;23.68;705.4;12.30;75489;2835.133;-1758.695;1;211;-70;-61.3;43.8;43.9;70;70.4;27.4;0.0;
21/02/2025 04:59:45;100;0;332.33;-4;-20.95;23.71;708.1;12.20;75484;2835.136;-1758.697;1;202;-70;-61.3;43.8;43.9;70;70.4;27.4;0.0;
21/02/2025 05:00:05;100;0;320.46;-4;-20.90;23.65;710.6;12.20;75462;2835.138;-1758.699;1;193;-70;-61.3;43.8;43.9;70;70.4;27.4;0.0;
21/02/2025 05:00:25;100;0;309.35;-4;-20.81;23.73;713.2;12.20;75450;2835.140;-1758.702;1;185;-70;-61.3;43.8;43.9;70;70.4;27.4;0.0;
21/02/2025 05:00:45;100;0;297.14;-4;-20.54;23.61;715.9;12.20;75453;2835.141;-1758.706;1;176;-70;-61.3;43.8;43.9;70;70.4;27.4;0.0;
21/02/2025 05:01:05;100;0;285.85;-4;-21.30;23.58;718.4;12.10;75445;2835.142;-1758.709;1;168;-70;-62.9;43.8;43.9;70;70.4;27.4;0.0;
21/02/2025 05:01:25;100;0;274.50;-4;-20.41;23.51;721.0;12.10;75444;2835.142;-1758.713;1;160;-70;-61.3;43.8;43.9;70;70.4;27.4;0.0;
21/02/2025 05:01:45;100;0;262.77;-4;-21.29;23.87;723.5;12.10;75442;2835.141;-1758.717;1;152;-70;-61.3;43.8;43.9;70;70.4;27.4;0.0;
21/02/2025 05:02:05;100;0;252.08;-4;-20.34;23.62;726.1;12.10;75441;2835.140;-1758.720;1;144;-70;-59.7;43.8;43.9;70;70.4;27.4;0.0;
21/02/2025 05:02:25;100;0;240.50;-4;-21.32;23.61;728.6;12.00;75428;2835.138;-1758.723;1;137;-70;-61.3;43.8;43.9;70;70.4;27.4;0.0;
21/02/2025 05:02:45;100;0;229.63;-4;-21.05;23.45;731.1;12.00;75429;2835.136;-1758.726;1;130;-70;-61.3;43.8;43.9;70;70.4;27.4;0.0;
21/02/2025 05:03:05;100;0;217.30;-4;-21.57;23.30;733.5;12.00;75432;2835.134;-1758.728;1;123;-70;-61.3;43.8;43.7;70;70.4;27.4;0.0;
21/02/2025 05:03:25;100;0;205.88;-4;-20.59;23.64;736.1;12.00;75428;2835.131;-1758.730;1;115;-70;-59.7;43.8;43.7;70;70.4;27.4;0.0;
21/02/2025 05:03:45;100;0;195.91;-4;-21.03;23.57;738.6;12.00;75420;2835.128;-1758.731;1;108;-70;-61.3;43.8;43.9;70;70.4;27.4;0.0;
21/02/2025 05:04:05;100;0;187.08;-4;-20.93;23.73;741.0;11.90;75414;2835.124;-1758.731;1;100;-70;-61.3;43.8;43.9;70;70.4;27.4;0.0;
21/02/2025 05:04:25;100;0;177.97;-4;-21.27;23.68;743.6;11.90;75407;2835.121;-1758.731;1;92;-70;-61.3;43.8;43.9;70;70.4;27.4;0.0;
21/02/2025 05:04:45;100;0;170.08;-4;-21.45;23.71;746.2;11.90;75398;2835.118;-1758.731;1;84;-70;-61.3;43.8;43.9;70;70.4;27.4;0.0;
21/02/2025 05:05:05;100;0;159.72;-4;-20.91;23.66;748.9;11.90;75399;2835.114;-1758.730;1;76;-70;-61.3;43.8;43.9;70;70.4;27.4;0.0;
21/02/2025 05:05:25;100;0;147.49;-4;-20.56;23.58;751.4;11.80;75383;2835.112;-1758.728;1;68;-70;-61.3;43.8;43.9;70;70.4;27.4;0.0;
21/02/2025 05:05:45;100;0;136.53;-4;-20.61;23.64;753.8;11.80;75385;2835.109;-1758.725;1;60;-70;-61.3;43.8;43.9;70;70.4;27.3;0.0;
21/02/2025 05:06:05;100;0;125.53;-4;-20.99;23.59;756.4;11.80;75377;2835.107;-1758.723;1;52;-70;-59.7;43.8;43.9;70;70.4;27.4;0.0;
21/02/2025 05:06:25;100;0;114.21;-4;-20.58;23.64;758.9;11.80;75367;2835.106;-1758.719;1;44;-70;-61.3;43.8;43.9;70;70.4;27.4;0.0;
21/02/2025 05:06:45;100;0;103.32;-4;-20.43;23.69;761.3;11.80;75363;2835.105;-1758.716;1;35;-70;-61.3;43.8;43.9;70;70.4;27.4;0.0;
21/02/2025 05:07:05;100;0;91.74;-4;-20.68;23.70;763.8;11.70;75364;2835.105;-1758.713;1;26;-70;-61.3;43.8;43.9;70;70.4;27.4;0.0;
21/02/2025 05:07:25;100;0;80.31;-4;-21.07;23.70;766.1;11.70;75359;2835.105;-1758.710;1;18;-70;-64.5;43.8;43.9;70;70.4;27.4;0.0;
21/02/2025 05:07:45;100;0;70.88;-4;-20.67;23.63;768.7;11.70;75344;2835.106;-1758.706;1;8;-70;-61.3;43.8;43.9;70;70.4;27.4;0.0;
21/02/2025 05:08:05;100;0;62.59;-4;-20.82;23.50;771.0;11.70;75342;2835.107;-1758.703;1;358;-70;-61.3;43.8;43.9;70;70.4;27.4;0.0;
21/02/2025 05:08:25;100;0;53.14;-4;-21.06;23.76;773.4;11.70;75349;2835.109;-1758.701;1;346;-70;-61.3;43.8;43.9;70;70.4;27.4;0.0;
21/02/2025 05:08:45;100;0;42.36;-4;-20.71;23.68;775.8;11.60;75330;2835.111;-1758.699;1;333;-70;-61.3;43.8;43.9;70;70.4;27.4;0.0;
21/02/2025 05:09:05;100;0;30.44;-4;-20.61;23.69;778.3;11.60;75327;2835.113;-1758.697;1;317;-70;-59.7;43.8;43.9;70;70.4;27.4;0.0;
21/02/2025 05:09:25;100;0;19.97;-4;-20.57;23.61;780.7;11.60;75330;2835.116;-1758.696;1;300;-70;-61.3;43.8;43.9;70;70.4;27.4;0.0;
21/02/2025 05:09:45;100;0;10.29;-4;-20.52;23.64;783.1;11.60;75326;2835.118;-1758.695;1;281;-70;-61.3;43.8;43.9;70;70.4;27.4;0.0;
21/02/2025 05:10:05;100;0;1.10;-4;-20.64;23.60;785.4;11.50;75324;2835.121;-1758.695;1;261;-70;-61.3;43.8;43.9;70;70.4;27.4;0.0;
21/02/2025 05:10:25;100;0;351.44;-4;-20.70;23.61;787.7;11.50;75316;2835.124;-1758.696;1;242;-70;-61.3;43.8;43.9;70;70.4;27.4;0.0;
21/02/2025 05:10:45;100;0;341.64;-4;-20.67;23.63;790.0;11.50;75310;2835.126;-1758.697;1;224;-70;-61.3;43.8;43.9;70;70.4;27.4;0.0;
21/02/2025 05:11:05;100;0;331.74;-4;-20.53;23.57;792.4;11.50;75310;2835.129;-1758.699;1;209;-70;-61.3;43.8;43.9;70;70.4;27.4;0.0;
21/02/2025 05:11:25;100;0;321.05;-4;-20.56;23.65;794.7;11.50;75299;2835.131;-1758.701;1;195;-70;-61.3;43.8;43.9;70;70.4;27.4;0.0;
21/02/2025 05:11:45;100;0;310.58;-4;-20.63;23.63;796.9;11.40;75307;2835.132;-1758.703;1;183;-70;-59.7;43.8;43.7;70;70.4;27.4;0.0;
21/02/2025 05:12:05;100;0;300.76;-4;-20.78;23.69;799.3;11.40;75292;2835.134;-1758.706;1;173;-70;-61.3;43.8;43.9;70;70.4;27.4;0.0;
21/02/2025 05:12:25;100;0;290.30;-4;-20.91;23.69;801.6;11.40;75290;2835.135;-1758.709;1;163;-70;-59.7;43.8;43.9;70;70.4;27.4;0.0;
21/02/2025 05:12:45;100;0;279.30;-4;-20.77;23.66;803.9;11.40;75285;2835.135;-1758.713;1;153;-70;-59.7;43.8;43.9;70;70.4;27.4;0.0;
21/02/2025 05:13:05;100;0;267.73;-4;-20.60;23.69;806.4;11.40;75283;2835.135;-1758.716;1;144;-70;-61.3;43.8;43.9;70;70.4;27.4;0.0;
21/02/2025 05:13:25;100;0;255.25;-4;-20.67;23.74;808.7;11.30;75276;2835.134;-1758.719;1;136;-70;-61.3;43.8;43.9;70;70.4;27.4;0.0;
21/02/2025 05:13:45;100;0;243.31;-4;-20.50;23.64;811.1;11.30;75277;2835.132;-1758.722;1;127;-70;-61.3;43.8;43.7;70;70.4;27.4;0.0;
21/02/2025 05:14:05;100;0;231.50;-4;-20.34;23.56;813.4;11.30;75262;2835.130;-1758.725;1;119;-70;-61.3;43.8;43.9;70;70.4;27.4;0.0;
21/02/2025 05:14:25;100;0;221.21;-4;-20.93;23.72;815.7;11.30;75258;2835.128;-1758.727;1;111;-70;-61.3;43.8;43.9;70;70.4;27.4;0.0;
21/02/2025 05:14:45;100;0;210.96;-4;-20.76;23.65;818.2;11.20;75264;2835.125;-1758.729;1;103;-70;-61.3;43.8;43.7;70;70.4;27.4;0.0;
21/02/2025 05:15:05;100;0;198.58;-4;-20.31;23.62;820.5;11.20;75264;2835.122;-1758.730;1;95;-70;-59.7;43.8;43.7;70;70.4;27.4;0.0;
21/02/2025 05:15:25;100;0;188.30;-4;-20.83;23.73;822.8;11.20;75250;2835.119;-1758.731;1;88;-70;-59.7;43.8;43.9;70;70.4;27.4;0.0;
21/02/2025 05:15:45;100;0;178.22;-4;-20.66;23.67;825.1;11.20;75251;2835.116;-1758.731;1;81;-70;-61.3;43.8;43.9;70;70.4;27.4;0.0;
21/02/2025 05:16:05;100;0;166.85;-4;-20.43;23.67;827.3;11.20;75236;2835.113;-1758.730;1;74;-70;-59.7;43.8;43.9;70;70.4;27.4;0.0;
21/02/2025 05:16:25;100;0;155.15;-4;-20.66;23.70;829.5;11.10;75240;2835.111;-1758.729;1;67;-70;-61.3;43.8;43.9;70;70.4;27.4;0.0;
21/02/2025 05:16:45;100;0;142.76;-4;-20.61;23.70;831.9;11.10;75229;2835.108;-1758.727;1;60;-70;-64.5;43.8;43.9;70;70.4;27.4;0.0;
21/02/2025 05:17:05;100;0;130.79;-4;-19.97;23.47;834.2;11.10;75233;2835.106;-1758.725;1;52;-70;-61.3;43.8;43.9;70;70.4;27.4;0.0;
21/02/2025 05:17:25;100;0;119.46;-4;-20.68;23.50;836.4;11.10;75218;2835.104;-1758.722;1;45;-70;-61.3;43.8;43.9;70;70.4;27.4;0.0;
21/02/2025 05:17:45;100;0;107.59;-4;-21.62;23.49;838.8;11.10;75213;2835.103;-1758.719;1;38;-70;-61.3;43.8;43.9;70;70.4;27.4;0.0;
21/02/2025 05:18:05;100;0;97.26;-4;-19.50;23.53;841.1;11.10;75220;2835.103;-1758.716;1;31;-70;-61.3;43.8;43.9;70;70.4;27.4;0.0;
21/02/2025 05:18:25;100;0;83.98;-4;-20.18;23.65;843.1;11.00;75210;2835.103;-1758.713;1;24;-90;-90.3;43.8;43.9;70;70.4;27.4;0.0;
21/02/2025 05:18:45;100;0;69.78;-4;-20.01;23.60;845.2;11.00;75273;2835.104;-1758.710;1;18;-90;-91.9;43.8;43.9;70;70.4;27.4;0.0;
21/02/2025 05:19:05;100;0;58.42;-4;-22.12;22.96;847.7;11.00;75283;2835.105;-1758.707;1;11;-90;-93.5;43.1;43.2;70;70.4;27.4;0.0;
21/02/2025 05:19:25;100;0;50.30;-4;-17.17;23.52;850.2;11.00;75276;2835.107;-1758.704;1;1;-90;-93.5;44.0;44.2;70;70.4;27.4;0.0;
21/02/2025 05:19:45;100;0;42.88;-4;-21.41;23.69;852.6;11.00;75273;2835.109;-1758.702;1;351;-90;-95.2;44.0;44.3;70;70.4;27.4;0.0;
21/02/2025 05:20:05;100;0;31.24;-4;-21.25;23.63;855.5;11.00;75280;2835.112;-1758.700;1;336;-90;-96.8;44.0;44.3;70;70.4;27.4;0.0;
21/02/2025 05:20:25;100;0;19.99;-4;-20.21;23.47;858.5;10.90;75266;2835.116;-1758.698;1;312;-90;-95.2;44.0;44.3;70;70.4;27.4;0.0;
21/02/2025 05:20:45;100;0;7.64;-4;-20.14;23.51;861.3;10.90;75263;2835.119;-1758.698;1;281;-90;-96.8;44.0;44.3;70;70.4;27.4;0.0;
21/02/2025 05:21:05;100;0;356.01;-4;-19.64;23.62;864.1;10.90;75269;2835.122;-1758.698;1;245;-90;-96.8;44.0;44.3;70;70.4;27.4;0.0;
21/02/2025 05:21:25;100;0;342.87;-4;-20.13;23.59;866.6;10.90;75252;2835.125;-1758.700;1;217;-90;-96.8;44.0;44.3;70;70.4;27.4;0.0;
21/02/2025 05:21:45;100;0;330.47;-4;-20.12;23.57;869.1;10.80;75259;2835.128;-1758.701;1;196;-90;-96.8;44.0;44.3;70;70.4;27.4;0.0;
21/02/2025 05:22:05;100;0;317.82;-4;-20.04;23.57;871.7;10.80;75245;2835.130;-1758.704;1;180;-90;-96.8;44.0;44.5;70;70.4;27.4;0.0;
21/02/2025 05:22:25;100;0;304.04;-4;-20.01;23.51;874.2;10.80;75239;2835.132;-1758.707;1;167;-90;-96.8;44.0;44.3;70;70.4;27.4;0.0;
21/02/2025 05:22:45;100;0;293.59;-4;-20.48;23.52;876.6;10.80;75245;2835.133;-1758.710;1;156;-90;-96.8;44.0;44.3;70;70.4;27.3;0.0;
21/02/2025 05:23:05;100;0;282.14;-4;-20.28;23.40;879.1;10.80;75241;2835.133;-1758.714;1;147;-90;-96.8;44.0;44.3;70;70.4;27.4;0.0;
21/02/2025 05:23:25;100;0;270.83;-4;-20.48;23.68;881.7;10.70;75236;2835.133;-1758.718;1;137;-90;-96.8;44.0;44.3;70;70.4;27.4;0.0;
21/02/2025 05:23:45;100;0;259.60;-4;-20.46;23.50;884.3;10.70;75229;2835.132;-1758.722;1;129;-90;-96.8;44.0;44.3;70;70.4;27.4;0.0;
21/02/2025 05:24:05;100;0;246.41;-4;-20.32;23.53;886.8;10.70;75229;2835.131;-1758.725;1;121;-90;-96.8;44.0;44.3;70;70.4;27.4;0.0;
21/02/2025 05:24:25;100;0;232.89;-4;-20.16;23.37;889.4;10.70;75230;2835.129;-1758.728;1;113;-90;-100.0;44.0;44.3;70;70.4;27.4;0.0;
21/02/2025 05:24:45;100;0;221.96;-4;-20.49;23.53;892.0;10.70;75226;2835.126;-1758.731;1;105;-90;-96.8;44.0;44.3;70;70.4;27.4;0.0;
21/02/2025 05:25:05;100;0;210.33;-4;-20.62;23.63;894.7;10.70;75223;2835.123;-1758.733;1;97;-90;-96.8;44.0;44.5;70;70.4;27.4;0.0;
21/02/2025 05:25:25;100;0;196.01;-4;-19.71;23.39;897.3;10.60;75217;2835.120;-1758.734;1;90;-90;-96.8;44.0;44.3;70;70.4;27.4;0.0;
21/02/2025 05:25:45;100;0;182.62;-4;-19.56;23.58;899.8;10.60;75218;2835.116;-1758.734;1;82;-90;-96.8;44.0;44.3;70;70.4;27.4;0.0;
21/02/2025 05:26:05;100;0;170.56;-4;-20.34;23.44;902.2;10.60;75208;2835.113;-1758.734;1;76;-90;-96.8;44.0;44.5;70;70.4;27.4;0.0;
21/02/2025 05:26:25;100;0;158.63;-4;-20.12;23.45;904.7;10.60;75206;2835.110;-1758.733;1;69;-90;-96.8;44.0;44.3;70;70.4;27.4;0.0;
21/02/2025 05:26:45;100;0;147.73;-4;-20.21;23.39;907.1;10.60;75207;2835.107;-1758.731;1;61;-90;-96.8;44.0;44.3;70;70.4;27.4;0.0;
21/02/2025 05:27:05;100;0;134.95;-4;-20.19;23.60;909.6;10.60;75205;2835.105;-1758.728;1;55;-90;-96.8;44.0;44.3;70;70.8;27.4;0.0;
21/02/2025 05:27:25;100;0;122.27;-4;-20.26;23.39;912.2;10.50;75200;2835.103;-1758.725;1;47;-90;-98.4;44.0;44.3;70;70.4;27.4;0.0;
21/02/2025 05:27:45;100;0;108.24;-4;-19.98;23.52;914.8;10.50;75191;2835.102;-1758.722;1;40;-90;-95.2;44.0;44.3;70;70.4;27.4;0.0;
21/02/2025 05:28:05;100;0;94.97;-4;-20.14;23.54;917.4;10.50;75186;2835.101;-1758.718;1;33;-90;-96.8;44.0;44.3;70;70.4;27.4;0.0;
21/02/2025 05:28:25;100;0;83.24;-4;-19.97;23.72;919.9;10.50;75184;2835.102;-1758.714;1;26;-90;-96.8;44.0;44.3;70;70.4;27.3;0.0;
21/02/2025 05:28:45;100;0;71.71;-4;-19.96;23.44;922.6;10.50;75188;2835.102;-1758.711;1;18;-90;-96.8;44.0;44.5;70;70.4;27.4;0.0;
21/02/2025 05:29:05;100;0;60.88;-4;-20.18;23.48;925.1;10.50;75182;2835.104;-1758.707;1;11;-90;-95.2;44.0;44.6;70;70.4;27.4;0.0;
21/02/2025 05:29:26;100;0;49.64;-4;-20.00;23.42;927.5;10.40;75175;2835.106;-1758.705;1;3;-90;-96.8;44.0;44.3;70;70.4;27.4;0.0;
21/02/2025 05:29:46;100;0;38.98;-4;-19.87;23.46;930.2;10.40;75179;2835.108;-1758.703;1;354;-90;-96.8;44.0;44.3;67;66.3;27.4;0.0;
21/02/2025 05:30:06;100;0;27.98;-4;-19.74;21.12;932.5;10.40;75176;2835.111;-1758.701;1;344;-90;-96.8;44.0;44.5;64;64.1;27.4;0.0;
21/02/2025 05:30:26;100;0;17.89;-4;-19.69;19.98;934.9;10.40;75159;2835.113;-1758.700;1;332;-90;-96.8;44.0;44.3;67;66.8;27.4;0.0;
21/02/2025 05:30:46;100;0;7.53;-4;-19.76;21.54;937.3;10.40;75168;2835.116;-1758.700;1;315;-90;-96.8;44.0;44.3;70;69.9;27.4;0.0;
21/02/2025 05:31:06;100;0;356.74;-4;-20.00;23.16;939.7;10.40;75168;2835.119;-1758.700;1;284;-90;-96.8;44.0;44.3;70;69.9;27.4;0.0;
21/02/2025 05:31:26;100;0;346.20;-4;-19.97;23.11;941.9;10.40;75166;2835.122;-1758.701;1;240;-90;-96.8;44.0;44.3;70;69.9;27.4;0.0;
21/02/2025 05:31:46;100;0;336.43;-4;-20.22;23.15;944.2;10.30;75164;2835.124;-1758.702;1;201;-90;-96.8;44.0;44.3;70;69.9;27.3;0.0;
21/02/2025 05:32:06;100;0;325.44;-4;-20.55;23.34;946.5;10.30;75156;2835.126;-1758.704;1;179;-90;-98.4;44.0;44.5;70;69.9;27.4;0.0;
21/02/2025 05:32:26;100;0;312.64;-4;-20.70;23.26;948.9;10.30;75163;2835.128;-1758.707;1;164;-90;-98.4;44.0;44.3;70;69.9;27.4;0.0;
21/02/2025 05:32:46;100;0;300.01;-4;-20.17;23.32;951.6;10.30;75149;2835.130;-1758.710;1;151;-90;-96.8;44.0;44.3;70;69.9;27.4;0.0;
21/02/2025 05:33:06;100;0;286.71;-4;-20.01;23.34;954.1;10.30;75157;2835.131;-1758.714;1;141;-90;-96.8;44.0;44.5;70;69.9;27.4;0.0;
21/02/2025 05:33:26;100;0;274.50;-4;-20.28;23.30;956.6;10.20;75139;2835.131;-1758.717;1;132;-90;-96.8;44.0;44.5;70;69.9;27.4;0.0;
21/02/2025 05:33:46;100;0;262.05;-4;-20.04;23.29;959.1;10.20;75151;2835.130;-1758.721;1;124;-90;-96.8;44.0;44.5;70;69.9;27.4;0.0;
21/02/2025 05:34:06;100;0;247.91;-4;-20.05;23.10;961.7;10.20;75145;2835.129;-1758.725;1;115;-90;-96.8;44.0;44.5;70;69.9;27.4;0.0;
21/02/2025 05:34:26;100;0;236.27;-4;-20.22;23.16;964.3;10.20;75139;2835.127;-1758.728;1;108;-90;-96.8;44.0;44.5;70;69.9;27.4;0.0;
21/02/2025 05:34:46;100;0;224.06;-4;-20.36;23.24;966.7;10.20;75136;2835.124;-1758.730;1;100;-90;-95.2;44.0;44.5;70;69.9;27.4;0.0;
21/02/2025 05:35:06;100;0;211.22;-4;-20.05;23.30;969.3;10.20;75137;2835.121;-1758.732;1;93;-90;-96.8;44.0;44.3;70;69.9;27.4;0.0;
21/02/2025 05:35:26;100;0;198.69;-4;-19.96;23.28;971.8;10.20;75134;2835.118;-1758.734;1;86;-90;-96.8;44.0;44.5;70;69.9;27.4;0.0;
21/02/2025 05:35:46;100;0;185.95;-4;-20.01;23.27;974.5;10.20;75130;2835.114;-1758.734;1;78;-90;-96.8;44.0;44.5;70;69.9;27.4;0.0;
21/02/2025 05:36:06;100;0;172.61;-4;-20.03;23.40;977.0;10.10;75125;2835.111;-1758.734;1;71;-90;-96.8;44.0;44.5;70;69.9;27.4;0.0;
21/02/2025 05:36:26;100;0;160.31;-4;-19.78;23.32;979.4;10.10;75131;2835.108;-1758.733;1;65;-90;-96.8;44.0;44.3;70;70.4;27.4;0.0;
21/02/2025 05:36:46;100;0;148.07;-4;-19.90;23.27;981.9;10.10;75124;2835.105;-1758.731;1;58;-90;-98.4;44.0;44.5;70;69.9;27.4;0.0;
21/02/2025 05:37:06;100;0;136.24;-4;-19.79;23.27;984.3;10.10;75122;2835.103;-1758.729;1;51;-90;-96.8;44.0;44.5;70;69.9;27.4;0.0;
21/02/2025 05:37:26;100;0;123.28;-4;-19.78;23.25;986.7;10.10;75112;2835.101;-1758.726;1;45;-90;-96.8;44.0;44.5;70;69.9;27.4;0.0;
21/02/2025 05:37:46;100;0;110.70;-4;-20.12;23.45;988.9;10.10;75123;2835.100;-1758.723;1;39;-90;-96.8;44.0;44.3;70;69.9;27.4;0.0;
21/02/2025 05:38:06;100;0;99.64;-4;-20.39;23.42;991.3;10.00;75116;2835.099;-1758.719;1;33;-90;-96.8;44.0;44.5;70;69.9;27.4;0.0;
21/02/2025 05:38:26;100;0;86.83;-4;-19.74;23.37;993.9;10.00;75114;2835.099;-1758.716;1;26;-90;-96.8;44.0;44.5;70;69.9;27.4;0.0;
21/02/2025 05:38:46;100;0;74.43;-4;-19.66;23.23;996.2;10.00;75114;2835.100;-1758.712;1;20;-90;-98.4;44.0;44.5;70;69.9;27.4;0.0;
21/02/2025 05:39:06;100;0;63.21;-4;-20.17;23.28;998.5;10.00;75105;2835.101;-1758.710;1;14;-90;-96.8;44.0;44.3;70;69.9;27.4;0.0;
21/02/2025 05:39:09;118;0;61.03;-4;-20.20;23.33;998.9;10.00;75099;2835.101;-1758.709;1;13;270;-93.5;25.7;25.5;8;8.1;27.3;0.0;
21/02/2025 05:39:19;118;0;79.55;-4;-5.98;-8.92;999.8;10.00;75080;2835.101;-1758.708;1;10;270;33.9;25.7;25.3;8;7.7;25.9;-1.0;
21/02/2025 05:39:29;118;0;72.15;-4;16.02;-8.35;999.8;10.00;74819;2835.101;-1758.708;1;10;270;158.1;25.7;25.0;8;7.7;26.1;-1.0;
21/02/2025 05:39:39;118;0;68.45;-4;23.77;-8.83;999.1;10.00;74566;2835.101;-1758.707;1;8;270;271.0;25.7;25.6;8;7.7;26.0;-1.0;
21/02/2025 05:39:49;118;0;58.11;-4;21.77;-7.80;998.0;10.00;74350;2835.102;-1758.706;1;5;270;272.6;25.7;25.8;8;7.7;27.3;-1.0;
21/02/2025 05:39:59;118;0;55.78;-4;20.37;-8.40;996.9;10.00;74359;2835.103;-1758.704;1;1;270;271.0;25.7;25.9;8;7.7;27.3;-1.0;
21/02/2025 05:40:19;117;0;51.77;-4;19.36;-8.18;994.5;10.00;74358;2835.104;-1758.702;1;352;270;272.6;25.7;25.9;8;7.7;27.3;-1.0;
21/02/2025 05:40:39;117;0;47.66;-4;19.23;-8.44;991.8;10.10;74359;2835.107;-1758.699;1;341;270;271.0;25.7;25.8;-48;-48.3;27.3;-1.0;
21/02/2025 05:40:59;117;0;34.69;-4;13.80;-36.38;989.4;10.10;74355;2835.110;-1758.696;1;327;270;272.6;23.8;23.9;-50;-50.1;27.4;-1.0;
21/02/2025 05:41:19;117;0;25.33;-4;17.62;-36.91;987.1;10.10;74357;2835.112;-1758.695;1;314;270;272.6;23.1;23.1;-53;-52.8;27.3;-1.0;
21/02/2025 05:41:39;117;0;16.96;-4;18.44;-38.30;984.5;10.10;74347;2835.115;-1758.694;1;297;270;272.6;22.6;22.5;-63;-63.2;27.3;-1.0;
21/02/2025 05:41:59;117;0;6.44;-4;18.92;-44.22;982.1;10.10;74347;2835.119;-1758.693;1;279;270;272.6;22.3;22.1;-70;-69.9;27.4;-1.0;
21/02/2025 05:42:19;117;0;357.44;-4;20.25;-47.06;979.3;10.10;74355;2835.122;-1758.694;1;258;270;272.6;22.3;21.9;-70;-69.9;27.4;-1.0;
21/02/2025 05:42:39;117;0;348.70;-4;19.98;-47.17;976.4;10.10;74340;2835.125;-1758.695;1;237;270;272.6;22.3;21.9;-70;-69.9;27.4;-1.0;
21/02/2025 05:42:59;117;0;339.75;-4;20.10;-47.34;973.5;10.10;74344;2835.129;-1758.696;1;219;270;271.0;22.3;22.1;-70;-69.9;27.4;-1.0;
21/02/2025 05:43:19;117;0;330.09;-4;19.65;-47.07;970.8;10.10;74336;2835.132;-1758.698;1;204;270;271.0;22.3;21.9;-70;-69.9;27.4;-1.0;
21/02/2025 05:43:39;117;0;321.70;-4;19.94;-47.05;968.2;10.10;74336;2835.134;-1758.701;1;192;270;272.6;22.3;21.9;-70;-69.9;27.4;-1.0;
21/02/2025 05:43:59;117;0;313.16;-4;19.83;-47.24;965.3;10.10;74336;2835.136;-1758.704;1;181;270;271.0;22.3;21.9;-70;-69.9;27.4;-1.0;
21/02/2025 05:44:19;117;0;304.23;-4;20.06;-47.08;962.6;10.10;74337;2835.138;-1758.707;1;172;270;272.6;22.3;22.1;-70;-69.9;27.4;-1.0;
21/02/2025 05:44:39;117;0;295.41;-4;20.00;-47.17;959.9;10.00;74327;2835.139;-1758.711;1;163;270;272.6;22.3;21.9;-70;-69.9;27.4;-1.0;
21/02/2025 05:44:59;117;0;286.32;-4;19.74;-47.08;957.1;10.00;74327;2835.140;-1758.715;1;155;270;271.0;22.3;21.9;-70;-69.9;27.3;-1.0;
21/02/2025 05:45:19;117;0;276.76;-4;19.80;-47.23;954.5;10.00;74327;2835.141;-1758.719;1;148;270;272.6;22.3;22.1;-70;-69.9;27.4;-1.0;
21/02/2025 05:45:39;117;0;268.18;-4;20.18;-47.33;951.9;10.00;74319;2835.140;-1758.722;1;141;270;272.6;22.3;21.9;-70;-69.9;27.4;-1.0;
21/02/2025 05:45:59;117;0;258.49;-4;20.17;-47.24;949.2;10.00;74320;2835.139;-1758.726;1;135;270;272.6;22.3;21.9;-70;-69.9;27.4;-1.0;
21/02/2025 05:46:19;117;0;249.72;-4;20.06;-47.24;946.4;10.00;74314;2835.138;-1758.730;1;128;270;272.6;22.3;22.1;-70;-69.9;27.4;-1.0;
21/02/2025 05:46:39;117;0;243.02;-4;20.00;-46.69;943.6;10.00;74316;2835.136;-1758.734;1;122;270;272.6;22.3;21.9;-70;-69.9;27.4;-1.0;
21/02/2025 05:46:59;117;0;233.30;-4;20.25;-47.06;940.8;10.00;74305;2835.134;-1758.737;1;115;270;269.4;22.3;21.9;-70;-69.9;27.4;-1.0;
21/02/2025 05:47:19;117;0;223.69;-4;20.08;-46.97;938.0;10.00;74316;2835.131;-1758.740;1;109;270;272.6;22.3;22.1;-70;-69.9;27.4;-1.0;
21/02/2025 05:47:39;117;0;214.06;-4;19.76;-46.89;935.1;10.00;74303;2835.128;-1758.743;1;103;270;272.6;22.3;21.9;-70;-69.9;27.3;-1.0;
21/02/2025 05:47:59;117;0;204.48;-4;19.95;-47.38;932.3;10.00;74303;2835.124;-1758.744;1;97;270;272.6;22.3;21.9;-70;-69.9;27.4;-1.0;
21/02/2025 05:48:19;117;0;195.19;-4;20.16;-47.24;929.4;10.00;74309;2835.121;-1758.746;1;91;270;272.6;22.3;21.9;-70;-69.9;27.4;-1.0;
21/02/2025 05:48:39;117;0;185.66;-4;19.97;-47.15;926.5;10.00;74309;2835.117;-1758.746;1;85;270;271.0;22.3;21.9;-70;-69.9;27.4;-1.0;
21/02/2025 05:48:59;117;0;176.03;-4;19.94;-47.09;923.6;9.90;74307;2835.113;-1758.746;1;79;270;272.6;22.3;21.9;-70;-69.9;27.4;-1.0;
21/02/2025 05:49:19;117;0;166.93;-4;19.91;-47.09;921.0;9.90;74296;2835.109;-1758.745;1;74;270;272.6;22.3;22.1;-70;-69.9;27.4;-1.0;
21/02/2025 05:49:39;117;0;158.02;-4;19.92;-47.11;918.1;9.90;74302;2835.106;-1758.744;1;68;270;271.0;22.3;21.9;-70;-69.9;27.4;-1.0;
21/02/2025 05:49:59;117;0;148.99;-4;19.89;-47.09;915.4;9.90;74296;2835.103;-1758.742;1;63;270;272.6;22.3;21.9;-70;-69.9;27.4;-1.0;
21/02/2025 05:50:19;117;0;140.21;-4;19.84;-46.92;912.6;9.90;74298;2835.100;-1758.739;1;57;270;269.4;22.3;21.9;-70;-69.9;27.4;-1.0;
21/02/2025 05:50:39;117;0;131.70;-4;19.94;-47.21;909.9;9.90;74288;2835.097;-1758.736;1;51;270;269.4;22.3;22.1;-70;-69.9;27.4;-1.0;
21/02/2025 05:50:59;117;0;122.34;-4;19.96;-47.44;907.1;9.90;74290;2835.095;-1758.733;1;46;270;272.6;22.3;21.9;-63;-63.2;27.4;-1.0;
21/02/2025 05:51:19;117;0;112.51;-4;20.32;-43.40;904.5;9.90;74282;2835.094;-1758.729;1;41;270;269.4;22.3;21.9;-58;-57.8;27.4;-1.0;
21/02/2025 05:51:39;117;0;102.17;-4;20.40;-40.77;901.8;9.90;74293;2835.093;-1758.726;1;35;270;272.6;22.3;22.1;-52;-51.4;27.3;-1.0;
21/02/2025 05:51:59;117;0;88.68;-4;20.61;-37.47;899.2;9.90;74288;2835.093;-1758.722;1;30;270;272.6;22.3;22.2;-41;-41.1;27.4;-1.0;
21/02/2025 05:52:19;117;0;77.82;-4;22.27;-32.43;896.6;9.90;74283;2835.093;-1758.719;1;26;270;272.6;23.0;23.3;-33;-32.9;27.3;-1.0;
21/02/2025 05:52:39;117;0;65.03;-4;20.93;-27.76;894.1;9.90;74283;2835.094;-1758.716;1;22;270;272.6;23.0;23.3;-22;-22.1;27.4;-1.0;
21/02/2025 05:52:59;117;0;56.52;-4;21.68;-22.33;891.8;9.80;74276;2835.096;-1758.713;1;18;270;272.6;23.0;23.3;-16;-15.3;27.4;-1.0;
21/02/2025 05:53:19;117;0;47.90;-4;22.41;-18.83;889.5;9.80;74281;2835.097;-1758.711;1;15;270;272.6;23.7;24.0;-9;-9.0;27.4;-1.0;
21/02/2025 05:53:39;117;0;40.73;-4;21.67;-15.99;887.2;9.80;74279;2835.099;-1758.709;1;12;270;271.0;23.7;24.0;-1;-0.9;27.4;-1.0;
21/02/2025 05:53:59;117;0;36.38;-4;21.80;-12.08;884.9;9.80;74278;2835.101;-1758.707;1;9;270;271.0;23.7;24.0;2;1.8;27.4;-1.0;
21/02/2025 05:54:19;117;0;31.60;-4;22.29;-10.84;882.8;9.80;74286;2835.103;-1758.706;1;5;270;272.6;24.4;24.6;2;2.3;27.4;-1.0;
21/02/2025 05:54:39;117;0;26.30;-4;21.51;-11.00;880.5;9.80;74281;2835.106;-1758.704;1;2;270;272.6;24.4;24.6;7;7.2;27.3;-1.0;
