Timestamp;NavState;SecurityLevel;Heading;Declination;Pitch;Roll;Depth;Temperature;Pa;Lat;Lon;DeadReckoning;DesiredH;BallastCmd;BallastPos;LinCmd;LinPos;AngCmd;AngPos;Voltage;Altitude;
01/03/2025 08:09:24;119;0;80.97;-4;-53.30;-9.83;0.0;16.50;75545;2837.815;-1801.867;0;141;500;506.5;100.0;100.6;0;-0.5;25.5;-1.0;
01/03/2025 08:09:34;116;0;57.32;-4;-52.63;-11.02;-0.1;16.50;75553;2837.822;-1801.875;0;141;500;506.5;100.0;100.6;0;-0.5;25.5;-1.0;
01/03/2025 08:09:59;116;0;45.98;-4;-53.11;0.46;0.0;16.60;75554;2837.832;-1801.884;0;141;500;506.5;100.0;100.4;0;-0.5;25.5;-1.0;
01/03/2025 08:10:24;116;0;30.14;-4;-56.22;-7.10;0.1;16.60;75579;2837.832;-1801.884;0;141;500;506.5;100.0;100.6;0;-0.5;25.5;-1.0;
01/03/2025 08:10:44;116;0;51.76;-4;-56.00;-14.59;-0.0;16.70;75586;2837.836;-1801.886;0;135;500;506.5;100.0;100.6;0;-0.5;25.5;-1.0;
01/03/2025 08:10:55;116;0;56.06;-4;-58.20;1.40;-0.0;16.70;75587;2837.838;-1801.886;0;135;500;506.5;100.0;100.6;0;-0.5;25.5;-1.0;
01/03/2025 08:11:58;116;0;28.98;-4;-52.09;-9.51;-0.1;16.90;75608;2837.851;-1801.894;0;135;500;506.5;100.0;100.6;0;-0.5;25.5;-1.0;
01/03/2025 08:13:00;116;0;49.45;-4;-47.01;-15.84;-0.0;17.20;75632;2837.861;-1801.903;0;135;500;506.5;100.0;100.6;0;-0.5;25.5;-1.0;
01/03/2025 08:15:31;116;0;343.92;-4;-51.30;-22.30;-0.1;17.90;75679;2837.887;-1801.921;0;135;500;506.5;100.0;100.6;0;-0.5;25.5;-1.0;
01/03/2025 08:17:18;116;0;27.66;-4;-46.78;-7.05;0.1;18.40;75719;2837.909;-1801.938;0;135;500;504.8;100.0;100.6;0;-0.5;25.5;-1.0;
01/03/2025 08:17:38;116;0;28.01;-4;-61.66;1.03;0.2;18.50;75723;2837.912;-1801.940;0;135;500;506.5;100.0;100.4;0;-0.5;25.5;-1.0;
01/03/2025 08:17:58;116;0;28.17;-4;-56.84;-14.46;-0.1;18.50;75727;2837.914;-1801.942;0;135;500;506.5;100.0;100.6;0;-0.5;25.5;-1.0;
01/03/2025 08:18:18;116;0;32.53;-4;-51.15;0.27;-0.0;18.60;75728;2837.919;-1801.946;0;135;500;508.1;100.0;100.6;0;-0.5;25.5;-1.0;
01/03/2025 08:18:38;116;0;8.70;-4;-54.12;15.70;-0.0;18.70;75741;2837.922;-1801.948;0;135;500;508.1;100.0;100.6;0;-0.5;25.4;-1.0;
01/03/2025 08:18:58;116;0;64.37;-4;-46.08;-22.82;-0.1;18.80;75739;2837.926;-1801.951;0;135;500;506.5;100.0;100.6;0;-0.5;25.5;-1.0;
01/03/2025 08:19:18;116;0;58.08;-4;-53.69;-12.60;0.0;18.90;75757;2837.930;-1801.954;0;135;500;506.5;100.0;100.6;0;-0.5;25.5;-1.0;
01/03/2025 08:19:38;116;0;31.76;-4;-55.76;-29.26;0.1;18.90;75757;2837.934;-1801.958;0;135;500;506.5;100.0;100.6;0;-0.5;25.5;-1.0;
01/03/2025 08:19:58;116;0;63.07;-4;-58.34;-9.39;-0.0;19.00;75760;2837.937;-1801.960;0;135;500;506.5;100.0;100.6;0;-0.5;25.5;-1.0;
01/03/2025 08:20:18;116;0;37.48;-4;-52.74;-21.54;0.1;19.00;75760;2837.941;-1801.962;0;135;500;508.1;100.0;100.6;0;-0.5;25.5;-1.0;
01/03/2025 08:20:38;116;0;37.57;-4;-54.96;-16.66;-0.1;19.10;75762;2837.944;-1801.965;0;135;500;506.5;100.0;100.6;0;-0.5;25.5;-1.0;
01/03/2025 08:20:49;116;0;40.58;-4;-51.72;-15.93;0.1;19.10;75780;2837.946;-1801.966;0;135;500;506.5;100.0;100.6;0;-0.5;25.5;-1.0;
01/03/2025 08:21:09;116;0;53.00;-4;-56.37;-3.93;-0.1;19.20;75783;2837.950;-1801.970;0;135;500;506.5;100.0;100.6;0;-0.5;25.5;-1.0;
01/03/2025 08:21:29;116;0;80.98;-4;-47.77;-29.76;-0.0;19.20;75786;2837.955;-1801.973;0;135;500;506.5;100.0;100.6;0;-0.5;25.5;-1.0;
01/03/2025 08:21:50;116;0;99.80;-4;-57.84;-15.12;-0.2;19.30;75790;2837.957;-1801.976;0;135;500;506.5;100.0;100.6;0;-0.5;25.5;-1.0;
01/03/2025 08:22:10;116;0;100.29;-4;-43.26;-11.62;-0.1;19.30;75795;2837.961;-1801.980;0;135;500;506.5;100.0;100.6;0;-0.5;25.5;-1.0;
01/03/2025 08:22:30;116;0;68.12;-4;-47.59;-4.56;-0.1;19.40;75796;2837.964;-1801.981;0;135;500;506.5;100.0;100.6;0;-0.5;25.5;-1.0;
01/03/2025 08:22:50;116;0;62.67;-4;-61.66;-18.16;-0.1;19.40;75791;2837.969;-1801.986;0;135;500;506.5;100.0;100.6;0;-0.5;25.5;-1.0;
01/03/2025 08:23:10;116;0;74.36;-4;-56.44;-20.84;-0.2;19.50;75804;2837.971;-1801.988;0;135;500;506.5;100.0;100.6;0;-0.5;25.5;-1.0;
01/03/2025 08:23:30;116;0;32.90;-4;-56.33;1.15;0.0;19.50;75810;2837.974;-1801.992;0;135;500;506.5;100.0;100.6;0;-0.5;25.5;-1.0;
01/03/2025 08:23:50;116;0;20.83;-4;-54.84;-19.54;-0.1;19.50;75808;2837.977;-1801.995;0;135;500;506.5;100.0;100.6;0;-0.5;25.5;-1.0;
01/03/2025 08:24:03;116;0;354.42;-4;-61.02;-11.25;-0.2;19.60;75815;2837.979;-1801.997;0;135;500;506.5;100.0;100.6;0;-0.5;25.5;-1.0;
01/03/2025 08:24:23;116;0;20.30;-4;-51.75;-5.10;-0.1;19.60;75819;2837.982;-1802.001;0;135;500;508.1;100.0;100.6;0;-0.5;25.5;-1.0;
01/03/2025 08:24:43;116;0;20.56;-4;-54.34;-16.85;-0.1;19.70;75830;2837.986;-1802.003;0;135;500;504.8;100.0;100.6;0;-0.5;25.4;-1.0;
01/03/2025 08:25:03;116;0;40.14;-4;-61.06;-9.15;-0.1;19.70;75829;2837.990;-1802.007;0;135;500;506.5;100.0;100.6;0;-0.5;25.5;-1.0;
01/03/2025 08:25:23;116;0;45.11;-4;-51.03;-16.73;0.0;19.70;75830;2837.993;-1802.010;0;135;500;506.5;100.0;100.6;0;-0.5;25.5;-1.0;
01/03/2025 08:25:43;116;0;25.40;-4;-55.98;-9.28;-0.1;19.70;75832;2837.996;-1802.013;0;135;500;506.5;100.0;100.6;0;-0.5;25.5;-1.0;
01/03/2025 08:26:03;116;0;13.59;-4;-50.97;-4.11;0.2;19.80;75843;2838.001;-1802.018;0;135;500;506.5;100.0;100.6;0;-0.5;25.5;-1.0;
01/03/2025 08:26:23;116;0;19.48;-4;-50.95;-0.66;-0.1;19.80;75839;2838.004;-1802.020;0;135;500;506.5;100.0;100.6;0;-0.5;25.5;-1.0;
01/03/2025 08:26:43;116;0;32.96;-4;-48.90;-23.66;-0.2;19.80;75855;2838.008;-1802.023;0;135;500;506.5;100.0;100.6;0;-0.5;25.5;-1.0;
01/03/2025 08:27:04;116;0;9.19;-4;-49.03;-5.77;-0.1;19.90;75855;2838.012;-1802.026;0;135;500;506.5;100.0;100.6;0;-0.5;25.5;-1.0;
01/03/2025 08:27:24;116;0;51.52;-4;-49.61;-22.40;-0.1;19.90;75854;2838.015;-1802.031;0;135;500;506.5;100.0;100.6;0;-0.5;25.5;-1.0;
01/03/2025 08:27:44;116;0;16.88;-4;-49.71;-13.87;-0.1;19.90;75862;2838.019;-1802.034;0;135;500;506.5;100.0;100.6;0;-0.5;25.5;-1.0;
01/03/2025 08:28:04;116;0;343.18;-4;-55.59;-19.58;0.2;20.00;75858;2838.022;-1802.037;0;135;500;508.1;100.0;100.6;0;-0.5;25.5;-1.0;
01/03/2025 08:28:24;116;0;345.62;-4;-51.19;-1.65;-0.1;20.00;75870;2838.027;-1802.042;0;135;500;506.5;100.0;100.6;0;-0.5;25.5;-1.0;
01/03/2025 08:28:44;116;0;54.42;-4;-48.42;-16.42;-0.0;20.00;75874;2838.030;-1802.044;0;135;500;504.8;100.0;100.6;0;-0.5;25.5;-1.0;
01/03/2025 08:29:04;116;0;30.20;-4;-36.04;-6.54;-0.1;20.10;75870;2838.034;-1802.047;0;135;500;504.8;100.0;100.6;0;-0.5;25.5;-1.0;
01/03/2025 08:29:24;116;0;49.73;-4;-49.55;-15.95;-0.2;20.10;75872;2838.037;-1802.051;0;135;500;506.5;100.0;100.6;0;-0.5;25.3;-1.0;
01/03/2025 08:29:44;116;0;4.59;-4;-53.56;-18.73;-0.0;20.10;75871;2838.040;-1802.053;0;135;500;506.5;100.0;100.6;0;-0.5;25.5;-1.0;
01/03/2025 08:30:04;116;0;20.62;-4;-52.63;-20.81;0.1;20.10;75883;2838.044;-1802.057;0;135;500;504.8;100.0;100.7;0;-0.5;25.5;-1.0;
01/03/2025 08:30:24;116;0;23.80;-4;-57.37;-3.44;-0.2;20.20;75887;2838.047;-1802.060;0;135;500;508.1;100.0;100.6;0;-0.5;25.5;-1.0;
01/03/2025 08:30:44;116;0;25.84;-4;-58.28;-7.70;-0.1;20.20;75886;2838.052;-1802.065;0;135;500;506.5;100.0;100.6;0;-0.5;25.5;-1.0;
01/03/2025 08:31:04;116;0;14.90;-4;-62.70;-4.14;-0.1;20.20;75889;2838.055;-1802.068;0;135;500;506.5;100.0;100.6;0;-0.5;25.5;-1.0;
01/03/2025 08:31:24;116;0;4.95;-4;-63.04;-1.45;0.1;20.20;75887;2838.057;-1802.070;0;135;500;506.5;100.0;100.6;0;-0.5;25.5;-1.0;
01/03/2025 08:31:44;116;0;22.07;-4;-51.39;-18.80;0.1;20.20;75901;2838.061;-1802.074;0;135;500;504.8;100.0;100.6;0;-0.5;25.4;-1.0;
01/03/2025 08:32:04;116;0;27.47;-4;-58.20;-2.70;-0.1;20.30;75895;2838.065;-1802.078;0;135;500;506.5;100.0;100.7;0;-0.5;25.5;-1.0;
01/03/2025 08:32:24;116;0;19.19;-4;-48.79;-16.64;-0.2;20.30;75900;2838.068;-1802.081;0;135;500;506.5;100.0;100.6;0;-0.5;25.2;-1.0;
01/03/2025 08:32:44;116;0;15.20;-4;-51.28;-17.35;0.1;20.30;75910;2838.071;-1802.084;0;135;500;504.8;100.0;100.4;0;-0.5;25.4;-1.0;
01/03/2025 08:33:04;116;0;21.26;-4;-60.45;-1.81;0.0;20.30;75909;2838.076;-1802.090;0;135;500;506.5;100.0;100.6;0;-0.5;25.5;-1.0;
01/03/2025 08:33:24;116;0;10.18;-4;-65.29;-7.34;0.0;20.40;75904;2838.078;-1802.092;0;135;500;508.1;100.0;100.6;0;-0.5;25.5;-1.0;
01/03/2025 08:33:44;116;0;335.31;-4;-51.99;-5.64;-0.0;20.40;75916;2838.080;-1802.095;0;135;500;506.5;100.0;100.6;0;-0.5;25.5;-1.0;
01/03/2025 08:34:04;116;0;356.66;-4;-50.25;-7.07;0.1;20.40;75922;2838.085;-1802.098;0;135;500;506.5;100.0;100.6;0;-0.5;25.5;-1.0;
01/03/2025 08:34:24;110;0;11.39;-4;-53.17;-22.56;-0.1;20.40;75922;2838.085;-1802.098;0;135;-110;383.9;100.0;100.6;-7;-7.2;25.5;-1.0;
01/03/2025 08:34:34;110;0;24.19;-4;-62.87;-19.71;-0.1;20.40;76278;2838.084;-1802.098;1;135;-110;232.3;100.0;100.6;-7;-7.7;25.4;-1.0;
01/03/2025 08:34:44;110;0;27.36;-4;-58.06;-6.24;0.4;20.40;76531;2838.085;-1802.098;1;135;-110;77.4;100.0;100.6;-7;-7.7;25.4;-1.0;
01/03/2025 08:34:54;110;0;27.94;-4;-66.95;1.98;0.7;20.40;76861;2838.084;-1802.098;1;135;-110;-75.8;100.0;100.6;-7;-7.7;25.4;-1.0;
01/03/2025 08:35:04;110;0;359.94;-4;-63.86;-23.77;1.0;20.40;77179;2838.084;-1802.098;1;135;-110;-109.7;43.5;54.2;-7;-7.7;25.4;-1.0;
01/03/2025 08:35:14;110;0;3.52;-4;-55.53;-21.87;2.1;20.40;77213;2838.085;-1802.098;1;135;-110;-111.3;43.5;43.4;-7;-7.2;25.4;-1.0;
01/03/2025 08:35:34;100;0;22.91;-4;-25.54;-15.94;5.6;20.50;77208;2838.087;-1802.097;1;135;-110;-106.5;43.5;43.2;-7;-7.7;25.5;-1.0;
01/03/2025 08:35:54;100;0;29.36;-4;-20.17;-14.75;8.8;20.50;77203;2838.090;-1802.095;1;135;-110;-104.8;43.5;42.9;-70;-69.9;25.5;-1.0;
01/03/2025 08:36:14;100;0;37.14;-4;-20.66;-45.52;11.2;20.50;77211;2838.092;-1802.093;1;135;-110;-103.2;43.5;42.9;-70;-70.4;25.5;-1.0;
01/03/2025 08:36:34;100;0;47.54;-4;-20.12;-45.68;14.0;20.50;77223;2838.094;-1802.090;1;135;-110;-101.6;43.5;42.9;-70;-70.4;25.5;0.0;
01/03/2025 08:36:54;100;0;57.72;-4;-18.36;-45.36;16.5;20.60;77216;2838.095;-1802.087;1;135;-110;-103.2;44.0;43.9;-68;-67.7;25.5;0.0;
01/03/2025 08:37:14;100;0;69.34;-4;-21.71;-44.04;19.2;20.60;77228;2838.096;-1802.084;1;135;-110;-103.2;44.0;44.2;-54;-54.2;25.5;0.0;
01/03/2025 08:37:34;100;0;80.20;-4;-21.97;-36.94;21.9;20.60;77228;2838.096;-1802.080;1;135;-110;-104.8;44.0;44.2;-41;-41.1;25.5;0.0;
01/03/2025 08:37:54;100;0;91.75;-4;-21.74;-30.66;24.5;20.50;77232;2838.095;-1802.077;1;135;-110;-103.2;44.0;44.2;-25;-24.4;25.5;0.0;
01/03/2025 08:38:14;100;0;101.83;-4;-21.71;-22.59;27.3;20.50;77231;2838.094;-1802.074;1;135;-110;-101.6;44.0;44.3;-10;-9.9;25.5;0.0;
01/03/2025 08:38:34;100;0;107.79;-4;-22.83;-15.77;29.9;20.50;77235;2838.092;-1802.070;1;135;-110;-101.6;43.1;43.0;2;1.8;25.5;0.0;
01/03/2025 08:38:54;100;0;111.58;-4;-21.42;-10.31;32.7;20.40;77240;2838.091;-1802.067;1;135;-110;-101.6;43.1;43.0;6;5.9;25.5;0.0;
01/03/2025 08:39:14;100;0;115.12;-4;-21.48;-8.49;35.3;20.40;77240;2838.089;-1802.064;1;135;-110;-103.2;43.1;43.0;10;9.9;25.5;0.0;
01/03/2025 08:39:34;100;0;114.79;-4;-21.66;-6.11;38.2;20.30;77253;2838.087;-1802.061;1;135;-110;-101.6;43.1;43.0;10;10.4;25.5;0.0;
01/03/2025 08:39:54;100;0;115.67;-4;-21.22;-6.28;40.9;20.30;77246;2838.085;-1802.057;1;135;-110;-100.0;43.1;43.2;10;10.4;25.4;0.0;
01/03/2025 08:40:14;100;0;119.93;-4;-20.11;-6.14;43.9;20.30;77248;2838.082;-1802.054;1;135;-110;-101.6;43.1;43.0;12;12.6;25.5;0.0;
01/03/2025 08:40:34;100;0;120.46;-4;-21.53;-5.08;46.5;20.20;77252;2838.080;-1802.051;1;135;-110;-101.6;43.1;43.0;12;13.1;25.5;0.0;
01/03/2025 08:40:54;100;0;120.92;-4;-21.68;-5.06;49.3;20.20;77261;2838.078;-1802.048;1;135;-110;-101.6;43.1;43.0;12;12.6;25.5;0.0;
01/03/2025 08:41:14;100;0;121.12;-4;-21.97;-4.97;52.1;20.20;77254;2838.075;-1802.045;1;135;-110;-101.6;43.1;43.0;12;12.6;25.5;0.0;
01/03/2025 08:41:34;100;0;123.79;-4;-20.50;-5.14;55.0;20.10;77245;2838.073;-1802.042;1;135;-110;-103.2;43.1;43.0;12;12.6;25.5;0.0;
01/03/2025 08:41:54;100;0;122.70;-4;-21.06;-5.13;57.6;20.10;77212;2838.071;-1802.039;1;135;-110;-103.2;43.1;43.0;12;12.6;25.5;0.0;
01/03/2025 08:42:14;100;0;125.61;-4;-21.33;-5.00;60.4;20.10;77204;2838.068;-1802.036;1;135;-110;-101.6;43.1;43.0;12;12.6;25.5;0.0;
01/03/2025 08:42:34;100;0;128.10;-4;-20.93;-5.00;63.1;20.00;77190;2838.065;-1802.033;1;135;-110;-103.2;43.1;43.0;12;12.6;25.5;0.0;
01/03/2025 08:42:54;100;0;126.77;-4;-21.17;-5.08;65.7;20.00;77190;2838.063;-1802.030;1;135;-110;-101.6;43.1;43.0;12;12.6;25.4;0.0;
01/03/2025 08:43:14;100;0;125.03;-4;-21.22;-5.05;68.5;20.00;77170;2838.060;-1802.027;1;135;-110;-103.2;43.1;42.9;12;12.6;25.5;0.0;
01/03/2025 08:43:34;100;0;125.60;-4;-21.43;-5.08;71.3;19.90;77163;2838.058;-1802.024;1;135;-110;-101.6;43.1;43.0;12;12.6;25.5;0.0;
01/03/2025 08:43:54;100;0;123.46;-4;-21.10;-5.06;74.2;19.90;77159;2838.055;-1802.021;1;135;-110;-101.6;43.1;43.0;12;12.6;25.5;0.0;
01/03/2025 08:44:14;100;0;118.65;-4;-20.99;-5.04;77.0;19.90;77152;2838.053;-1802.018;1;135;-110;-103.2;43.1;43.0;12;12.6;25.5;0.0;
01/03/2025 08:44:34;100;0;116.44;-4;-21.19;-4.89;79.8;19.80;77146;2838.051;-1802.015;1;135;-110;-103.2;43.1;43.0;12;13.1;25.5;0.0;
01/03/2025 08:44:55;100;0;111.16;-4;-21.10;-5.11;82.6;19.80;77133;2838.049;-1802.011;1;135;-110;-103.2;43.1;43.0;5;4.5;25.5;0.0;
01/03/2025 08:45:15;100;0;113.18;-4;-20.29;-9.48;85.5;19.80;77135;2838.047;-1802.007;1;135;-110;-103.2;43.1;42.9;5;4.5;25.5;0.0;
01/03/2025 08:45:35;100;0;121.85;-4;-20.25;-9.43;88.1;19.70;77114;2838.045;-1802.004;1;135;-110;-100.0;43.1;43.0;13;13.1;25.5;0.0;
01/03/2025 08:45:55;100;0;125.75;-4;-20.55;-4.90;90.6;19.70;77105;2838.042;-1802.002;1;135;-110;-101.6;43.1;43.0;13;13.1;25.5;0.0;
01/03/2025 08:46:15;100;0;126.80;-4;-20.82;-4.90;93.4;19.70;77094;2838.040;-1801.999;1;135;-110;-101.6;43.1;43.0;13;13.5;25.5;0.0;
01/03/2025 08:46:35;100;0;128.59;-4;-20.80;-4.83;96.0;19.60;77088;2838.037;-1801.996;1;135;-110;-103.2;43.1;43.0;13;13.5;25.5;0.0;
01/03/2025 08:46:55;100;0;128.02;-4;-20.78;-4.97;98.8;19.60;77074;2838.035;-1801.993;1;135;-110;-103.2;43.1;42.9;13;13.5;25.5;0.0;
01/03/2025 08:47:15;100;0;130.12;-4;-20.85;-4.94;101.6;19.50;77078;2838.032;-1801.990;1;135;-110;-103.2;43.1;43.0;13;13.5;25.5;0.0;
01/03/2025 08:47:35;100;0;134.43;-4;-21.55;-4.94;104.5;19.50;77075;2838.029;-1801.988;1;135;-110;-101.6;43.1;42.9;15;14.9;25.5;0.0;
01/03/2025 08:47:55;100;0;131.14;-4;-20.70;-3.96;107.3;19.50;77060;2838.026;-1801.985;1;135;-110;-103.2;43.1;43.0;15;15.3;25.5;0.0;
01/03/2025 08:48:15;100;0;128.90;-4;-20.93;-3.95;110.2;19.40;77047;2838.023;-1801.982;1;135;-110;-101.6;43.1;43.0;13;13.1;25.5;0.0;
01/03/2025 08:48:35;100;0;127.61;-4;-20.56;-5.16;112.8;19.40;77046;2838.021;-1801.979;1;135;-110;-101.6;43.1;42.9;13;13.1;25.5;0.0;
01/03/2025 08:48:55;100;0;131.45;-4;-20.70;-5.12;115.6;19.40;77041;2838.018;-1801.977;1;135;-110;-103.2;43.1;43.0;13;13.1;25.5;0.0;
01/03/2025 08:49:15;100;0;132.04;-4;-20.76;-5.07;118.3;19.30;77038;2838.015;-1801.974;1;135;-110;-101.6;43.1;43.0;13;13.1;25.5;0.0;
01/03/2025 08:49:35;100;0;130.76;-4;-20.91;-5.16;121.1;19.30;77024;2838.012;-1801.971;1;135;-110;-103.2;43.1;42.9;13;13.1;25.4;0.0;
01/03/2025 08:49:55;100;0;128.19;-4;-20.82;-5.08;123.8;19.20;77012;2838.010;-1801.968;1;135;-110;-101.6;43.1;43.0;13;13.1;25.5;0.0;
01/03/2025 08:50:15;100;0;125.21;-4;-20.74;-5.11;126.5;19.20;77006;2838.007;-1801.966;1;135;-110;-103.2;43.1;43.0;13;13.1;25.5;0.0;
01/03/2025 08:50:35;100;0;123.06;-4;-20.75;-5.16;129.1;19.20;77004;2838.005;-1801.963;1;135;-110;-103.2;43.1;43.2;13;13.1;25.5;0.0;
01/03/2025 08:50:55;100;0;123.14;-4;-20.74;-5.12;131.7;19.10;77001;2838.003;-1801.960;1;135;-110;-101.6;43.1;42.9;13;13.1;25.5;0.0;
01/03/2025 08:51:15;100;0;125.58;-4;-20.92;-4.97;134.2;19.10;76999;2838.000;-1801.957;1;135;-110;-103.2;43.1;43.0;13;13.1;25.5;0.0;
01/03/2025 08:51:35;100;0;127.08;-4;-20.80;-5.13;136.9;19.00;76987;2837.998;-1801.954;1;135;-110;-104.8;43.1;43.0;13;13.1;25.5;0.0;
01/03/2025 08:51:55;100;0;127.50;-4;-20.16;-5.00;139.2;19.00;76969;2837.995;-1801.952;1;135;-110;-103.2;43.1;43.0;13;13.1;25.5;0.0;
01/03/2025 08:52:15;100;0;130.05;-4;-20.14;-5.37;141.6;19.00;76971;2837.993;-1801.949;1;135;-110;-101.6;43.1;43.0;13;13.1;25.5;0.0;
01/03/2025 08:52:35;100;0;132.13;-4;-20.41;-5.18;143.8;18.90;76961;2837.990;-1801.947;1;135;-110;-103.2;43.1;43.0;15;14.9;25.4;0.0;
01/03/2025 08:52:55;100;0;138.75;-4;-19.84;-3.76;146.2;18.90;76966;2837.987;-1801.945;1;135;-110;-103.2;43.1;43.0;21;21.2;25.5;0.0;
01/03/2025 08:53:15;100;0;139.53;-4;-20.59;-0.89;148.3;18.90;76953;2837.985;-1801.943;1;135;-110;-101.6;43.1;43.0;25;24.8;25.5;0.0;
01/03/2025 08:53:35;100;0;139.10;-4;-20.65;1.00;150.5;18.80;76935;2837.982;-1801.942;1;135;-110;-103.2;43.1;42.9;23;23.0;25.4;0.0;
01/03/2025 08:53:55;100;0;135.24;-4;-20.97;0.01;152.8;18.80;76944;2837.980;-1801.940;1;135;-110;-103.2;43.1;43.0;18;18.1;25.5;0.0;
01/03/2025 08:54:15;100;0;143.46;-4;-22.78;-2.89;155.1;18.70;76929;2837.977;-1801.938;1;135;-110;-101.6;42.3;42.0;30;29.8;25.5;0.0;
01/03/2025 08:54:35;100;0;139.87;-4;-19.41;3.81;157.6;18.70;76922;2837.974;-1801.936;1;135;-110;-104.8;42.3;42.0;21;20.8;25.5;0.0;
01/03/2025 08:54:55;100;0;141.15;-4;-18.30;-1.38;159.8;18.70;76923;2837.971;-1801.934;1;135;-110;-103.2;42.8;43.0;24;23.9;25.5;0.0;
01/03/2025 08:55:15;100;0;138.02;-4;-20.08;0.62;162.0;18.60;76920;2837.968;-1801.932;1;135;-110;-103.2;42.8;43.0;20;19.9;25.5;0.0;
01/03/2025 08:55:35;100;0;133.82;-4;-20.25;-1.86;164.2;18.60;76898;2837.966;-1801.930;1;135;-110;-103.2;42.8;43.0;17;17.1;25.5;0.0;
01/03/2025 08:55:55;100;0;133.76;-4;-19.70;-3.20;166.5;18.60;76899;2837.963;-1801.927;1;135;-110;-101.6;42.8;43.0;17;17.1;25.5;0.0;
01/03/2025 08:56:15;100;0;133.55;-4;-19.93;-3.22;168.8;18.50;76886;2837.961;-1801.925;1;135;-110;-101.6;42.8;43.0;17;16.7;25.5;0.0;
01/03/2025 08:56:35;100;0;133.34;-4;-20.04;-3.12;171.2;18.50;76879;2837.958;-1801.923;1;135;-110;-101.6;42.8;43.0;17;17.1;25.5;0.0;
01/03/2025 08:56:55;100;0;133.52;-4;-20.30;-3.11;173.5;18.40;76865;2837.955;-1801.921;1;135;-110;-103.2;42.8;43.0;17;17.1;25.5;0.0;
01/03/2025 08:57:15;100;0;134.49;-4;-19.64;-3.07;176.1;18.40;76869;2837.952;-1801.918;1;135;-110;-103.2;42.8;43.0;17;17.1;25.5;0.0;
01/03/2025 08:57:35;100;0;133.05;-4;-19.88;-3.25;178.4;18.40;76862;2837.950;-1801.916;1;135;-110;-101.6;42.8;43.2;17;17.1;25.5;0.0;
01/03/2025 08:57:55;100;0;135.60;-4;-19.85;-3.16;180.7;18.30;76844;2837.947;-1801.914;1;135;-110;-101.6;42.8;43.0;17;17.1;25.5;0.0;
01/03/2025 08:58:15;100;0;136.51;-4;-19.88;-3.20;183.1;18.30;76845;2837.944;-1801.912;1;135;-110;-104.8;42.8;43.0;19;19.0;25.5;0.0;
01/03/2025 08:58:35;100;0;137.05;-4;-20.11;-1.88;185.7;18.30;76823;2837.941;-1801.909;1;135;-110;-103.2;42.8;43.0;19;19.4;25.5;0.0;
01/03/2025 08:58:55;100;0;134.17;-4;-20.32;-1.86;188.1;18.20;76813;2837.939;-1801.907;1;135;-110;-101.6;42.8;43.0;17;17.1;25.5;0.0;
01/03/2025 08:59:15;100;0;132.48;-4;-19.88;-3.30;190.8;18.20;76812;2837.936;-1801.904;1;135;-110;-100.0;42.8;43.0;15;14.9;25.4;0.0;
01/03/2025 08:59:35;100;0;135.19;-4;-19.61;-4.33;193.1;18.10;76811;2837.933;-1801.902;1;135;-110;-103.2;42.8;43.0;18;18.1;25.5;0.0;
01/03/2025 08:59:55;100;0;135.76;-4;-19.83;-2.42;195.6;18.10;76798;2837.930;-1801.900;1;135;-110;-101.6;42.8;43.0;18;18.5;25.5;0.0;
01/03/2025 09:00:15;100;0;135.50;-4;-19.62;-2.45;198.1;18.10;76792;2837.928;-1801.897;1;135;-110;-103.2;42.8;43.0;18;18.5;25.5;0.0;
01/03/2025 09:00:35;100;0;136.57;-4;-19.62;-2.43;200.4;18.00;76773;2837.925;-1801.895;1;135;-110;-101.6;42.8;43.0;18;18.5;25.5;0.0;
01/03/2025 09:00:55;100;0;135.76;-4;-19.91;-2.41;202.8;18.00;76772;2837.922;-1801.893;1;135;-110;-103.2;42.8;43.0;18;18.5;25.5;0.0;
01/03/2025 09:01:15;100;0;134.50;-4;-20.15;-2.35;205.0;18.00;76763;2837.920;-1801.891;1;135;-110;-103.2;42.8;43.0;18;18.5;25.5;0.0;
01/03/2025 09:01:35;100;0;136.15;-4;-19.96;-2.33;207.5;17.90;76745;2837.917;-1801.889;1;135;-110;-101.6;42.8;43.0;18;18.5;25.4;0.0;
01/03/2025 09:01:55;100;0;135.11;-4;-19.80;-2.42;210.1;17.90;76740;2837.914;-1801.886;1;135;-110;-103.2;42.8;43.0;18;18.5;25.5;0.0;
01/03/2025 09:02:15;100;0;133.74;-4;-19.75;-2.42;212.5;17.80;76725;2837.911;-1801.884;1;135;-110;-101.6;42.8;43.0;16;15.8;25.5;0.0;
01/03/2025 09:02:35;100;0;133.73;-4;-19.48;-3.85;215.0;17.80;76724;2837.908;-1801.881;1;135;-110;-103.2;42.8;43.0;16;15.8;25.5;0.0;
01/03/2025 09:02:55;100;0;132.15;-4;-19.80;-3.78;217.6;17.70;76712;2837.905;-1801.879;1;135;-110;-101.6;42.8;43.0;16;15.8;25.5;0.0;
01/03/2025 09:03:15;100;0;131.05;-4;-19.70;-3.83;220.3;17.70;76706;2837.903;-1801.876;1;135;-110;-103.2;42.8;43.0;16;15.8;25.5;0.0;
01/03/2025 09:03:35;100;0;130.45;-4;-19.34;-3.90;222.7;17.70;76697;2837.900;-1801.873;1;135;-110;-103.2;42.8;43.0;16;15.8;25.5;0.0;
01/03/2025 09:03:55;100;0;129.03;-4;-19.38;-3.86;225.1;17.60;76690;2837.897;-1801.871;1;135;-110;-103.2;42.8;43.0;16;15.3;25.5;0.0;
01/03/2025 09:04:15;100;0;127.10;-4;-19.76;-3.91;227.8;17.60;76686;2837.895;-1801.868;1;135;-110;-103.2;42.8;43.0;16;15.8;25.5;0.0;
01/03/2025 09:04:35;100;0;125.34;-4;-19.74;-3.93;230.3;17.60;76680;2837.892;-1801.865;1;135;-110;-103.2;42.8;43.0;16;15.3;25.5;0.0;
01/03/2025 09:04:55;100;0;123.47;-4;-19.62;-3.89;232.9;17.50;76673;2837.890;-1801.862;1;135;-110;-101.6;42.8;43.0;16;15.8;25.5;0.0;
01/03/2025 09:05:15;100;0;119.63;-4;-19.31;-3.89;235.5;17.50;76676;2837.888;-1801.859;1;135;-110;-101.6;42.8;43.0;14;14.0;25.5;0.0;
01/03/2025 09:05:35;100;0;116.43;-4;-19.53;-4.89;238.1;17.40;76662;2837.886;-1801.856;1;135;-110;-103.2;42.8;43.0;12;11.7;25.5;0.0;
01/03/2025 09:05:55;100;0;115.11;-4;-19.70;-5.90;240.7;17.40;76647;2837.884;-1801.852;1;135;-110;-101.6;42.8;43.0;12;11.7;25.5;0.0;
01/03/2025 09:06:15;100;0;113.65;-4;-19.65;-5.84;243.5;17.40;76648;2837.882;-1801.849;1;135;-110;-103.2;42.8;43.0;8;8.1;25.5;0.0;
01/03/2025 09:06:35;100;0;113.05;-4;-19.11;-7.85;246.3;17.30;76633;2837.880;-1801.845;1;135;-110;-103.2;42.8;43.0;8;7.7;25.5;0.0;
01/03/2025 09:06:55;100;0;114.98;-4;-18.93;-7.81;249.1;17.30;76632;2837.878;-1801.842;1;135;-110;-101.6;43.1;43.2;8;7.7;25.5;0.0;
01/03/2025 09:07:15;100;0;116.22;-4;-19.78;-7.89;251.9;17.30;76624;2837.875;-1801.838;1;135;-110;-101.6;43.1;43.4;11;10.8;25.5;0.0;
01/03/2025 09:07:35;100;0;113.91;-4;-20.04;-5.99;254.7;17.20;76611;2837.873;-1801.835;1;135;-110;-103.2;43.1;43.4;8;8.1;25.5;0.0;
01/03/2025 09:07:55;100;0;113.78;-4;-20.04;-7.75;257.7;17.20;76624;2837.871;-1801.831;1;135;-110;-103.2;43.1;43.4;8;7.7;25.5;0.0;
01/03/2025 09:08:15;100;0;115.48;-4;-19.77;-7.73;260.4;17.20;76601;2837.869;-1801.827;1;135;-110;-103.2;43.1;43.4;11;11.3;25.5;0.0;
01/03/2025 09:08:35;100;0;118.58;-4;-19.79;-5.81;263.4;17.10;76595;2837.867;-1801.824;1;135;-110;-103.2;43.1;43.4;11;11.7;25.5;0.0;
01/03/2025 09:08:55;100;0;120.35;-4;-19.82;-5.86;266.4;17.10;76579;2837.864;-1801.820;1;135;-110;-103.2;43.1;43.4;13;13.1;25.5;0.0;
01/03/2025 09:09:15;100;0;121.15;-4;-20.14;-4.89;269.2;17.10;76577;2837.862;-1801.817;1;135;-110;-101.6;43.1;43.4;13;13.5;25.5;0.0;
01/03/2025 09:09:35;100;0;122.59;-4;-20.06;-4.81;272.1;17.00;76568;2837.859;-1801.814;1;135;-110;-103.2;43.1;43.4;13;13.5;25.5;0.0;
01/03/2025 09:09:55;100;0;124.93;-4;-20.17;-4.82;275.3;17.00;76561;2837.856;-1801.810;1;135;-110;-104.8;43.1;43.4;13;13.5;25.5;0.0;
01/03/2025 09:10:15;100;0;125.03;-4;-20.29;-4.91;278.2;16.90;76557;2837.854;-1801.807;1;135;-110;-103.2;43.1;43.4;13;13.5;25.5;0.0;
01/03/2025 09:10:35;100;0;126.20;-4;-20.27;-4.78;281.2;16.90;76554;2837.851;-1801.803;1;135;-110;-101.6;43.1;43.4;13;13.5;25.5;0.0;
01/03/2025 09:10:55;100;0;128.35;-4;-19.86;-4.90;284.3;16.90;76545;2837.848;-1801.800;1;135;-110;-101.6;43.1;43.3;13;13.5;25.5;0.0;
01/03/2025 09:11:15;100;0;131.24;-4;-19.92;-4.82;287.3;16.80;76540;2837.845;-1801.797;1;135;-110;-103.2;43.1;43.4;13;13.5;25.5;0.0;
01/03/2025 09:11:35;100;0;134.27;-4;-19.93;-4.82;290.1;16.80;76536;2837.842;-1801.794;1;135;-110;-103.2;43.1;43.4;15;14.9;25.5;0.0;
01/03/2025 09:11:55;100;0;136.86;-4;-20.04;-3.95;293.1;16.80;76521;2837.838;-1801.791;1;135;-110;-103.2;43.1;43.4;17;17.1;25.5;0.0;
01/03/2025 09:12:15;100;0;135.50;-4;-20.16;-2.90;296.1;16.70;76522;2837.835;-1801.789;1;135;-110;-103.2;43.1;43.4;17;17.6;25.5;0.0;
01/03/2025 09:12:35;100;0;136.80;-4;-20.04;-2.95;298.9;16.70;76518;2837.832;-1801.786;1;135;-110;-103.2;43.1;43.4;17;17.6;25.5;0.0;
01/03/2025 09:12:55;100;0;136.93;-4;-19.90;-2.90;301.9;16.70;76504;2837.829;-1801.783;1;135;-110;-101.6;43.1;43.4;17;17.6;25.5;0.0;
01/03/2025 09:13:15;100;0;136.93;-4;-19.89;-2.87;304.6;16.60;76485;2837.825;-1801.781;1;135;-110;-101.6;43.1;43.4;17;17.6;25.5;0.0;
01/03/2025 09:13:35;100;0;138.11;-4;-20.09;-2.77;307.4;16.60;76476;2837.822;-1801.778;1;135;-110;-103.2;43.1;43.4;19;19.0;25.5;0.0;
01/03/2025 09:13:55;100;0;136.23;-4;-19.58;-1.79;310.2;16.50;76474;2837.819;-1801.776;1;135;-110;-101.6;43.1;43.4;19;19.4;25.5;0.0;
01/03/2025 09:14:15;100;0;136.12;-4;-19.87;-2.04;312.7;16.50;76472;2837.816;-1801.773;1;135;-110;-104.8;43.1;43.3;19;19.4;25.5;0.0;
01/03/2025 09:14:35;100;0;136.66;-4;-20.45;-1.95;315.2;16.50;76463;2837.813;-1801.771;1;135;-110;-103.2;43.1;43.4;19;19.4;25.5;0.0;
01/03/2025 09:14:55;100;0;137.61;-4;-20.00;-1.93;318.2;16.40;76462;2837.810;-1801.768;1;135;-110;-101.6;43.1;43.6;19;19.4;25.5;0.0;
01/03/2025 09:15:15;100;0;136.85;-4;-20.51;-1.91;320.8;16.40;76455;2837.807;-1801.766;1;135;-110;-101.6;43.1;43.4;19;19.4;25.5;0.0;
01/03/2025 09:15:35;100;0;135.47;-4;-20.45;-1.88;323.7;16.40;76444;2837.804;-1801.763;1;135;-110;-103.2;43.1;43.4;17;17.1;25.5;0.0;
01/03/2025 09:15:55;100;0;136.61;-4;-20.28;-3.21;326.3;16.30;76440;2837.801;-1801.761;1;135;-110;-101.6;43.1;43.4;17;16.7;25.5;0.0;
01/03/2025 09:16:15;100;0;138.76;-4;-19.91;-3.43;329.0;16.30;76430;2837.798;-1801.758;1;135;-110;-101.6;43.1;43.4;21;21.7;25.5;0.0;
01/03/2025 09:16:35;100;0;135.99;-4;-20.32;-0.69;331.7;16.30;76423;2837.795;-1801.756;1;135;-110;-104.8;43.1;43.4;18;18.1;25.5;0.0;
01/03/2025 09:16:55;100;0;134.01;-4;-20.44;-2.82;334.4;16.20;76422;2837.792;-1801.753;1;135;-110;-103.2;43.1;43.4;16;15.8;25.5;0.0;
01/03/2025 09:17:15;100;0;134.25;-4;-20.25;-3.82;337.1;16.20;76420;2837.789;-1801.751;1;135;-110;-101.6;43.1;43.4;16;15.8;25.5;0.0;
01/03/2025 09:17:35;100;0;134.43;-4;-20.08;-3.82;339.7;16.20;76413;2837.786;-1801.748;1;135;-110;-101.6;43.1;43.4;16;15.8;25.5;0.0;
01/03/2025 09:17:55;100;0;137.32;-4;-19.93;-3.82;342.4;16.10;76417;2837.783;-1801.746;1;135;-110;-101.6;43.1;43.4;19;19.0;25.5;0.0;
01/03/2025 09:18:15;100;0;136.68;-4;-20.26;-1.92;345.1;16.10;76394;2837.780;-1801.743;1;135;-110;-103.2;43.1;43.4;19;19.4;25.5;0.0;
01/03/2025 09:18:35;100;0;136.30;-4;-20.16;-2.01;347.7;16.10;76399;2837.777;-1801.741;1;135;-110;-101.6;43.1;43.4;19;19.4;25.4;0.0;
01/03/2025 09:18:55;100;0;135.79;-4;-20.22;-1.94;350.2;16.00;76398;2837.774;-1801.738;1;135;-110;-101.6;43.1;43.4;19;19.4;25.5;0.0;
01/03/2025 09:19:15;100;0;134.45;-4;-20.36;-1.93;352.8;16.00;76391;2837.771;-1801.736;1;135;-110;-103.2;43.1;43.4;17;17.1;25.5;0.0;
01/03/2025 09:19:35;100;0;130.59;-4;-20.04;-3.33;355.5;16.00;76379;2837.768;-1801.733;1;135;-110;-101.6;43.1;43.4;15;14.9;25.5;0.0;
01/03/2025 09:19:55;100;0;127.73;-4;-20.27;-4.26;358.0;16.00;76379;2837.766;-1801.730;1;135;-110;-101.6;43.1;43.4;15;14.9;25.5;0.0;
01/03/2025 09:20:16;100;0;125.00;-4;-20.28;-4.26;360.7;15.90;76378;2837.763;-1801.727;1;135;-110;-103.2;43.1;43.4;15;14.9;25.5;0.0;
01/03/2025 09:20:36;100;0;122.03;-4;-20.19;-4.36;363.4;15.90;76369;2837.761;-1801.724;1;135;-110;-103.2;43.1;43.4;15;14.4;25.5;0.0;
01/03/2025 09:20:56;100;0;119.94;-4;-20.31;-4.32;366.0;15.90;76370;2837.758;-1801.721;1;135;-110;-103.2;43.1;43.4;15;14.4;25.5;0.0;
01/03/2025 09:21:16;100;0;118.47;-4;-20.24;-4.27;368.8;15.80;76358;2837.756;-1801.718;1;135;-110;-103.2;43.1;43.4;13;13.1;25.5;0.0;
01/03/2025 09:21:36;100;0;118.68;-4;-20.23;-5.21;371.2;15.80;76360;2837.754;-1801.715;1;135;-110;-104.8;43.1;43.4;13;12.6;25.5;0.0;
01/03/2025 09:21:56;100;0;118.92;-4;-20.17;-5.22;374.1;15.80;76355;2837.752;-1801.711;1;135;-110;-101.6;43.1;43.4;13;12.6;25.4;0.0;
01/03/2025 09:22:16;100;0;120.70;-4;-19.84;-5.20;376.8;15.80;76348;2837.749;-1801.708;1;135;-110;-103.2;43.1;43.4;13;12.6;25.5;0.0;
01/03/2025 09:22:36;100;0;121.06;-4;-20.07;-5.19;379.5;15.70;76344;2837.747;-1801.705;1;135;-110;-101.6;43.1;43.4;13;12.6;25.5;0.0;
01/03/2025 09:22:56;100;0;120.64;-4;-20.12;-5.25;382.2;15.70;76335;2837.745;-1801.702;1;135;-110;-103.2;43.1;43.4;13;13.1;25.5;0.0;
01/03/2025 09:23:16;100;0;119.24;-4;-20.01;-5.33;384.9;15.70;76333;2837.743;-1801.699;1;135;-110;-101.6;43.1;43.4;13;12.6;25.5;0.0;
01/03/2025 09:23:36;100;0;117.56;-4;-19.89;-5.29;387.6;15.60;76328;2837.740;-1801.695;1;135;-110;-101.6;43.1;43.4;13;12.6;25.5;0.0;
01/03/2025 09:23:56;100;0;117.79;-4;-19.78;-5.32;390.1;15.60;76326;2837.738;-1801.692;1;135;-110;-101.6;43.1;43.4;13;12.6;25.5;0.0;
01/03/2025 09:24:16;100;0;117.93;-4;-19.68;-5.32;392.9;15.60;76314;2837.736;-1801.689;1;135;-110;-103.2;43.1;43.4;13;12.6;25.5;0.0;
01/03/2025 09:24:36;100;0;118.63;-4;-19.63;-5.31;395.3;15.60;76311;2837.734;-1801.686;1;135;-110;-101.6;43.1;43.4;13;12.6;25.5;0.0;
01/03/2025 09:24:56;100;0;119.21;-4;-19.60;-5.35;398.1;15.50;76313;2837.732;-1801.683;1;135;-110;-103.2;43.1;43.4;13;12.6;25.5;0.0;
01/03/2025 09:25:16;100;0;119.70;-4;-19.51;-5.33;400.7;15.50;76313;2837.730;-1801.680;1;135;-110;-103.2;43.1;43.4;13;12.6;25.5;0.0;
01/03/2025 09:25:36;100;0;120.83;-4;-19.71;-5.18;403.2;15.50;76300;2837.727;-1801.677;1;135;-110;-101.6;43.1;43.4;13;12.6;25.5;0.0;
01/03/2025 09:25:56;100;0;122.15;-4;-19.94;-5.28;406.0;15.50;76295;2837.725;-1801.673;1;135;-110;-103.2;43.1;43.6;13;12.6;25.5;0.0;
01/03/2025 09:26:16;100;0;121.83;-4;-20.04;-5.25;408.7;15.40;76293;2837.723;-1801.670;1;135;-110;-103.2;43.1;43.4;13;12.6;25.5;0.0;
01/03/2025 09:26:36;100;0;118.79;-4;-19.69;-5.21;411.4;15.40;76301;2837.720;-1801.667;1;135;-110;-101.6;43.1;43.4;13;12.6;25.5;0.0;
01/03/2025 09:26:56;100;0;118.93;-4;-19.87;-5.32;414.2;15.40;76290;2837.718;-1801.664;1;135;-110;-103.2;43.1;43.4;13;12.6;25.5;0.0;
01/03/2025 09:27:16;100;0;119.48;-4;-19.45;-5.28;416.9;15.30;76275;2837.716;-1801.660;1;135;-110;-103.2;43.1;43.4;13;12.6;25.5;0.0;
01/03/2025 09:27:36;100;0;119.66;-4;-19.62;-5.30;419.3;15.30;76282;2837.714;-1801.657;1;135;-110;-103.2;43.1;43.4;13;12.6;25.5;0.0;
01/03/2025 09:27:56;100;0;119.58;-4;-19.63;-5.29;422.1;15.30;76281;2837.711;-1801.654;1;135;-110;-101.6;43.1;43.4;13;12.6;25.5;0.0;
01/03/2025 09:28:16;100;0;117.08;-4;-19.88;-5.37;424.5;15.30;76276;2837.709;-1801.651;1;135;-110;-103.2;43.1;43.4;13;12.6;25.5;0.0;
01/03/2025 09:28:36;100;0;113.85;-4;-19.70;-5.33;427.2;15.30;76274;2837.707;-1801.648;1;135;-110;-101.6;43.1;43.4;9;9.0;25.5;0.0;
01/03/2025 09:28:56;100;0;113.75;-4;-19.30;-7.22;429.8;15.20;76267;2837.705;-1801.644;1;135;-110;-103.2;43.1;43.4;9;8.6;25.5;0.0;
01/03/2025 09:29:16;100;0;115.85;-4;-19.31;-7.24;432.2;15.20;76257;2837.703;-1801.641;1;135;-110;-101.6;43.1;43.4;11;10.8;25.5;0.0;
01/03/2025 09:29:36;100;0;115.05;-4;-19.49;-6.07;434.6;15.20;76252;2837.702;-1801.638;1;135;-110;-101.6;43.1;43.4;11;11.3;25.5;0.0;
01/03/2025 09:29:56;100;0;115.09;-4;-19.41;-6.05;437.2;15.20;76242;2837.700;-1801.635;1;135;-110;-103.2;43.1;43.3;11;11.3;25.5;0.0;
01/03/2025 09:30:16;100;0;118.57;-4;-19.40;-6.05;439.5;15.10;76237;2837.697;-1801.632;1;135;-110;-103.2;43.1;43.4;13;13.1;25.5;0.0;
01/03/2025 09:30:36;100;0;119.54;-4;-19.70;-4.89;442.0;15.10;76235;2837.695;-1801.629;1;135;-110;-103.2;43.1;43.4;13;13.5;25.5;0.0;
01/03/2025 09:30:56;100;0;122.01;-4;-19.43;-4.89;444.4;15.10;76231;2837.693;-1801.626;1;135;-110;-103.2;43.1;43.4;13;13.5;25.5;0.0;
01/03/2025 09:31:16;100;0;124.13;-4;-19.54;-4.94;446.8;15.00;76205;2837.691;-1801.623;1;135;-110;-103.2;43.1;43.4;13;13.5;25.5;0.0;
01/03/2025 09:31:36;100;0;127.18;-4;-19.55;-4.90;449.0;15.00;76206;2837.689;-1801.621;1;135;-110;-101.6;43.1;43.4;13;13.5;25.5;0.0;
01/03/2025 09:31:56;100;0;127.75;-4;-19.78;-4.89;451.4;15.00;76212;2837.686;-1801.618;1;135;-110;-101.6;43.1;43.4;13;13.1;25.5;0.0;
01/03/2025 09:32:16;100;0;130.62;-4;-19.77;-4.90;453.7;15.00;76205;2837.684;-1801.616;1;135;-110;-103.2;43.1;43.4;15;14.9;25.5;0.0;
01/03/2025 09:32:36;100;0;134.58;-4;-19.57;-3.90;456.1;15.00;76198;2837.681;-1801.614;1;135;-110;-101.6;43.1;43.4;17;17.1;25.5;0.0;
01/03/2025 09:32:56;100;0;137.32;-4;-19.36;-3.08;458.4;14.90;76186;2837.678;-1801.612;1;135;-110;-101.6;43.1;43.4;20;19.9;25.5;0.0;
01/03/2025 09:33:16;100;0;139.10;-4;-20.33;-1.68;460.6;14.90;76186;2837.675;-1801.610;1;135;-110;-101.6;43.1;43.4;23;23.0;25.5;0.0;
01/03/2025 09:33:36;100;0;138.47;-4;-20.10;0.14;463.0;14.90;76179;2837.673;-1801.608;1;135;-110;-101.6;43.1;43.4;21;21.2;25.5;0.0;
01/03/2025 09:33:56;100;0;138.01;-4;-19.75;-1.14;465.4;14.90;76175;2837.670;-1801.606;1;135;-110;-101.6;43.1;43.4;21;21.2;25.5;0.0;
01/03/2025 09:34:16;100;0;139.05;-4;-20.03;-1.09;467.6;14.80;76170;2837.667;-1801.604;1;135;-110;-101.6;43.1;43.4;23;23.0;25.5;0.0;
01/03/2025 09:34:36;100;0;138.54;-4;-20.34;0.02;469.9;14.80;76164;2837.664;-1801.602;1;135;-110;-101.6;43.1;43.4;21;21.2;25.5;0.0;
01/03/2025 09:34:56;100;0;139.50;-4;-19.89;-1.35;472.2;14.80;76163;2837.661;-1801.600;1;135;-110;-103.2;43.1;43.4;23;23.0;25.5;0.0;
01/03/2025 09:35:16;100;0;141.62;-4;-20.20;0.00;474.4;14.80;76163;2837.659;-1801.598;1;135;-110;-103.2;43.1;43.3;27;27.1;25.4;0.0;
01/03/2025 09:35:36;100;0;144.25;-4;-20.15;2.27;476.7;14.70;76153;2837.656;-1801.596;1;135;-110;-101.6;43.1;43.4;30;29.8;25.5;0.0;
01/03/2025 09:35:56;100;0;143.48;-4;-20.19;3.34;479.2;14.70;76146;2837.653;-1801.594;1;135;-110;-103.2;43.1;43.4;30;30.2;25.5;0.0;
01/03/2025 09:36:16;100;0;140.29;-4;-20.08;3.41;481.4;14.70;76139;2837.650;-1801.592;1;135;-110;-103.2;43.1;43.4;25;24.4;25.5;0.0;
01/03/2025 09:36:36;100;0;140.35;-4;-20.18;0.49;483.7;14.70;76138;2837.647;-1801.590;1;135;-110;-103.2;43.1;43.4;25;24.4;25.5;0.0;
01/03/2025 09:36:56;100;0;137.55;-4;-20.09;0.51;485.9;14.60;76131;2837.644;-1801.588;1;135;-110;-101.6;43.1;43.4;22;22.1;25.5;0.0;
01/03/2025 09:37:16;100;0;135.13;-4;-20.00;-0.84;488.0;14.60;76129;2837.642;-1801.586;1;135;-110;-101.6;43.1;43.4;19;19.0;25.5;0.0;
01/03/2025 09:37:36;100;0;132.10;-4;-20.18;-2.27;490.4;14.60;76118;2837.639;-1801.584;1;135;-110;-103.2;43.1;43.4;16;15.8;25.4;0.0;
01/03/2025 09:37:56;100;0;129.51;-4;-19.63;-4.04;492.8;14.60;76120;2837.637;-1801.582;1;135;-110;-103.2;43.1;43.4;16;15.3;25.5;0.0;
01/03/2025 09:38:16;100;0;127.30;-4;-19.73;-4.12;495.0;14.50;76108;2837.635;-1801.579;1;135;-110;-101.6;43.1;43.4;16;15.3;25.5;0.0;
01/03/2025 09:38:36;100;0;126.29;-4;-19.96;-3.89;497.4;14.50;76100;2837.632;-1801.577;1;135;-110;-103.2;43.1;43.4;16;15.3;25.5;0.0;
01/03/2025 09:38:56;100;0;124.53;-4;-19.51;-3.95;499.7;14.50;76105;2837.630;-1801.574;1;135;-110;-103.2;43.1;43.4;16;15.3;25.5;0.0;
01/03/2025 09:39:16;100;0;122.97;-4;-19.60;-3.98;502.1;14.50;76092;2837.628;-1801.571;1;135;-110;-101.6;43.1;43.4;16;15.3;25.5;0.0;
01/03/2025 09:39:36;100;0;122.05;-4;-19.53;-3.96;504.4;14.40;76087;2837.626;-1801.569;1;135;-110;-103.2;43.1;43.4;16;15.3;25.5;0.0;
01/03/2025 09:39:56;100;0;121.74;-4;-19.58;-4.00;506.8;14.40;76097;2837.623;-1801.566;1;135;-110;-103.2;43.1;43.4;16;15.3;25.5;0.0;
01/03/2025 09:40:16;100;0;120.06;-4;-19.47;-4.04;509.1;14.40;76092;2837.621;-1801.563;1;135;-110;-103.2;43.1;43.4;14;14.0;25.5;0.0;
01/03/2025 09:40:36;100;0;118.95;-4;-19.44;-4.75;511.2;14.40;76076;2837.619;-1801.560;1;135;-110;-103.2;43.1;43.3;14;14.0;25.5;0.0;
01/03/2025 09:40:56;100;0;116.91;-4;-19.29;-4.72;513.4;14.40;76077;2837.618;-1801.558;1;135;-110;-101.6;43.1;43.4;14;14.0;25.5;0.0;
01/03/2025 09:41:16;100;0;117.78;-4;-19.10;-4.77;515.6;14.30;76077;2837.616;-1801.555;1;135;-110;-103.2;43.1;43.4;14;14.0;25.5;0.0;
01/03/2025 09:41:36;100;0;119.23;-4;-19.38;-4.79;517.7;14.30;76065;2837.614;-1801.552;1;135;-110;-103.2;43.1;43.4;14;14.0;25.5;0.0;
01/03/2025 09:41:56;100;0;117.57;-4;-19.33;-4.74;520.1;14.30;76064;2837.612;-1801.549;1;135;-110;-101.6;43.1;43.4;14;14.0;25.5;0.0;
01/03/2025 09:42:16;100;0;114.02;-4;-19.50;-4.75;522.2;14.30;76064;2837.610;-1801.547;1;135;-110;-101.6;43.1;43.4;11;10.8;25.5;0.0;
01/03/2025 09:42:36;100;0;115.48;-4;-18.97;-6.45;524.4;14.20;76058;2837.608;-1801.544;1;135;-110;-103.2;43.4;43.4;11;10.4;25.5;0.0;
01/03/2025 09:42:56;100;0;117.73;-4;-18.98;-6.45;526.7;14.20;76048;2837.606;-1801.541;1;135;-110;-101.6;43.7;43.9;13;13.1;25.5;0.0;
01/03/2025 09:43:16;100;0;119.55;-4;-20.09;-5.00;528.8;14.20;76054;2837.604;-1801.539;1;135;-110;-103.2;43.7;44.0;13;13.1;25.5;0.0;
01/03/2025 09:43:36;100;0;119.52;-4;-20.41;-4.96;531.1;14.20;76044;2837.602;-1801.536;1;135;-110;-101.6;43.7;44.0;13;13.1;25.5;0.0;
01/03/2025 09:43:56;100;0;116.52;-4;-20.29;-5.02;533.4;14.20;76042;2837.600;-1801.533;1;135;-110;-101.6;43.7;44.0;13;13.1;25.5;0.0;
01/03/2025 09:44:16;100;0;116.88;-4;-20.15;-4.95;535.7;14.10;76038;2837.599;-1801.530;1;135;-110;-101.6;43.7;44.0;13;13.1;25.5;0.0;
01/03/2025 09:44:36;100;0;119.29;-4;-20.09;-4.97;537.7;14.10;76033;2837.597;-1801.528;1;135;-110;-101.6;43.7;44.0;13;13.1;25.5;0.0;
01/03/2025 09:44:56;100;0;121.26;-4;-20.07;-4.93;539.9;14.10;76034;2837.595;-1801.525;1;135;-110;-103.2;43.7;43.9;13;13.1;25.5;0.0;
01/03/2025 09:45:16;100;0;123.18;-4;-20.15;-4.99;542.2;14.10;76040;2837.593;-1801.523;1;135;-110;-101.6;43.7;44.0;13;13.5;25.5;0.0;
01/03/2025 09:45:36;100;0;124.71;-4;-20.21;-4.94;544.4;14.10;76021;2837.590;-1801.520;1;135;-110;-103.2;43.7;44.0;13;13.5;25.5;0.0;
01/03/2025 09:45:56;100;0;123.41;-4;-20.35;-4.99;546.5;14.00;76010;2837.588;-1801.518;1;135;-110;-101.6;43.7;43.9;13;13.5;25.5;0.0;
01/03/2025 09:46:16;100;0;120.74;-4;-20.17;-5.06;548.8;14.00;76016;2837.586;-1801.515;1;135;-110;-104.8;43.7;43.9;13;13.1;25.5;0.0;
01/03/2025 09:46:36;100;0;119.75;-4;-20.16;-5.13;550.8;14.00;76012;2837.584;-1801.513;1;135;-110;-101.6;43.7;43.9;13;13.1;25.5;0.0;
01/03/2025 09:46:56;100;0;118.69;-4;-20.28;-5.09;553.3;14.00;76007;2837.582;-1801.510;1;135;-110;-101.6;43.7;44.0;13;13.1;25.5;0.0;
01/03/2025 09:47:16;100;0;118.48;-4;-20.12;-4.98;555.4;13.90;76000;2837.580;-1801.508;1;135;-110;-101.6;43.7;43.9;13;13.1;25.5;0.0;
01/03/2025 09:47:36;100;0;115.42;-4;-20.17;-5.00;557.8;13.90;75994;2837.579;-1801.505;1;135;-110;-101.6;43.7;43.9;11;10.8;25.5;0.0;
01/03/2025 09:47:56;100;0;116.10;-4;-19.91;-6.24;560.0;13.90;75987;2837.577;-1801.502;1;135;-110;-103.2;43.7;44.0;11;10.8;25.5;0.0;
01/03/2025 09:48:16;100;0;116.10;-4;-20.15;-6.21;562.3;13.90;75992;2837.575;-1801.499;1;135;-110;-101.6;43.7;43.9;11;10.8;25.5;0.0;
01/03/2025 09:48:36;100;0;115.94;-4;-20.20;-6.27;564.6;13.90;75986;2837.573;-1801.496;1;135;-110;-104.8;43.7;44.0;11;10.8;25.5;0.0;
01/03/2025 09:48:56;100;0;114.79;-4;-19.99;-6.29;566.9;13.90;75978;2837.571;-1801.493;1;135;-110;-103.2;43.7;44.0;11;10.8;25.5;0.0;
01/03/2025 09:49:16;100;0;115.37;-4;-20.00;-6.27;569.1;13.80;75977;2837.570;-1801.491;1;135;-110;-103.2;43.7;43.9;11;10.8;25.4;0.0;
01/03/2025 09:49:36;100;0;115.51;-4;-19.96;-6.33;571.5;13.80;75983;2837.568;-1801.488;1;135;-110;-101.6;43.7;43.9;11;10.8;25.5;0.0;
01/03/2025 09:49:56;100;0;113.40;-4;-20.13;-6.35;573.8;13.80;75991;2837.566;-1801.485;1;135;-110;-104.8;43.7;44.0;9;8.6;25.5;0.0;
01/03/2025 09:50:16;100;0;113.58;-4;-19.97;-7.47;576.1;13.80;75970;2837.564;-1801.482;1;135;-110;-103.2;43.7;43.9;9;8.6;25.5;0.0;
01/03/2025 09:50:36;100;0;113.42;-4;-20.03;-7.43;578.6;13.80;75961;2837.562;-1801.479;1;135;-110;-103.2;43.7;44.0;9;8.6;25.5;0.0;
01/03/2025 09:50:56;100;0;113.88;-4;-20.37;-7.42;580.9;13.70;75967;2837.561;-1801.476;1;135;-110;-101.6;43.7;44.0;9;8.6;25.5;0.0;
01/03/2025 09:51:16;100;0;113.85;-4;-20.19;-7.48;583.4;13.70;75958;2837.559;-1801.473;1;135;-110;-101.6;43.7;43.9;9;8.6;25.5;0.0;
01/03/2025 09:51:36;100;0;112.97;-4;-20.22;-7.41;585.8;13.70;75964;2837.557;-1801.470;1;135;-110;-101.6;43.7;44.0;9;8.6;25.5;0.0;
01/03/2025 09:51:56;100;0;115.75;-4;-20.03;-7.40;588.3;13.70;75955;2837.555;-1801.467;1;135;-110;-103.2;43.7;44.0;9;8.6;25.4;0.0;
01/03/2025 09:52:16;100;0;120.36;-4;-19.94;-7.46;590.8;13.70;75946;2837.553;-1801.464;1;135;-110;-103.2;43.7;43.9;13;13.1;25.5;0.0;
01/03/2025 09:52:36;100;0;121.46;-4;-20.19;-4.90;593.2;13.60;75942;2837.551;-1801.461;1;135;-110;-101.6;43.7;43.9;13;13.5;25.5;0.0;
01/03/2025 09:52:56;100;0;123.11;-4;-20.21;-4.93;595.8;13.60;75939;2837.548;-1801.458;1;135;-110;-101.6;43.7;44.0;13;13.5;25.5;0.0;
01/03/2025 09:53:16;100;0;125.58;-4;-20.23;-4.91;598.1;13.60;75942;2837.546;-1801.456;1;135;-110;-101.6;43.7;44.0;13;13.5;25.5;0.0;
01/03/2025 09:53:36;100;0;129.25;-4;-19.97;-5.03;600.5;13.60;75938;2837.544;-1801.453;1;135;-110;-103.2;43.7;44.0;13;13.5;25.5;0.0;
01/03/2025 09:53:56;100;0;131.43;-4;-19.59;-4.92;602.9;13.60;75944;2837.541;-1801.451;1;135;-110;-101.6;43.7;44.0;15;14.9;25.5;0.0;
01/03/2025 09:54:16;100;0;133.39;-4;-20.12;-4.07;605.0;13.60;75931;2837.539;-1801.449;1;135;-110;-104.8;43.7;44.0;15;15.3;25.5;0.0;
01/03/2025 09:54:37;100;0;133.97;-4;-20.27;-4.08;607.4;13.50;75932;2837.536;-1801.446;1;135;-110;-101.6;43.7;44.0;15;15.3;25.5;0.0;
01/03/2025 09:54:57;100;0;135.00;-4;-20.26;-4.07;609.6;13.50;75933;2837.533;-1801.444;1;135;-110;-103.2;43.7;44.0;19;19.0;25.5;0.0;
01/03/2025 09:55:17;100;0;136.62;-4;-21.06;-1.81;611.9;13.50;75931;2837.531;-1801.442;1;135;-110;-101.6;43.7;43.9;17;17.1;25.5;0.0;
01/03/2025 09:55:37;100;0;136.54;-4;-19.85;-3.43;614.5;13.50;75916;2837.528;-1801.440;1;135;-110;-101.6;43.7;43.9;17;16.7;25.5;0.0;
01/03/2025 09:55:57;100;0;139.25;-4;-20.96;-3.33;616.7;13.50;75916;2837.525;-1801.438;1;135;-110;-101.6;43.7;44.0;23;23.0;25.5;0.0;
01/03/2025 09:56:17;100;0;139.31;-4;-20.80;0.37;619.2;13.50;75909;2837.522;-1801.436;1;135;-110;-103.2;43.7;44.0;23;23.0;25.5;0.0;
01/03/2025 09:56:37;100;0;139.02;-4;-20.77;0.03;621.7;13.40;75907;2837.519;-1801.434;1;135;-110;-101.6;43.7;44.0;21;21.2;25.5;0.0;
01/03/2025 09:56:57;100;0;142.42;-4;-20.83;-1.63;624.0;13.40;75902;2837.517;-1801.432;1;135;-110;-104.8;43.7;44.0;28;28.0;25.5;0.0;
01/03/2025 09:57:17;100;0;141.97;-4;-20.92;2.48;626.6;13.40;75911;2837.513;-1801.430;1;135;-110;-103.2;43.7;44.0;24;23.9;25.5;0.0;
01/03/2025 09:57:37;100;0;140.04;-4;-20.88;0.18;629.2;13.40;75901;2837.510;-1801.428;1;135;-110;-100.0;43.7;44.0;24;23.5;25.5;0.0;
01/03/2025 09:57:57;100;0;138.40;-4;-20.63;0.12;631.5;13.40;75899;2837.508;-1801.426;1;135;-110;-101.6;43.7;44.0;22;22.1;25.5;0.0;
01/03/2025 09:58:17;100;0;138.50;-4;-20.64;-0.98;633.9;13.40;75899;2837.505;-1801.424;1;135;-110;-103.2;43.7;44.0;20;19.9;25.5;0.0;
01/03/2025 09:58:37;100;0;139.16;-4;-20.34;-1.83;636.4;13.30;75892;2837.502;-1801.422;1;135;-110;-101.6;43.7;43.9;22;22.1;25.5;0.0;
01/03/2025 09:58:57;100;0;139.76;-4;-20.36;-0.41;638.8;13.30;75886;2837.499;-1801.420;1;135;-110;-101.6;43.7;44.0;22;22.1;25.5;0.0;
01/03/2025 09:59:17;100;0;138.47;-4;-20.58;-0.52;641.2;13.30;75883;2837.496;-1801.418;1;135;-110;-104.8;43.7;44.0;22;22.6;25.5;0.0;
01/03/2025 09:59:37;100;0;136.23;-4;-20.42;-0.46;643.6;13.30;75884;2837.494;-1801.415;1;135;-110;-103.2;43.7;44.0;19;18.5;25.5;0.0;
01/03/2025 09:59:57;100;0;135.50;-4;-19.92;-2.55;645.9;13.30;75874;2837.491;-1801.413;1;135;-110;-103.2;43.7;43.9;19;18.5;25.4;0.0;
01/03/2025 10:00:17;100;0;134.63;-4;-20.15;-2.60;648.2;13.30;75860;2837.488;-1801.411;1;135;-110;-101.6;43.7;44.0;17;17.1;25.5;0.0;
01/03/2025 10:00:37;100;0;134.22;-4;-20.15;-3.28;650.5;13.20;75851;2837.486;-1801.409;1;135;-110;-101.6;43.7;44.0;17;17.1;25.5;0.0;
01/03/2025 10:00:57;100;0;133.64;-4;-20.25;-3.24;652.7;13.20;75852;2837.483;-1801.407;1;135;-110;-103.2;43.7;44.0;17;17.1;25.5;0.0;
01/03/2025 10:01:17;100;0;132.23;-4;-20.35;-3.23;655.1;13.20;75853;2837.481;-1801.404;1;135;-110;-103.2;43.7;44.0;17;16.7;25.4;0.0;
01/03/2025 10:01:37;100;0;131.41;-4;-19.83;-3.32;657.4;13.20;75862;2837.478;-1801.402;1;135;-110;-101.6;43.7;44.0;15;14.9;25.5;0.0;
01/03/2025 10:01:57;100;0;130.37;-4;-20.22;-4.45;659.6;13.20;75835;2837.476;-1801.400;1;135;-110;-101.6;43.7;44.0;15;14.4;25.5;0.0;
01/03/2025 10:02:17;100;0;128.68;-4;-20.31;-4.46;662.0;13.10;75847;2837.473;-1801.397;1;135;-110;-103.2;43.7;44.0;15;14.4;25.5;0.0;
01/03/2025 10:02:37;100;0;126.08;-4;-19.95;-4.41;664.2;13.10;75848;2837.471;-1801.395;1;135;-110;-104.8;43.7;43.9;15;14.4;25.5;0.0;
01/03/2025 10:02:57;100;0;123.90;-4;-19.90;-4.42;666.4;13.10;75835;2837.469;-1801.392;1;135;-110;-101.6;43.7;44.0;15;14.4;25.5;0.0;
01/03/2025 10:03:17;100;0;121.81;-4;-19.83;-4.44;668.7;13.10;75828;2837.467;-1801.390;1;135;-110;-103.2;43.7;44.0;15;14.4;25.5;0.0;
01/03/2025 10:03:37;100;0;121.38;-4;-19.52;-4.40;670.8;13.10;75828;2837.465;-1801.387;1;135;-110;-103.2;43.7;44.0;15;14.4;25.5;0.0;
01/03/2025 10:03:57;100;0;123.02;-4;-20.07;-4.41;673.0;13.00;75813;2837.463;-1801.385;1;135;-110;-101.6;43.7;44.0;15;14.4;25.5;0.0;
01/03/2025 10:04:17;100;0;124.10;-4;-19.68;-4.54;675.2;13.00;75824;2837.460;-1801.382;1;135;-110;-103.2;43.7;44.0;15;14.4;25.5;0.0;
01/03/2025 10:04:37;100;0;122.00;-4;-19.95;-4.44;677.4;13.00;75819;2837.458;-1801.380;1;135;-110;-101.6;43.7;44.0;15;14.4;25.5;0.0;
01/03/2025 10:04:57;100;0;120.19;-4;-19.82;-4.44;679.6;13.00;75816;2837.456;-1801.377;1;135;-110;-103.2;43.7;44.0;15;14.4;25.5;0.0;
01/03/2025 10:05:17;100;0;118.88;-4;-19.71;-4.49;681.7;13.00;75799;2837.455;-1801.375;1;135;-110;-103.2;43.7;44.0;15;14.4;25.5;0.0;
01/03/2025 10:05:37;100;0;121.82;-4;-19.63;-4.46;683.9;13.00;75800;2837.453;-1801.372;1;135;-110;-101.6;43.7;43.9;15;14.4;25.5;0.0;
01/03/2025 10:05:57;100;0;124.34;-4;-19.68;-4.50;686.0;13.00;75798;2837.450;-1801.370;1;135;-110;-103.2;43.7;44.0;15;14.4;25.5;0.0;
01/03/2025 10:06:17;100;0;123.57;-4;-19.68;-4.50;688.2;12.90;75780;2837.448;-1801.368;1;135;-110;-101.6;43.7;44.0;15;14.4;25.5;0.0;
01/03/2025 10:06:37;100;0;124.68;-4;-19.76;-4.43;690.3;12.90;75781;2837.446;-1801.365;1;135;-110;-101.6;43.7;44.0;15;14.4;25.5;0.0;
01/03/2025 10:06:57;100;0;123.83;-4;-19.72;-4.54;692.5;12.90;75757;2837.444;-1801.363;1;135;-110;-101.6;43.7;44.0;15;14.4;25.5;0.0;
01/03/2025 10:07:17;100;0;123.48;-4;-19.82;-4.48;694.7;12.90;75771;2837.442;-1801.360;1;135;-110;-101.6;43.7;44.0;15;14.4;25.5;0.0;
01/03/2025 10:07:37;100;0;125.21;-4;-19.80;-4.45;696.8;12.80;75759;2837.440;-1801.358;1;135;-110;-103.2;43.7;43.9;15;14.4;25.5;0.0;
01/03/2025 10:07:57;100;0;126.07;-4;-19.95;-4.40;699.1;12.80;75747;2837.438;-1801.356;1;135;-110;-101.6;43.7;44.0;15;14.4;25.5;0.0;
01/03/2025 10:08:17;100;0;125.99;-4;-19.70;-4.39;701.2;12.80;75749;2837.435;-1801.353;1;135;-110;-101.6;43.7;44.0;15;14.4;25.5;0.0;
01/03/2025 10:08:37;100;0;128.17;-4;-19.74;-4.45;703.4;12.80;75738;2837.433;-1801.351;1;135;-110;-101.6;43.7;44.0;15;14.4;25.5;0.0;
01/03/2025 10:08:57;100;0;132.95;-4;-19.19;-4.38;705.5;12.80;75749;2837.431;-1801.349;1;135;-110;-101.6;43.7;44.0;17;17.1;25.5;0.0;
01/03/2025 10:09:17;100;0;131.54;-4;-20.15;-3.07;707.6;12.70;75729;2837.428;-1801.347;1;135;-110;-101.6;43.7;44.0;17;17.1;25.5;0.0;
01/03/2025 10:09:37;100;0;130.78;-4;-19.52;-3.04;709.9;12.70;75731;2837.426;-1801.344;1;135;-110;-101.6;43.7;44.0;15;14.4;25.5;0.0;
01/03/2025 10:09:57;100;0;131.90;-4;-19.69;-4.50;712.0;12.70;75725;2837.424;-1801.342;1;135;-110;-103.2;43.7;44.0;15;14.4;25.5;0.0;
01/03/2025 10:10:17;100;0;132.43;-4;-19.95;-4.51;714.1;12.70;75716;2837.421;-1801.340;1;135;-110;-101.6;43.7;44.0;17;17.1;25.5;0.0;
01/03/2025 10:10:37;100;0;132.24;-4;-19.77;-3.02;716.3;12.70;75719;2837.419;-1801.338;1;135;-110;-101.6;43.7;44.0;17;17.6;25.4;0.0;
01/03/2025 10:10:57;100;0;132.21;-4;-19.69;-2.98;718.4;12.60;75706;2837.416;-1801.336;1;135;-110;-103.2;43.7;44.0;17;17.6;25.5;0.0;
01/03/2025 10:11:17;100;0;132.15;-4;-19.81;-3.01;720.5;12.60;75709;2837.414;-1801.334;1;135;-110;-104.8;43.7;44.0;17;17.6;25.4;0.0;
01/03/2025 10:11:37;100;0;132.05;-4;-19.95;-2.94;722.6;12.60;75705;2837.412;-1801.332;1;135;-110;-101.6;43.7;44.0;17;17.6;25.5;0.0;
01/03/2025 10:11:57;100;0;132.64;-4;-20.11;-2.89;724.7;12.60;75695;2837.409;-1801.330;1;135;-110;-101.6;43.7;43.9;17;17.6;25.5;0.0;
01/03/2025 10:12:17;100;0;131.91;-4;-19.78;-2.99;726.8;12.60;75699;2837.407;-1801.328;1;135;-110;-101.6;43.7;43.9;17;17.6;25.5;0.0;
01/03/2025 10:12:37;100;0;132.33;-4;-19.95;-2.90;728.8;12.60;75694;2837.405;-1801.326;1;135;-110;-103.2;43.7;44.0;17;17.6;25.5;0.0;
01/03/2025 10:12:57;100;0;133.13;-4;-19.87;-3.02;730.9;12.50;75692;2837.402;-1801.324;1;135;-110;-103.2;43.7;44.0;17;17.6;25.5;0.0;
01/03/2025 10:13:17;100;0;136.92;-4;-20.23;-2.92;733.0;12.50;75682;2837.400;-1801.322;1;135;-110;-101.6;43.7;43.9;21;21.2;25.5;0.0;
01/03/2025 10:13:37;100;0;139.05;-4;-19.46;-0.78;735.1;12.50;75688;2837.397;-1801.320;1;135;-110;-101.6;43.7;43.9;24;23.9;25.5;0.0;
01/03/2025 10:13:57;100;0;138.75;-4;-20.25;0.40;737.3;12.50;75668;2837.394;-1801.318;1;135;-110;-101.6;43.7;44.0;24;24.4;25.5;0.0;
01/03/2025 10:14:17;100;0;138.72;-4;-20.50;0.41;739.5;12.50;75671;2837.392;-1801.316;1;135;-110;-103.2;43.7;44.0;24;24.4;25.5;0.0;
01/03/2025 10:14:37;100;0;136.90;-4;-20.18;0.49;741.5;12.40;75675;2837.389;-1801.314;1;135;-110;-103.2;43.7;44.0;21;21.2;25.5;0.0;
01/03/2025 10:14:57;100;0;136.18;-4;-19.88;-1.39;743.8;12.40;75662;2837.387;-1801.312;1;135;-110;-101.6;43.7;44.0;19;19.0;25.5;0.0;
01/03/2025 10:15:17;100;0;136.38;-4;-19.85;-2.32;746.0;12.40;75652;2837.384;-1801.310;1;135;-110;-100.0;43.7;44.0;21;21.2;25.5;0.0;
01/03/2025 10:15:37;100;0;135.52;-4;-19.97;-1.00;748.1;12.40;75656;2837.382;-1801.308;1;135;-110;-101.6;43.7;44.0;21;21.7;25.5;0.0;
01/03/2025 10:15:57;100;0;132.86;-4;-19.63;-1.04;750.4;12.40;75654;2837.379;-1801.306;1;135;-110;-103.2;43.7;44.0;17;17.1;25.4;0.0;
01/03/2025 10:16:17;100;0;128.34;-4;-19.51;-3.29;752.6;12.30;75647;2837.377;-1801.304;1;135;-110;-101.6;43.7;43.9;15;14.9;25.4;0.0;
01/03/2025 10:16:37;100;0;126.04;-4;-18.93;-4.41;754.8;12.30;75631;2837.374;-1801.301;1;135;-110;-101.6;44.0;44.0;15;14.9;25.4;0.0;
01/03/2025 10:16:57;100;0;124.16;-4;-19.52;-4.41;756.8;12.30;75628;2837.372;-1801.299;1;135;-130;-130.6;44.0;44.0;15;14.9;25.5;0.0;
01/03/2025 10:17:17;100;0;124.66;-4;-18.65;-4.30;758.9;12.30;75703;2837.370;-1801.297;1;135;-130;-132.3;44.4;44.5;15;14.4;25.5;0.0;
01/03/2025 10:17:37;100;0;126.04;-4;-20.00;-4.32;761.3;12.30;75699;2837.368;-1801.294;1;135;-130;-132.3;44.4;44.6;15;14.9;25.5;0.0;
01/03/2025 10:17:57;100;0;126.63;-4;-20.35;-4.30;763.7;12.20;75683;2837.365;-1801.291;1;135;-130;-133.9;44.4;44.6;15;14.4;25.5;0.0;
01/03/2025 10:18:17;100;0;126.34;-4;-20.74;-4.23;766.3;12.20;75692;2837.363;-1801.289;1;135;-130;-132.3;44.4;44.6;15;14.9;25.5;0.0;
01/03/2025 10:18:37;100;0;127.00;-4;-20.80;-4.23;768.8;12.20;75670;2837.361;-1801.286;1;135;-130;-135.5;44.4;44.6;15;14.9;25.5;0.0;
01/03/2025 10:18:57;100;0;127.59;-4;-20.32;-4.23;771.4;12.20;75670;2837.358;-1801.283;1;135;-130;-132.3;44.4;44.6;15;14.9;25.4;0.0;
01/03/2025 10:19:17;100;0;128.97;-4;-20.54;-4.32;774.0;12.20;75667;2837.355;-1801.281;1;135;-130;-132.3;44.4;44.8;15;14.4;25.5;0.0;
01/03/2025 10:19:37;100;0;130.51;-4;-20.24;-4.31;776.7;12.20;75667;2837.353;-1801.278;1;135;-130;-132.3;44.4;44.8;15;14.4;25.5;0.0;
01/03/2025 10:19:57;100;0;133.16;-4;-20.32;-4.26;779.2;12.10;75658;2837.350;-1801.275;1;135;-130;-132.3;44.4;44.8;17;17.1;25.5;0.0;
01/03/2025 10:20:17;100;0;132.58;-4;-20.54;-2.92;781.7;12.10;75649;2837.347;-1801.273;1;135;-130;-132.3;44.4;44.6;17;17.1;25.5;0.0;
01/03/2025 10:20:37;100;0;131.49;-4;-20.75;-2.93;784.3;12.10;75660;2837.345;-1801.271;1;135;-130;-133.9;44.4;44.6;17;17.1;25.5;0.0;
01/03/2025 10:20:57;100;0;130.44;-4;-20.73;-2.95;786.9;12.10;75646;2837.342;-1801.268;1;135;-130;-133.9;44.4;44.6;17;17.1;25.5;0.0;
01/03/2025 10:21:17;100;0;127.27;-4;-20.92;-3.03;789.5;12.00;75650;2837.339;-1801.265;1;135;-130;-132.3;44.4;44.6;17;17.1;25.5;0.0;
01/03/2025 10:21:37;100;0;123.81;-4;-20.45;-3.00;791.9;12.00;75636;2837.337;-1801.262;1;135;-130;-132.3;44.4;44.8;15;14.9;25.5;0.0;
01/03/2025 10:21:57;100;0;123.64;-4;-20.17;-4.29;794.4;12.00;75642;2837.335;-1801.260;1;135;-130;-132.3;44.4;44.6;15;14.9;25.5;0.0;
01/03/2025 10:22:17;100;0;124.65;-4;-20.35;-4.28;796.8;12.00;75638;2837.332;-1801.257;1;135;-130;-132.3;44.4;44.8;15;14.9;25.5;0.0;
01/03/2025 10:22:37;100;0;126.61;-4;-20.64;-4.19;799.2;12.00;75624;2837.330;-1801.254;1;135;-130;-133.9;44.4;44.6;15;14.9;25.4;0.0;
01/03/2025 10:22:57;100;0;125.03;-4;-20.31;-4.28;801.6;11.90;75610;2837.328;-1801.252;1;135;-130;-132.3;44.4;44.8;15;14.9;25.5;0.0;
01/03/2025 10:23:17;100;0;123.92;-4;-20.35;-4.21;804.0;11.90;75611;2837.326;-1801.249;1;135;-130;-132.3;44.4;44.8;15;14.9;25.5;0.0;
01/03/2025 10:23:37;100;0;120.25;-4;-19.27;-4.94;806.6;11.90;75620;2837.323;-1801.246;1;135;-130;-132.3;44.4;44.8;15;14.9;25.5;0.0;
01/03/2025 10:23:57;100;0;119.87;-4;-20.86;-4.23;808.9;11.90;75600;2837.321;-1801.243;1;135;-130;-133.9;44.4;44.8;15;14.9;25.5;0.0;
01/03/2025 10:24:17;100;0;120.84;-4;-19.83;-4.36;811.3;11.90;75600;2837.319;-1801.241;1;135;-130;-132.3;44.4;44.8;15;14.9;25.5;0.0;
01/03/2025 10:24:37;100;0;120.28;-4;-20.58;-4.16;813.8;11.80;75593;2837.317;-1801.238;1;135;-130;-132.3;44.4;44.8;15;14.9;25.5;0.0;
01/03/2025 10:24:57;100;0;119.59;-4;-20.45;-4.21;816.4;11.80;75585;2837.315;-1801.235;1;135;-130;-135.5;44.4;44.6;15;14.9;25.5;0.0;
01/03/2025 10:25:17;100;0;117.46;-4;-20.56;-4.22;818.9;11.80;75581;2837.313;-1801.232;1;135;-130;-133.9;44.4;44.8;15;14.9;25.4;0.0;
01/03/2025 10:25:37;100;0;114.03;-4;-20.89;-4.32;821.5;11.80;75584;2837.311;-1801.229;1;135;-130;-133.9;44.4;44.6;10;9.9;25.5;0.0;
01/03/2025 10:25:57;100;0;113.09;-4;-20.94;-6.74;824.3;11.80;75566;2837.309;-1801.225;1;135;-130;-133.9;44.4;44.8;10;9.5;25.5;0.0;
01/03/2025 10:26:17;100;0;111.40;-4;-20.48;-6.73;826.8;11.70;75570;2837.307;-1801.222;1;135;-130;-133.9;44.4;44.6;7;7.2;25.4;0.0;
01/03/2025 10:26:37;100;0;110.37;-4;-20.25;-8.12;829.6;11.70;75568;2837.306;-1801.218;1;135;-130;-132.3;44.4;44.8;4;4.1;25.5;0.0;
01/03/2025 10:26:57;100;0;113.06;-4;-19.94;-9.61;832.2;11.70;75574;2837.304;-1801.215;1;135;-130;-132.3;44.4;44.8;9;9.0;25.5;0.0;
01/03/2025 10:27:17;100;0;114.80;-4;-20.08;-6.86;834.8;11.70;75565;2837.302;-1801.212;1;135;-130;-132.3;44.4;44.8;11;10.8;25.4;0.0;
01/03/2025 10:27:37;100;0;115.13;-4;-20.55;-5.82;837.5;11.70;75557;2837.300;-1801.209;1;135;-130;-132.3;44.4;44.8;11;11.3;25.5;0.0;
01/03/2025 10:27:57;100;0;115.68;-4;-20.45;-5.81;840.2;11.60;75544;2837.298;-1801.205;1;135;-130;-132.3;44.4;44.6;11;11.3;25.5;0.0;
01/03/2025 10:28:17;100;0;113.97;-4;-20.48;-5.86;842.8;11.60;75535;2837.296;-1801.202;1;135;-130;-132.3;44.4;44.8;11;11.3;25.5;0.0;
01/03/2025 10:28:37;100;0;114.07;-4;-20.47;-5.93;845.5;11.60;75544;2837.294;-1801.199;1;135;-130;-132.3;44.4;44.8;11;11.3;25.5;0.0;
01/03/2025 10:28:58;100;0;113.59;-4;-21.15;-5.67;848.3;11.60;75541;2837.292;-1801.195;1;135;-130;-132.3;44.4;44.6;9;9.0;25.5;0.0;
01/03/2025 10:29:18;100;0;113.58;-4;-19.99;-7.27;851.1;11.60;75537;2837.290;-1801.192;1;135;-130;-133.9;44.4;44.6;9;8.6;25.5;0.0;
01/03/2025 10:29:38;100;0;113.71;-4;-20.46;-7.27;853.7;11.50;75519;2837.288;-1801.188;1;135;-130;-132.3;44.4;44.8;9;8.6;25.5;0.0;
01/03/2025 10:29:58;100;0;116.81;-4;-20.03;-7.26;856.5;11.50;75522;2837.286;-1801.185;1;135;-130;-132.3;44.4;44.8;12;12.6;25.4;0.0;
01/03/2025 10:30:18;100;0;117.46;-4;-20.21;-5.02;859.1;11.50;75512;2837.284;-1801.182;1;135;-130;-132.3;44.4;44.8;12;12.6;25.5;0.0;
01/03/2025 10:30:38;100;0;118.39;-4;-20.17;-5.05;861.8;11.50;75510;2837.282;-1801.179;1;135;-130;-132.3;44.4;44.6;12;13.1;25.5;0.0;
01/03/2025 10:30:58;100;0;121.54;-4;-20.05;-5.14;864.5;11.50;75501;2837.279;-1801.175;1;135;-130;-132.3;44.4;44.8;14;14.0;25.5;0.0;
01/03/2025 10:31:18;100;0;126.64;-4;-20.43;-4.25;867.0;11.40;75500;2837.277;-1801.173;1;135;-130;-133.9;44.4;44.8;14;14.4;25.5;0.0;
01/03/2025 10:31:38;100;0;128.03;-4;-20.24;-4.28;869.6;11.40;75493;2837.274;-1801.170;1;135;-130;-132.3;44.4;44.8;14;14.4;25.5;0.0;
01/03/2025 10:31:58;100;0;128.50;-4;-20.48;-4.19;872.3;11.40;75486;2837.271;-1801.167;1;135;-130;-133.9;44.4;44.6;14;14.4;25.4;0.0;
01/03/2025 10:32:18;100;0;129.12;-4;-20.56;-4.21;875.0;11.40;75486;2837.269;-1801.164;1;135;-130;-132.3;44.4;44.8;14;14.4;25.4;0.0;
01/03/2025 10:32:38;100;0;127.17;-4;-20.47;-4.35;877.8;11.30;75474;2837.266;-1801.161;1;135;-130;-133.9;44.4;44.8;14;14.4;25.5;0.0;
01/03/2025 10:32:58;100;0;125.43;-4;-20.74;-4.25;880.5;11.30;75473;2837.263;-1801.158;1;135;-130;-132.3;44.4;44.6;14;14.4;25.4;0.0;
01/03/2025 10:33:18;100;0;124.12;-4;-20.16;-4.41;883.2;11.30;75463;2837.261;-1801.155;1;135;-130;-132.3;44.4;44.8;14;14.4;25.4;0.0;
01/03/2025 10:33:38;100;0;125.28;-4;-19.93;-4.30;885.8;11.30;75469;2837.259;-1801.152;1;135;-130;-133.9;44.4;44.8;14;14.4;25.5;0.0;
01/03/2025 10:33:58;100;0;127.72;-4;-20.23;-4.31;888.4;11.30;75465;2837.256;-1801.150;1;135;-130;-132.3;44.4;44.6;14;14.4;25.5;0.0;
01/03/2025 10:34:18;100;0;129.34;-4;-20.23;-4.28;891.0;11.20;75454;2837.253;-1801.147;1;135;-130;-135.5;44.4;44.6;14;14.4;25.5;0.0;
01/03/2025 10:34:38;100;0;129.88;-4;-20.05;-4.37;893.5;11.20;75465;2837.251;-1801.144;1;135;-130;-132.3;44.4;44.8;14;14.4;25.5;0.0;
01/03/2025 10:34:58;100;0;128.64;-4;-20.09;-4.28;896.0;11.20;75451;2837.248;-1801.142;1;135;-130;-132.3;44.4;44.8;14;14.4;25.5;0.0;
01/03/2025 10:35:18;100;0;130.14;-4;-20.21;-4.29;898.4;11.20;75441;2837.245;-1801.139;1;135;-130;-137.1;44.4;44.8;14;14.4;25.4;0.0;
01/03/2025 10:35:38;100;0;135.90;-4;-20.22;-4.23;901.1;11.20;75431;2837.243;-1801.137;1;135;-130;-133.9;44.4;44.8;18;18.1;25.5;0.0;
01/03/2025 10:35:58;100;0;135.75;-4;-20.54;-2.35;903.5;11.10;75418;2837.240;-1801.134;1;135;-130;-133.9;44.4;44.8;18;18.5;25.5;0.0;
01/03/2025 10:36:18;100;0;133.92;-4;-20.32;-2.39;906.2;11.10;75422;2837.237;-1801.132;1;135;-130;-133.9;44.4;44.8;18;18.1;25.5;0.0;
01/03/2025 10:36:38;100;0;132.94;-4;-20.15;-2.42;908.8;11.10;75422;2837.234;-1801.129;1;135;-130;-132.3;44.4;44.8;16;15.8;25.5;0.0;
01/03/2025 10:36:58;100;0;133.55;-4;-19.97;-3.76;911.2;11.10;75412;2837.231;-1801.127;1;135;-130;-132.3;44.4;44.8;16;15.8;25.5;0.0;
01/03/2025 10:37:18;100;0;135.17;-4;-19.63;-3.85;913.6;11.10;75410;2837.229;-1801.125;1;135;-130;-132.3;44.4;44.8;16;15.8;25.5;0.0;
01/03/2025 10:37:38;100;0;134.75;-4;-19.84;-3.86;915.9;11.00;75390;2837.226;-1801.122;1;135;-130;-133.9;44.4;44.6;18;18.1;25.4;0.0;
01/03/2025 10:37:58;100;0;132.08;-4;-19.97;-2.36;918.3;11.00;75394;2837.223;-1801.120;1;135;-130;-132.3;44.4;44.6;16;15.8;25.5;0.0;
01/03/2025 10:38:18;100;0;127.74;-4;-19.99;-3.84;920.6;11.00;75388;2837.221;-1801.118;1;135;-130;-135.5;44.4;44.8;16;15.8;25.5;0.0;
01/03/2025 10:38:38;100;0;126.62;-4;-20.22;-3.82;923.0;11.00;75377;2837.219;-1801.115;1;135;-130;-132.3;44.4;44.8;16;15.8;25.5;0.0;
01/03/2025 10:38:58;100;0;125.03;-4;-19.69;-3.85;925.4;10.90;75376;2837.216;-1801.112;1;135;-130;-133.9;44.4;44.6;16;15.8;25.4;0.0;
01/03/2025 10:39:18;100;0;125.39;-4;-20.38;-3.70;927.9;10.90;75376;2837.214;-1801.110;1;135;-130;-133.9;44.4;44.8;16;15.8;25.5;0.0;
01/03/2025 10:39:38;100;0;126.24;-4;-20.16;-3.67;930.4;10.90;75365;2837.211;-1801.107;1;135;-130;-133.9;44.4;44.8;16;15.8;25.4;0.0;
01/03/2025 10:39:58;100;0;127.33;-4;-20.29;-3.71;932.9;10.90;75371;2837.209;-1801.104;1;135;-130;-132.3;44.4;44.8;16;15.8;25.5;0.0;
01/03/2025 10:40:18;100;0;127.65;-4;-20.66;-3.73;935.4;10.90;75360;2837.206;-1801.102;1;135;-130;-132.3;44.4;44.8;16;15.8;25.4;0.0;
01/03/2025 10:40:38;100;0;124.83;-4;-19.42;-3.71;938.2;10.90;75347;2837.204;-1801.098;1;135;-130;-133.9;44.4;44.8;16;15.8;25.5;0.0;
01/03/2025 10:40:58;100;0;123.82;-4;-20.02;-3.79;940.7;10.80;75352;2837.201;-1801.095;1;135;-130;-132.3;44.4;44.8;16;15.8;25.5;0.0;
01/03/2025 10:41:18;100;0;122.03;-4;-20.16;-3.66;943.0;10.80;75352;2837.199;-1801.093;1;135;-130;-132.3;44.4;44.8;16;15.8;25.5;0.0;
01/03/2025 10:41:38;100;0;122.24;-4;-19.73;-3.70;945.7;10.80;75334;2837.197;-1801.090;1;135;-130;-133.9;44.4;44.8;16;15.8;25.4;0.0;
01/03/2025 10:41:58;100;0;122.11;-4;-19.99;-3.73;948.1;10.80;75336;2837.195;-1801.087;1;135;-130;-132.3;44.4;44.8;16;15.8;25.4;0.0;
01/03/2025 10:42:18;100;0;121.54;-4;-19.92;-3.83;950.5;10.70;75328;2837.193;-1801.084;1;135;-130;-133.9;44.4;44.8;16;15.8;25.5;0.0;
01/03/2025 10:42:38;100;0;121.72;-4;-19.94;-3.74;952.9;10.70;75332;2837.190;-1801.081;1;135;-130;-133.9;44.4;44.6;16;15.8;25.5;0.0;
01/03/2025 10:42:58;100;0;121.34;-4;-20.03;-3.72;955.4;10.70;75325;2837.188;-1801.078;1;135;-130;-133.9;44.4;44.8;16;15.8;25.5;0.0;
01/03/2025 10:43:18;100;0;121.38;-4;-19.89;-3.77;958.0;10.70;75320;2837.186;-1801.075;1;135;-130;-132.3;44.4;44.6;16;15.8;25.4;0.0;
01/03/2025 10:43:38;100;0;120.71;-4;-19.94;-3.78;960.4;10.60;75314;2837.184;-1801.073;1;135;-130;-132.3;44.4;44.8;16;15.8;25.5;0.0;
01/03/2025 10:43:58;100;0;120.85;-4;-19.78;-3.70;962.9;10.60;75312;2837.182;-1801.070;1;135;-130;-133.9;44.4;44.8;16;15.8;25.4;0.0;
01/03/2025 10:44:18;100;0;119.68;-4;-19.88;-3.73;965.5;10.60;75308;2837.179;-1801.067;1;135;-130;-133.9;44.4;44.6;14;14.0;25.4;0.0;
