Timestamp;NavState;SecurityLevel;Heading;Declination;Pitch;Roll;Depth;Temperature;Pa;Lat;Lon;DeadReckoning;DesiredH;BallastCmd;BallastPos;LinCmd;LinPos;AngCmd;AngPos;Voltage;Altitude;
20/02/2025 19:37:22;119;0;149.62;-4;-40.37;-8.82;-0.1;17.70;75744;2834.784;-1756.814;0;79;500;509.7;100.0;100.4;0;0.5;27.4;-1.0;
20/02/2025 19:37:32;116;0;161.55;-4;-63.01;-11.75;0.1;17.70;75730;2834.776;-1756.845;0;72;500;509.7;100.0;100.4;0;0.5;27.4;-1.0;
20/02/2025 19:37:57;116;0;160.08;-4;-55.75;-16.54;-0.1;17.80;75750;2834.783;-1756.851;0;73;500;511.3;100.0;100.6;0;0.5;27.4;-1.0;
20/02/2025 19:38:17;116;0;160.16;-4;-56.07;-11.90;-0.1;17.90;75761;2834.783;-1756.852;0;77;500;509.7;100.0;100.6;0;0.0;27.4;-1.0;
20/02/2025 19:38:38;116;0;170.76;-4;-55.95;-21.07;-0.2;17.90;75762;2834.780;-1756.852;0;77;500;511.3;100.0;100.4;0;0.5;27.4;-1.0;
20/02/2025 19:38:58;116;0;141.49;-4;-53.17;-8.27;-0.1;18.00;75768;2834.773;-1756.855;0;75;500;509.7;100.0;100.4;0;0.5;27.4;-1.0;
20/02/2025 19:40:00;116;0;160.11;-4;-63.18;-25.99;-0.1;18.10;75786;2834.772;-1756.860;0;73;500;509.7;100.0;100.4;0;0.5;27.4;-1.0;
20/02/2025 19:40:36;116;0;158.23;-4;-51.40;-17.33;-0.1;18.30;75805;2834.775;-1756.860;0;73;500;511.3;100.0;100.4;0;0.0;27.4;-1.0;
20/02/2025 19:41:39;116;0;143.86;-4;-49.01;-3.59;-0.1;18.50;75823;2834.780;-1756.863;0;74;500;511.3;100.0;100.4;0;0.0;27.4;-1.0;
20/02/2025 19:43:19;116;0;149.02;-4;-56.50;-13.49;-0.2;18.90;75860;2834.788;-1756.869;0;76;500;509.7;100.0;100.4;0;0.0;27.4;-1.0;
20/02/2025 19:43:30;116;0;163.67;-4;-55.14;-12.11;-0.3;19.00;75864;2834.789;-1756.868;0;80;500;509.7;100.0;100.4;0;0.5;27.4;-1.0;
20/02/2025 19:43:50;110;0;158.85;-4;-54.19;-15.79;0.2;19.00;75863;2834.789;-1756.868;0;80;-70;395.2;100.0;100.4;-7;-7.2;27.4;-1.0;
20/02/2025 19:44:00;110;0;157.24;-4;-61.66;-16.10;0.3;19.10;76208;2834.789;-1756.869;1;80;-70;245.2;100.0;100.4;-7;-7.2;27.4;-1.0;
20/02/2025 19:44:10;110;0;145.40;-4;-56.31;-10.20;0.7;19.10;76456;2834.789;-1756.869;1;80;-70;85.5;100.0;100.6;-7;-7.7;27.4;-1.0;
20/02/2025 19:44:20;110;0;146.49;-4;-62.56;-17.03;1.1;19.20;76788;2834.789;-1756.869;1;80;-70;-69.4;100.0;100.6;-7;-7.2;27.4;-1.0;
20/02/2025 19:44:30;110;0;136.16;-4;-61.28;-18.07;1.5;19.20;77104;2834.789;-1756.869;1;80;-70;-69.4;43.6;43.4;-7;-7.2;27.4;-1.0;
20/02/2025 19:44:50;100;0;152.81;-4;-30.11;-15.36;4.8;19.30;77077;2834.787;-1756.867;1;79;-70;-67.7;43.6;43.2;-7;-7.2;27.4;-1.0;
20/02/2025 19:45:10;100;0;155.89;-4;-21.83;-15.59;8.0;19.30;77083;2834.784;-1756.866;1;78;-70;-64.5;43.6;43.2;70;70.4;27.4;-1.0;
20/02/2025 19:45:30;100;0;146.67;-4;-24.17;23.77;11.0;19.40;77093;2834.781;-1756.864;1;77;-70;-64.5;42.3;42.3;70;70.4;27.4;-1.0;
20/02/2025 19:45:50;100;0;132.23;-4;-21.48;23.87;13.9;19.30;77091;2834.779;-1756.861;1;76;-70;-67.7;42.3;42.1;70;70.4;27.4;0.0;
20/02/2025 19:46:10;100;0;120.75;-4;-20.94;23.99;16.7;19.40;77096;2834.778;-1756.858;1;75;-70;-64.5;42.3;42.1;61;60.9;27.4;0.0;
20/02/2025 19:46:30;100;0;109.90;-4;-20.47;18.29;19.3;19.40;77093;2834.777;-1756.855;1;74;-70;-64.5;42.3;42.1;47;46.9;27.4;0.0;
20/02/2025 19:46:50;100;0;101.01;-4;-20.36;11.34;21.9;19.40;77096;2834.777;-1756.851;1;74;-70;-64.5;42.3;42.0;31;31.1;27.4;0.0;
20/02/2025 19:47:10;100;0;94.95;-4;-20.00;3.59;24.4;19.40;77097;2834.777;-1756.848;1;73;-70;-64.5;42.3;42.0;23;23.0;27.4;0.0;
20/02/2025 19:47:30;100;0;91.24;-4;-19.44;-0.54;26.8;19.40;77097;2834.777;-1756.844;1;73;-70;-64.5;42.3;42.0;19;19.0;27.4;0.0;
20/02/2025 19:47:50;100;0;89.41;-4;-19.37;-2.59;29.4;19.40;77104;2834.777;-1756.841;1;73;-70;-62.9;42.3;42.0;17;17.1;27.4;0.0;
20/02/2025 19:48:10;100;0;86.89;-4;-19.18;-3.39;31.9;19.40;77115;2834.778;-1756.837;1;72;-70;-64.5;42.3;42.0;17;16.7;27.4;0.0;
20/02/2025 19:48:30;100;0;84.53;-4;-18.97;-3.32;34.4;19.40;77120;2834.779;-1756.834;1;72;-70;-64.5;42.6;42.6;15;14.4;27.4;0.0;
20/02/2025 19:48:50;100;0;82.13;-4;-19.80;-4.52;37.0;19.40;77112;2834.779;-1756.830;1;72;-70;-64.5;42.6;42.9;15;14.4;27.4;0.0;
20/02/2025 19:49:10;100;0;82.17;-4;-19.87;-4.47;39.5;19.50;77117;2834.780;-1756.827;1;72;-70;-64.5;42.6;42.9;15;14.4;27.4;0.0;
20/02/2025 19:49:30;100;0;81.85;-4;-19.77;-4.46;42.1;19.50;77122;2834.781;-1756.823;1;72;-70;-64.5;42.6;42.9;15;14.4;27.4;0.0;
20/02/2025 19:49:50;100;0;81.35;-4;-19.91;-4.43;44.8;19.50;77122;2834.782;-1756.820;1;72;-70;-64.5;42.6;42.9;15;14.4;27.4;0.0;
20/02/2025 19:50:10;100;0;82.07;-4;-19.97;-4.48;47.4;19.50;77132;2834.783;-1756.816;1;72;-70;-62.9;42.6;42.9;15;14.4;27.4;0.0;
20/02/2025 19:50:30;100;0;81.28;-4;-20.02;-4.39;50.1;19.50;77135;2834.784;-1756.813;1;72;-70;-64.5;42.6;42.9;15;14.4;27.4;0.0;
20/02/2025 19:50:50;100;0;81.63;-4;-19.74;-4.42;52.8;19.50;77132;2834.784;-1756.809;1;72;-70;-64.5;42.6;42.9;15;14.4;27.4;0.0;
20/02/2025 19:51:10;100;0;82.02;-4;-20.00;-4.43;55.5;19.50;77135;2834.785;-1756.805;1;71;-70;-64.5;42.6;42.9;15;14.4;27.4;0.0;
20/02/2025 19:51:30;100;0;81.28;-4;-19.96;-4.41;58.1;19.50;77140;2834.786;-1756.802;1;71;-70;-64.5;42.6;42.9;15;14.4;27.4;0.0;
20/02/2025 19:51:50;100;0;80.38;-4;-19.91;-4.46;60.7;19.50;77143;2834.787;-1756.798;1;71;-70;-64.5;42.6;42.9;15;14.4;27.4;0.0;
20/02/2025 19:52:10;100;0;79.90;-4;-19.81;-4.40;63.4;19.50;77154;2834.788;-1756.795;1;71;-70;-64.5;42.6;42.9;15;14.4;27.4;0.0;
20/02/2025 19:52:30;100;0;80.27;-4;-19.88;-4.45;66.0;19.50;77159;2834.789;-1756.791;1;71;-70;-62.9;42.6;42.9;15;14.4;27.4;0.0;
20/02/2025 19:52:50;100;0;80.10;-4;-19.66;-4.46;68.6;19.50;77157;2834.790;-1756.788;1;71;-70;-62.9;42.6;43.0;15;14.4;27.4;0.0;
20/02/2025 19:53:10;100;0;79.82;-4;-19.94;-4.41;71.1;19.50;77162;2834.791;-1756.784;1;71;-70;-64.5;42.6;42.9;15;14.4;27.4;0.0;
20/02/2025 19:53:30;100;0;79.44;-4;-19.90;-4.41;73.8;19.50;77165;2834.792;-1756.781;1;71;-70;-64.5;42.6;42.9;15;14.4;27.4;0.0;
20/02/2025 19:53:50;100;0;78.66;-4;-19.76;-4.48;76.4;19.50;77162;2834.793;-1756.777;1;71;-70;-62.9;42.6;42.9;15;14.4;27.4;0.0;
20/02/2025 19:54:10;100;0;78.60;-4;-19.74;-4.39;78.9;19.50;77168;2834.794;-1756.774;1;71;-70;-64.5;42.6;43.0;15;14.4;27.4;0.0;
20/02/2025 19:54:30;100;0;77.92;-4;-19.63;-4.38;81.5;19.50;77168;2834.795;-1756.770;1;71;-70;-64.5;42.6;42.9;15;14.4;27.4;0.0;
20/02/2025 19:54:50;100;0;77.69;-4;-19.82;-4.42;84.0;19.50;77176;2834.796;-1756.767;1;71;-70;-62.9;42.6;42.9;15;14.4;27.4;0.0;
20/02/2025 19:55:10;100;0;77.96;-4;-19.44;-4.47;86.5;19.50;77179;2834.797;-1756.764;1;71;-70;-62.9;42.6;42.9;15;14.4;27.4;0.0;
20/02/2025 19:55:30;100;0;76.97;-4;-19.45;-4.47;88.8;19.50;77179;2834.798;-1756.761;1;71;-70;-64.5;42.6;42.9;15;14.4;27.4;0.0;
20/02/2025 19:55:50;100;0;76.36;-4;-19.63;-4.47;91.2;19.50;77185;2834.799;-1756.758;1;71;-70;-64.5;42.6;42.9;15;14.4;27.4;0.0;
20/02/2025 19:56:10;100;0;76.25;-4;-19.51;-4.45;93.7;19.50;77195;2834.800;-1756.754;1;71;-70;-62.9;42.6;42.9;15;14.4;27.4;0.0;
20/02/2025 19:56:30;100;0;75.70;-4;-19.38;-4.53;96.0;19.50;77190;2834.801;-1756.751;1;71;-70;-64.5;42.6;42.9;15;14.4;27.4;0.0;
20/02/2025 19:56:50;100;0;75.99;-4;-19.53;-4.46;98.3;19.50;77197;2834.802;-1756.748;1;72;-70;-64.5;42.6;42.9;15;14.4;27.4;0.0;
20/02/2025 19:57:10;100;0;80.00;-4;-18.19;-4.76;100.7;19.50;77191;2834.803;-1756.745;1;72;-70;-64.5;43.2;43.3;15;14.4;27.4;0.0;
20/02/2025 19:57:30;100;0;83.21;-4;-21.00;-4.49;103.0;19.50;77185;2834.804;-1756.742;1;71;-70;-64.5;43.2;43.6;15;14.4;27.4;0.0;
20/02/2025 19:57:50;100;0;84.26;-4;-21.43;-4.34;105.6;19.50;77174;2834.805;-1756.738;1;70;-70;-64.5;43.2;43.6;15;14.4;27.4;0.0;
20/02/2025 19:58:10;100;0;84.73;-4;-21.19;-4.45;108.3;19.50;77174;2834.805;-1756.735;1;69;-70;-64.5;43.2;43.6;17;17.1;27.4;0.0;
20/02/2025 19:58:30;100;0;81.98;-4;-21.44;-2.85;111.0;19.50;77174;2834.806;-1756.731;1;67;-70;-64.5;43.2;43.6;17;17.6;27.4;0.0;
20/02/2025 19:58:50;100;0;79.25;-4;-20.81;-2.84;113.8;19.50;77175;2834.807;-1756.728;1;66;-70;-64.5;43.2;43.6;17;17.6;27.4;0.0;
20/02/2025 19:59:10;100;0;77.07;-4;-20.71;-2.85;116.3;19.50;77163;2834.808;-1756.724;1;64;-70;-67.7;43.2;43.6;17;17.6;27.4;0.0;
20/02/2025 19:59:30;100;0;75.78;-4;-20.79;-2.83;119.0;19.50;77175;2834.809;-1756.721;1;59;-70;-64.5;43.2;43.6;17;17.6;27.4;0.0;
20/02/2025 19:59:50;100;0;77.98;-4;-20.48;-2.89;121.6;19.50;77156;2834.810;-1756.718;1;335;-70;-64.5;43.2;43.6;70;69.9;27.4;0.0;
20/02/2025 20:00:10;100;0;72.03;-4;-22.94;23.49;124.3;19.50;77156;2834.812;-1756.715;1;257;-70;-64.5;42.3;41.8;-70;-69.9;27.4;0.0;
20/02/2025 20:00:30;100;0;79.36;-4;-16.14;-46.05;127.0;19.40;77142;2834.813;-1756.710;1;255;-70;-61.3;43.4;43.4;-70;-70.4;27.4;0.0;
20/02/2025 20:00:50;100;0;90.55;-4;-18.06;-45.45;129.6;19.40;77123;2834.813;-1756.707;1;258;-70;-62.9;44.0;44.0;-70;-70.4;27.4;0.0;
20/02/2025 20:01:10;100;0;100.68;-4;-20.23;-45.27;132.3;19.40;77115;2834.813;-1756.703;1;262;-70;-62.9;44.0;44.2;-70;-70.4;27.4;0.0;
20/02/2025 20:01:30;100;0;113.35;-4;-19.81;-45.40;135.1;19.40;77096;2834.812;-1756.699;1;267;-70;-61.3;44.0;44.3;-70;-70.4;27.4;0.0;
20/02/2025 20:01:50;100;0;123.81;-4;-19.99;-45.25;138.0;19.40;77084;2834.810;-1756.696;1;273;-70;-66.1;44.0;44.2;-70;-70.4;27.4;0.0;
20/02/2025 20:02:10;100;0;137.94;-4;-19.96;-45.79;140.8;19.40;77081;2834.808;-1756.694;1;279;-70;-62.9;44.0;44.2;-70;-70.4;27.4;0.0;
20/02/2025 20:02:30;100;0;152.80;-4;-19.74;-45.45;143.7;19.30;77068;2834.805;-1756.692;1;285;-70;-61.3;44.0;44.2;-70;-70.4;27.4;0.0;
20/02/2025 20:02:50;100;0;168.73;-4;-19.95;-45.73;146.5;19.30;77063;2834.802;-1756.691;1;292;-70;-62.9;44.0;44.3;-70;-70.4;27.4;0.0;
20/02/2025 20:03:10;100;0;183.48;-4;-19.96;-45.58;149.5;19.30;77042;2834.798;-1756.692;1;299;-70;-61.3;44.0;44.2;-70;-70.4;27.4;0.0;
20/02/2025 20:03:30;100;0;197.41;-4;-19.52;-45.63;152.3;19.30;77040;2834.795;-1756.693;1;307;-70;-61.3;44.0;44.3;-70;-70.4;27.4;0.0;
20/02/2025 20:03:50;100;0;210.00;-4;-20.23;-45.42;155.4;19.30;77024;2834.792;-1756.696;1;314;-70;-61.3;44.0;44.2;-70;-70.4;27.4;0.0;
20/02/2025 20:04:10;100;0;221.51;-4;-19.92;-45.40;158.4;19.20;77017;2834.789;-1756.699;1;322;-70;-62.9;44.0;44.2;-70;-70.4;27.4;0.0;
20/02/2025 20:04:30;100;0;230.45;-4;-19.11;-44.98;161.4;19.20;77008;2834.787;-1756.703;1;331;-70;-61.3;44.0;44.3;-70;-70.4;27.4;0.0;
20/02/2025 20:04:50;100;0;241.88;-4;-19.60;-45.52;164.3;19.20;76989;2834.786;-1756.707;1;339;-70;-62.9;44.0;44.3;-70;-70.4;27.4;0.0;
20/02/2025 20:05:10;100;0;252.37;-4;-19.79;-45.43;167.0;19.10;76978;2834.785;-1756.711;1;346;-70;-62.9;44.0;44.2;-70;-70.4;27.4;0.0;
20/02/2025 20:05:30;100;0;265.02;-4;-19.98;-45.48;169.8;19.10;76975;2834.785;-1756.715;1;355;-70;-62.9;44.0;44.2;-70;-70.4;27.4;0.0;
20/02/2025 20:05:50;100;0;277.13;-4;-20.64;-45.80;172.8;19.10;76959;2834.786;-1756.720;1;3;-70;-62.9;44.0;44.3;-70;-70.4;27.4;0.0;
20/02/2025 20:06:10;100;0;293.38;-4;-19.16;-45.71;175.8;19.10;76937;2834.788;-1756.724;1;13;-70;-61.3;44.0;44.3;-70;-70.4;27.4;0.0;
20/02/2025 20:06:30;100;0;305.96;-4;-19.33;-45.61;178.8;19.00;76918;2834.791;-1756.728;1;23;-70;-61.3;44.0;44.2;-70;-70.4;27.4;0.0;
20/02/2025 20:06:50;100;0;317.84;-4;-19.23;-45.29;181.7;19.00;76901;2834.794;-1756.731;1;34;-70;-62.9;44.0;44.2;-70;-70.4;27.4;0.0;
20/02/2025 20:07:10;100;0;328.71;-4;-19.31;-45.38;184.4;19.00;76895;2834.797;-1756.734;1;45;-70;-62.9;44.0;44.2;-70;-70.4;27.4;0.0;
20/02/2025 20:07:30;100;0;339.48;-4;-19.47;-45.26;187.2;18.90;76875;2834.801;-1756.735;1;57;-70;-62.9;44.0;44.2;-70;-70.4;27.4;0.0;
20/02/2025 20:07:50;100;0;353.01;-4;-19.30;-45.94;189.7;18.90;76876;2834.805;-1756.736;1;69;-70;-61.3;44.0;44.3;-70;-70.4;27.4;0.0;
20/02/2025 20:08:10;100;0;4.74;-4;-19.76;-45.49;192.4;18.90;76859;2834.809;-1756.736;1;81;-70;-62.9;44.0;44.2;-70;-70.4;27.4;0.0;
20/02/2025 20:08:30;100;0;16.56;-4;-19.56;-45.44;195.1;18.80;76840;2834.812;-1756.735;1;95;-70;-62.9;44.0;44.2;-70;-70.4;27.4;0.0;
20/02/2025 20:08:50;100;0;27.92;-4;-19.57;-45.47;197.9;18.80;76822;2834.816;-1756.733;1;109;-70;-61.3;44.0;44.2;-70;-69.9;27.4;0.0;
20/02/2025 20:09:10;100;0;40.37;-4;-19.58;-45.40;200.6;18.70;76819;2834.819;-1756.731;1;124;-70;-62.9;44.0;44.2;-70;-70.4;27.4;0.0;
20/02/2025 20:09:30;100;0;52.85;-4;-19.15;-45.57;203.4;18.70;76811;2834.821;-1756.728;1;140;-70;-61.3;44.0;44.2;-70;-69.9;27.4;0.0;
20/02/2025 20:09:50;100;0;65.01;-4;-19.13;-45.68;206.0;18.70;76799;2834.823;-1756.725;1;154;-70;-61.3;44.0;44.2;-70;-70.4;27.4;0.0;
20/02/2025 20:10:10;100;0;78.04;-4;-19.40;-45.43;208.5;18.60;76784;2834.824;-1756.721;1;168;-70;-62.9;44.0;44.2;-70;-70.4;27.4;0.0;
20/02/2025 20:10:30;100;0;91.84;-4;-19.29;-45.55;211.1;18.60;76785;2834.824;-1756.718;1;182;-70;-61.3;44.0;44.2;-70;-70.4;27.4;0.0;
20/02/2025 20:10:50;100;0;105.52;-4;-19.17;-45.55;213.7;18.50;76784;2834.824;-1756.714;1;195;-70;-62.9;44.0;44.2;-70;-70.4;27.4;0.0;
20/02/2025 20:11:10;100;0;119.35;-4;-19.22;-45.49;216.3;18.50;76771;2834.823;-1756.711;1;208;-70;-61.3;44.0;44.3;-70;-70.4;27.4;0.0;
20/02/2025 20:11:30;100;0;131.03;-4;-19.58;-45.39;218.8;18.50;76777;2834.821;-1756.708;1;221;-70;-59.7;44.0;44.2;-70;-70.4;27.4;0.0;
20/02/2025 20:11:50;100;0;142.31;-4;-19.67;-45.39;221.4;18.40;76759;2834.819;-1756.706;1;234;-70;-62.9;44.0;44.3;-70;-70.4;27.4;0.0;
20/02/2025 20:12:11;100;0;149.77;-4;-20.23;-45.20;224.1;18.40;76743;2834.816;-1756.705;1;248;-70;-62.9;44.0;44.2;-70;-70.4;27.4;0.0;
20/02/2025 20:12:31;100;0;161.38;-4;-19.44;-45.48;226.8;18.30;76730;2834.813;-1756.704;1;261;-70;-61.3;44.0;44.2;-70;-70.4;27.4;0.0;
20/02/2025 20:12:51;100;0;172.18;-4;-19.49;-45.31;229.4;18.30;76721;2834.810;-1756.703;1;275;-70;-62.9;44.0;44.3;-70;-70.4;27.4;0.0;
20/02/2025 20:13:11;100;0;183.36;-4;-19.45;-45.35;232.0;18.30;76689;2834.807;-1756.704;1;289;-70;-62.9;44.0;44.3;-70;-70.4;27.4;0.0;
20/02/2025 20:13:31;100;0;195.43;-4;-19.17;-45.35;234.7;18.20;76688;2834.804;-1756.705;1;303;-70;-61.3;44.0;44.3;-70;-70.4;27.4;0.0;
20/02/2025 20:13:51;100;0;208.67;-4;-19.24;-45.59;237.2;18.20;76676;2834.801;-1756.707;1;316;-70;-61.3;44.0;44.2;-70;-70.4;27.4;0.0;
20/02/2025 20:14:11;100;0;223.60;-4;-19.13;-45.94;239.9;18.10;76667;2834.799;-1756.710;1;330;-70;-62.9;44.0;44.2;-70;-70.4;27.4;0.0;
20/02/2025 20:14:31;100;0;237.36;-4;-19.08;-45.53;242.6;18.10;76655;2834.797;-1756.714;1;345;-70;-62.9;44.0;44.3;-70;-70.4;27.4;0.0;
20/02/2025 20:14:51;100;0;250.37;-4;-19.14;-45.40;245.2;18.00;76649;2834.796;-1756.718;1;359;-70;-62.9;44.0;44.2;-70;-70.4;27.4;0.0;
20/02/2025 20:15:11;100;0;262.57;-4;-19.23;-45.33;247.7;18.00;76633;2834.796;-1756.722;1;13;-70;-62.9;44.0;44.3;-70;-70.4;27.4;0.0;
20/02/2025 20:15:31;100;0;275.14;-4;-19.14;-45.49;250.4;18.00;76622;2834.797;-1756.726;1;27;-70;-61.3;44.0;44.2;-70;-70.4;27.4;0.0;
20/02/2025 20:15:51;100;0;288.47;-4;-19.03;-45.41;253.0;17.90;76627;2834.798;-1756.730;1;40;-70;-61.3;44.0;44.2;-70;-70.4;27.4;0.0;
20/02/2025 20:16:11;100;0;300.98;-4;-19.05;-45.37;255.7;17.90;76615;2834.801;-1756.734;1;53;-70;-61.3;44.0;44.3;-70;-70.4;27.4;0.0;
20/02/2025 20:16:31;100;0;311.86;-4;-19.29;-45.40;258.3;17.80;76603;2834.803;-1756.737;1;65;-70;-62.9;44.0;44.2;-70;-70.4;27.4;0.0;
20/02/2025 20:16:51;100;0;325.22;-4;-18.97;-45.37;260.8;17.80;76585;2834.807;-1756.739;1;77;-70;-62.9;44.3;44.3;-70;-70.4;27.4;0.0;
20/02/2025 20:17:11;100;0;339.53;-4;-20.03;-45.58;263.5;17.80;76576;2834.810;-1756.741;1;88;-70;-62.9;44.3;44.6;-70;-70.4;27.4;0.0;
20/02/2025 20:17:31;100;0;350.72;-4;-20.56;-45.38;266.3;17.70;76567;2834.814;-1756.742;1;98;-70;-61.3;44.3;44.6;-70;-70.4;27.4;0.0;
20/02/2025 20:17:51;100;0;3.09;-4;-19.90;-45.26;269.2;17.70;76549;2834.818;-1756.742;1;108;-70;-61.3;44.3;44.6;-70;-70.4;27.4;0.0;
20/02/2025 20:18:11;100;0;16.24;-4;-20.25;-45.51;272.1;17.60;76539;2834.822;-1756.741;1;118;-70;-61.3;44.3;44.8;-70;-70.4;27.4;0.0;
20/02/2025 20:18:31;100;0;27.48;-4;-20.03;-45.32;275.1;17.60;76533;2834.826;-1756.739;1;128;-70;-61.3;44.3;44.6;-70;-70.4;27.4;0.0;
20/02/2025 20:18:51;100;0;41.11;-4;-19.89;-45.64;278.0;17.50;76511;2834.829;-1756.737;1;137;-70;-59.7;44.3;44.6;-70;-70.4;27.4;0.0;
20/02/2025 20:19:11;100;0;54.05;-4;-20.06;-45.49;280.8;17.50;76498;2834.831;-1756.734;1;146;-70;-61.3;44.3;44.8;-70;-70.4;27.4;0.0;
20/02/2025 20:19:31;100;0;63.62;-4;-20.54;-45.30;283.7;17.50;76495;2834.833;-1756.730;1;154;-70;-66.1;44.3;44.8;-70;-70.4;27.4;0.0;
20/02/2025 20:19:51;100;0;75.52;-4;-20.21;-45.33;286.6;17.40;76460;2834.834;-1756.727;1;162;-70;-61.3;44.3;44.6;-70;-69.9;27.5;0.0;
20/02/2025 20:20:11;100;0;89.27;-4;-19.92;-45.39;289.5;17.40;76473;2834.835;-1756.722;1;171;-70;-61.3;44.3;44.6;-70;-69.9;27.4;0.0;
20/02/2025 20:20:31;100;0;103.07;-4;-19.96;-45.37;292.4;17.30;76450;2834.834;-1756.719;1;178;-70;-61.3;44.3;44.8;-70;-70.4;27.4;0.0;
20/02/2025 20:20:51;100;0;116.03;-4;-20.14;-45.38;295.3;17.30;76437;2834.833;-1756.715;1;187;-70;-62.9;44.3;44.6;-65;-65.0;27.4;0.0;
20/02/2025 20:21:11;100;0;127.68;-4;-20.15;-42.29;298.2;17.20;76442;2834.831;-1756.712;1;195;-70;-61.3;44.3;44.6;-60;-60.0;27.4;0.0;
20/02/2025 20:21:31;100;0;142.23;-4;-19.76;-40.10;301.0;17.20;76431;2834.829;-1756.710;1;202;-70;-61.3;44.3;44.6;-49;-49.2;27.4;0.0;
20/02/2025 20:21:51;100;0;155.12;-4;-19.88;-34.94;303.8;17.10;76428;2834.826;-1756.708;1;210;-70;-62.9;44.3;44.8;-43;-42.9;27.4;0.0;
20/02/2025 20:22:11;100;0;168.35;-4;-19.96;-31.63;306.7;17.10;76410;2834.823;-1756.708;1;218;-70;-61.3;44.3;44.6;-37;-36.6;27.4;0.0;
20/02/2025 20:22:31;100;0;180.65;-4;-20.11;-28.52;309.5;17.00;76407;2834.819;-1756.708;1;227;-70;-61.3;44.3;44.6;-32;-32.0;27.4;0.0;
20/02/2025 20:22:51;100;0;193.44;-4;-20.20;-26.19;312.4;17.00;76404;2834.816;-1756.709;1;237;-70;-62.9;44.3;44.8;-29;-28.9;27.4;0.0;
20/02/2025 20:23:11;100;0;206.54;-4;-20.33;-24.58;315.2;16.90;76390;2834.813;-1756.711;1;250;-70;-61.3;44.3;44.8;-29;-28.4;27.4;0.0;
20/02/2025 20:23:31;100;0;217.96;-4;-20.23;-24.56;318.2;16.90;76385;2834.811;-1756.714;1;277;-70;-61.3;44.3;44.8;-50;-50.1;27.4;0.0;
20/02/2025 20:23:51;100;0;229.16;-4;-19.98;-35.99;321.1;16.80;76385;2834.808;-1756.718;1;354;-70;-59.7;44.3;44.8;-70;-69.9;27.4;0.0;
20/02/2025 20:24:11;100;0;241.40;-4;-20.30;-45.25;323.9;16.80;76373;2834.807;-1756.722;1;39;-70;-61.3;44.3;44.8;-70;-69.9;27.4;0.0;
20/02/2025 20:24:31;100;0;253.88;-4;-20.46;-45.42;326.9;16.80;76373;2834.806;-1756.726;1;57;-70;-61.3;44.3;44.8;-70;-69.9;27.4;0.0;
20/02/2025 20:24:51;100;0;266.54;-4;-20.30;-45.35;330.0;16.70;76368;2834.806;-1756.731;1;68;-70;-61.3;44.3;44.8;-70;-69.9;27.4;0.0;
20/02/2025 20:25:11;100;0;279.59;-4;-20.33;-45.37;332.9;16.70;76359;2834.807;-1756.735;1;77;-70;-61.3;44.3;44.6;-70;-70.4;27.4;0.0;
20/02/2025 20:25:31;100;0;292.43;-4;-20.27;-45.28;336.0;16.70;76360;2834.809;-1756.740;1;85;-70;-61.3;44.3;44.8;-70;-70.4;27.4;0.0;
20/02/2025 20:25:51;100;0;305.42;-4;-20.33;-45.46;339.0;16.60;76341;2834.812;-1756.743;1;92;-70;-61.3;44.3;44.8;-70;-70.4;27.4;0.0;
20/02/2025 20:26:11;100;0;317.43;-4;-20.14;-45.21;341.9;16.60;76337;2834.815;-1756.747;1;99;-70;-62.9;44.3;44.8;-70;-69.9;27.4;0.0;
20/02/2025 20:26:31;100;0;327.78;-4;-20.60;-45.26;345.0;16.50;76331;2834.819;-1756.749;1;106;-70;-61.3;44.3;44.8;-70;-70.4;27.4;0.0;
20/02/2025 20:26:51;100;0;339.47;-4;-20.45;-45.35;348.0;16.50;76321;2834.823;-1756.751;1;112;-70;-62.9;44.3;44.8;-70;-69.9;27.4;0.0;
20/02/2025 20:27:11;100;0;350.64;-4;-20.08;-45.24;351.1;16.40;76301;2834.827;-1756.752;1;118;-70;-61.3;44.3;44.8;-70;-70.4;27.4;0.0;
20/02/2025 20:27:31;100;0;2.44;-4;-20.24;-45.32;354.1;16.40;76307;2834.831;-1756.752;1;124;-70;-61.3;44.3;44.8;-70;-70.4;27.4;0.0;
20/02/2025 20:27:51;100;0;14.96;-4;-19.98;-45.40;357.0;16.40;76297;2834.835;-1756.751;1;129;-70;-59.7;44.3;44.8;-70;-69.9;27.4;0.0;
20/02/2025 20:28:11;100;0;27.87;-4;-19.87;-45.32;359.9;16.30;76290;2834.839;-1756.750;1;135;-70;-61.3;44.3;44.8;-70;-69.9;27.4;0.0;
20/02/2025 20:28:31;100;0;41.71;-4;-19.85;-45.37;362.8;16.30;76283;2834.842;-1756.747;1;140;-70;-61.3;44.3;44.8;-70;-70.4;27.4;0.0;
20/02/2025 20:28:51;100;0;52.93;-4;-20.08;-45.30;365.5;16.30;76279;2834.844;-1756.744;1;145;-70;-61.3;44.3;44.6;-70;-70.4;27.4;0.0;
20/02/2025 20:29:11;100;0;65.86;-4;-20.23;-45.40;368.4;16.20;76263;2834.846;-1756.740;1;151;-70;-62.9;44.3;44.8;-70;-69.9;27.4;0.0;
20/02/2025 20:29:31;100;0;78.98;-4;-19.91;-45.35;371.4;16.20;76252;2834.847;-1756.736;1;156;-70;-61.3;44.3;44.8;-70;-70.4;27.4;0.0;
20/02/2025 20:29:51;100;0;90.99;-4;-20.13;-45.16;374.2;16.10;76244;2834.847;-1756.732;1;161;-70;-61.3;44.3;44.8;-68;-68.1;27.4;0.0;
20/02/2025 20:30:11;100;0;104.07;-4;-19.96;-43.92;377.1;16.10;76238;2834.847;-1756.729;1;165;-70;-61.3;44.3;44.8;-56;-56.0;27.4;0.0;
20/02/2025 20:30:31;100;0;116.37;-4;-19.85;-37.98;379.8;16.10;76229;2834.846;-1756.725;1;169;-70;-62.9;44.3;44.8;-44;-44.2;27.4;0.0;
20/02/2025 20:30:51;100;0;129.86;-4;-19.49;-32.31;382.5;16.00;76217;2834.844;-1756.722;1;173;-70;-61.3;44.3;44.8;-33;-32.5;27.4;0.0;
20/02/2025 20:31:11;100;0;142.34;-4;-20.76;-27.02;385.3;16.00;76208;2834.841;-1756.720;1;176;-70;-61.3;44.3;44.8;-19;-19.0;27.4;0.0;
20/02/2025 20:31:31;100;0;153.47;-4;-20.32;-19.82;388.2;15.90;76207;2834.838;-1756.719;1;179;-70;-61.3;44.3;44.9;-6;-5.9;27.4;0.0;
20/02/2025 20:31:51;100;0;164.63;-4;-20.47;-13.89;391.0;15.90;76192;2834.835;-1756.718;1;180;-70;-61.3;44.3;44.8;10;9.9;27.4;0.0;
20/02/2025 20:32:11;100;0;169.32;-4;-22.00;-6.24;393.7;15.90;76186;2834.833;-1756.717;1;181;-70;-61.3;43.7;43.6;14;14.4;27.4;0.0;
20/02/2025 20:32:31;100;0;165.32;-4;-19.65;-4.41;396.2;15.80;76177;2834.830;-1756.717;1;183;-70;-61.3;43.7;43.4;8;8.1;27.4;0.0;
20/02/2025 20:32:51;100;0;167.35;-4;-19.02;-7.85;398.7;15.80;76167;2834.827;-1756.716;1;186;-70;-61.3;43.7;43.4;8;8.1;27.4;0.0;
20/02/2025 20:33:11;100;0;171.67;-4;-19.18;-7.56;401.2;15.70;76155;2834.824;-1756.716;1;188;-70;-62.9;43.7;43.4;11;11.3;27.4;0.0;
20/02/2025 20:33:31;100;0;172.19;-4;-18.40;-5.39;403.6;15.70;76149;2834.821;-1756.716;1;192;-70;-61.3;44.2;44.5;6;5.9;27.4;0.0;
20/02/2025 20:33:51;100;0;179.80;-4;-20.23;-9.07;406.2;15.60;76145;2834.818;-1756.716;1;195;-70;-61.3;44.2;44.5;12;12.2;27.4;0.0;
20/02/2025 20:34:11;100;0;180.01;-4;-21.03;-5.21;408.8;15.60;76135;2834.815;-1756.716;1;201;-70;-61.3;44.2;44.6;6;5.9;27.4;0.0;
20/02/2025 20:34:31;100;0;183.06;-4;-20.41;-8.94;411.4;15.60;76128;2834.812;-1756.717;1;223;-70;-61.3;44.2;44.5;-23;-23.0;27.4;0.0;
20/02/2025 20:34:51;100;0;190.17;-4;-19.30;-23.16;413.9;15.50;76114;2834.809;-1756.718;1;347;-70;-61.3;44.2;44.5;-70;-69.9;27.4;0.0;
20/02/2025 20:35:11;100;0;199.31;-4;-19.05;-44.54;416.5;15.50;76115;2834.806;-1756.719;1;12;-70;-61.3;44.2;44.6;-70;-69.9;27.4;0.0;
20/02/2025 20:35:31;100;0;209.49;-4;-19.34;-44.99;419.0;15.50;76126;2834.804;-1756.721;1;22;-70;-61.3;44.2;44.5;-70;-69.9;27.4;0.0;
20/02/2025 20:35:51;100;0;219.60;-4;-19.51;-45.36;421.4;15.40;76111;2834.802;-1756.724;1;29;-70;-61.3;44.2;44.5;-70;-69.9;27.4;0.0;
20/02/2025 20:36:11;100;0;233.61;-4;-20.45;-45.36;423.8;15.40;76102;2834.800;-1756.727;1;36;-70;-64.5;44.2;44.5;-70;-69.9;27.4;0.0;
20/02/2025 20:36:31;100;0;242.81;-4;-20.16;-45.28;426.4;15.40;76103;2834.799;-1756.730;1;43;-70;-62.9;44.2;44.6;-70;-69.9;27.4;0.0;
20/02/2025 20:36:51;100;0;255.02;-4;-19.62;-45.16;429.0;15.30;76108;2834.799;-1756.734;1;50;-70;-61.3;44.2;44.5;-70;-69.9;27.4;0.0;
20/02/2025 20:37:11;100;0;268.34;-4;-19.79;-45.05;431.6;15.30;76088;2834.799;-1756.738;1;56;-70;-61.3;44.2;44.5;-70;-69.9;27.4;0.0;
20/02/2025 20:37:31;100;0;281.20;-4;-19.60;-45.22;434.3;15.30;76083;2834.800;-1756.742;1;63;-70;-61.3;44.2;44.5;-70;-69.9;27.4;0.0;
20/02/2025 20:37:51;100;0;295.46;-4;-19.38;-45.29;436.9;15.30;76078;2834.802;-1756.746;1;70;-70;-61.3;44.2;44.5;-70;-69.9;27.4;0.0;
20/02/2025 20:38:11;100;0;307.35;-4;-19.41;-45.30;439.5;15.20;76074;2834.804;-1756.750;1;77;-70;-61.3;44.2;44.5;-70;-69.9;27.4;0.0;
20/02/2025 20:38:31;100;0;319.77;-4;-19.00;-45.26;442.0;15.20;76070;2834.807;-1756.752;1;83;-70;-61.3;44.5;44.5;-70;-69.9;27.4;0.0;
20/02/2025 20:38:51;100;0;328.14;-4;-20.84;-45.29;444.5;15.10;76059;2834.810;-1756.754;1;89;-70;-61.3;44.5;44.5;-70;-69.9;27.4;0.0;
20/02/2025 20:39:11;100;0;341.18;-4;-20.08;-44.96;447.1;15.10;76057;2834.814;-1756.756;1;95;-70;-62.9;44.5;44.5;-70;-69.9;27.4;0.0;
20/02/2025 20:39:31;100;0;352.93;-4;-19.29;-45.15;449.7;15.10;76061;2834.817;-1756.757;1;101;-70;-61.3;44.5;44.5;-70;-69.9;27.4;0.0;
20/02/2025 20:39:51;100;0;4.58;-4;-19.62;-45.07;452.1;15.10;76051;2834.821;-1756.757;1;106;-70;-61.3;44.5;44.5;-70;-69.9;27.4;0.0;
20/02/2025 20:40:11;100;0;16.32;-4;-18.98;-45.39;454.5;15.00;76042;2834.824;-1756.756;1;112;-70;-61.3;44.8;44.8;-70;-69.9;27.4;0.0;
20/02/2025 20:40:31;100;0;26.88;-4;-20.30;-45.18;456.8;15.00;76037;2834.827;-1756.755;1;117;-70;-61.3;44.8;45.1;-70;-69.9;27.4;0.0;
20/02/2025 20:40:51;100;0;38.95;-4;-20.37;-45.20;459.2;15.00;76033;2834.830;-1756.753;1;122;-70;-61.3;44.8;44.9;-70;-69.9;27.4;0.0;
20/02/2025 20:41:11;100;0;50.91;-4;-20.50;-45.27;461.6;15.00;76031;2834.832;-1756.750;1;127;-70;-62.9;44.8;45.1;-70;-69.9;27.4;0.0;
20/02/2025 20:41:31;100;0;63.35;-4;-20.43;-45.25;464.1;14.90;76033;2834.834;-1756.747;1;132;-70;-61.3;44.8;45.1;-70;-69.9;27.4;0.0;
20/02/2025 20:41:51;100;0;76.09;-4;-20.51;-45.27;466.5;14.90;76004;2834.835;-1756.744;1;136;-70;-61.3;44.8;44.9;-59;-59.1;27.4;0.0;
20/02/2025 20:42:11;100;0;88.74;-4;-20.36;-39.62;469.1;14.90;76013;2834.836;-1756.741;1;141;-70;-61.3;44.8;45.1;-49;-49.2;27.4;0.0;
20/02/2025 20:42:31;100;0;100.25;-4;-20.37;-34.78;471.5;14.80;76004;2834.835;-1756.738;1;145;-70;-61.3;44.8;45.1;-39;-38.4;27.4;0.0;
20/02/2025 20:42:51;100;0;109.03;-4;-20.86;-29.60;473.9;14.80;75992;2834.835;-1756.735;1;149;-70;-62.9;44.8;45.1;-33;-32.9;27.4;0.0;
20/02/2025 20:43:11;100;0;117.35;-4;-20.33;-26.70;476.5;14.80;75987;2834.834;-1756.732;1;152;-70;-62.9;44.8;45.1;-24;-23.9;27.4;0.0;
20/02/2025 20:43:31;100;0;127.11;-4;-20.63;-22.30;479.0;14.70;75982;2834.832;-1756.729;1;155;-70;-62.9;44.8;45.2;-14;-14.0;27.4;0.0;
20/02/2025 20:43:51;100;0;133.91;-4;-21.43;-17.42;481.5;14.70;75971;2834.830;-1756.727;1;159;-70;-61.3;44.8;45.2;-9;-8.6;27.4;0.0;
20/02/2025 20:44:11;100;0;138.02;-4;-21.41;-15.00;484.2;14.70;75963;2834.828;-1756.724;1;162;-70;-61.3;44.8;45.2;-5;-5.0;27.4;0.0;
20/02/2025 20:44:31;100;0;142.47;-4;-21.31;-13.44;486.8;14.60;75979;2834.826;-1756.722;1;165;-70;-61.3;44.8;45.2;-3;-3.2;27.4;0.0;
20/02/2025 20:44:51;100;0;147.14;-4;-21.74;-12.72;489.4;14.60;75961;2834.824;-1756.721;1;169;-70;-62.9;44.8;45.2;0;0.5;27.4;0.0;
20/02/2025 20:45:11;100;0;149.80;-4;-21.98;-11.04;492.0;14.60;75957;2834.822;-1756.719;1;174;-70;-61.3;44.8;45.2;-4;-4.1;27.4;0.0;
20/02/2025 20:45:31;100;0;154.82;-4;-21.55;-13.75;494.6;14.60;75961;2834.819;-1756.718;1;180;-70;-62.9;44.8;45.2;-4;-4.5;27.4;0.0;
20/02/2025 20:45:51;100;0;159.10;-4;-21.70;-13.78;497.2;14.50;75951;2834.817;-1756.717;1;189;-70;-62.9;44.8;45.2;-11;-10.8;27.4;0.0;
20/02/2025 20:46:11;100;0;165.17;-4;-21.35;-17.06;499.9;14.50;75944;2834.814;-1756.716;1;210;-70;-61.3;44.8;45.2;-31;-31.1;27.4;0.0;
20/02/2025 20:46:31;100;0;174.76;-4;-20.89;-27.12;502.6;14.50;75948;2834.811;-1756.716;1;280;-70;-61.3;44.8;45.2;-70;-69.9;27.4;0.0;
20/02/2025 20:46:51;100;0;186.74;-4;-20.82;-45.23;505.4;14.50;75946;2834.808;-1756.717;1;344;-70;-61.3;44.8;45.2;-70;-70.4;27.4;0.0;
20/02/2025 20:47:11;100;0;200.03;-4;-20.98;-45.34;508.1;14.40;75931;2834.805;-1756.719;1;4;-70;-61.3;44.8;45.2;-70;-69.9;27.4;0.0;
20/02/2025 20:47:31;100;0;213.46;-4;-20.40;-45.25;511.0;14.40;75932;2834.802;-1756.721;1;17;-70;-61.3;44.8;45.2;-70;-69.9;27.4;0.0;
20/02/2025 20:47:51;100;0;227.25;-4;-20.79;-45.12;513.8;14.40;75920;2834.800;-1756.724;1;27;-70;-61.3;44.8;45.2;-70;-69.9;27.4;0.0;
20/02/2025 20:48:11;100;0;241.47;-4;-21.47;-45.10;516.7;14.40;75920;2834.799;-1756.728;1;36;-70;-62.9;44.8;45.1;-70;-69.9;27.4;0.0;
20/02/2025 20:48:32;100;0;254.96;-4;-20.49;-44.86;519.3;14.30;75914;2834.798;-1756.732;1;44;-70;-61.3;44.8;45.2;-70;-69.9;27.4;0.0;
20/02/2025 20:48:52;100;0;271.19;-4;-20.82;-45.42;521.9;14.30;75914;2834.799;-1756.736;1;52;-70;-61.3;44.8;45.1;-70;-69.9;27.4;0.0;
20/02/2025 20:49:12;100;0;283.73;-4;-20.92;-45.24;524.6;14.30;75909;2834.800;-1756.740;1;60;-70;-61.3;44.8;45.2;-70;-69.9;27.4;0.0;
20/02/2025 20:49:32;100;0;294.38;-4;-20.89;-45.17;527.3;14.30;75906;2834.802;-1756.744;1;67;-70;-61.3;44.8;45.2;-70;-69.9;27.4;0.0;
20/02/2025 20:49:52;100;0;305.30;-4;-21.46;-45.17;529.9;14.20;75897;2834.804;-1756.747;1;74;-70;-62.9;44.8;45.1;-70;-69.9;27.4;0.0;
20/02/2025 20:50:12;100;0;314.09;-4;-21.06;-45.14;532.5;14.20;75887;2834.806;-1756.750;1;81;-70;-62.9;44.8;45.2;-70;-69.9;27.4;0.0;
20/02/2025 20:50:32;100;0;325.92;-4;-21.04;-45.07;535.2;14.20;75885;2834.809;-1756.752;1;87;-70;-61.3;44.8;45.2;-70;-69.9;27.4;0.0;
20/02/2025 20:50:52;100;0;338.30;-4;-21.31;-45.44;537.8;14.10;75862;2834.813;-1756.754;1;93;-70;-61.3;44.8;45.2;-70;-69.9;27.4;0.0;
20/02/2025 20:51:12;100;0;351.52;-4;-20.90;-45.30;540.5;14.10;75876;2834.816;-1756.754;1;100;-70;-61.3;44.8;45.2;-70;-69.9;27.4;0.0;
20/02/2025 20:51:32;100;0;4.53;-4;-20.76;-45.18;543.2;14.10;75861;2834.820;-1756.754;1;106;-70;-61.3;44.8;45.1;-70;-69.9;27.4;0.0;
20/02/2025 20:51:52;100;0;18.73;-4;-20.46;-45.22;546.0;14.10;75866;2834.824;-1756.753;1;113;-70;-62.9;44.8;45.1;-70;-69.9;27.4;0.0;
20/02/2025 20:52:12;100;0;30.82;-4;-20.99;-45.28;548.7;14.10;75863;2834.827;-1756.752;1;119;-70;-61.3;44.8;45.2;-70;-69.9;27.4;0.0;
20/02/2025 20:52:32;100;0;43.32;-4;-20.92;-45.24;551.4;14.00;75852;2834.830;-1756.749;1;125;-70;-61.3;44.8;45.2;-70;-69.9;27.4;0.0;
20/02/2025 20:52:52;100;0;55.35;-4;-20.98;-45.17;554.2;14.00;75848;2834.832;-1756.746;1;131;-70;-59.7;44.8;45.2;-70;-69.9;27.4;0.0;
20/02/2025 20:53:12;100;0;69.06;-4;-20.48;-45.02;557.2;14.00;75843;2834.834;-1756.743;1;137;-70;-62.9;44.8;45.2;-68;-68.1;27.4;0.0;
20/02/2025 20:53:32;100;0;81.65;-4;-20.41;-43.94;560.0;13.90;75841;2834.835;-1756.739;1;143;-70;-61.3;44.8;45.2;-60;-60.0;27.4;0.0;
20/02/2025 20:53:52;100;0;95.00;-4;-20.33;-40.03;562.8;13.90;75829;2834.835;-1756.735;1;148;-70;-61.3;44.8;45.2;-49;-49.2;27.4;0.0;
20/02/2025 20:54:12;100;0;108.74;-4;-20.54;-35.00;565.4;13.90;75824;2834.834;-1756.732;1;153;-70;-61.3;44.8;45.1;-37;-37.0;27.4;0.0;
20/02/2025 20:54:32;100;0;123.82;-4;-20.09;-28.92;568.2;13.90;75820;2834.833;-1756.729;1;157;-70;-61.3;44.8;45.2;-22;-22.1;27.4;0.0;
20/02/2025 20:54:52;100;0;133.58;-4;-20.46;-21.48;570.9;13.80;75805;2834.831;-1756.726;1;160;-70;-61.3;44.8;45.2;-11;-10.8;27.4;0.0;
20/02/2025 20:55:12;100;0;139.86;-4;-21.22;-16.28;573.7;13.80;75811;2834.828;-1756.724;1;164;-70;-61.3;44.8;45.4;-6;-5.9;27.4;0.0;
20/02/2025 20:55:32;100;0;143.34;-4;-21.43;-14.00;576.4;13.80;75806;2834.826;-1756.722;1;168;-70;-61.3;44.8;45.4;-6;-5.9;27.4;0.0;
20/02/2025 20:55:52;100;0;146.78;-4;-21.21;-14.14;579.2;13.80;75791;2834.823;-1756.720;1;173;-70;-61.3;44.8;45.2;-8;-8.1;27.4;0.0;
20/02/2025 20:56:12;100;0;150.93;-4;-21.33;-15.43;582.1;13.70;75796;2834.821;-1756.718;1;180;-70;-61.3;44.8;45.2;-11;-10.8;27.4;0.0;
20/02/2025 20:56:32;100;0;157.34;-4;-20.21;-16.92;584.9;13.70;75778;2834.818;-1756.717;1;189;-70;-61.3;44.8;45.2;-15;-14.9;27.4;0.0;
20/02/2025 20:56:52;100;0;164.50;-4;-21.38;-18.77;587.4;13.70;75788;2834.815;-1756.716;1;203;-70;-62.9;44.8;45.2;-23;-23.0;27.4;0.0;
20/02/2025 20:57:12;100;0;173.54;-4;-20.56;-22.74;590.2;13.70;75771;2834.812;-1756.716;1;243;-70;-61.3;44.8;45.2;-60;-60.0;27.4;0.0;
20/02/2025 20:57:32;100;0;184.91;-4;-20.15;-40.49;593.0;13.60;75768;2834.809;-1756.716;1;329;-70;-61.3;44.8;45.2;-70;-69.9;27.4;0.0;
20/02/2025 20:57:52;100;0;197.04;-4;-20.97;-45.08;595.8;13.60;75768;2834.806;-1756.718;1;358;-70;-62.9;44.8;45.2;-70;-69.9;27.4;0.0;
20/02/2025 20:58:12;100;0;209.39;-4;-20.87;-45.12;598.7;13.60;75769;2834.803;-1756.720;1;13;-70;-61.3;44.8;45.2;-70;-69.9;27.4;0.0;
20/02/2025 20:58:32;100;0;222.82;-4;-21.01;-45.23;601.8;13.60;75756;2834.801;-1756.723;1;24;-70;-62.9;44.8;45.2;-70;-69.9;27.4;0.0;
20/02/2025 20:58:52;100;0;233.92;-4;-20.86;-45.11;604.7;13.60;75768;2834.799;-1756.727;1;33;-70;-61.3;44.8;45.2;-70;-69.9;27.4;0.0;
20/02/2025 20:59:12;100;0;249.27;-4;-19.80;-45.04;607.6;13.50;75748;2834.798;-1756.731;1;41;-70;-61.3;44.8;45.2;-70;-69.9;27.4;0.0;
20/02/2025 20:59:32;100;0;261.76;-4;-19.91;-45.22;610.5;13.50;75749;2834.798;-1756.736;1;49;-70;-61.3;44.8;45.2;-70;-69.9;27.4;0.0;
20/02/2025 20:59:52;100;0;273.73;-4;-20.58;-44.82;613.4;13.50;75750;2834.798;-1756.740;1;57;-70;-62.9;44.8;45.1;-70;-70.4;27.4;0.0;
20/02/2025 21:00:12;100;0;282.91;-4;-21.59;-45.21;616.2;13.50;75748;2834.799;-1756.744;1;63;-70;-62.9;44.8;45.2;-70;-69.9;27.4;0.0;
20/02/2025 21:00:32;100;0;296.48;-4;-20.58;-45.32;619.4;13.40;75729;2834.801;-1756.748;1;70;-70;-62.9;44.8;45.2;-70;-69.9;27.4;0.0;
20/02/2025 21:00:52;100;0;309.15;-4;-20.63;-45.22;622.5;13.40;75722;2834.804;-1756.752;1;77;-70;-61.3;44.8;45.2;-70;-69.9;27.4;0.0;
20/02/2025 21:01:12;100;0;321.94;-4;-20.89;-45.22;625.6;13.40;75726;2834.808;-1756.755;1;84;-70;-61.3;44.8;45.2;-70;-70.4;27.4;0.0;
20/02/2025 21:01:32;100;0;335.40;-4;-20.80;-45.13;628.6;13.40;75726;2834.811;-1756.757;1;91;-70;-61.3;44.8;45.2;-70;-69.9;27.4;0.0;
20/02/2025 21:01:52;100;0;346.68;-4;-20.38;-44.93;631.7;13.40;75719;2834.816;-1756.758;1;97;-70;-61.3;44.8;45.2;-70;-69.9;27.4;0.0;
20/02/2025 21:02:12;100;0;359.69;-4;-20.14;-44.93;634.5;13.30;75709;2834.820;-1756.758;1;104;-70;-61.3;44.8;45.2;-70;-69.9;27.4;0.0;
20/02/2025 21:02:32;100;0;11.69;-4;-20.26;-45.31;637.4;13.30;75710;2834.824;-1756.758;1;110;-70;-61.3;44.8;45.2;-70;-69.9;27.4;0.0;
20/02/2025 21:02:52;100;0;23.36;-4;-20.54;-45.28;640.3;13.30;75706;2834.827;-1756.756;1;116;-70;-61.3;44.8;45.2;-70;-69.9;27.4;0.0;
20/02/2025 21:03:12;100;0;36.45;-4;-20.50;-45.28;643.2;13.30;75704;2834.831;-1756.754;1;122;-70;-64.5;44.8;45.2;-70;-69.9;27.4;0.0;
20/02/2025 21:03:32;100;0;49.43;-4;-20.14;-45.30;645.9;13.20;75697;2834.833;-1756.751;1;127;-70;-62.9;44.8;45.2;-70;-69.9;27.4;0.0;
20/02/2025 21:03:52;100;0;63.18;-4;-20.37;-45.32;648.6;13.20;75687;2834.835;-1756.748;1;132;-70;-61.3;44.8;45.2;-70;-69.9;27.4;0.0;
20/02/2025 21:04:12;100;0;75.59;-4;-20.54;-45.39;651.4;13.20;75683;2834.836;-1756.744;1;137;-70;-61.3;44.8;45.2;-60;-60.0;27.4;0.0;
20/02/2025 21:04:32;100;0;89.41;-4;-20.49;-40.16;654.1;13.20;75673;2834.837;-1756.741;1;142;-70;-61.3;44.8;45.2;-50;-50.1;27.4;0.0;
20/02/2025 21:04:52;100;0;102.29;-4;-20.03;-35.17;656.7;13.10;75670;2834.836;-1756.737;1;146;-70;-61.3;44.8;45.1;-38;-37.5;27.4;0.0;
20/02/2025 21:05:12;100;0;113.26;-4;-20.05;-29.07;659.4;13.10;75677;2834.835;-1756.734;1;150;-70;-61.3;44.8;45.2;-29;-28.9;27.4;0.0;
20/02/2025 21:05:32;100;0;123.96;-4;-20.46;-24.68;662.0;13.10;75679;2834.834;-1756.731;1;153;-70;-62.9;44.8;45.4;-16;-15.8;27.4;0.0;
20/02/2025 21:05:52;100;0;133.41;-4;-20.77;-18.37;664.7;13.10;75677;2834.832;-1756.729;1;156;-70;-61.3;44.8;45.2;-5;-5.0;27.4;0.0;
20/02/2025 21:06:12;100;0;140.17;-4;-20.81;-13.64;667.3;13.00;75653;2834.830;-1756.726;1;158;-70;-61.3;44.8;45.4;3;3.2;27.4;0.0;
20/02/2025 21:06:32;100;0;144.50;-4;-21.56;-9.87;670.1;13.00;75651;2834.827;-1756.725;1;161;-70;-61.3;44.8;45.2;6;5.9;27.4;0.0;
20/02/2025 21:06:52;100;0;147.63;-4;-22.41;-8.69;672.8;13.00;75664;2834.825;-1756.723;1;163;-70;-61.3;44.1;44.0;8;8.1;27.4;0.0;
20/02/2025 21:07:12;100;0;150.31;-4;-18.87;-7.51;675.6;13.00;75649;2834.822;-1756.721;1;167;-70;-61.3;44.4;44.6;6;5.9;27.4;0.0;
20/02/2025 21:07:32;100;0;153.30;-4;-19.83;-9.12;678.3;13.00;75649;2834.819;-1756.719;1;172;-70;-62.9;44.4;44.6;4;4.1;27.4;0.0;
20/02/2025 21:07:52;100;0;156.12;-4;-20.65;-9.62;681.1;12.90;75646;2834.817;-1756.718;1;179;-70;-61.3;44.4;44.8;-1;-0.9;27.4;0.0;
20/02/2025 21:08:12;100;0;162.31;-4;-19.93;-12.20;684.2;12.90;75640;2834.813;-1756.717;1;202;-70;-61.3;44.4;44.8;-26;-26.2;27.4;0.0;
20/02/2025 21:08:32;100;0;170.94;-4;-18.93;-24.99;687.2;12.90;75638;2834.810;-1756.716;1;317;-70;-62.9;44.8;44.6;-70;-69.9;27.4;0.0;
20/02/2025 21:08:52;100;0;181.77;-4;-18.99;-45.23;690.3;12.90;75633;2834.806;-1756.717;1;349;-70;-61.3;45.1;45.2;-70;-69.9;27.4;0.0;
20/02/2025 21:09:12;100;0;193.83;-4;-20.28;-45.30;693.5;12.80;75631;2834.802;-1756.718;1;1;-70;-61.3;45.1;45.4;-70;-69.9;27.4;0.0;
20/02/2025 21:09:32;100;0;206.43;-4;-20.23;-45.09;696.5;12.80;75629;2834.799;-1756.720;1;10;-70;-62.9;45.1;45.4;-70;-69.9;27.4;0.0;
20/02/2025 21:09:52;100;0;218.52;-4;-20.63;-45.18;699.5;12.80;75619;2834.797;-1756.723;1;18;-70;-62.9;45.1;45.4;-70;-69.9;27.4;0.0;
20/02/2025 21:10:12;100;0;228.97;-4;-21.13;-45.07;702.6;12.80;75620;2834.794;-1756.727;1;25;-70;-61.3;45.1;45.4;-70;-69.9;27.4;0.0;
20/02/2025 21:10:32;100;0;241.73;-4;-20.43;-45.39;705.7;12.80;75612;2834.793;-1756.731;1;33;-70;-61.3;45.1;45.4;-70;-69.9;27.4;0.0;
20/02/2025 21:10:52;100;0;249.45;-4;-19.93;-45.01;708.7;12.80;75604;2834.792;-1756.736;1;39;-70;-61.3;45.1;45.4;-70;-69.9;27.4;0.0;
20/02/2025 21:11:12;100;0;260.29;-4;-22.22;-44.45;711.7;12.70;75597;2834.792;-1756.740;1;45;-70;-61.3;44.4;44.3;-70;-69.9;27.4;0.0;
20/02/2025 21:11:32;100;0;274.66;-4;-15.60;-45.13;714.8;12.70;75582;2834.792;-1756.745;1;52;-70;-61.3;45.7;45.7;-70;-69.9;27.4;0.0;
20/02/2025 21:11:52;100;0;284.98;-4;-22.04;-45.06;717.5;12.70;75582;2834.794;-1756.749;1;57;-70;-61.3;45.1;45.1;-70;-69.9;27.4;0.0;
20/02/2025 21:12:12;100;0;300.39;-4;-20.05;-45.74;720.3;12.70;75573;2834.796;-1756.753;1;63;-70;-61.3;45.1;44.8;-70;-69.9;27.4;0.0;
20/02/2025 21:12:32;100;0;310.64;-4;-18.14;-44.45;722.9;12.70;75571;2834.798;-1756.756;1;69;-70;-61.3;45.7;45.7;-70;-69.9;27.4;0.0;
20/02/2025 21:12:52;100;0;323.45;-4;-22.29;-44.32;725.4;12.60;75564;2834.801;-1756.758;1;75;-70;-61.3;45.0;44.8;-70;-69.9;27.4;0.0;
20/02/2025 21:13:12;100;0;335.30;-4;-17.90;-45.21;727.9;12.60;75557;2834.805;-1756.760;1;80;-70;-61.3;45.6;45.7;-70;-69.9;27.4;0.0;
20/02/2025 21:13:32;100;0;345.46;-4;-22.97;-44.68;730.3;12.60;75558;2834.808;-1756.761;1;85;-70;-61.3;44.7;44.6;-70;-69.9;27.4;0.0;
20/02/2025 21:13:52;100;0;359.07;-4;-18.52;-45.28;732.8;12.60;75547;2834.811;-1756.762;1;91;-70;-61.3;45.1;45.2;-70;-69.9;27.4;0.0;
20/02/2025 21:14:12;100;0;8.52;-4;-20.64;-44.70;735.4;12.50;75548;2834.815;-1756.761;1;96;-70;-61.3;45.1;45.5;-70;-69.9;27.4;0.0;
20/02/2025 21:14:32;100;0;19.84;-4;-20.28;-45.49;737.9;12.50;75532;2834.818;-1756.760;1;101;-70;-61.3;45.1;45.5;-70;-69.9;27.4;20.5;
20/02/2025 21:14:35;118;0;20.14;-4;-20.05;-45.05;738.3;12.50;75536;2834.819;-1756.760;1;102;310;-58.1;25.3;25.2;7;7.2;27.4;19.7;
20/02/2025 21:14:45;118;0;57.25;-4;-5.21;-8.46;739.1;12.50;75525;2834.820;-1756.759;1;103;310;69.4;25.3;25.0;7;7.7;26.5;-1.0;
20/02/2025 21:14:55;118;0;57.25;-4;17.40;-8.75;739.0;12.50;75242;2834.820;-1756.759;1;104;310;195.2;25.3;24.7;7;7.7;26.3;-1.0;
20/02/2025 21:15:05;118;0;54.48;-4;23.72;-8.62;738.2;12.50;74990;2834.820;-1756.759;1;105;310;314.5;25.3;25.3;7;7.7;26.3;-1.0;
20/02/2025 21:15:15;118;0;29.72;-4;19.18;-7.67;737.2;12.50;74754;2834.822;-1756.758;1;107;310;314.5;25.3;25.5;7;7.7;27.4;-1.0;
20/02/2025 21:15:25;118;0;25.81;-4;19.37;-8.33;736.0;12.50;74758;2834.823;-1756.757;1;110;310;312.9;25.3;25.5;7;7.7;27.4;-1.0;
20/02/2025 21:15:45;117;0;24.53;-4;16.78;-7.79;733.9;12.50;74752;2834.826;-1756.756;1;115;310;314.5;25.3;25.5;7;7.7;27.4;-1.0;
20/02/2025 21:16:05;117;0;21.69;-4;17.52;-7.60;731.8;12.50;74747;2834.830;-1756.755;1;120;310;312.9;24.5;24.4;70;69.9;27.4;-1.0;
20/02/2025 21:16:25;117;0;30.78;-4;25.82;26.14;729.2;12.50;74755;2834.832;-1756.754;1;124;310;314.5;26.3;26.2;70;69.9;27.4;-1.0;
20/02/2025 21:16:45;117;0;36.17;-4;19.53;24.98;725.7;12.40;74743;2834.836;-1756.751;1;131;310;314.5;26.3;26.4;70;69.9;27.4;-1.0;
20/02/2025 21:17:05;117;0;44.72;-4;19.33;24.50;722.5;12.40;74757;2834.840;-1756.748;1;137;310;312.9;26.3;26.4;70;69.9;27.4;-1.0;
20/02/2025 21:17:25;117;0;49.38;-4;18.72;25.54;720.0;12.40;74750;2834.842;-1756.745;1;142;310;312.9;25.9;25.9;70;70.4;27.4;-1.0;
20/02/2025 21:17:45;117;0;62.07;-4;17.97;24.59;717.4;12.30;74750;2834.844;-1756.742;1;147;310;312.9;25.3;25.3;70;69.9;27.4;-1.0;
20/02/2025 21:18:05;117;0;74.61;-4;21.08;24.94;714.8;12.30;74752;2834.845;-1756.739;1;152;310;312.9;25.3;24.7;70;69.9;27.4;-1.0;
20/02/2025 21:18:25;117;0;83.96;-4;23.13;24.94;712.2;12.30;74750;2834.846;-1756.736;1;156;310;312.9;26.2;26.2;70;70.4;27.4;-1.0;
20/02/2025 21:18:45;117;0;104.50;-4;20.62;25.82;709.1;12.30;74751;2834.845;-1756.732;1;161;310;314.5;26.2;26.4;70;70.4;27.4;-1.0;
20/02/2025 21:19:05;117;0;114.82;-4;20.56;25.03;706.4;12.30;74750;2834.844;-1756.728;1;165;310;312.9;26.2;26.2;70;70.4;27.4;-1.0;
20/02/2025 21:19:25;117;0;123.37;-4;20.20;24.76;703.5;12.30;74755;2834.843;-1756.725;1;169;310;312.9;26.2;26.2;70;69.9;27.4;-1.0;
20/02/2025 21:19:45;117;0;132.98;-4;18.72;24.96;700.7;12.20;74760;2834.841;-1756.722;1;173;310;312.9;25.8;25.9;70;70.4;27.4;-1.0;
20/02/2025 21:20:05;117;0;144.67;-4;19.16;24.76;698.0;12.20;74750;2834.838;-1756.720;1;176;310;312.9;25.8;25.8;59;59.1;27.4;-1.0;
20/02/2025 21:20:25;117;0;153.49;-4;18.67;18.28;695.3;12.20;74762;2834.835;-1756.719;1;179;310;312.9;25.4;25.2;47;46.9;27.4;-1.0;
20/02/2025 21:20:45;117;0;157.57;-4;20.87;12.15;693.0;12.20;74749;2834.833;-1756.718;1;181;310;312.9;25.4;25.8;42;42.0;27.4;-1.0;
20/02/2025 21:21:05;117;0;161.14;-4;20.28;9.61;690.7;12.20;74750;2834.830;-1756.717;1;183;310;312.9;25.4;25.8;40;40.2;27.4;-1.0;
20/02/2025 21:21:25;117;0;164.24;-4;20.34;8.54;688.2;12.20;74761;2834.828;-1756.716;1;186;310;312.9;25.4;25.8;40;39.7;27.4;-1.0;
20/02/2025 21:21:45;117;0;167.18;-4;19.50;8.25;685.9;12.10;74759;2834.825;-1756.716;1;188;310;312.9;25.4;25.8;38;37.9;27.4;-1.0;
20/02/2025 21:22:05;117;0;170.81;-4;19.51;7.19;683.4;12.10;74757;2834.822;-1756.715;1;192;310;312.9;25.4;25.6;38;37.9;27.4;-1.0;
20/02/2025 21:22:25;117;0;172.06;-4;19.63;7.55;681.1;12.10;74755;2834.820;-1756.715;1;196;310;314.5;25.4;25.6;42;42.0;27.4;-1.0;
20/02/2025 21:22:45;117;0;176.96;-4;19.97;9.48;679.0;12.10;74744;2834.817;-1756.715;1;201;310;312.9;25.4;25.8;40;40.2;27.4;-1.0;
20/02/2025 21:23:05;117;0;178.89;-4;19.35;8.61;676.8;12.10;74742;2834.815;-1756.715;1;211;310;312.9;25.4;25.8;54;54.2;27.4;-1.0;
20/02/2025 21:23:25;117;0;184.18;-4;20.13;16.40;674.8;12.10;74750;2834.813;-1756.716;1;228;330;332.3;25.4;25.8;69;69.0;27.4;-1.0;
20/02/2025 21:23:45;117;0;195.24;-4;19.75;24.63;672.7;12.10;74698;2834.810;-1756.717;1;298;330;333.9;25.4;25.8;69;69.0;27.4;-1.0;
20/02/2025 21:24:05;117;0;208.23;-4;19.66;24.72;670.6;12.10;74707;2834.808;-1756.719;1;11;330;335.5;25.4;25.8;69;69.5;27.4;-1.0;
20/02/2025 21:24:25;117;0;222.71;-4;19.93;24.81;668.4;12.10;74699;2834.807;-1756.721;1;32;330;333.9;25.4;25.8;69;69.5;27.4;-1.0;
20/02/2025 21:24:45;117;0;236.07;-4;19.20;24.37;666.2;12.10;74705;2834.805;-1756.724;1;44;330;333.9;25.4;25.8;69;69.5;27.4;-1.0;
20/02/2025 21:25:05;117;0;252.34;-4;19.62;24.67;664.1;12.00;74713;2834.805;-1756.727;1;53;330;333.9;25.4;25.8;69;69.5;27.4;-1.0;
20/02/2025 21:25:25;117;0;266.80;-4;19.68;24.88;661.9;12.00;74705;2834.805;-1756.731;1;62;330;332.3;25.4;25.8;69;69.5;27.4;-1.0;
20/02/2025 21:25:45;117;0;280.89;-4;19.77;24.54;659.6;12.00;74708;2834.806;-1756.734;1;71;330;332.3;25.4;25.8;69;69.5;27.4;-1.0;
20/02/2025 21:26:05;117;0;294.44;-4;19.88;24.79;657.3;12.00;74701;2834.808;-1756.738;1;79;330;333.9;25.4;25.8;69;69.5;27.4;-1.0;
20/02/2025 21:26:25;117;0;308.17;-4;19.62;24.58;655.0;12.00;74698;2834.810;-1756.740;1;87;330;333.9;25.4;25.8;69;69.5;27.4;-1.0;
20/02/2025 21:26:45;117;0;321.82;-4;19.58;24.67;652.6;12.00;74696;2834.813;-1756.743;1;94;330;332.3;25.4;25.8;69;69.5;27.4;-1.0;
20/02/2025 21:27:05;117;0;332.89;-4;19.51;24.59;650.3;12.00;74704;2834.816;-1756.745;1;101;330;332.3;25.4;25.8;69;69.5;27.4;-1.0;
20/02/2025 21:27:25;117;0;343.19;-4;19.63;24.85;648.0;12.00;74696;2834.819;-1756.746;1;108;330;333.9;25.4;25.8;69;69.5;27.4;-1.0;
20/02/2025 21:27:45;117;0;354.89;-4;20.18;24.63;645.6;12.00;74701;2834.822;-1756.746;1;114;330;333.9;25.4;25.8;69;69.5;27.4;-1.0;
20/02/2025 21:28:06;117;0;4.24;-4;20.11;24.63;642.9;12.00;74693;2834.826;-1756.746;1;121;330;332.3;25.4;25.8;69;69.5;27.4;-1.0;
20/02/2025 21:28:26;117;0;14.49;-4;19.75;24.73;640.2;12.00;74703;2834.830;-1756.746;1;128;330;333.9;25.4;25.8;69;69.5;27.4;-1.0;
20/02/2025 21:28:46;117;0;24.77;-4;19.69;24.71;637.6;12.00;74698;2834.833;-1756.744;1;134;330;333.9;25.4;25.8;69;69.5;27.4;-1.0;
20/02/2025 21:29:06;117;0;36.14;-4;19.14;24.76;635.1;12.00;74698;2834.836;-1756.742;1;140;330;333.9;25.4;25.8;69;69.5;27.4;-1.0;
20/02/2025 21:29:26;117;0;47.50;-4;19.20;24.65;632.4;12.00;74696;2834.839;-1756.740;1;146;330;333.9;25.4;25.8;69;69.5;27.4;-1.0;
20/02/2025 21:29:46;117;0;61.53;-4;19.78;24.63;629.9;11.90;74686;2834.841;-1756.737;1;151;330;332.3;25.4;25.8;69;69.5;27.4;-1.0;
20/02/2025 21:30:06;117;0;75.12;-4;19.32;24.82;627.5;12.00;74696;2834.842;-1756.733;1;157;330;333.9;25.4;25.9;69;69.5;27.4;-1.0;
20/02/2025 21:30:26;117;0;88.53;-4;19.80;24.76;625.2;12.00;74708;2834.842;-1756.730;1;161;330;333.9;25.4;25.8;69;69.5;27.4;-1.0;
20/02/2025 21:30:46;117;0;102.30;-4;19.58;24.49;622.8;11.90;74703;2834.842;-1756.727;1;166;330;333.9;25.4;25.8;69;69.5;27.4;-1.0;
20/02/2025 21:31:06;117;0;115.30;-4;19.93;24.81;620.3;12.00;74699;2834.841;-1756.724;1;170;330;333.9;25.4;25.8;69;69.5;27.4;-1.0;
20/02/2025 21:31:26;117;0;127.88;-4;19.30;24.66;617.8;11.90;74695;2834.839;-1756.721;1;174;330;333.9;25.4;25.8;69;69.5;27.4;-1.0;
20/02/2025 21:31:46;117;0;138.94;-4;19.34;24.55;615.5;11.90;74692;2834.837;-1756.719;1;178;330;332.3;25.4;25.8;69;69.5;27.4;-1.0;
20/02/2025 21:32:06;117;0;152.64;-4;19.30;24.76;613.1;11.90;74690;2834.835;-1756.718;1;180;330;330.6;25.4;25.6;51;51.0;27.4;-1.0;
20/02/2025 21:32:26;117;0;160.67;-4;20.12;14.07;610.8;11.90;74685;2834.833;-1756.717;1;182;330;333.9;25.4;25.8;41;41.1;27.4;-1.0;
20/02/2025 21:32:46;117;0;163.41;-4;19.54;9.18;608.3;12.00;74696;2834.830;-1756.716;1;185;330;333.9;25.4;25.8;41;40.6;27.4;-1.0;
20/02/2025 21:33:06;117;0;168.29;-4;19.14;9.06;605.9;11.90;74692;2834.827;-1756.716;1;187;330;333.9;25.4;25.8;36;36.1;27.4;-1.0;
20/02/2025 21:33:26;117;0;168.09;-4;19.06;6.56;603.6;11.90;74692;2834.824;-1756.715;1;190;330;332.3;25.4;25.8;40;40.2;27.4;-1.0;
20/02/2025 21:33:46;117;0;172.72;-4;19.04;8.87;601.3;11.90;74703;2834.822;-1756.715;1;193;330;333.9;25.4;25.8;36;36.1;27.4;-1.0;
20/02/2025 21:34:06;117;0;175.19;-4;19.39;6.57;599.1;11.90;74696;2834.819;-1756.715;1;198;330;333.9;25.4;25.8;40;40.2;27.4;-1.0;
20/02/2025 21:34:26;117;0;180.20;-4;19.57;8.85;596.8;11.90;74698;2834.817;-1756.715;1;203;330;333.9;25.4;25.8;40;40.2;27.4;-1.0;
20/02/2025 21:34:46;117;0;184.66;-4;19.24;8.91;594.5;11.90;74691;2834.814;-1756.716;1;212;330;333.9;25.4;25.8;46;46.0;27.4;-1.0;
20/02/2025 21:35:06;117;0;190.42;-4;19.79;11.97;592.2;11.90;74692;2834.811;-1756.717;1;251;330;333.9;25.4;25.8;70;69.9;27.4;-1.0;
20/02/2025 21:35:26;117;0;200.31;-4;19.50;25.10;589.8;11.90;74698;2834.809;-1756.718;1;5;330;333.9;25.4;25.8;70;70.4;27.4;-1.0;
20/02/2025 21:35:46;117;0;213.99;-4;19.16;25.24;587.3;11.90;74698;2834.806;-1756.721;1;26;330;332.3;25.4;25.8;70;70.4;27.4;-1.0;
20/02/2025 21:36:06;117;0;228.26;-4;19.43;25.18;584.8;11.90;74698;2834.805;-1756.724;1;38;330;333.9;25.4;25.8;70;69.9;27.4;-1.0;
20/02/2025 21:36:26;117;0;241.98;-4;18.92;25.12;582.2;11.90;74693;2834.803;-1756.727;1;47;330;333.9;25.1;25.0;70;70.4;27.4;-1.0;
20/02/2025 21:36:46;117;0;255.00;-4;20.80;24.92;579.6;11.90;74698;2834.803;-1756.731;1;55;330;333.9;25.1;24.7;70;70.4;27.4;-1.0;
20/02/2025 21:37:06;117;0;267.62;-4;21.34;25.22;576.7;11.90;74693;2834.803;-1756.735;1;62;330;333.9;25.1;24.4;70;70.4;27.4;-1.0;
20/02/2025 21:37:26;117;0;281.14;-4;21.73;24.53;573.8;11.90;74693;2834.804;-1756.740;1;70;330;333.9;25.1;24.4;70;70.4;27.4;-1.0;
20/02/2025 21:37:46;117;0;293.14;-4;22.21;25.09;570.9;11.90;74698;2834.806;-1756.743;1;77;330;333.9;25.8;25.8;70;70.4;27.4;-1.0;
20/02/2025 21:38:06;117;0;305.11;-4;19.54;25.39;568.2;11.90;74685;2834.808;-1756.747;1;84;330;332.3;25.8;25.9;70;70.4;27.4;-1.0;
20/02/2025 21:38:26;117;0;316.90;-4;18.74;25.20;565.6;11.90;74693;2834.811;-1756.750;1;90;330;333.9;25.4;25.5;70;69.9;27.4;-1.0;
20/02/2025 21:38:46;117;0;329.86;-4;18.77;25.04;563.2;11.90;74704;2834.814;-1756.752;1;96;330;333.9;25.0;25.0;70;70.4;27.4;-1.0;
20/02/2025 21:39:06;117;0;341.42;-4;20.40;24.95;560.8;11.90;74693;2834.817;-1756.753;1;102;330;333.9;25.0;24.7;70;70.4;27.4;-1.0;
20/02/2025 21:39:26;117;0;352.82;-4;20.88;25.14;558.3;11.90;74698;2834.821;-1756.754;1;107;330;333.9;25.0;24.7;70;70.4;27.4;-1.0;
20/02/2025 21:39:46;117;0;3.22;-4;20.85;25.01;555.7;11.90;74702;2834.824;-1756.754;1;113;330;333.9;25.0;24.7;70;70.4;27.4;-1.0;
20/02/2025 21:40:06;117;0;15.04;-4;21.03;25.10;553.1;11.90;74703;2834.828;-1756.753;1;118;330;333.9;25.0;24.7;70;70.4;27.4;-1.0;
20/02/2025 21:40:26;117;0;25.76;-4;20.84;24.98;550.6;11.90;74717;2834.831;-1756.752;1;124;330;332.3;25.0;24.7;70;70.4;27.4;-1.0;
20/02/2025 21:40:46;117;0;35.91;-4;20.54;25.09;548.0;11.90;74714;2834.834;-1756.750;1;129;330;333.9;25.0;24.7;70;69.9;27.4;-1.0;
20/02/2025 21:41:06;117;0;45.93;-4;20.98;25.31;545.5;11.90;74717;2834.836;-1756.748;1;134;330;333.9;25.0;24.7;70;69.9;27.4;-1.0;
20/02/2025 21:41:26;117;0;55.83;-4;20.55;25.44;542.9;11.90;74703;2834.839;-1756.745;1;139;330;333.9;25.0;24.7;70;70.4;27.4;-1.0;
20/02/2025 21:41:46;117;0;65.96;-4;20.87;25.14;540.4;12.00;74721;2834.840;-1756.742;1;144;330;333.9;25.0;24.7;70;70.4;27.4;-1.0;
20/02/2025 21:42:06;117;0;77.06;-4;20.70;24.73;537.8;12.00;74720;2834.841;-1756.739;1;149;330;333.9;25.0;24.7;70;70.4;27.4;-1.0;
20/02/2025 21:42:26;117;0;89.72;-4;21.03;25.10;535.3;12.00;74723;2834.842;-1756.736;1;153;330;333.9;25.0;24.7;70;70.4;27.4;-1.0;
20/02/2025 21:42:46;117;0;103.69;-4;20.97;24.98;532.6;12.00;74734;2834.841;-1756.732;1;158;330;333.9;25.0;24.7;70;70.4;27.4;-1.0;
20/02/2025 21:43:06;117;0;116.41;-4;20.74;24.90;530.0;12.00;74745;2834.840;-1756.729;1;161;330;333.9;25.0;24.7;70;70.4;27.4;-1.0;
20/02/2025 21:43:26;117;0;128.64;-4;20.67;25.03;527.7;12.00;74748;2834.839;-1756.727;1;164;330;333.9;25.0;25.0;67;66.3;27.4;-1.0;
20/02/2025 21:43:46;117;0;141.58;-4;21.45;22.97;525.1;12.00;74743;2834.837;-1756.725;1;167;330;333.9;25.0;25.2;51;51.0;27.4;-1.0;
20/02/2025 21:44:06;117;0;148.24;-4;20.83;14.33;522.7;12.00;74739;2834.834;-1756.723;1;169;330;333.9;25.0;25.0;42;42.0;27.4;-1.0;
20/02/2025 21:44:26;117;0;152.18;-4;20.54;9.36;520.3;12.00;74743;2834.832;-1756.722;1;171;330;330.6;25.0;25.2;39;38.8;27.4;-1.0;
20/02/2025 21:44:46;117;0;156.39;-4;20.59;7.94;517.8;12.00;74738;2834.830;-1756.721;1;172;330;333.9;25.0;25.2;34;33.8;27.4;-1.0;
20/02/2025 21:45:06;117;0;159.90;-4;20.53;5.55;515.4;12.00;74734;2834.827;-1756.720;1;174;330;333.9;25.0;25.0;32;32.0;27.4;-1.0;
20/02/2025 21:45:26;117;0;160.37;-4;20.16;4.31;513.0;12.00;74740;2834.825;-1756.719;1;176;330;333.9;25.0;25.2;32;31.6;27.4;-1.0;
20/02/2025 21:45:46;117;0;160.73;-4;19.51;4.23;510.6;12.00;74745;2834.822;-1756.718;1;179;330;335.5;25.0;25.2;37;37.0;27.4;-1.0;
20/02/2025 21:46:06;117;0;162.28;-4;20.22;7.21;508.2;12.00;74739;2834.820;-1756.717;1;184;330;333.9;25.0;25.2;40;40.2;27.4;-1.0;
20/02/2025 21:46:26;117;0;165.29;-4;19.82;8.91;505.8;12.10;74747;2834.817;-1756.717;1;191;330;333.9;25.0;25.2;47;46.9;27.4;-1.0;
20/02/2025 21:46:46;117;0;170.85;-4;20.31;12.80;503.6;12.00;74741;2834.814;-1756.716;1;202;330;333.9;25.0;25.2;53;52.8;27.4;-1.0;
20/02/2025 21:47:06;117;0;177.66;-4;20.49;15.63;501.1;12.10;74750;2834.812;-1756.717;1;241;330;333.9;25.0;25.2;70;69.9;27.4;-1.0;
20/02/2025 21:47:26;117;0;189.79;-4;20.33;25.33;498.7;12.10;74765;2834.809;-1756.717;1;344;330;333.9;25.0;25.2;70;69.9;27.4;-1.0;
20/02/2025 21:47:46;117;0;202.65;-4;20.41;25.29;496.3;12.10;74765;2834.807;-1756.719;1;11;330;333.9;25.0;25.2;70;70.4;27.4;-1.0;
20/02/2025 21:48:06;117;0;216.83;-4;20.58;25.41;493.9;12.10;74760;2834.805;-1756.721;1;24;330;333.9;25.0;25.2;70;70.4;27.4;-1.0;
20/02/2025 21:48:26;117;0;230.80;-4;20.72;25.48;491.4;12.10;74751;2834.803;-1756.724;1;34;330;333.9;25.0;25.2;70;70.4;27.4;-1.0;
20/02/2025 21:48:46;117;0;244.03;-4;20.64;25.29;488.9;12.10;74753;2834.802;-1756.728;1;43;330;333.9;25.0;25.2;70;70.4;27.4;-1.0;
20/02/2025 21:49:06;117;0;257.44;-4;20.77;25.32;486.4;12.10;74764;2834.802;-1756.731;1;51;330;333.9;25.0;25.2;70;70.4;27.4;-1.0;
20/02/2025 21:49:26;117;0;270.19;-4;20.77;25.33;483.8;12.10;74767;2834.802;-1756.735;1;59;330;333.9;25.0;25.2;70;70.4;27.4;-1.0;
20/02/2025 21:49:46;117;0;282.07;-4;20.78;25.32;481.2;12.10;74757;2834.803;-1756.739;1;67;330;333.9;25.0;25.2;70;70.4;27.4;-1.0;
20/02/2025 21:50:06;117;0;293.85;-4;20.59;25.45;478.5;12.10;74766;2834.805;-1756.743;1;74;330;333.9;25.0;25.2;70;70.4;27.4;-1.0;
20/02/2025 21:50:26;117;0;303.77;-4;20.51;25.27;475.8;12.10;74768;2834.807;-1756.746;1;81;330;333.9;25.0;25.0;70;70.4;27.4;-1.0;
20/02/2025 21:50:46;117;0;314.52;-4;20.46;25.46;473.0;12.10;74770;2834.810;-1756.749;1;87;330;333.9;25.0;25.2;70;70.4;27.4;-1.0;
20/02/2025 21:51:06;117;0;326.25;-4;20.17;25.36;470.4;12.20;74777;2834.813;-1756.752;1;94;330;333.9;25.0;25.2;70;70.4;27.4;-1.0;
20/02/2025 21:51:26;117;0;335.72;-4;20.14;25.30;467.7;12.20;74780;2834.816;-1756.754;1;100;330;333.9;25.0;25.2;70;70.4;27.4;-1.0;
20/02/2025 21:51:46;117;0;345.73;-4;20.44;25.25;465.0;12.20;74790;2834.820;-1756.755;1;106;330;333.9;25.0;25.2;70;70.4;27.4;-1.0;
20/02/2025 21:52:06;117;0;356.33;-4;20.64;25.49;462.4;12.20;74790;2834.824;-1756.755;1;111;330;333.9;25.0;25.2;70;70.4;27.4;-1.0;
20/02/2025 21:52:26;117;0;6.04;-4;20.45;25.39;459.7;12.20;74785;2834.828;-1756.755;1;117;330;333.9;25.0;25.2;70;70.4;27.4;-1.0;
20/02/2025 21:52:46;117;0;17.18;-4;20.09;25.21;457.0;12.20;74789;2834.831;-1756.754;1;122;330;330.6;25.0;25.2;70;70.4;27.4;-1.0;
20/02/2025 21:53:06;117;0;28.13;-4;19.90;25.28;454.6;12.20;74797;2834.834;-1756.753;1;127;330;333.9;25.0;25.2;70;70.4;27.4;-1.0;
20/02/2025 21:53:26;117;0;39.06;-4;20.42;25.35;452.1;12.20;74791;2834.837;-1756.751;1;132;330;333.9;25.0;25.2;70;70.4;27.4;-1.0;
20/02/2025 21:53:46;117;0;50.82;-4;20.24;25.34;449.7;12.20;74803;2834.839;-1756.748;1;137;330;335.5;25.0;25.2;70;70.4;27.4;-1.0;
20/02/2025 21:54:06;117;0;62.54;-4;20.65;25.04;447.2;12.20;74803;2834.841;-1756.746;1;141;330;333.9;25.0;25.2;70;70.4;27.4;-1.0;
20/02/2025 21:54:26;117;0;75.98;-4;20.63;25.43;444.8;12.30;74802;2834.842;-1756.742;1;145;330;333.9;25.0;25.2;70;70.4;27.4;-1.0;
20/02/2025 21:54:46;117;0;88.59;-4;20.40;25.25;442.2;12.30;74799;2834.843;-1756.739;1;150;330;333.9;25.0;25.2;70;70.4;27.4;-1.0;
20/02/2025 21:55:06;117;0;102.12;-4;20.53;25.40;439.8;12.30;74799;2834.842;-1756.736;1;153;330;335.5;25.0;25.2;70;70.4;27.4;-1.0;
20/02/2025 21:55:26;117;0;117.45;-4;20.08;25.68;437.3;12.30;74813;2834.841;-1756.733;1;157;330;333.9;25.0;25.2;70;70.4;27.4;-1.0;
20/02/2025 21:55:46;117;0;130.46;-4;20.39;25.31;434.9;12.30;74795;2834.840;-1756.731;1;159;330;333.9;25.0;25.2;59;58.7;27.4;-1.0;
20/02/2025 21:56:06;117;0;142.90;-4;20.34;18.92;432.6;12.30;74806;2834.838;-1756.729;1;161;330;333.9;25.0;25.2;39;38.8;27.4;-1.0;
20/02/2025 21:56:26;117;0;145.30;-4;21.25;7.91;430.4;12.30;74809;2834.836;-1756.727;1;162;330;333.9;25.0;25.2;37;36.6;27.4;-1.0;
20/02/2025 21:56:46;117;0;145.47;-4;20.17;6.96;428.0;12.30;74813;2834.834;-1756.725;1;164;330;333.9;25.0;25.0;40;40.2;27.4;-1.0;
20/02/2025 21:57:06;117;0;151.66;-4;20.13;9.01;425.7;12.30;74820;2834.831;-1756.724;1;165;330;332.3;25.0;25.2;33;32.9;27.4;-1.0;
20/02/2025 21:57:26;117;0;151.96;-4;19.66;5.02;423.3;12.30;74817;2834.829;-1756.723;1;167;330;335.5;25.0;25.2;33;32.9;27.4;-1.0;
20/02/2025 21:57:46;117;0;154.76;-4;19.75;5.04;420.9;12.30;74823;2834.827;-1756.722;1;169;330;333.9;25.0;25.2;33;32.9;27.4;-1.0;
20/02/2025 21:58:06;117;0;157.30;-4;19.36;4.97;418.6;12.40;74828;2834.824;-1756.720;1;171;330;333.9;25.0;25.0;33;32.9;27.4;-1.0;
20/02/2025 21:58:26;117;0;158.31;-4;19.18;4.98;416.5;12.40;74827;2834.822;-1756.720;1;173;330;333.9;25.0;25.2;33;32.9;27.4;-1.0;
20/02/2025 21:58:46;117;0;158.24;-4;19.66;5.21;414.5;12.40;74835;2834.820;-1756.719;1;176;330;333.9;25.0;25.2;36;36.1;27.4;-1.0;
20/02/2025 21:59:06;117;0;159.09;-4;20.08;7.05;412.4;12.40;74845;2834.818;-1756.718;1;181;330;333.9;25.0;25.0;41;41.1;27.4;-1.0;
20/02/2025 21:59:26;117;0;159.02;-4;19.69;9.47;410.3;12.40;74840;2834.816;-1756.717;1;191;330;333.9;25.0;25.2;56;56.0;27.4;-1.0;
20/02/2025 21:59:46;117;0;164.94;-4;19.93;17.20;408.1;12.40;74850;2834.813;-1756.716;1;213;330;333.9;25.0;25.2;70;70.4;27.4;-1.0;
20/02/2025 22:00:06;117;0;174.68;-4;19.97;25.36;405.9;12.40;74857;2834.811;-1756.716;1;283;330;335.5;25.0;25.2;70;70.4;27.4;-1.0;
20/02/2025 22:00:26;117;0;184.67;-4;20.30;25.34;403.6;12.40;74871;2834.808;-1756.717;1;341;330;333.9;25.0;25.2;70;70.4;27.4;-1.0;
20/02/2025 22:00:46;117;0;196.30;-4;20.70;25.38;401.2;12.50;74867;2834.806;-1756.718;1;1;330;333.9;25.0;25.2;70;70.4;27.4;-1.0;
20/02/2025 22:01:06;117;0;209.13;-4;19.75;25.35;398.8;12.50;74864;2834.803;-1756.720;1;13;330;335.5;25.0;25.2;70;70.4;27.4;-1.0;
20/02/2025 22:01:26;117;0;222.56;-4;19.75;25.31;396.6;12.50;74878;2834.802;-1756.722;1;23;330;333.9;25.0;25.2;70;70.4;27.4;-1.0;
20/02/2025 22:01:46;117;0;236.01;-4;20.07;25.32;394.4;12.50;74878;2834.800;-1756.725;1;31;330;335.5;25.0;25.2;70;70.4;27.4;-1.0;
20/02/2025 22:02:06;117;0;248.82;-4;19.98;25.32;392.3;12.50;74896;2834.800;-1756.729;1;40;330;333.9;25.0;25.2;70;70.4;27.4;-1.0;
20/02/2025 22:02:27;117;0;262.14;-4;20.20;25.58;390.1;12.50;74890;2834.800;-1756.732;1;47;330;333.9;25.0;25.2;70;70.4;27.4;-1.0;
20/02/2025 22:02:47;117;0;275.81;-4;20.14;25.37;387.8;12.60;74888;2834.800;-1756.736;1;56;330;333.9;25.0;25.2;70;70.4;27.4;-1.0;
20/02/2025 22:03:07;117;0;289.49;-4;20.04;25.32;385.4;12.60;74897;2834.802;-1756.739;1;63;330;333.9;25.0;25.2;70;70.4;27.4;-1.0;
20/02/2025 22:03:27;117;0;302.38;-4;20.15;25.47;383.2;12.60;74892;2834.804;-1756.742;1;71;330;335.5;25.0;25.2;70;70.4;27.4;-1.0;
20/02/2025 22:03:47;117;0;314.35;-4;20.09;25.34;380.9;12.60;74893;2834.806;-1756.745;1;78;330;333.9;25.0;25.2;70;70.4;27.4;-1.0;
20/02/2025 22:04:07;117;0;325.62;-4;20.21;25.32;378.5;12.60;74894;2834.809;-1756.747;1;85;330;333.9;25.0;25.2;70;70.4;27.4;-1.0;
20/02/2025 22:04:27;117;0;333.43;-4;20.10;25.36;376.2;12.60;74895;2834.812;-1756.749;1;92;330;333.9;25.0;25.2;70;70.4;27.4;-1.0;
20/02/2025 22:04:47;117;0;343.00;-4;20.28;25.49;373.8;12.60;74903;2834.815;-1756.750;1;98;330;333.9;25.0;25.2;70;70.4;27.4;-1.0;
20/02/2025 22:05:07;117;0;352.92;-4;20.36;25.46;371.2;12.70;74920;2834.819;-1756.751;1;105;330;333.9;25.0;25.2;70;70.4;27.4;-1.0;
20/02/2025 22:05:27;117;0;2.10;-4;20.05;25.41;368.8;12.70;74925;2834.822;-1756.751;1;112;330;333.9;25.0;25.2;70;70.4;27.4;-1.0;
20/02/2025 22:05:47;117;0;11.91;-4;19.72;25.47;366.2;12.70;74925;2834.826;-1756.750;1;118;330;333.9;25.0;25.2;70;70.4;27.4;-1.0;
20/02/2025 22:06:07;117;0;21.36;-4;19.64;25.27;363.7;12.70;74937;2834.829;-1756.749;1;124;330;335.5;25.0;25.2;70;70.4;27.4;-1.0;
20/02/2025 22:06:27;117;0;33.24;-4;19.95;25.37;361.2;12.70;74934;2834.832;-1756.748;1;129;330;335.5;25.0;25.2;70;70.4;27.4;-1.0;
20/02/2025 22:06:47;117;0;44.17;-4;19.82;25.42;358.7;12.70;74944;2834.835;-1756.745;1;135;330;335.5;25.0;25.2;70;70.4;27.4;-1.0;
20/02/2025 22:07:07;117;0;55.58;-4;19.93;25.38;356.2;12.70;74940;2834.837;-1756.742;1;141;330;335.5;25.0;25.2;70;70.4;27.4;-1.0;
20/02/2025 22:07:27;117;0;66.61;-4;19.92;25.30;353.7;12.80;74951;2834.839;-1756.739;1;146;330;333.9;25.0;25.2;70;70.4;27.4;-1.0;
20/02/2025 22:07:47;117;0;77.61;-4;19.98;25.15;351.2;12.80;74954;2834.840;-1756.736;1;151;330;332.3;25.0;25.2;70;70.4;27.4;-1.0;
20/02/2025 22:08:07;117;0;88.59;-4;19.98;25.26;348.7;12.80;74937;2834.840;-1756.733;1;156;330;333.9;25.0;25.2;70;70.4;27.4;-1.0;
20/02/2025 22:08:27;117;0;99.65;-4;20.02;25.23;346.3;12.80;74949;2834.840;-1756.729;1;161;330;333.9;25.0;25.2;70;70.4;27.4;-1.0;
20/02/2025 22:08:47;117;0;111.06;-4;20.11;25.16;343.8;12.80;74961;2834.839;-1756.726;1;166;330;333.9;25.0;25.2;70;70.4;27.4;-1.0;
20/02/2025 22:09:07;117;0;124.19;-4;20.05;25.54;341.2;12.80;74961;2834.838;-1756.723;1;170;330;333.9;25.0;25.2;70;70.4;27.4;-1.0;
20/02/2025 22:09:27;117;0;139.62;-4;19.84;25.50;338.7;12.90;74973;2834.836;-1756.721;1;173;330;333.9;25.0;25.2;64;64.1;27.4;-1.0;
20/02/2025 22:09:47;117;0;151.58;-4;20.08;21.31;336.1;12.90;74971;2834.833;-1756.720;1;176;330;333.9;25.0;25.2;49;49.2;27.4;-1.0;
20/02/2025 22:10:07;117;0;158.75;-4;20.50;13.36;333.6;12.90;74982;2834.831;-1756.719;1;178;330;333.9;25.0;25.2;39;38.8;27.4;-1.0;
20/02/2025 22:10:27;117;0;160.79;-4;19.87;7.86;331.1;12.90;74995;2834.828;-1756.718;1;181;330;333.9;25.0;25.2;39;38.4;27.4;-1.0;
20/02/2025 22:10:47;117;0;164.27;-4;19.54;7.83;328.6;12.90;74986;2834.825;-1756.717;1;184;330;333.9;25.0;25.2;39;38.4;27.4;-1.0;
